~VERSION INFORMATION
 VERS.                 2.0:   CWLS LOG ASCII STANDARD -VERSION 2.0
 WRAP.                  NO:   ONE LINE PER DEPTH STEP
~WELL INFORMATION BLOCK
#MNEM.UNIT           DATA                    DESCRIPTION OF MNEMONIC
#---------    -------------------            -------------------------------
# Generated from Intellog Unique Number	CW_73_75/WELL/549
WELL.         AMOCO 59 MARTEN HILLS 06-21    : Well_name    - WELL
LOC .         00/06-21-075-25W4/0            : Location     - LOCATION
UWI .         00/06-21-075-25W4/0            : Uwi          - UNIQUE WELL ID
ENTR.         JAYE                           : Entered      - ENTERED BY
SRVC.         SCHLUMBERGER                   : Scn          - SERVICE COMPANY
DATE.         27 JAN 75                      : Date         - LOG DATE
STRT.M        445.008                        : top_depth    - START DEPTH
STOP.M        647.508                        : bot_depth    - STOP DEPTH
STEP.M        0.25                           : increment    - STEP LENGTH
 NULL. -999.2500:NULL Value
~CURVE INFORMATION BLOCK
#MNEM UNIT       ERCB CURVE CODE    CURVE DESCRIPTION
#-----------   ------------------   ----------------------------------
DEPT.M        00 001 00 00         : DEPTH        - DEPTH
ILD .OHMM     00 120 00 00         : RESD         - DEEP RESISTIVITY (DIL)
NPHI.V/V      00 330 00 00         : PHIN         - NEUTRON POROSITY (SANDSTONE)
DPHI.V/V      00 890 00 00         : PHID         - DENSITY POROSITY (SANDSTONE)
GR  .API      00 310 00 00         : GR           - GAMMA RAY
CALI.MM       00 280 01 00         : CAL          - CALIPER
~PARAMETER INFORMATION
#MNEM.UNIT           DATA             DESCRIPTION OF MNEMONIC
#---------         -----------     ------------------------------
GL  .M        724.51               : gl           - GROUND LEVEL ELEVATION
EREF.M        728.624              : kb           - ELEVATION OF DEPTH REFERENCE
DATM.M        724.51               : datum        - DATUM ELEVATION
TDD .M        647.7                : tdd          - TOTAL DEPTH DRILLER
RUN .         ONE                  : Run          - RUN NUMBER
MATR.         SANDSTONE            : Logunit      - NEUTRON MATRIX
TMAX.C        27.7778              : BHT          - MAXIMUM RECORDED TEMPERATURE
BHTD.M        648.005              : BHTDEP       - MAXIMUM RECORDED TEMPERATURE
RMT .C        17.2222              : MDTP         - TEMPERATURE OF MUD
MUDD.KG/M     0                    : MWT          - MUD DENSITY
NEUT.         1                    : NEUTRON      - NEUTRON TYPE
RESI.         0                    : RESIST       - RESISTIVITY TYPE
RM  .OHMM     4.33                 : RM           - RESISTIVITY OF MUD
RMC .OHMM     0                    : RMC          - RESISTIVITY OF MUD CAKE
RMF .OHMM     5.22                 : RMF          - RESISTIVITY OF MUD FILTRATE
SUFT.C        -17.7778             : SUFT         - SURFACE TEMPERATURE
~A  DEPTH     RESD     PHIN     PHID       GR      CAL
# ...
  627.508    2.838    0.443    0.160  102.699  228.699
  627.758    2.922    0.475    0.159  108.305  226.548
  628.008    3.099    0.517    0.175  107.035  225.214
  628.258    3.641    0.540    0.179  103.895  225.004
  628.508    4.110    0.511    0.167  100.574  224.691
  628.758    4.794    0.476    0.142   97.494  225.196
  629.008    5.855    0.455    0.121   94.536  225.496
  629.258    6.919    0.417    0.116   90.129  225.797
  629.508    8.912    0.387    0.119   83.129  225.995
  629.758   11.106    0.330    0.098   77.335  225.683
  630.008   14.650    0.299    0.152   71.965  225.370
  630.258   21.455    0.088    0.204   55.918  224.955
  630.508   30.624    0.065    0.305   42.224  224.540
  630.758   48.529    0.059    0.346   30.158  224.229
  631.008   64.605    0.066    0.397   26.656  223.815
  631.258   64.842    0.075    0.379   27.738  223.195
  631.508   64.841    0.082    0.364   28.337  222.679
  631.758   67.139    0.093    0.375   28.575  222.162
  632.008   68.633    0.098    0.384   28.813  221.850
  632.258   68.758    0.105    0.385   29.171  221.640
  632.508   66.646    0.111    0.387   29.529  221.429
  632.758   64.718    0.118    0.390   29.345  221.321
  633.008   62.960    0.124    0.383   29.643  221.109
  633.258   60.581    0.129    0.380   30.363  221.105
  633.508   57.653    0.136    0.378   30.902  220.894
  633.758   55.473    0.145    0.375   31.743  220.887
  634.008   53.377    0.158    0.364   32.523  220.474
  634.258   51.171    0.166    0.357   32.881  220.877
  634.508   49.599    0.158    0.356   32.878  221.074
  634.758   47.462    0.148    0.349   32.995  221.272
  635.008   45.501    0.160    0.349   33.233  221.879
  635.258   43.143    0.184    0.334   33.471  222.282
  635.508   41.058    0.182    0.313   33.889  222.786
  635.758   39.002    0.185    0.312   34.610  223.596
  636.008   36.914    0.202    0.335   36.234  224.510
  636.258   35.130    0.228    0.330   38.583  225.424
  636.508   33.126    0.260    0.308   40.871  226.132
  636.758   31.352    0.289    0.275   42.737  226.433
  637.008   30.278    0.338    0.258   44.242  226.223
  637.258   29.456    0.378    0.259   45.987  226.114
  637.508   28.239    0.380    0.258   47.431  226.108
  637.758   26.678    0.380    0.266   49.599  225.490
  638.008   24.973    0.387    0.249   51.947  223.543
  638.258   22.493    0.401    0.237   54.959  221.596
  638.508   18.689    0.394    0.247   58.695  220.773
  638.758   13.069    0.373    0.242   67.437  220.767
  639.008   11.080    0.344    0.209   92.282  221.987
  639.258   10.315    0.334    0.131  102.532  223.716
  639.508   10.221    0.355    0.111   97.824  225.345
  639.758   10.277    0.341    0.137   88.834  226.769
  640.008   10.410    0.329    0.173   76.888  226.456
  640.258   10.544    0.320    0.208   65.486  225.429
  640.508   10.700    0.337    0.228   76.036  224.198
  640.758   10.719    0.354    0.210   76.877  223.068
  641.008   10.524    0.357    0.177   77.054  222.040
  641.258   10.071    0.343    0.127   76.508  221.217
  641.508    9.324    0.322    0.105   75.841  221.008
  641.758    7.978    0.294    0.092   75.777  223.657
  642.008    8.037    0.339    0.082   76.196  226.918
  642.258    8.367    0.332    0.107   76.675  230.180
  642.508    8.760    0.312    0.128   76.732  231.707
  642.758    8.988    0.305    0.117   77.090  230.781
  643.008    9.120    0.318    0.112   77.147  228.324
  643.258    8.987    0.324    0.086   77.203  225.663
  643.508    8.413    0.327    0.106   77.260  225.044
  643.758    7.890    0.324    0.129   77.317  226.773
  644.008    7.318    0.321    0.145   77.374  228.402
  644.258    6.850    0.318    0.159   77.370  230.030
  644.508    6.296    0.284    0.149   77.246  210.211
  644.758    5.629    0.255    0.138   77.303  165.984
  645.008    5.080    0.121    0.142   77.239  153.518
  645.258    4.729    0.163    0.153   77.235  151.980
  645.508    4.435    0.304    0.199   77.050  157.898
  645.758    4.354    0.433    0.248   77.047  166.266
  646.008    4.338    0.435    0.317   76.863  172.489
  646.258    4.330    0.435    0.338   76.799  176.976
  646.508    4.338    0.436    0.376   76.493  178.605
  646.758    4.330    0.439    0.371   76.369  174.412
  647.008    4.346    0.442    0.367   76.366  166.235
  647.258    4.394    0.448    0.370   73.709  159.898
  647.508    4.475    0.454    0.376   54.405  140.998
