~VERSION INFORMATION
 VERS.                 2.0:   CWLS LOG ASCII STANDARD -VERSION 2.0
 WRAP.                  NO:   ONE LINE PER DEPTH STEP
~WELL INFORMATION BLOCK
#MNEM.UNIT           DATA                    DESCRIPTION OF MNEMONIC
#---------    -------------------            -------------------------------
# Generated from Intellog Unique Number	CS_77_79/WELL/919
WELL.         NOVALTA WINEFRED               : Well_name    - WELL
LOC .         00/08-17-078-03W4/0            : Location     - LOCATION
UWI .         00/08-17-078-03W4/0            : Uwi          - UNIQUE WELL ID
ENTR.         JHS                            : Entered      - ENTERED BY
SRVC.         SCHLUMBERGER                   : Scn          - SERVICE COMPANY
STRT.M        150                            : top_depth    - START DEPTH
STOP.M        430                            : bot_depth    - STOP DEPTH
STEP.M        0.25                           : increment    - STEP LENGTH
 NULL. -999.2500:NULL Value
~CURVE INFORMATION BLOCK
#MNEM UNIT       ERCB CURVE CODE    CURVE DESCRIPTION
#-----------   ------------------   ----------------------------------
DEPT.M        00 001 00 00         : DEPTH        - DEPTH
DPHI.V/V      00 890 00 00         : PHID         - DENSITY POROSITY (LIMESTONE)
NPHI.V/V      00 330 00 00         : PHIN         - NEUTRON POROSITY (LIMESTONE)
GR  .API      00 310 00 00         : GR           - GAMMA RAY
ILD .OHMM     00 120 00 00         : RESD         - DEEP RESISTIVITY (DIL)
RHOB.KG/M3    00 350 00 00         : DENS         - BULK DENSITY
~PARAMETER INFORMATION
#MNEM.UNIT           DATA             DESCRIPTION OF MNEMONIC
#---------         -----------     ------------------------------
GL  .M        567                  : gl           - GROUND LEVEL ELEVATION
EREF.M        570                  : kb           - ELEVATION OF DEPTH REFERENCE
DATM.M        570                  : datum        - DATUM ELEVATION
TDD .M        428                  : tdd          - TOTAL DEPTH DRILLER
RUN .         ONE                  : Run          - RUN NUMBER
ENG .         BILL                 : Engineer     - RECORDING ENGINEER
WIT .         JIM                  : Witness      - WITNESSED BY
MUD .         GEL                  : Mud_type     - MUD TYPE
MATR.         LIMESTONE            : Logunit      - NEUTRON MATRIX
TMAX.C        25                   : BHT          - MAXIMUM RECORDED TEMPERATURE
BHTD.M        428                  : BHTDEP       - MAXIMUM RECORDED TEMPERATURE
MATR.         1                    : LOGUNIT      - NEUTRON MATRIX
RMT .C        25                   : MDTP         - TEMPERATURE OF MUD
NEUT.         1                    : NEUTRON      - NEUTRON TYPE
RESI.         0                    : RESIST       - RESISTIVITY TYPE
RMC .OHMM     0.25                 : RMC          - RESISTIVITY OF MUD CAKE
RMF .OHMM     0.25                 : RMF          - RESISTIVITY OF MUD FILTRATE
SUFT.C        15                   : SUFT         - SURFACE TEMPERATURE
~A  DEPTH     PHID     PHIN       GR     RESD     DENS
# ...
  259.500    0.250    0.439  100.895    6.614    0.000
  259.750    0.246    0.426   96.631    6.353    0.000
  260.000    0.250    0.429   91.755    5.980    0.000
  260.250    0.255    0.446   95.380    5.863    0.000
  260.500    0.248    0.469   99.001    5.750    0.000
  260.750    0.237    0.489  100.804    5.997    0.000
  261.000    0.242    0.481  100.788    6.933    0.000
  261.250    0.253    0.479   92.269    8.349    0.000
  261.500    0.274    0.484   80.102   11.145    0.000
  261.750    0.345    0.449   72.187   13.987    0.000
  262.000    0.355    0.442   67.920   16.506    0.000
  262.250    0.354    0.438   63.046   18.690    0.000
  262.500    0.353    0.435   58.772   20.313    0.000
  262.750    0.355    0.442   57.542   20.760    0.000
  263.000    0.361    0.448   58.735   20.361    0.000
  263.250    0.359    0.432   57.504   19.964    0.000
  263.500    0.355    0.423   56.271   19.578    0.000
  263.750    0.354    0.415   58.676   18.807    0.000
  264.000    0.361    0.413   59.263   18.442    0.000
  264.250    0.367    0.411   59.244   18.093    0.000
  264.500    0.369    0.420   59.836   17.741    0.000
  264.750    0.353    0.446   60.421   17.756    0.000
  265.000    0.352    0.459   59.798   17.777    0.000
  265.250    0.363    0.446   61.602   17.791    0.000
  265.500    0.364    0.453   57.938   17.811    0.000
  265.750    0.357    0.445   56.705   17.829    0.000
  266.000    0.358    0.425   59.720   17.847    0.000
  266.250    0.362    0.424   62.133   17.869    0.000
  266.500    0.357    0.434   63.322   17.888    0.000
  266.750    0.362    0.432   62.092   18.274    0.000
  267.000    0.367    0.426   60.252   18.672    0.000
  267.250    0.369    0.420   61.444   18.693    0.000
  267.500    0.367    0.416   63.247   18.716    0.000
  267.750    0.364    0.420   62.008   19.117    0.000
  268.000    0.361    0.424   62.603   19.138    0.000
  268.250    0.358    0.415   66.225   19.160    0.000
  268.500    0.361    0.403   66.815   19.176    0.000
  268.750    0.360    0.421   63.760   18.806    0.000
  269.000    0.356    0.454   63.133   18.071    0.000
  269.250    0.352    0.438   64.931   18.090    0.000
  269.500    0.348    0.402   65.523   18.483    0.000
  269.750    0.345    0.395   66.112   19.678    0.000
  270.000    0.345    0.428   66.092   21.829    0.000
  270.250    0.349    0.439   66.073   28.553    0.000
  270.500    0.321    0.459   64.840   34.389    0.000
  270.750    0.218    0.288   58.751   38.936    0.000
  271.000    0.000    0.202   51.445   47.874    0.000
  271.250    0.000    0.191   52.026   58.861    0.000
  271.500    0.003    0.206   54.436   53.172    0.000
  271.750    0.023    0.244   55.029   43.329    0.000
  272.000    0.067    0.299   57.438   31.863    0.000
  272.250    0.189    0.362   62.886   22.033    0.000
  272.500    0.308    0.435   68.332   18.328    0.000
  272.750    0.335    0.428   67.097   16.564    0.000
  273.000    0.343    0.423   65.254   16.580    0.000
  273.250    0.342    0.455   63.413   16.593    0.000
  273.500    0.340    0.467   62.791   16.612    0.000
  273.750    0.336    0.434   63.379   16.292    0.000
  274.000    0.339    0.420   67.609   15.971    0.000
  274.250    0.325    0.441   71.234   15.031    0.000
  274.500    0.312    0.446   73.036   13.576    0.000
  274.750    0.304    0.430   75.444   11.769    0.000
  275.000    0.291    0.419   80.892    8.306    0.000
  275.250    0.256    0.430   92.407    5.862    0.000
  275.500    0.236    0.466   99.070    4.878    0.000
  275.750    0.230    0.492  104.515    4.590    0.000
  276.000    0.233    0.507  109.353    4.063    0.000
  276.250    0.240    0.527  109.942    3.745    0.000
  276.500    0.245    0.515  102.634    3.598    0.000
  276.750    0.252    0.492  103.830    3.388    0.000
  277.000    0.251    0.485  109.882    3.254    0.000
  277.250    0.246    0.496  112.896    3.258    0.000
  277.500    0.246    0.511  113.490    3.260    0.000
  277.750    0.244    0.531  111.648    3.401    0.000
  278.000    0.232    0.535  108.590    3.474    0.000
  278.250    0.227    0.533  109.176    3.701    0.000
  278.500    0.226    0.532  109.161    3.780    0.000
  278.750    0.226    0.510  109.138    3.708    0.000
  279.000    0.231    0.489  111.551    3.636    0.000
  279.250    0.236    0.475  115.177    3.565    0.000
  279.500    0.244    0.492  115.765    3.496    0.000
  279.750    0.249    0.515  112.707    3.499    0.000
  280.000    0.253    0.532  112.079    3.650    0.000
  280.250    0.260    0.538  109.636    3.807    0.000
  280.500    0.262    0.508  104.757    4.224    0.000
  280.750    0.249    0.464   99.273    4.686    0.000
  281.000    0.241    0.443   99.861    5.530    0.000
  281.250    0.232    0.459   99.840    6.662    0.000
  281.500    0.262    0.475   90.716    7.389    0.000
  281.750    0.302    0.448   81.590    7.866    0.000
  282.000    0.312    0.436   82.172    8.550    0.000
  282.250    0.288    0.467   84.586    8.916    0.000
  282.500    0.263    0.495   82.138    9.114    0.000
  282.750    0.225    0.470   76.655    9.507    0.000
  283.000    0.204    0.448   84.529    9.915    0.000
  283.250    0.251    0.428   86.330   10.342    0.000
  283.500    0.269    0.417   83.881   11.009    0.000
  283.750    0.241    0.409   77.790   11.967    0.000
  284.000    0.235    0.411   72.309   13.005    0.000
  284.250    0.235    0.439   68.646   14.133    0.000
  284.500    0.175    0.328   66.198   15.045    0.000
  284.750    0.136    0.292   63.748   15.378    0.000
  285.000    0.173    0.310   68.589   15.389    0.000
  285.250    0.275    0.379   74.035   16.725    0.000
  285.500    0.269    0.414   78.872   17.807    0.000
  285.750    0.172    0.393   74.604   18.573    0.000
  286.000    0.104    0.270   58.796   17.480    0.000
  286.250    0.110    0.246   57.561   16.457    0.000
  286.500    0.226    0.307   70.294   16.134    0.000
  286.750    0.284    0.403   79.382   15.184    0.000
  287.000    0.302    0.427   81.180   13.164    0.000
  287.250    0.256    0.420   78.129   12.137    0.000
  287.500    0.234    0.393   75.681   11.661    0.000
  287.750    0.244    0.386   76.876   11.201    0.000
  288.000    0.285    0.416   75.638   11.216    0.000
  288.250    0.298    0.427   75.011   11.458    0.000
  288.500    0.291    0.419   77.424   11.708    0.000
  288.750    0.274    0.422   80.441   12.733    0.000
  289.000    0.256    0.404   82.248   13.275    0.000
  289.250    0.258    0.389   84.051   14.430    0.000
  289.500    0.282    0.391   80.989   15.049    0.000
  289.750    0.299    0.395   77.936   15.379    0.000
  290.000    0.302    0.401   76.099   15.396    0.000
  290.250    0.303    0.406   77.294   15.091    0.000
  290.500    0.302    0.408   77.883   14.207    0.000
  290.750    0.299    0.419   79.077   13.647    0.000
  291.000    0.291    0.416   84.523   12.585    0.000
  291.250    0.275    0.392   90.572   12.088    0.000
  291.500    0.254    0.373   93.591   11.612    0.000
  291.750    0.253    0.377   94.787   11.155    0.000
  292.000    0.252    0.396   97.197   10.717    0.000
  292.250    0.243    0.411   98.999   10.086    0.000
  292.500    0.239    0.418   98.370    9.894    0.000
  292.750    0.235    0.422  100.171    9.905    0.000
  293.000    0.239    0.430  100.156   10.331    0.000
  293.250    0.236    0.439   98.309   10.556    0.000
  293.500    0.234    0.448   95.860   10.785    0.000
  293.750    0.239    0.441   95.243   10.578    0.000
  294.000    0.251    0.403   93.401   10.373    0.000
  294.250    0.255    0.383   95.812    9.963    0.000
  294.500    0.243    0.390  100.040    9.379    0.000
  294.750    0.241    0.396  104.271    8.646    0.000
  295.000    0.251    0.410   98.183    7.810    0.000
  295.250    0.254    0.423   92.693    7.659    0.000
  295.500    0.241    0.416   98.748    7.357    0.000
  295.750    0.233    0.415  101.160    6.647    0.000
