~VERSION INFORMATION
 VERS.                 2.0:   CWLS LOG ASCII STANDARD -VERSION 2.0
 WRAP.                  NO:   ONE LINE PER DEPTH STEP
~WELL INFORMATION BLOCK
#MNEM.UNIT           DATA                    DESCRIPTION OF MNEMONIC
#---------    -------------------            -------------------------------
# Generated from Intellog Unique Number	CW_79_81/WELL/2441
WELL.         01-32-080-22W4                 : Well_name    - WELL
LOC .         AA/01-32-080-22W4/0            : Location     - LOCATION
UWI .         AA/01-32-080-22W4/0            : Uwi          - UNIQUE WELL ID
ENTR.         MAX                            : Entered      - ENTERED BY
SRVC.         SCHLUMBERGER                   : Scn          - SERVICE COMPANY
STRT.M        220                            : top_depth    - START DEPTH
STOP.M        439.75                         : bot_depth    - STOP DEPTH
STEP.M        0.25                           : increment    - STEP LENGTH
 NULL. -999.2500:NULL Value
~CURVE INFORMATION BLOCK
#MNEM UNIT       ERCB CURVE CODE    CURVE DESCRIPTION
#-----------   ------------------   ----------------------------------
DEPT.M        00 001 00 00         : DEPTH        - DEPTH
ILD .OHMM     00 120 00 00         : RESD         - DEEP RESISTIVITY (DIL)
NPHI.V/V      00 330 00 00         : PHIN         - NEUTRON POROSITY (SANDSTONE)
DPHI.V/V      00 890 00 00         : PHID         - DENSITY POROSITY (SANDSTONE)
GR  .API      00 310 00 00         : GR           - GAMMA RAY
CALI.MM       00 280 01 00         : CAL          - CALIPER
~PARAMETER INFORMATION
#MNEM.UNIT           DATA             DESCRIPTION OF MNEMONIC
#---------         -----------     ------------------------------
GL  .M        588.6                : gl           - GROUND LEVEL ELEVATION
EREF.M        592.9                : kb           - ELEVATION OF DEPTH REFERENCE
DATM.M        588.6                : datum        - DATUM ELEVATION
TDD .M        443                  : tdd          - TOTAL DEPTH DRILLER
RUN .         ONE                  : Run          - RUN NUMBER
ENG .         BILL                 : Engineer     - RECORDING ENGINEER
WIT .         JIM                  : Witness      - WITNESSED BY
MUD .         GEL                  : Mud_type     - MUD TYPE
MATR.         SANDSTONE            : Logunit      - NEUTRON MATRIX
TMAX.C        27                   : BHT          - MAXIMUM RECORDED TEMPERATURE
BHTD.M        443                  : BHTDEP       - MAXIMUM RECORDED TEMPERATURE
MATR.         1                    : LOGUNIT      - NEUTRON MATRIX
RMT .C        15.6                 : MDTP         - TEMPERATURE OF MUD
NEUT.         1                    : NEUTRON      - NEUTRON TYPE
RESI.         0                    : RESIST       - RESISTIVITY TYPE
RMC .OHMM     3.23                 : RMC          - RESISTIVITY OF MUD CAKE
RMF .OHMM     4.36                 : RMF          - RESISTIVITY OF MUD FILTRATE
SUFT.C        -5                   : SUFT         - SURFACE TEMPERATURE
~A  DEPTH     RESD     PHIN     PHID       GR      CAL
# ...
  366.000   11.870    0.455    0.205   98.826  212.929
  366.250   12.073    0.456    0.207   99.974  211.103
  366.500   11.973    0.454    0.207  100.355  210.457
  366.750   10.563    0.450    0.208   99.647  210.718
  367.000   10.798    0.448    0.206   98.621  212.288
  367.250   10.788    0.449    0.198   97.882  214.579
  367.500   10.955    0.449    0.191   97.139  216.590
  367.750   11.065    0.448    0.187   96.161  218.307
  368.000   10.993    0.446    0.186   95.305  219.723
  368.250   10.715    0.441    0.185   95.992  220.494
  368.500   10.544    0.433    0.189   98.410  218.809
  368.750   10.533    0.438    0.199  101.441  217.572
  369.000   10.351    0.427    0.199  104.120  218.977
  369.250   10.194    0.420    0.202  104.908  221.079
  369.500   10.184    0.421    0.205  103.868  222.500
  369.750   10.415    0.425    0.192  102.654  222.343
  370.000   10.484    0.427    0.189  102.617  221.879
  370.250   10.023    0.434    0.190  104.938  221.826
  370.500    9.586    0.440    0.191  106.732  221.769
  370.750    9.273    0.446    0.194  107.995  222.100
  371.000    9.213    0.449    0.196  108.842  223.020
  371.250    9.687    0.452    0.194  109.504  224.608
  371.500   10.052    0.449    0.183  109.471  224.956
  371.750    9.971    0.442    0.186  110.375  222.934
  372.000    9.301    0.431    0.182  110.931  222.094
  372.250    8.417    0.429    0.187  110.781  222.033
  372.500    7.767    0.435    0.199  109.865  222.950
  372.750    7.872    0.439    0.207  108.064  226.050
  373.000    8.488    0.437    0.204  106.306  228.041
  373.250    8.604    0.432    0.194  105.332  226.798
  373.500    8.628    0.429    0.189  104.882  224.975
  373.750    8.776    0.426    0.188  104.138  222.756
  374.000    9.409    0.418    0.188  102.396  221.024
  374.250   11.784    0.392    0.184   97.831  221.428
  374.500   14.164    0.373    0.176   91.657  221.776
  374.750   17.971    0.349    0.158   86.203  222.509
  375.000   21.167    0.329    0.138   84.630  222.648
  375.250   22.648    0.332    0.130   84.594  222.592
  375.500   22.791    0.357    0.138   84.383  222.537
  375.750   24.230    0.379    0.165   82.434  222.379
  376.000   29.115    0.348    0.176   79.950  221.915
  376.250   31.491    0.325    0.156   76.852  221.851
  376.500   35.140    0.309    0.133   73.574  221.505
  376.750   37.994    0.311    0.123   72.125  221.256
  377.000   38.736    0.327    0.125   72.977  221.096
  377.250   37.688    0.339    0.128   75.696  220.705
  377.500   34.413    0.342    0.129   78.847  221.065
  377.750   29.876    0.360    0.139   80.229  221.786
  378.000   24.921    0.379    0.167   82.495  221.338
  378.250   21.292    0.400    0.209   85.994  220.693
  378.500   18.723    0.419    0.247   90.612  220.339
  378.750   16.250    0.415    0.241   96.495  220.590
  379.000   14.838    0.410    0.221  100.133  222.172
  379.250   13.674    0.420    0.201  100.573  222.113
  379.500   13.255    0.423    0.200   98.715  222.055
  379.750   13.291    0.420    0.202   94.910  221.410
  380.000   13.597    0.412    0.199   90.689  220.179
  380.250   13.985    0.397    0.187   88.517  218.933
  380.500   13.972    0.388    0.169   87.257  218.860
  380.750   13.959    0.398    0.165   88.871  220.378
  381.000   13.795    0.408    0.187   91.369  221.597
  381.250   13.332    0.414    0.208   93.219  222.128
  381.500   12.732    0.411    0.216   93.597  222.167
  381.750   12.336    0.398    0.213   91.840  222.492
  382.000   12.234    0.394    0.210   89.103  222.443
  382.250   12.044    0.407    0.209   85.766  221.986
  382.500   11.665    0.409    0.225   84.377  220.944
  382.750   11.323    0.411    0.233   83.755  219.508
  383.000   11.290    0.414    0.226   83.130  218.170
  383.250   12.011    0.408    0.204   82.195  217.876
  383.500   12.275    0.400    0.193   82.408  218.633
  383.750   12.265    0.398    0.178   82.133  219.758
  384.000   12.455    0.396    0.170   79.567  220.295
  384.250   13.300    0.380    0.162   75.763  221.024
  384.500   15.196    0.346    0.148   71.251  221.948
  384.750   19.757    0.295    0.116   65.190  222.186
  385.000   29.191    0.241    0.083   60.980  221.710
  385.250   38.044    0.219    0.063   61.648  221.271
  385.500   43.178    0.220    0.062   63.203  220.528
  385.750   41.650    0.243    0.074   65.408  219.683
  386.000   34.545    0.278    0.091   68.557  218.938
  386.250   24.449    0.304    0.114   74.989  218.392
  386.500   20.000    0.318    0.148   82.561  217.922
  386.750   17.106    0.334    0.187   86.771  217.858
  387.000   15.430    0.357    0.201   89.739  217.499
  387.250   14.564    0.370    0.200   91.350  217.246
  387.500   14.110    0.373    0.195   91.845  217.295
  387.750   13.445    0.391    0.198   91.909  217.780
  388.000   12.741    0.417    0.197   92.356  218.538
  388.250   12.457    0.432    0.201   93.742  219.657
  388.500   12.244    0.431    0.190   97.243  219.893
  388.750   12.056    0.429    0.186  100.627  219.641
  389.000   11.848    0.428    0.195  102.536  219.193
  389.250   11.528    0.421    0.203  102.537  218.724
  389.500   11.261    0.411    0.201  102.754  218.669
  389.750   11.169    0.407    0.199  102.240  218.611
  390.000   11.319    0.406    0.197  101.560  219.141
  390.250   11.517    0.409    0.189  101.648  220.062
  390.500   11.634    0.414    0.175  103.147  220.982
  390.750   11.550    0.421    0.162  107.042  221.393
  391.000   11.197    0.433    0.162  110.196  221.747
  391.250   10.785    0.455    0.182  110.400  223.259
  391.500   10.390    0.461    0.191  109.895  224.187
  391.750   10.048    0.456    0.183  109.620  224.324
  392.000    9.770    0.444    0.165  110.171  223.378
  392.250    9.563    0.437    0.154  112.178  220.135
  392.500    9.628    0.439    0.157  114.109  215.995
  392.750    9.689    0.434    0.181  113.367  217.109
  393.000    9.696    0.421    0.196  112.092  218.820
  393.250    9.652    0.412    0.195  112.057  220.529
  393.500    9.521    0.411    0.188  112.906  221.842
  393.750    9.240    0.409    0.195  111.807  223.053
  394.000    9.232    0.409    0.195  110.056  225.447
  394.250    9.494    0.415    0.187  110.256  228.143
  394.500   10.028    0.413    0.186  111.517  228.180
  394.750   10.696    0.400    0.184  113.015  225.958
  395.000   11.373    0.383    0.180  114.220  223.152
  395.250   12.149    0.385    0.176  114.590  223.020
  395.500   13.201    0.392    0.191  113.085  224.590
  395.750   16.075    0.395    0.200  108.573  224.543
  396.000   18.019    0.394    0.204  103.351  223.898
  396.250   19.436    0.391    0.206  101.427  223.244
  396.500   20.887    0.387    0.208  103.038  222.884
  396.750   22.616    0.384    0.212  104.353  222.820
  397.000   23.470    0.386    0.213  102.855  222.765
  397.250   22.944    0.392    0.209   99.517  222.695
  397.500   22.303    0.388    0.195   98.836  222.642
  397.750   21.722    0.384    0.193   99.743  222.589
  398.000   21.115    0.382    0.204  100.942  222.629
  398.250   19.818    0.384    0.208  100.606  223.034
  398.500   18.096    0.388    0.198   99.100  223.388
  398.750   16.310    0.390    0.196   93.878  227.251
  399.000   16.169    0.393    0.197   90.425  229.944
  399.250   18.972    0.396    0.191   87.328  229.106
  399.500   27.140    0.394    0.189   83.231  225.712
  399.750   42.489    0.371    0.232   73.586  223.654
  400.000   50.673    0.358    0.269   57.345  221.542
  400.250   62.147    0.359    0.265   53.772  217.169
  400.500   76.086    0.357    0.273   51.438  213.974
  400.750   90.264    0.355    0.274   49.871  212.148
  401.000  102.730    0.353    0.269   48.658  211.496
  401.250  117.846    0.353    0.278   47.289  211.345
  401.500  126.086    0.351    0.282   46.512  210.881
  401.750  120.590    0.346    0.286   46.484  210.822
  402.000  109.597    0.348    0.290   46.984  211.058
  402.250   93.516    0.355    0.293   48.243  211.196
