~VERSION INFORMATION
 VERS.                 2.0:   CWLS LOG ASCII STANDARD -VERSION 2.0
 WRAP.                  NO:   ONE LINE PER DEPTH STEP
~WELL INFORMATION BLOCK
#MNEM.UNIT           DATA                    DESCRIPTION OF MNEMONIC
#---------    -------------------            -------------------------------
# Generated from Intellog Unique Number	CS_77_79/WELL/881
WELL.         DOME PETROLEUM LIMITED         : Well_name    - WELL
LOC .         00/06-24-077-16W4/0            : Location     - LOCATION
UWI .         00/06-24-077-16W4/0            : Uwi          - UNIQUE WELL ID
ENTR.         SP                             : Entered      - ENTERED BY
SRVC.         SCHLUMBERGER                   : Scn          - SERVICE COMPANY
STRT.M        260                            : top_depth    - START DEPTH
STOP.M        485                            : bot_depth    - STOP DEPTH
STEP.M        0.25                           : increment    - STEP LENGTH
 NULL. -999.2500:NULL Value
~CURVE INFORMATION BLOCK
#MNEM UNIT       ERCB CURVE CODE    CURVE DESCRIPTION
#-----------   ------------------   ----------------------------------
DEPT.M        00 001 00 00         : DEPTH        - DEPTH
ILD .OHMM     00 120 00 00         : RESD         - DEEP RESISTIVITY (DIL)
DPHI.V/V      00 890 00 00         : PHID         - DENSITY POROSITY (LIMESTONE)
NPHI.V/V      00 330 00 00         : PHIN         - NEUTRON POROSITY (LIMESTONE)
GR  .API      00 310 00 00         : GR           - GAMMA RAY
~PARAMETER INFORMATION
#MNEM.UNIT           DATA             DESCRIPTION OF MNEMONIC
#---------         -----------     ------------------------------
GL  .M        653.8                : gl           - GROUND LEVEL ELEVATION
EREF.M        657.6                : kb           - ELEVATION OF DEPTH REFERENCE
DATM.M        653.8                : datum        - DATUM ELEVATION
TDD .M        499                  : tdd          - TOTAL DEPTH DRILLER
RUN .         ONE                  : Run          - RUN NUMBER
ENG .         BILL                 : Engineer     - RECORDING ENGINEER
WIT .         JIM                  : Witness      - WITNESSED BY
MUD .         GEL                  : Mud_type     - MUD TYPE
MATR.         LIMESTONE            : Logunit      - NEUTRON MATRIX
TMAX.C        21                   : BHT          - MAXIMUM RECORDED TEMPERATURE
BHTD.M        499                  : BHTDEP       - MAXIMUM RECORDED TEMPERATURE
MATR.         1                    : LOGUNIT      - NEUTRON MATRIX
RMT .C        25                   : MDTP         - TEMPERATURE OF MUD
NEUT.         1                    : NEUTRON      - NEUTRON TYPE
RESI.         0                    : RESIST       - RESISTIVITY TYPE
RMC .OHMM     0.25                 : RMC          - RESISTIVITY OF MUD CAKE
RMF .OHMM     0.25                 : RMF          - RESISTIVITY OF MUD FILTRATE
SUFT.C        15                   : SUFT         - SURFACE TEMPERATURE
~A  DEPTH     RESD     PHID     PHIN       GR
# ...
  434.000    4.201    0.237    0.435   98.547
  434.250    4.615    0.242    0.439   96.751
  434.500    5.070    0.250    0.444   93.144
  434.750    5.265    0.254    0.450   87.733
  435.000    5.572    0.258    0.453   82.321
  435.250    5.787    0.260    0.434   75.102
  435.500    6.010    0.254    0.426   69.089
  435.750    6.241    0.191    0.413   66.085
  436.000    6.730    0.184    0.391   63.083
  436.250    6.988    0.184    0.381   66.108
  436.500    7.123    0.187    0.392   69.731
  436.750    6.994    0.210    0.405   76.367
  437.000    6.741    0.226    0.415   79.991
  437.250    6.495    0.233    0.426   80.606
  437.500    6.377    0.215    0.429   78.210
  437.750    6.379    0.207    0.425   76.412
  438.000    6.381    0.214    0.416   75.818
  438.250    6.505    0.215    0.412   75.826
  438.500    6.507    0.215    0.407   76.438
  438.750    6.391    0.219    0.417   78.860
  439.000    6.392    0.219    0.428   79.470
  439.250    6.395    0.214    0.437   80.688
  439.500    6.397    0.222    0.433   80.694
  439.750    6.520    0.221    0.426   79.500
  440.000    6.647    0.220    0.421   78.906
  440.250    7.034    0.220    0.417   78.314
  440.500    7.169    0.210    0.415   78.325
  440.750    7.307    0.220    0.412   79.539
  441.000    7.448    0.214    0.411   80.153
  441.250    7.451    0.223    0.412   80.764
  441.500    7.455    0.225    0.416   78.967
  441.750    7.318    0.240    0.423   77.173
  442.000    7.321    0.267    0.435   76.576
  442.250    6.797    0.277    0.447   78.400
  442.500    6.549    0.278    0.457   79.609
  442.750    6.310    0.278    0.465   82.631
  443.000    5.858    0.260    0.462   88.669
  443.250    5.751    0.235    0.450   91.087
  443.500    5.754    0.256    0.445   91.698
  443.750    5.649    0.262    0.441   89.902
  444.000    5.547    0.271    0.453   86.900
  444.250    5.446    0.285    0.466   85.102
  444.500    5.346    0.285    0.470   83.303
  444.750    5.057    0.275    0.459   80.906
  445.000    4.873    0.267    0.455   79.712
  445.250    4.696    0.253    0.459   77.915
  445.500    4.524    0.248    0.463   77.923
  445.750    4.123    0.248    0.468   78.534
  446.000    3.972    0.262    0.474   80.352
  446.250    3.174    0.289    0.488   77.953
  446.500    2.785    0.296    0.502   77.359
  446.750    2.490    0.302    0.511   77.370
  447.000    2.311    0.309    0.528   77.380
  447.250    2.106    0.310    0.522   76.787
  447.500    2.029    0.307    0.512   76.797
  447.750    2.030    0.302    0.504   78.019
  448.000    2.031    0.297    0.489   79.232
  448.250    2.109    0.284    0.481   79.840
  448.500    2.274    0.279    0.466   80.453
  448.750    2.546    0.270    0.448   80.467
  449.000    2.903    0.264    0.431   80.474
  449.250    3.130    0.232    0.415   81.089
  449.500    3.569    0.224    0.399   81.697
  449.750    4.227    0.220    0.388   81.710
  450.000    4.821    0.213    0.380   81.117
  450.250    5.100    0.218    0.386   80.522
  450.500    5.397    0.219    0.387   81.742
  450.750    5.606    0.215    0.388   82.350
  451.000    5.933    0.210    0.385   82.360
  451.250    6.160    0.172    0.384   80.562
  451.500    6.398    0.154    0.383   78.163
  451.750    6.522    0.141    0.388   76.366
  452.000    6.403    0.143    0.398   76.978
  452.250    6.286    0.137    0.415   78.198
  452.500    5.836    0.180    0.433   78.808
  452.750    5.317    0.193    0.445   79.423
  453.000    5.123    0.203    0.451   79.428
  453.250    4.755    0.215    0.455   78.237
  453.500    4.414    0.217    0.452   78.243
  453.750    4.253    0.210    0.450   78.856
  454.000    4.099    0.212    0.445   78.867
  454.250    4.100    0.225    0.439   77.671
  454.500    4.026    0.221    0.437   75.273
  454.750    3.953    0.209    0.437   73.480
  455.000    3.881    0.210    0.437   73.485
  455.250    3.811    0.211    0.443   74.701
  455.500    3.742    0.211    0.451   78.328
  455.750    3.674    0.249    0.453   80.144
  456.000    3.607    0.239    0.457   82.564
  456.250    3.608    0.217    0.459   83.775
  456.500    3.677    0.211    0.457   83.787
  456.750    3.819    0.196    0.449   86.206
  457.000    4.118    0.184    0.438   86.820
  457.250    4.276    0.171    0.434   86.225
  457.500    4.699    0.178    0.427   84.429
  457.750    4.789    0.179    0.423   83.238
  458.000    4.973    0.199    0.418   82.038
  458.250    5.464    0.214    0.407   77.228
  458.500    5.782    0.235    0.388   69.407
  458.750    5.784    0.252    0.388   62.188
  459.000    5.369    0.262    0.398   54.968
  459.250    4.892    0.270    0.415   57.388
  459.500    4.540    0.246    0.422   66.435
  459.750    4.215    0.229    0.425   73.674
  460.000    4.215    0.225    0.411   73.685
  460.250    4.217    0.232    0.398   71.889
  460.500    4.547    0.247    0.393   68.886
  460.750    5.284    0.260    0.395   64.075
  461.000    6.256    0.256    0.402   62.883
  461.250    7.269    0.242    0.414   66.505
  461.500    7.837    0.227    0.425   73.748
  461.750    7.841    0.204    0.434   77.369
  462.000    7.011    0.195    0.443   83.405
  462.250    6.758    0.197    0.450   88.235
  462.500    6.760    0.202    0.443   92.460
  462.750    6.763    0.212    0.434   93.072
  463.000    6.892    0.221    0.418   89.468
  463.250    7.293    0.215    0.400   85.262
  463.500    7.863    0.209    0.400   82.261
  463.750    8.166    0.182    0.407   81.064
  464.000    8.018    0.188    0.410   81.678
  464.250    7.726    0.220    0.412   82.893
  464.500    7.587    0.226    0.409   83.506
  464.750    7.590    0.230    0.400   83.516
  465.000    7.735    0.213    0.396   82.924
  465.250    7.885    0.195    0.388   82.328
  465.500    8.189    0.186    0.384   79.932
  465.750    8.347    0.187    0.377   78.737
  466.000    8.508    0.191    0.374   76.942
  466.250    8.354    0.206    0.374   76.346
  466.500    8.203    0.216    0.388   76.356
  466.750    8.205    0.207    0.390   76.966
  467.000    8.056    0.204    0.386   78.181
  467.250    7.910    0.199    0.379   81.207
  467.500    7.912    0.192    0.374   81.816
  467.750    7.769    0.190    0.377   80.623
  468.000    7.771    0.204    0.377   79.427
  468.250    7.775    0.210    0.373   81.244
  468.500    7.779    0.202    0.370   81.255
  468.750    7.780    0.205    0.370   77.654
  469.000    7.784    0.215    0.376   75.853
  469.250    7.787    0.221    0.380   73.454
  469.500    7.791    0.224    0.381   71.053
  469.750    7.793    0.224    0.381   74.080
  470.000    7.796    0.190    0.386   77.099
  470.250    7.514    0.171    0.392   80.119
  470.500    7.376    0.162    0.392   81.335
  470.750    7.244    0.162    0.386   81.951
  471.000    7.112    0.174    0.381   81.956
  471.250    7.248    0.179    0.381   80.161
  471.500    7.389    0.185    0.381   79.570
  471.750    7.391    0.185    0.370   80.182
  472.000    7.533    0.180    0.368   79.589
  472.250    7.536    0.157    0.365   78.395
  472.500    7.828    0.138    0.370   76.600
  472.750    7.830    0.120    0.375   75.401
  473.000    8.133    0.119    0.377   74.813
  473.250    8.289    0.135    0.380   74.820
  473.500    8.609    0.153    0.381   75.430
  473.750    8.776    0.164    0.383   77.248
  474.000    8.779    0.174    0.384   78.465
  474.250    8.782    0.180    0.389   77.875
  474.500    8.622    0.167    0.392   77.881
  474.750    8.308    0.158    0.394   79.099
  475.000    8.159    0.145    0.394   79.708
  475.250    8.010    0.139    0.394   80.324
  475.500    8.013    0.154    0.394   79.729
  475.750    8.016    0.168    0.395   79.137
  476.000    8.019    0.179    0.398   80.954
  476.250    8.022    0.194    0.400   81.567
  476.500    8.025    0.211    0.401   79.769
  476.750    8.181    0.231    0.402   77.971
  477.000    8.339    0.245    0.402   76.174
  477.250    8.341    0.234    0.402   74.978
