~VERSION INFORMATION
 VERS.                 2.0:   CWLS LOG ASCII STANDARD -VERSION 2.0
 WRAP.                  NO:   ONE LINE PER DEPTH STEP
~WELL INFORMATION BLOCK
#MNEM.UNIT           DATA                    DESCRIPTION OF MNEMONIC
#---------    -------------------            -------------------------------
# Generated from Intellog Unique Number	CS_67_68/WELL/641
WELL.         AEC FISH CREEK                 : Well_name    - WELL
LOC .         00/05-29-068-07W4/0            : Location     - LOCATION
UWI .         00/05-29-068-07W4/0            : Uwi          - UNIQUE WELL ID
ENTR.         SP                             : Entered      - ENTERED BY
SRVC.         SCHLUMBERGER                   : Scn          - SERVICE COMPANY
STRT.M        290                            : top_depth    - START DEPTH
STOP.M        530                            : bot_depth    - STOP DEPTH
STEP.M        0.25                           : increment    - STEP LENGTH
 NULL. -999.2500:NULL Value
~CURVE INFORMATION BLOCK
#MNEM UNIT       ERCB CURVE CODE    CURVE DESCRIPTION
#-----------   ------------------   ----------------------------------
DEPT.M        00 001 00 00         : DEPTH        - DEPTH
ILD .OHMM     00 120 00 00         : RESD         - DEEP RESISTIVITY (DIL)
DPHI.V/V      00 890 00 00         : PHID         - DENSITY POROSITY (LIMESTONE)
NPHI.V/V      00 330 00 00         : PHIN         - NEUTRON POROSITY (LIMESTONE)
GR  .API      00 310 00 00         : GR           - GAMMA RAY
~PARAMETER INFORMATION
#MNEM.UNIT           DATA             DESCRIPTION OF MNEMONIC
#---------         -----------     ------------------------------
GL  .M        628.32               : gl           - GROUND LEVEL ELEVATION
EREF.M        631.9                : kb           - ELEVATION OF DEPTH REFERENCE
DATM.M        628.32               : datum        - DATUM ELEVATION
TDD .M        539                  : tdd          - TOTAL DEPTH DRILLER
RUN .         ONE                  : Run          - RUN NUMBER
ENG .         BILL                 : Engineer     - RECORDING ENGINEER
WIT .         JIM                  : Witness      - WITNESSED BY
MUD .         GEL                  : Mud_type     - MUD TYPE
MATR.         LIMESTONE            : Logunit      - NEUTRON MATRIX
TMAX.C        23                   : BHT          - MAXIMUM RECORDED TEMPERATURE
BHTD.M        539                  : BHTDEP       - MAXIMUM RECORDED TEMPERATURE
MATR.         1                    : LOGUNIT      - NEUTRON MATRIX
RMT .C        25                   : MDTP         - TEMPERATURE OF MUD
NEUT.         1                    : NEUTRON      - NEUTRON TYPE
RESI.         0                    : RESIST       - RESISTIVITY TYPE
RMC .OHMM     0.25                 : RMC          - RESISTIVITY OF MUD CAKE
RMF .OHMM     0.25                 : RMF          - RESISTIVITY OF MUD FILTRATE
SUFT.C        15                   : SUFT         - SURFACE TEMPERATURE
~A  DEPTH     RESD     PHID     PHIN       GR
  290.000    2.276    0.226    0.501  115.615
  290.250    2.252    0.258    0.510  122.844
  290.500    2.253    0.299    0.515  127.485
  290.750    2.268    0.307    0.525  128.858
  291.000    2.278    0.301    0.539  127.522
  291.250    2.293    0.282    0.519  125.199
  291.500    2.298    0.267    0.500  122.750
  291.750    2.331    0.258    0.476  123.323
  292.000    2.354    0.258    0.503  127.037
  292.250    2.378    0.268    0.497  133.405
  292.500    2.339    0.268    0.490  136.565
  292.750    2.362    0.262    0.495  136.275
  293.000    2.381    0.261    0.503  134.569
  293.250    2.419    0.258    0.493  134.523
  293.500    2.462    0.253    0.484  133.185
  293.750    2.529    0.251    0.481  129.752
  294.000    2.584    0.253    0.490  128.600
  294.250    2.610    0.252    0.482  128.740
  294.500    2.667    0.259    0.465  130.917
  294.750    2.708    0.257    0.459  130.750
  295.000    2.751    0.246    0.476  135.390
  295.250    2.800    0.236    0.493  137.995
  295.500    2.834    0.236    0.500  140.232
  295.750    2.851    0.239    0.480  139.264
  296.000    2.848    0.243    0.464  135.030
  296.250    2.839    0.245    0.457  130.733
  296.500    2.814    0.247    0.453  129.950
  296.750    2.784    0.250    0.464  136.256
  297.000    2.755    0.253    0.461  138.984
  297.250    2.789    0.254    0.454  134.196
  297.500    2.827    0.252    0.458  130.457
  297.750    2.882    0.249    0.467  128.625
  298.000    2.922    0.247    0.474  130.368
  298.250    2.941    0.240    0.476  132.852
  298.500    2.948    0.238    0.481  133.670
  298.750    2.961    0.250    0.489  131.101
  299.000    2.963    0.259    0.491  131.796
  299.250    2.965    0.261    0.498  138.099
  299.500    2.967    0.267    0.493  143.725
  299.750    2.969    0.270    0.479  139.429
  300.000    2.954    0.261    0.464  144.377
  300.250    2.951    0.248    0.453  149.083
  300.500    2.946    0.238    0.441  149.652
  300.750    2.926    0.234    0.466  139.255
  301.000    2.906    0.235    0.492  131.140
  301.250    2.919    0.243    0.453  131.588
  301.500    3.033    0.276    0.417  134.194
  301.750    3.385    0.310    0.360   99.330
  302.000    3.937    0.324    0.329   84.990
  302.250    4.773    0.342    0.304   77.245
  302.500    5.647    0.361    0.278   69.188
  302.750    6.693    0.353    0.304   62.179
  303.000    7.583    0.334    0.353   60.040
  303.250    8.029    0.318    0.385   62.647
  303.500    7.679    0.305    0.404   62.727
  303.750    6.414    0.297    0.419   66.997
  304.000    5.637    0.297    0.424   72.934
  304.250    5.125    0.303    0.435   75.106
  304.500    4.985    0.308    0.428   74.939
  304.750    4.997    0.309    0.439   64.730
  305.000    5.019    0.305    0.417   54.208
  305.250    5.032    0.310    0.394   44.057
  305.500    5.073    0.300    0.374   38.157
  305.750    5.163    0.284    0.366   45.574
  306.000    5.215    0.289    0.387   57.607
  306.250    5.288    0.299    0.401   77.839
  306.500    5.301    0.297    0.389   88.520
  306.750    5.345    0.284    0.385   93.282
  307.000    5.337    0.261    0.394   88.431
  307.250    5.351    0.248    0.400  102.996
  307.500    5.385    0.238    0.403  110.594
  307.750    5.481    0.225    0.410  114.616
  308.000    5.578    0.200    0.420  115.990
  308.250    5.688    0.219    0.428  123.344
  308.500    5.734    0.244    0.423  131.187
  308.750    5.737    0.258    0.409  137.184
  309.000    5.709    0.266    0.409  134.983
  309.250    5.701    0.271    0.439  129.086
  309.500    5.716    0.276    0.433  126.513
  309.750    5.752    0.275    0.416  120.739
  310.000    5.833    0.265    0.410  120.572
  310.250    5.879    0.253    0.392  123.486
  310.500    5.928    0.243    0.382  119.313
  310.750    5.965    0.237    0.385  112.739
  311.000    5.696    0.234    0.400  107.088
  311.250    5.508    0.228    0.413  103.098
  311.500    5.298    0.228    0.424   99.850
  311.750    5.252    0.308    0.413  100.052
  312.000    5.285    0.327    0.405  100.255
  312.250    5.319    0.314    0.409   92.940
  312.500    5.362    0.305    0.411   86.733
  312.750    5.426    0.296    0.409   83.796
  313.000    5.491    0.295    0.401   85.847
  313.250    5.610    0.279    0.391   88.267
  313.500    5.810    0.270    0.381   94.879
  313.750    5.810    0.256    0.393  102.415
  314.000    5.924    0.247    0.406  108.288
  314.250    5.929    0.244    0.415  111.511
  314.500    5.932    0.269    0.415  114.857
  314.750    5.948    0.299    0.442  116.726
  315.000    5.950    0.354    0.476  113.291
  315.250    5.966    0.539    0.466   99.258
  315.500    5.958    0.549    0.459   88.737
  315.750    5.810    0.522    0.517   98.801
  316.000    5.767    0.322    0.552  116.136
  316.250    5.444    0.288    0.501  123.919
  316.500    4.986    0.267    0.443  123.201
  316.750    4.663    0.253    0.430  131.043
  317.000    4.476    0.244    0.422  140.369
  317.250    4.273    0.239    0.436  143.590
  317.500    4.157    0.234    0.457  138.986
  317.750    4.105    0.233    0.466  135.741
  318.000    4.100    0.235    0.450  135.015
  318.250    4.057    0.241    0.446  131.643
  318.500    4.021    0.242    0.448  134.561
  318.750    3.986    0.246    0.456  135.254
  319.000    3.907    0.248    0.467  134.717
  319.250    3.851    0.242    0.474  139.114
  319.500    3.760    0.232    0.468  140.054
  319.750    3.706    0.225    0.474  136.929
  320.000    3.681    0.249    0.470  136.086
  320.250    3.711    0.264    0.450  133.206
  320.500    3.820    0.279    0.440  125.027
  320.750    3.968    0.256    0.433  115.926
  321.000    4.139    0.238    0.431  111.013
  321.250    4.268    0.226    0.438  107.764
  321.500    4.402    0.216    0.444  110.001
  321.750    4.438    0.233    0.446  116.675
  322.000    4.449    0.246    0.439  124.458
  322.250    4.435    0.251    0.424  130.391
  322.500    4.388    0.255    0.422  134.542
  322.750    4.525    0.259    0.413  133.510
  323.000    4.737    0.260    0.402  115.779
  323.250    4.931    0.276    0.413  104.336
  323.500    5.028    0.289    0.432   99.360
  323.750    5.195    0.297    0.439  102.647
  324.000    5.238    0.294    0.429  104.452
  324.250    5.221    0.291    0.424  102.372
  324.500    5.069    0.297    0.441   98.756
  324.750    4.885    0.316    0.454   95.814
  325.000    4.788    0.345    0.456   86.218
  325.250    4.675    0.357    0.445   73.850
  325.500    4.600    0.362    0.432   64.068
  325.750    4.568    0.363    0.425   57.492
  326.000    4.588    0.362    0.423   58.928
  326.250    4.635    0.358    0.434   60.486
  326.500    4.681    0.354    0.439   62.414
  326.750    4.764    0.345    0.444   68.903
  327.000    4.876    0.333    0.446   82.665
  327.250    5.009    0.322    0.442   93.530
  327.500    5.156    0.318    0.431  102.730
  327.750    5.268    0.319    0.431  110.822
  328.000    5.321    0.310    0.432  114.907
  328.250    5.384    0.296    0.433  117.266
  328.500    5.501    0.289    0.435  117.532
  328.750    5.587    0.305    0.450  119.028
  329.000    5.687    0.320    0.466  118.863
  329.250    5.765    0.322    0.451  112.347
  329.500    5.868    0.319    0.435  104.353
  329.750    5.893    0.317    0.419   97.161
  330.000    5.986    0.284    0.409   99.706
  330.250    6.139    0.258    0.429  107.242
  330.500    6.074    0.256    0.445  115.521
  330.750    5.864    0.278    0.461  118.987
  331.000    5.662    0.293    0.460  109.333
  331.250    5.539    0.303    0.449  103.185
  331.500    5.469    0.310    0.450   98.647
  331.750    5.382    0.312    0.449   97.738
  332.000    5.324    0.310    0.446   93.196
  332.250    5.278    0.301    0.446   91.179
  332.500    5.242    0.285    0.435   95.818
  332.750    5.255    0.272    0.449  101.754
  333.000    5.238    0.260    0.469  104.790
  333.250    5.193    0.256    0.481  102.713
