~VERSION INFORMATION
 VERS.                 2.0:   CWLS LOG ASCII STANDARD -VERSION 2.0
 WRAP.                  NO:   ONE LINE PER DEPTH STEP
~WELL INFORMATION BLOCK
#MNEM.UNIT           DATA                    DESCRIPTION OF MNEMONIC
#---------    -------------------            -------------------------------
# Generated from Intellog Unique Number	CW_76_78/WELL/642
WELL.         07-32-077-22W4                 : Well_name    - WELL
LOC .         00/07-32-077-22W4/0            : Location     - LOCATION
UWI .         00/07-32-077-22W4/0            : Uwi          - UNIQUE WELL ID
ENTR.         jj                             : Entered      - ENTERED BY
SRVC.         WESTERN ATLAS                  : Scn          - SERVICE COMPANY
DATE.         06 MAR 1983                    : Date         - LOG DATE
STRT.M        300                            : top_depth    - START DEPTH
STOP.M        537                            : bot_depth    - STOP DEPTH
STEP.M        0.25                           : increment    - STEP LENGTH
 NULL. -999.2500:NULL Value
~CURVE INFORMATION BLOCK
#MNEM UNIT       ERCB CURVE CODE    CURVE DESCRIPTION
#-----------   ------------------   ----------------------------------
DEPT.M        00 001 00 00         : DEPTH        - DEPTH
ILD .OHMM     00 120 00 00         : RESD         - DEEP RESISTIVITY (DIL)
DPHI.V/V      00 890 00 00         : PHID         - DENSITY POROSITY (SANDSTONE)
NPHI.V/V      00 330 00 00         : PHIN         - NEUTRON POROSITY (SANDSTONE)
GR  .API      00 310 00 00         : GR           - GAMMA RAY
CALI.MM       00 280 01 00         : CAL          - CALIPER
~PARAMETER INFORMATION
#MNEM.UNIT           DATA             DESCRIPTION OF MNEMONIC
#---------         -----------     ------------------------------
GL  .M        630.9                : gl           - GROUND LEVEL ELEVATION
EREF.M        635.4                : kb           - ELEVATION OF DEPTH REFERENCE
DATM.M        630.9                : datum        - DATUM ELEVATION
TDD .M        537                  : tdd          - TOTAL DEPTH DRILLER
RUN .         ONE                  : Run          - RUN NUMBER
ENG .         RUTHERFORD           : Engineer     - RECORDING ENGINEER
WIT .         RAGHER               : Witness      - WITNESSED BY
BASE.         RED DEER             : Branch       - HOME BASE OF LOGGING UNIT
MUD .         GEL CHEM             : Mud_type     - MUD TYPE
MATR.         SANDSTONE            : Logunit      - NEUTRON MATRIX
TMAX.C        27                   : BHT          - MAXIMUM RECORDED TEMPERATURE
BHTD.M        536                  : BHTDEP       - MAXIMUM RECORDED TEMPERATURE
RMT .C        17                   : MDTP         - TEMPERATURE OF MUD
MUDD.KG/M     1055                 : MWT          - MUD DENSITY
NEUT.         1                    : NEUTRON      - NEUTRON TYPE
RESI.         0                    : RESIST       - RESISTIVITY TYPE
RM  .OHMM     0.4                  : RM           - RESISTIVITY OF MUD
RMC .OHMM     0.44                 : RMC          - RESISTIVITY OF MUD CAKE
RMF .OHMM     0.34                 : RMF          - RESISTIVITY OF MUD FILTRATE
SUFT.C        4.5                  : SUFT         - SURFACE TEMPERATURE
~A  DEPTH     RESD     PHID     PHIN       GR      CAL
# ...
  446.000    8.622    0.141    0.272   80.379    6.589
  446.250    9.230    0.116    0.272   67.794    6.575
  446.500   10.298    0.167    0.308   59.831    6.556
  446.750   11.599    0.188    0.332   62.488    6.504
  447.000   12.724    0.171    0.344   67.957    6.394
  447.250   13.518    0.126    0.305   66.620    6.326
  447.500   13.987    0.098    0.297   61.528    6.307
  447.750   14.473    0.182    0.320   52.314    6.280
  448.000   14.725    0.219    0.342   47.663    6.262
  448.250   14.237    0.262    0.371   51.823    6.260
  448.500   12.528    0.271    0.369   58.166    6.250
  448.750   10.757    0.275    0.359   64.635    6.231
  449.000    9.664    0.277    0.348   67.854    6.212
  449.250    8.982    0.279    0.340   69.136    6.190
  449.500    8.635    0.281    0.346   68.486    6.183
  449.750    8.540    0.279    0.354   66.518    6.198
  450.000    8.639    0.278    0.356   66.119    6.247
  450.250    8.789    0.278    0.364   66.837    6.290
  450.500    9.112    0.286    0.381   68.998    6.347
  450.750    9.200    0.298    0.395   70.967    6.382
  451.000    8.996    0.302    0.410   70.688    6.430
  451.250    8.472    0.297    0.392   69.348    6.466
  451.500    8.145    0.288    0.370   68.822    6.481
  451.750    8.071    0.276    0.396   68.352    6.466
  452.000    8.196    0.266    0.414   67.701    6.444
  452.250    8.464    0.254    0.397   66.982    6.383
  452.500    8.825    0.253    0.375   66.579    6.357
  452.750    9.131    0.264    0.382   66.174    6.375
  453.000    9.360    0.263    0.408   65.772    6.348
  453.250    9.888    0.266    0.423   63.306    6.276
  453.500   10.367    0.266    0.388   61.717    6.195
  453.750   10.789    0.238    0.337   63.061    6.176
  454.000   11.419    0.212    0.353   64.971    6.270
  454.250   11.905    0.215    0.359   67.941    6.377
  454.500   12.249    0.219    0.319   68.978    6.479
  454.750   11.933    0.205    0.317   67.635    6.535
  455.000   10.660    0.165    0.326   65.043    6.546
  455.250   11.871    0.136    0.314   61.140    6.544
  455.500   12.660    0.100    0.298   59.114    6.529
  455.750   12.953    0.134    0.343   62.021    6.507
  456.000   13.005    0.186    0.358   69.553    6.463
  456.250   12.132    0.180    0.353   74.022    6.424
  456.500   10.858    0.166    0.352   80.370    6.305
  456.750   10.034    0.169    0.356   83.900    6.228
  457.000    9.629    0.190    0.361   85.309    6.193
  457.250    9.310    0.206    0.364   83.716    6.187
  457.500    9.121    0.204    0.358   82.188    6.235
  457.750    9.106    0.206    0.355   81.476    6.267
  458.000    9.160    0.207    0.357   81.322    6.256
  458.250    9.197    0.208    0.362   81.040    6.221
  458.500    9.199    0.209    0.385   80.886    6.190
  458.750    9.271    0.208    0.400   81.297    6.175
  459.000    9.308    0.206    0.394   81.521    6.211
  459.250    9.328    0.204    0.345   81.925    6.230
  459.500    9.383    0.205    0.347   84.209    6.257
  459.750    9.403    0.210    0.356   85.681    6.309
  460.000    9.335    0.216    0.367   84.777    6.337
  460.250    9.197    0.225    0.368   84.313    6.385
  460.500    9.045    0.226    0.363   84.344    6.458
  460.750    8.962    0.219    0.346   85.002    6.523
  461.000    8.998    0.196    0.358   85.036    6.554
  461.250    9.120    0.183    0.361   84.509    6.565
  461.500    9.191    0.180    0.353   84.479    6.567
  461.750    9.210    0.186    0.349   82.765    6.561
  462.000    9.248    0.188    0.359   82.863    6.571
  462.250    9.198    0.172    0.377   82.584    6.611
  462.500    8.960    0.165    0.393   81.741    6.672
  462.750    8.845    0.176    0.379   83.088    6.682
  463.000    8.731    0.189    0.363   86.307    6.689
  463.250    8.570    0.202    0.348   88.968    6.699
  463.500    8.492    0.200    0.354   90.123    6.722
  463.750    8.446    0.192    0.360   90.284    6.708
  464.000    8.401    0.183    0.361   89.068    6.685
  464.250    8.355    0.173    0.365   88.479    6.675
  464.500    8.279    0.170    0.401   87.948    6.669
  464.750    8.234    0.177    0.389   86.856    6.646
  465.000    8.190    0.176    0.368   86.141    6.628
  465.250    8.161    0.171    0.356   85.362    6.592
  465.500    8.132    0.163    0.347   84.647    6.574
  465.750    8.119    0.164    0.334   91.991    6.535
  466.000    8.136    0.181    0.324   91.399    6.512
  466.250    8.184    0.200    0.316   86.810    6.485
  466.500    8.421    0.216    0.315   82.159    6.479
  466.750    8.615    0.229    0.320   81.006    6.469
  467.000    8.881    0.235    0.328   79.727    6.458
  467.250    9.052    0.234    0.342   77.138    6.440
  467.500    9.209    0.231    0.362   75.795    6.438
  467.750    9.405    0.219    0.356   75.081    6.432
  468.000    9.532    0.208    0.338   75.306    6.438
  468.250    9.588    0.202    0.331   76.273    6.461
  468.500    9.536    0.206    0.336   79.371    6.493
  468.750    9.220    0.204    0.360   83.213    6.528
  469.000    8.848    0.201    0.370   86.870    6.555
  469.250    8.685    0.196    0.361   90.278    6.570
  469.500    8.704    0.185    0.337   90.127    6.572
  469.750    9.074    0.127    0.294   86.785    6.546
  470.000   10.201    0.096    0.242   74.572    6.473
  470.250   12.181    0.065    0.247   60.611    6.433
  470.500   15.507    0.081    0.268   69.830    6.440
  470.750   20.422    0.123    0.291   76.798    6.438
  471.000   19.487    0.148    0.312   81.270    6.440
  471.250   18.213    0.144    0.307   81.304    6.451
  471.500   16.270    0.137    0.308   84.272    6.445
  471.750   14.507    0.132    0.315   91.554    6.435
  472.000   13.256    0.141    0.320   94.523    6.433
  472.250   11.999    0.154    0.314   92.496    6.431
  472.500   12.002    0.168    0.311   89.408    6.421
  472.750   12.211    0.180    0.314   87.503    6.393
  473.000   12.611    0.185    0.328   85.975    6.379
  473.250   13.272    0.178    0.324   86.322    6.369
  473.500   14.314    0.164    0.322   87.105    6.359
  473.750   15.323    0.145    0.325   85.452    6.373
  474.000   15.945    0.150    0.331   78.050    6.388
  474.250   16.314    0.211    0.338   76.211    6.403
  474.500   16.410    0.229    0.344   78.746    6.426
  474.750   16.445    0.227    0.350   80.529    6.433
  475.000   16.111    0.227    0.355   78.686    6.447
  475.250   15.725    0.227    0.358   78.472    6.491
  475.500   15.377    0.223    0.360   79.441    6.531
  475.750   15.265    0.209    0.357   80.225    6.583
  476.000   15.126    0.202    0.350   80.446    6.615
  476.250   14.875    0.198    0.332   81.607    6.600
  476.500   14.464    0.190    0.317   83.452    6.577
  476.750   14.117    0.175    0.328   83.612    6.546
  477.000   13.446    0.159    0.375   79.647    6.545
  477.250   11.989    0.155    0.397   80.990    6.568
  477.500   10.934    0.166    0.416   85.275    6.574
  477.750    9.621    0.174    0.426   88.494    6.564
  478.000    9.026    0.175    0.419   88.652    6.549
  478.250    8.827    0.170    0.367   90.499    6.556
  478.500    8.812    0.153    0.328   91.907    6.554
  478.750    9.050    0.137    0.318   91.067    6.544
  479.000    9.242    0.136    0.327   84.915    6.542
  479.250    9.244    0.144    0.345   85.136    6.527
  479.500    9.040    0.151    0.358   86.171    6.500
  479.750    8.691    0.157    0.362   88.201    6.486
  480.000    8.246    0.167    0.366   90.234    6.488
  480.250    7.621    0.174    0.372   91.394    6.482
  480.500    6.977    0.167    0.388   92.868    6.472
  480.750    6.399    0.167    0.393   94.023    6.483
  481.000    5.847    0.203    0.387   94.995    6.481
  481.250    5.454    0.227    0.382   94.091    6.483
  481.500    5.166    0.246    0.373   91.002    6.489
  481.750    5.386    0.262    0.352   76.414    6.487
  482.000    6.158    0.276    0.335   57.830    6.490
  482.250    7.722    0.283    0.327   47.181    6.492
