~VERSION INFORMATION
 VERS.                 2.0:   CWLS LOG ASCII STANDARD -VERSION 2.0
 WRAP.                  NO:   ONE LINE PER DEPTH STEP
~WELL INFORMATION BLOCK
#MNEM.UNIT           DATA                    DESCRIPTION OF MNEMONIC
#---------    -------------------            -------------------------------
# Generated from Intellog Unique Number	CS_69_70/WELL/2586
WELL.         08-16-069-07W4                 : Well_name    - WELL
LOC .         00/08-16-069-07W4/0            : Location     - LOCATION
UWI .         00/08-16-069-07W4/0            : Uwi          - UNIQUE WELL ID
ENTR.         TIM                            : Entered      - ENTERED BY
SRVC.         SCHLUMBERGER                   : Scn          - SERVICE COMPANY
STRT.M        285                            : top_depth    - START DEPTH
STOP.M        510                            : bot_depth    - STOP DEPTH
STEP.M        0.25                           : increment    - STEP LENGTH
 NULL. -999.2500:NULL Value
~CURVE INFORMATION BLOCK
#MNEM UNIT       ERCB CURVE CODE    CURVE DESCRIPTION
#-----------   ------------------   ----------------------------------
DEPT.M        00 001 00 00         : DEPTH        - DEPTH
ILD .OHMM     00 120 00 00         : RESD         - DEEP RESISTIVITY (DIL)
DPHI.V/V      00 890 00 00         : PHID         - DENSITY POROSITY (SANDSTONE)
NPHI.V/V      00 330 00 00         : PHIN         - NEUTRON POROSITY (SANDSTONE)
CALI.MM       00 280 01 00         : CAL          - CALIPER
GR  .API      00 310 00 00         : GR           - GAMMA RAY
~PARAMETER INFORMATION
#MNEM.UNIT           DATA             DESCRIPTION OF MNEMONIC
#---------         -----------     ------------------------------
GL  .M        623                  : gl           - GROUND LEVEL ELEVATION
EREF.M        627.1                : kb           - ELEVATION OF DEPTH REFERENCE
DATM.M        627.1                : datum        - DATUM ELEVATION
TDD .M        514                  : tdd          - TOTAL DEPTH DRILLER
RUN .         ONE                  : Run          - RUN NUMBER
ENG .         BILL                 : Engineer     - RECORDING ENGINEER
WIT .         JIM                  : Witness      - WITNESSED BY
MUD .         GEL                  : Mud_type     - MUD TYPE
MATR.         SANDSTONE            : Logunit      - NEUTRON MATRIX
TMAX.C        24                   : BHT          - MAXIMUM RECORDED TEMPERATURE
BHTD.M        514                  : BHTDEP       - MAXIMUM RECORDED TEMPERATURE
RMT .C        8                    : MDTP         - TEMPERATURE OF MUD
MUDD.KG/M     1000                 : MWT          - MUD DENSITY
NEUT.         1                    : NEUTRON      - NEUTRON TYPE
RESI.         0                    : RESIST       - RESISTIVITY TYPE
RM  .OHMM     6.6                  : RM           - RESISTIVITY OF MUD
RMC .OHMM     2.9                  : RMC          - RESISTIVITY OF MUD CAKE
RMF .OHMM     6.7                  : RMF          - RESISTIVITY OF MUD FILTRATE
SUFT.C        4                    : SUFT         - SURFACE TEMPERATURE
~A  DEPTH     RESD     PHID     PHIN      CAL       GR
  285.000    2.863    0.286    0.499  184.590  108.453
  285.250    2.865    0.279    0.501  182.597  110.291
  285.500    2.922    0.269    0.510  181.630  112.736
  285.750    3.036    0.258    0.519  184.703  116.396
  286.000    3.096    0.242    0.513  185.730  115.216
  286.250    3.217    0.226    0.491  187.784  114.015
  286.500    3.281    0.214    0.483  189.847  111.612
  286.750    3.286    0.239    0.488  189.881  108.604
  287.000    3.290    0.259    0.485  189.916  107.413
  287.250    3.355    0.259    0.479  189.959  107.434
  287.500    3.298    0.265    0.473  189.994  108.666
  287.750    3.303    0.272    0.469  190.029  111.716
  288.000    3.307    0.278    0.462  190.063  115.372
  288.250    3.312    0.273    0.453  190.089  119.028
  288.500    3.318    0.268    0.431  190.133  119.654
  288.750    3.202    0.262    0.420  190.176  116.040
  289.000    3.035    0.258    0.424  190.193  110.614
  289.250    2.929    0.268    0.480  191.246  109.423
  289.500    2.827    0.278    0.486  191.281  108.838
  289.750    2.991    0.296    0.494  189.296  108.253
  290.000    3.598    0.286    0.516  187.311  101.610
  290.250    4.833    0.262    0.409  179.268   82.244
  290.500    5.923    0.270    0.375  166.177   74.399
  290.750    6.039    0.312    0.377  160.153   74.410
  291.000    5.937    0.323    0.381  159.178   75.642
  291.250    5.732    0.304    0.379  161.250   81.721
  291.500    5.433    0.289    0.367  162.285   89.012
  291.750    5.438    0.287    0.383  163.330   98.726
  292.000    5.451    0.295    0.429  164.374   99.353
  292.250    5.556    0.291    0.419  164.409   83.016
  292.500    5.670    0.281    0.362  163.425   75.172
  292.750    5.674    0.272    0.333  161.466   78.817
  293.000    5.788    0.275    0.355  160.474   87.930
  293.250    5.796    0.277    0.366  159.499   92.798
  293.500    5.802    0.276    0.361  156.513   97.059
  293.750    5.811    0.270    0.364  155.538   95.868
  294.000    5.713    0.272    0.364  155.564   71.050
  294.250    5.617    0.276    0.353  156.608   61.378
  294.500    5.520    0.281    0.350  156.652   53.523
  294.750    5.528    0.289    0.347  156.695   48.697
  295.000    5.537    0.296    0.353  156.721   49.329
  295.250    5.546    0.305    0.348  156.747   51.768
  295.500    5.655    0.303    0.354  158.818   60.270
  295.750    5.662    0.296    0.378  159.854   64.532
  296.000    5.777    0.284    0.389  160.916   67.582
  296.250    5.891    0.266    0.381  160.942   73.666
  296.500    6.010    0.247    0.374  160.968   79.139
  296.750    6.016    0.239    0.372  161.020   91.276
  297.000    6.138    0.248    0.377  161.037   99.173
  297.250    6.260    0.250    0.385  162.081  103.435
  297.500    6.268    0.246    0.392  163.143  101.037
  297.750    6.391    0.249    0.402  163.160   99.847
  298.000    6.404    0.257    0.403  162.185   97.439
  298.250    6.408    0.269    0.402  160.209   93.229
  298.500    6.300    0.280    0.403  160.244   92.639
  298.750    6.308    0.293    0.403  160.279   92.059
  299.000    6.202    0.292    0.406  160.322   94.503
  299.250    6.210    0.281    0.410  161.358  100.582
  299.500    5.998    0.274    0.417  162.411  103.021
  299.750    6.004    0.267    0.422  164.465  101.830
  300.000    6.014    0.259    0.420  166.519   97.010
  300.250    5.911    0.257    0.410  167.554   97.641
  300.500    5.815    0.253    0.405  167.589   98.263
  300.750    5.819    0.250    0.417  167.641  100.117
  301.000    5.829    0.247    0.429  166.675  100.738
  301.250    5.835    0.251    0.417  165.682  101.354
  301.500    5.738    0.266    0.404  160.668  103.799
  301.750    5.744    0.281    0.405  155.663  107.454
  302.000    5.755    0.290    0.413  160.755  112.327
  302.250    5.655    0.289    0.416  164.811  115.377
  302.500    5.559    0.283    0.423  170.913  118.427
  302.750    5.079    0.269    0.434  174.978  120.265
  303.000    4.557    0.246    0.473  181.071  117.257
  303.250    4.162    0.254    0.489  185.144  113.643
  303.500    4.019    0.294    0.482  180.148  109.423
  303.750    4.330    0.323    0.464  178.163  103.991
  304.000    4.668    0.304    0.447  183.246   99.771
  304.250    4.850    0.278    0.421  189.339   97.979
  304.500    5.037    0.262    0.409  191.402   96.783
  304.750    5.135    0.248    0.387  191.419   95.593
  305.000    5.240    0.250    0.391  188.433   92.589
  305.250    5.244    0.267    0.414  183.411   90.182
  305.500    5.253    0.277    0.424  178.405   84.144
  305.750    5.260    0.275    0.420  176.412   79.318
  306.000    5.368    0.269    0.404  170.397   78.739
  306.250    5.371    0.267    0.386  168.412   79.971
  306.500    5.580    0.264    0.380  168.447   79.997
  306.750    5.798    0.258    0.369  168.482   80.013
  307.000    6.020    0.261    0.379  168.516   80.028
  307.250    6.258    0.273    0.393  168.560   78.848
  307.500    6.264    0.297    0.398  168.594   75.834
  307.750    6.511    0.333    0.395  168.629   71.614
  308.000    6.515    0.369    0.444  168.664   66.788
  308.250    6.768    0.448    0.524  167.680   62.574
  308.500    6.902    0.417    0.532  164.694   61.388
  308.750    7.172    0.410    0.531  164.720   61.404
  309.000    7.179    0.394    0.552  163.754   65.660
  309.250    7.189    0.309    0.576  162.770   71.739
  309.500    6.939    0.310    0.524  161.804   70.548
  309.750    6.459    0.312    0.500  160.828   69.357
  310.000    6.122    0.316    0.446  160.872   71.801
  310.250    6.020    0.319    0.423  159.897   76.679
  310.500    5.915    0.322    0.418  159.931   80.936
  310.750    5.927    0.323    0.422  159.966   87.620
  311.000    5.939    0.325    0.449  159.992   80.371
  311.250    5.836    0.325    0.440  160.027   70.699
  311.500    5.842    0.325    0.423  160.061   62.238
  311.750    5.742    0.324    0.411  160.105   56.201
  312.000    5.647    0.321    0.403  160.131   51.981
  312.250    5.550    0.320    0.394  160.174   50.189
  312.500    5.559    0.315    0.389  160.217   52.633
  312.750    5.463    0.313    0.384  160.261   54.466
  313.000    5.572    0.308    0.380  160.295   58.122
  313.250    5.685    0.303    0.380  161.331   62.995
  313.500    5.696    0.298    0.381  161.357   66.650
  313.750    5.702    0.293    0.381  161.392   66.671
  314.000    5.707    0.287    0.381  161.426   65.486
  314.250    5.719    0.285    0.381  162.471   65.506
  314.500    5.725    0.284    0.381  163.524   69.162
  314.750    5.734    0.282    0.376  163.550   73.418
  315.000    5.844    0.282    0.374  163.584   78.892
  315.250    5.854    0.281    0.375  164.646   85.577
  315.500    5.864    0.276    0.380  165.690   87.420
  315.750    5.763    0.270    0.388  165.725   84.412
  316.000    5.773    0.268    0.396  166.769   86.250
  316.250    5.782    0.269    0.385  166.795   91.723
  316.500    5.681    0.275    0.387  167.849   95.379
  316.750    5.585    0.286    0.400  168.902   94.193
  317.000    5.393    0.303    0.413  168.919   94.209
  317.250    5.209    0.322    0.440  167.944   96.658
  317.500    5.116    0.337    0.464  165.968   99.708
  317.750    5.030    0.352    0.472  162.965   93.665
  318.000    4.945    0.357    0.474  159.979   83.993
  318.250    4.862    0.358    0.458  157.994   76.744
  318.500    4.873    0.358    0.440  158.037   67.677
  318.750    4.875    0.357    0.426  159.073   61.034
  319.000    4.881    0.354    0.413  159.108   63.478
  319.250    4.889    0.348    0.406  162.171   67.139
  319.500    4.899    0.342    0.401  166.254   72.007
  319.750    4.902    0.330    0.408  171.328   79.297
  320.000    5.000    0.321    0.414  179.441   91.435
  320.250    5.291    0.342    0.431  184.541   95.696
  320.500    5.700    0.349    0.464  181.547  105.415
  320.750    6.489    0.320    0.461  177.534  113.918
  321.000    7.667    0.289    0.455  171.519  108.486
  321.250    9.229    0.260    0.450  168.524   92.755
