~VERSION INFORMATION
 VERS.                 2.0:   CWLS LOG ASCII STANDARD -VERSION 2.0
 WRAP.                  NO:   ONE LINE PER DEPTH STEP
~WELL INFORMATION BLOCK
#MNEM.UNIT           DATA                    DESCRIPTION OF MNEMONIC
#---------    -------------------            -------------------------------
# Generated from Intellog Unique Number	CC_80_83/WELL/2306
NULL.         -999.25                        : NULL_VALUE
WELL.         GULF RESDELN                   : Well_name    - WELL              
LOC .         07-33-083-07W4                 : Location     - LOCATION          
UWI .         00/07-33-083-07W4/0            : Uwi          - UNIQUE WELL ID    
ENTR.         DW                             : Entered      - ENTERED BY        
SRVC.         SCHLUMBERGER                   : Scn          - SERVICE COMPANY   
DATE.         25 JAN 79                      : Date         - LOG DATE
STRT.M        130                            : top_depth    - START DEPTH       
STOP.M        405.095                        : bot_depth    - STOP DEPTH        
STEP.M        0.3                            : increment    - STEP LENGTH       
~CURVE INFORMATION BLOCK
#MNEM UNIT       ERCB CURVE CODE    CURVE DESCRIPTION
#-----------   ------------------   ----------------------------------
DEPT.M        00 001 00 00         : DEPTH        - DEPTH                       
DPHI.V/V      00 890 00 00         : PHID         - DENSITY POROSITY (LIMESTONE)
NPHI.V/V      00 330 00 00         : PHIN         - NEUTRON POROSITY (LIMESTONE)
GR  .API      00 310 00 00         : GR           - GAMMA RAY                   
ILD .OHMM     00 120 00 00         : RESD         - DEEP RESISTIVITY (DIL)      
~PARAMETER INFORMATION       
#MNEM.UNIT           DATA             DESCRIPTION OF MNEMONIC
#---------         -----------     ------------------------------
GL  .M        613.79               : gl           - GROUND LEVEL ELEVATION      
EREF.M        617.06               : kb           - ELEVATION OF DEPTH REFERENCE
DATM.M        617.06               : datum        - DATUM ELEVATION             
TDD .M        407                  : tdd          - TOTAL DEPTH DRILLER         
RUN .         ONE                  : Run          - RUN NUMBER                  
ENG .         BILL                 : Engineer     - RECORDING ENGINEER          
WIT .         JIM                  : Witness      - WITNESSED BY                
MUD .         GEL                  : Mud_type     - MUD TYPE                    
MATR.         LIMESTONE            : Logunit      - NEUTRON MATRIX              
TMAX.C        0                    : BHT          - MAXIMUM RECORDED TEMPERATURE
BHTD.M        407                  : BHTDEP       - MAXIMUM RECORDED TEMPERATURE
MATR.         1                    : LOGUNIT      - NEUTRON MATRIX              
RMT .C        25                   : MDTP         - TEMPERATURE OF MUD          
NEUT.         1                    : NEUTRON      - NEUTRON TYPE                
RESI.         0                    : RESIST       - RESISTIVITY TYPE            
RMC .OHMM     0.25                 : RMC          - RESISTIVITY OF MUD CAKE     
RMF .OHMM     0.25                 : RMF          - RESISTIVITY OF MUD FILTRATE 
SUFT.C        4                    : SUFT         - SURFACE TEMPERATURE         
~A  DEPTH     PHID     PHIN       GR     RESD
# ...
  182.201    0.345    0.410   86.866   22.740
  182.501    0.329    0.431   88.072   24.512
  182.801    0.319    0.448   80.057   25.439
  183.101    0.317    0.422   84.335   25.419
  183.401    0.322    0.413   80.010   24.918
  183.701    0.342    0.418   76.909   24.436
  184.001    0.329    0.434   75.662   24.413
  184.301    0.323    0.441   71.331   24.861
  184.601    0.318    0.439   70.695   24.845
  184.901    0.332    0.415   73.747   24.829
  185.201    0.318    0.427   78.020   24.341
  185.501    0.319    0.455   82.300   23.864
  185.801    0.309    0.456   88.422   22.534
  186.101    0.308    0.430   93.316   20.875
  186.401    0.272    0.421   95.141   18.973
  186.701    0.272    0.406   96.345   16.294
  187.001    0.256    0.404   96.321   13.222
  187.301    0.253    0.424  100.601   10.727
  187.601    0.242    0.427  106.109    9.389
  187.901    0.223    0.437  107.315    8.534
  188.201    0.253    0.453  102.375    8.691
  188.501    0.298    0.469   91.901   10.297
  188.801    0.336    0.476   91.263   14.197
  189.101    0.300    0.448   99.232   15.595
  189.401    0.264    0.433  105.968   13.647
  189.701    0.146    0.431  109.631   10.662
  190.001    0.145    0.435  113.912    7.869
  190.301    0.111    0.477  120.035    6.758
  190.601    0.156    0.496  115.092    5.804
  190.901    0.229    0.505  122.445    5.276
  191.201    0.213    0.522  113.202    5.271
  191.501    0.267    0.526   98.428    5.682
  191.801    0.309    0.468   69.516    7.543
  192.101    0.318    0.441   62.117   12.100
  192.401    0.325    0.411   60.250   21.743
  192.701    0.317    0.413   63.295   23.434
  193.001    0.294    0.382   69.420   22.125
  193.301    0.278    0.386   75.541   19.362
  193.601    0.249    0.395   93.346   16.627
  193.901    0.250    0.399   93.936   15.404
  194.201    0.246    0.411   85.922   14.820
  194.501    0.265    0.420   84.667   14.529
  194.801    0.266    0.412   84.645   14.518
  195.101    0.259    0.411   82.164   14.785
  195.401    0.280    0.421   80.910   15.056
  195.701    0.293    0.410   79.660   15.334
  196.001    0.287    0.410   81.479   15.912
  196.301    0.298    0.428   79.610   16.516
  196.601    0.309    0.459   78.360   17.137
  196.901    0.300    0.430   90.013   17.449
  197.201    0.292    0.411   85.073   17.113
  197.501    0.281    0.394   79.517   17.101
  197.801    0.285    0.399   83.183   16.768
  198.101    0.285    0.396   92.376   15.829
  198.401    0.267    0.392   92.349   14.664
  198.701    0.263    0.398   90.487   14.109
  199.001    0.271    0.419   87.390   13.833
  199.301    0.278    0.427   81.221   13.821
  199.601    0.294    0.428   83.653   14.344
  199.901    0.289    0.434   86.088   14.333
  200.201    0.282    0.423   84.833   14.876
  200.501    0.266    0.406   82.354   16.034
  200.801    0.261    0.389   77.412   16.642
  201.101    0.291    0.422   78.620   16.010
  201.401    0.268    0.405   83.513   15.404
  201.701    0.259    0.413   90.251   14.820
  202.001    0.254    0.425   90.838   14.259
  202.301    0.274    0.415   89.589   13.460
  202.601    0.254    0.438   83.417   13.198
  202.901    0.261    0.435   81.550   12.941
  203.201    0.268    0.421   87.059   12.687
  203.501    0.269    0.414   89.495   12.676
  203.801    0.271    0.410   88.242   12.670
  204.101    0.270    0.404   86.374   13.145
  204.401    0.267    0.407   82.664   13.642
  204.701    0.275    0.414   78.952   13.895
  205.001    0.281    0.424   82.002   14.149
  205.301    0.274    0.434   84.435   14.140
  205.601    0.274    0.421   81.337   14.399
  205.901    0.295    0.403   75.784   14.944
  206.201    0.291    0.409   72.070   16.415
  206.501    0.294    0.420   69.591   18.030
  206.801    0.310    0.406   68.339   18.710
  207.101    0.294    0.401   79.994   17.662
  207.401    0.273    0.421   85.501   16.679
  207.701    0.300    0.430   79.945   15.449
  208.001    0.288    0.428   77.461   15.149
  208.301    0.279    0.423   77.441   14.852
  208.601    0.296    0.407   81.103   15.121
  208.901    0.256    0.421   89.070   15.112
  209.201    0.235    0.407   86.587   14.820
  209.501    0.218    0.396   91.482   14.258
  209.801    0.254    0.410  108.669   12.716
  210.101    0.216    0.427  119.709   10.516
  210.401    0.230    0.469  130.134    8.215
  210.701    0.221    0.485  131.954    6.298
  211.001    0.217    0.469  130.087    5.945
  211.301    0.212    0.452  128.220    6.168
  211.601    0.220    0.445  129.421    6.777
  211.901    0.232    0.430  125.713    8.030
  212.201    0.231    0.419  122.001    9.696
  212.501    0.235    0.424  118.903   10.855
  212.801    0.230    0.410  116.417   11.265
  213.101    0.236    0.403  117.013   11.043
  213.401    0.183    0.406  118.834   10.625
  213.701    0.209    0.413  120.651   10.223
  214.001    0.203    0.423  122.475    9.836
  214.301    0.213    0.440  123.066    9.642
  214.601    0.251    0.451  120.582   10.008
  214.901    0.271    0.454  116.260   10.389
  215.201    0.290    0.433  107.630   11.629
  215.501    0.297    0.417  103.919   13.018
  215.801    0.273    0.431  106.352   14.031
  216.101    0.282    0.438  103.872   14.289
  216.401    0.297    0.429   95.856   14.008
  216.701    0.292    0.418  105.054   13.227
  217.001    0.272    0.433  106.256   12.252
  217.301    0.259    0.430  103.777   12.243
  217.601    0.269    0.428   95.760   12.235
  217.901    0.287    0.432   79.761   13.695
  218.201    0.306    0.433   66.828   15.924
  218.501    0.332    0.436   57.586   19.968
  218.801    0.333    0.416   52.646   22.781
  219.101    0.335    0.405   51.391   24.097
  219.401    0.343    0.394   50.753   25.479
  219.701    0.327    0.407   47.656   25.466
  220.001    0.320    0.390   45.787   24.966
  220.301    0.317    0.365   47.603   24.481
  220.601    0.323    0.382   51.887   23.113
  220.901    0.320    0.402   59.239   21.407
  221.201    0.322    0.376   62.902   20.212
  221.501    0.309    0.389   60.421   19.082
  221.801    0.314    0.416   53.638   18.704
  222.101    0.327    0.426   52.383   19.411
  222.401    0.336    0.427   52.358   20.149
  222.701    0.336    0.428   49.264   20.913
  223.001    0.337    0.434   52.310   21.297
  223.301    0.341    0.440   52.290   21.281
  223.601    0.345    0.453   50.419   20.090
  223.901    0.331    0.423   48.548   19.695
  224.201    0.334    0.442   49.763   19.678
  224.501    0.341    0.438   53.422   21.209
  224.801    0.335    0.420   55.860   22.019
  225.101    0.336    0.414   56.446   24.641
  225.401    0.329    0.415   56.426   26.064
  225.701    0.321    0.418   57.021   26.539
  226.001    0.341    0.407   58.225   26.519
  226.301    0.333    0.412   61.886   26.004
  226.601    0.331    0.403   58.179   25.020
  226.901    0.335    0.413   62.455   24.533
  227.201    0.338    0.421   66.122   24.054
  227.501    0.337    0.414   65.484   23.584
  227.801    0.336    0.431   58.081   23.566
  228.101    0.334    0.429   55.602   23.998
  228.401    0.350    0.417   58.035   24.905
  228.701    0.362    0.419   61.084   24.885
  229.001    0.358    0.427   63.518   24.404
  229.301    0.356    0.423   60.426   24.382
  229.601    0.346    0.416   59.169   23.906
  229.901    0.342    0.429   60.993   23.888
  230.201    0.352    0.443   59.737   24.326
  230.501    0.353    0.439   58.483   24.775
  230.801    0.342    0.441   60.303   25.228
  231.101    0.326    0.436   60.898   25.692
  231.401    0.299    0.404   60.873   25.673
  231.701    0.313    0.420   59.006   25.175
  232.001    0.338    0.417   57.141   24.683
  232.301    0.347    0.416   55.274   24.201
  232.601    0.345    0.425   53.403   24.644
  232.901    0.351    0.427   52.151   25.092
  233.201    0.346    0.427   50.285   25.069
  233.501    0.348    0.427   49.645   25.059
  233.801    0.346    0.426   49.619   25.517
  234.101    0.345    0.423   46.522   25.495
