~VERSION INFORMATION
 VERS.                 2.0:   CWLS LOG ASCII STANDARD -VERSION 2.0
 WRAP.                  NO:   ONE LINE PER DEPTH STEP
~WELL INFORMATION BLOCK
#MNEM.UNIT           DATA                    DESCRIPTION OF MNEMONIC
#---------    -------------------            -------------------------------
# Generated from Intellog Unique Number	CS_77_79/WELL/855
WELL.         CWWE HARDY                     : Well_name    - WELL
LOC .         00/05-15-078-04W4/0            : Location     - LOCATION
UWI .         00/05-15-078-04W4/0            : Uwi          - UNIQUE WELL ID
ENTR.         JHS                            : Entered      - ENTERED BY
SRVC.         SCHLUMBERGER                   : Scn          - SERVICE COMPANY
STRT.M        140                            : top_depth    - START DEPTH
STOP.M        405                            : bot_depth    - STOP DEPTH
STEP.M        0.25                           : increment    - STEP LENGTH
 NULL. -999.2500:NULL Value
~CURVE INFORMATION BLOCK
#MNEM UNIT       ERCB CURVE CODE    CURVE DESCRIPTION
#-----------   ------------------   ----------------------------------
DEPT.M        00 001 00 00         : DEPTH        - DEPTH
DPHI.V/V      00 890 00 00         : PHID         - DENSITY POROSITY (LIMESTONE)
NPHI.V/V      00 330 00 00         : PHIN         - NEUTRON POROSITY (LIMESTONE)
GR  .API      00 310 00 00         : GR           - GAMMA RAY
ILD .OHMM     00 120 00 00         : RESD         - DEEP RESISTIVITY (DIL)
RHOB.KG/M3    00 350 00 00         : DENS         - BULK DENSITY
~PARAMETER INFORMATION
#MNEM.UNIT           DATA             DESCRIPTION OF MNEMONIC
#---------         -----------     ------------------------------
GL  .M        562.55               : gl           - GROUND LEVEL ELEVATION
EREF.M        566.5                : kb           - ELEVATION OF DEPTH REFERENCE
DATM.M        566.5                : datum        - DATUM ELEVATION
TDD .M        420                  : tdd          - TOTAL DEPTH DRILLER
RUN .         ONE                  : Run          - RUN NUMBER
ENG .         BILL                 : Engineer     - RECORDING ENGINEER
WIT .         JIM                  : Witness      - WITNESSED BY
MUD .         GEL                  : Mud_type     - MUD TYPE
MATR.         LIMESTONE            : Logunit      - NEUTRON MATRIX
TMAX.C        23                   : BHT          - MAXIMUM RECORDED TEMPERATURE
BHTD.M        420                  : BHTDEP       - MAXIMUM RECORDED TEMPERATURE
MATR.         1                    : LOGUNIT      - NEUTRON MATRIX
RMT .C        25                   : MDTP         - TEMPERATURE OF MUD
NEUT.         1                    : NEUTRON      - NEUTRON TYPE
RESI.         0                    : RESIST       - RESISTIVITY TYPE
RMC .OHMM     0.25                 : RMC          - RESISTIVITY OF MUD CAKE
RMF .OHMM     0.25                 : RMF          - RESISTIVITY OF MUD FILTRATE
SUFT.C        15                   : SUFT         - SURFACE TEMPERATURE
~A  DEPTH     PHID     PHIN       GR     RESD     DENS
# ...
  322.500    0.332    0.139   50.462   44.206 2142.270
  322.750    0.332    0.138   51.104   41.824 2142.360
  323.000    0.344    0.116   54.867   37.401 2121.330
  323.250    0.360    0.107   53.028   38.169 2093.960
  323.500    0.380    0.105   46.211   40.441 2060.290
  323.750    0.397    0.096   44.996   42.851 2030.840
  324.000    0.407    0.084   51.869   42.879 2014.040
  324.250    0.417    0.075   45.675   40.570 1997.250
  324.500    0.420    0.070   40.098   34.294 1991.000
  324.750    0.425    0.065   38.892   31.230 1982.680
  325.000    0.430    0.067   40.155   22.687 1974.320
  325.250    0.402    0.093   42.672   12.655 2022.960
  325.500    0.356    0.181   43.944    7.611 2101.160
  325.750    0.304    0.257   48.953    4.755 2189.910
  326.000    0.281    0.302   45.246    3.521 2230.120
  326.250    0.281    0.321   40.922    3.207 2230.210
  326.500    0.285    0.329   38.461    3.034 2221.870
  326.750    0.293    0.327   39.733    2.871 2209.330
  327.000    0.296    0.322   38.517    2.822 2203.060
  327.250    0.300    0.316   36.673    2.720 2196.830
  327.500    0.300    0.309   36.080    2.722 2196.940
  327.750    0.302    0.318   50.423    2.726 2192.790
  328.000    0.299    0.312   54.184    2.679 2199.210
  328.250    0.285    0.309   53.590    2.683 2222.530
  328.500    0.280    0.313   48.020    2.636 2231.070
  328.750    0.300    0.318   41.206    2.639 2197.400
  329.000    0.302    0.321   39.367    2.641 2193.270
  329.250    0.293    0.322   39.391    2.595 2208.130
  329.500    0.288    0.322   39.423    2.598 2216.670
  329.750    0.287    0.317   40.068    2.554 2218.880
  330.000    0.288    0.312   45.079    2.509 2216.870
  330.250    0.290    0.311   45.101    2.511 2214.860
  330.500    0.290    0.324   40.155    2.468 2214.950
  330.750    0.302    0.330   41.425    2.518 2193.930
  331.000    0.310    0.331   43.319    2.522 2179.250
  331.250    0.314    0.331   41.486    2.621 2173.020
  331.500    0.308    0.330   38.399    2.673 2183.680
  331.750    0.308    0.329   40.914    2.833 2183.770
  332.000    0.303    0.332   68.950    3.059 2192.320
  332.250    0.282    0.327   82.670    3.181 2228.290
  332.500    0.245    0.332   95.768    3.307 2291.700
  332.750    0.222    0.358  102.642    3.310 2329.800
  333.000    0.216    0.396  100.810    3.192 2340.450
  333.250    0.237    0.405   87.140    3.020 2304.660
  333.500    0.281    0.399   64.760    2.804 2228.760
  333.750    0.343    0.386   44.252    2.652 2123.300
  334.000    0.341    0.369   40.551    2.510 2127.630
  334.250    0.315    0.332   39.327    2.420 2172.050
  334.500    0.295    0.318   35.624    2.378 2205.940
  334.750    0.296    0.313   38.147    2.381 2203.940
  335.000    0.305    0.313   41.903    2.383 2189.250
  335.250    0.312    0.318   41.314    2.433 2176.670
  335.500    0.313    0.323   39.480    2.482 2174.660
  335.750    0.309    0.324   42.621    2.531 2181.070
  336.000    0.293    0.322   46.996    2.682 2208.600
  336.250    0.271    0.317   56.360    2.841 2246.700
  336.500    0.245    0.315   68.832    3.068 2291.130
  336.750    0.230    0.325   77.573    3.250 2316.570
  337.000    0.236    0.331   73.867    3.510 2306.090
  337.250    0.265    0.334   64.569    3.580 2257.670
  337.500    0.261    0.332   63.967    3.453 2264.080
  337.750    0.247    0.366   85.782    3.328 2287.380
  338.000    0.262    0.387   75.228    2.976 2262.140
  338.250    0.314    0.383   61.560    2.711 2173.590
  338.500    0.325    0.352   42.920    2.516 2154.680
  338.750    0.332    0.341   41.701    2.382 2142.120
  339.000    0.339    0.343   44.223    2.384 2129.550
  339.250    0.333    0.347   44.248    2.387 2140.180
  339.500    0.315    0.348   51.125    2.436 2171.950
  339.750    0.306    0.347   51.149    2.485 2186.820
  340.000    0.313    0.345   48.064    2.536 2174.270
  340.250    0.322    0.331   43.745    2.491 2159.580
  340.500    0.326    0.326   41.911    2.448 2153.330
  340.750    0.321    0.339   42.549    2.404 2161.870
  341.000    0.314    0.349   45.691    2.408 2172.520
  341.250    0.320    0.349   44.472    2.456 2162.070
  341.500    0.327    0.345   42.641    2.555 2151.610
  341.750    0.324    0.331   42.053    2.605 2155.940
  342.000    0.310    0.328   43.315    2.709 2179.260
  342.250    0.297    0.334   50.186    2.816 2202.560
  342.500    0.282    0.331   64.531    2.874 2227.970
  342.750    0.271    0.331   68.913    2.824 2247.060
  343.000    0.277    0.345   63.348    2.774 2236.600
  343.250    0.303    0.351   62.126    2.674 2192.380
  343.500    0.303    0.352   69.006    2.628 2192.460
  343.750    0.289    0.349   70.278    2.533 2215.790
  344.000    0.291    0.340   67.186    2.537 2211.670
  344.250    0.317    0.337   57.878    2.446 2167.430
  344.500    0.337    0.351   49.195    2.314 2133.770
  344.750    0.347    0.360   44.245    2.231 2116.950
  345.000    0.346    0.350   43.028    2.193 2119.160
  345.250    0.341    0.357   44.306    2.153 2127.720
  345.500    0.343    0.366   44.958    2.198 2123.600
  345.750    0.345    0.368   44.362    2.201 2119.460
  346.000    0.340    0.361   44.387    2.245 2127.980
  346.250    0.325    0.353   46.289    2.248 2153.440
  346.500    0.323    0.351   44.444    2.292 2157.760
  346.750    0.328    0.351   44.468    2.340 2149.390
  347.000    0.322    0.348   50.719    2.342 2160.030
  347.250    0.319    0.344   53.863    2.346 2164.340
  347.500    0.329    0.349   50.774    2.349 2147.570
  347.750    0.340    0.354   42.092    2.351 2128.650
  348.000    0.344    0.342   40.253    2.355 2122.410
  348.250    0.326    0.325   45.263    2.357 2152.070
  348.500    0.310    0.315   46.534    2.404 2179.600
  348.750    0.306    0.314   44.691    2.409 2186.020
  349.000    0.324    0.322   39.745    2.456 2156.570
  349.250    0.322    0.326   37.905    2.555 2158.780
  349.500    0.311    0.324   39.178    2.556 2177.870
  349.750    0.302    0.311   47.914    2.710 2192.750
  350.000    0.301    0.306   65.369    2.712 2194.950
  350.250    0.302    0.311   83.449    2.819 2192.930
  350.500    0.301    0.326   89.076    2.772 2195.160
  350.750    0.299    0.339   71.679    2.722 2199.470
  351.000    0.300    0.349   51.169    2.576 2197.450
  351.250    0.317    0.349   41.240    2.483 2168.000
  351.500    0.342    0.344   37.536    2.306 2125.860
  351.750    0.346    0.340   40.054    2.223 2117.530
  352.000    0.339    0.338   40.699    2.225 2130.280
  352.250    0.328    0.329   37.627    2.271 2149.390
  352.500    0.315    0.328   37.653    2.316 2170.580
  352.750    0.303    0.330   41.406    2.363 2191.780
  353.000    0.304    0.344   52.637    2.367 2189.760
  353.250    0.347    0.360   62.004    2.325 2115.970
  353.500    0.363    0.367   60.794    2.284 2088.630
  353.750    0.350    0.363   52.722    2.202 2111.940
  354.000    0.331    0.360   43.416    2.163 2143.710
  354.250    0.321    0.353   45.312    2.126 2160.680
  354.500    0.342    0.348   49.079    2.050 2124.920
  354.750    0.342    0.351   50.972    2.014 2124.990
  355.000    0.317    0.359   51.623    2.016 2167.310
  355.250    0.327    0.365   47.929    2.019 2150.520
  355.500    0.337    0.367   47.317    2.060 2133.730
  355.750    0.330    0.359   49.834    2.062 2146.490
  356.000    0.310    0.354   56.086    2.145 2180.360
  356.250    0.294    0.345   61.094    2.188 2207.900
  356.500    0.291    0.338   59.878    2.232 2212.220
  356.750    0.316    0.342   47.459    2.193 2170.090
  357.000    0.333    0.347   38.774    2.154 2140.630
  357.250    0.329    0.351   40.054    2.118 2147.060
  357.500    0.323    0.349   38.216    2.120 2157.730
  357.750    0.325    0.345   34.506    2.083 2153.590
  358.000    0.336    0.346   38.264    2.047 2134.670
  358.250    0.349    0.352   42.029    2.048 2113.660
  358.500    0.361    0.372   40.815    2.051 2092.650
  358.750    0.376    0.400   42.711    2.092 2067.430
