~VERSION INFORMATION
 VERS.                 2.0:   CWLS LOG ASCII STANDARD -VERSION 2.0
 WRAP.                  NO:   ONE LINE PER DEPTH STEP
~WELL INFORMATION BLOCK
#MNEM.UNIT           DATA                    DESCRIPTION OF MNEMONIC
#---------    -------------------            -------------------------------
# Generated from Intellog Unique Number	CW_82_90/WELL/3060
WELL.         TEXEX WABASCA                  : Well_name    - WELL
LOC .         00/07-01-085-22W4/0            : Location     - LOCATION
UWI .         00/07-01-085-22W4/0            : Uwi          - UNIQUE WELL ID
ENTR.         JAYE                           : Entered      - ENTERED BY
SRVC.         WESTERN ATLAS                  : Scn          - SERVICE COMPANY
DATE.         4 FEB 75                       : Date         - LOG DATE
STRT.M        192.024                        : top_depth    - START DEPTH
STOP.M        426.774                        : bot_depth    - STOP DEPTH
STEP.M        0.25                           : increment    - STEP LENGTH
 NULL. -999.2500:NULL Value
~CURVE INFORMATION BLOCK
#MNEM UNIT       ERCB CURVE CODE    CURVE DESCRIPTION
#-----------   ------------------   ----------------------------------
DEPT.M        00 001 00 00         : DEPTH        - DEPTH
CALI.MM       00 280 01 00         : CAL          - CALIPER
GR  .API      00 310 00 00         : GR           - GAMMA RAY
NPHI.V/V      00 330 00 00         : PHIN         - NEUTRON POROSITY (SANDSTONE)
DPHI.V/V      00 890 00 00         : PHID         - DENSITY POROSITY (SANDSTONE)
ILD .OHMM     00 120 00 00         : RESD         - DEEP RESISTIVITY (DIL)
~PARAMETER INFORMATION
#MNEM.UNIT           DATA             DESCRIPTION OF MNEMONIC
#---------         -----------     ------------------------------
GL  .M        605.485              : gl           - GROUND LEVEL ELEVATION
EREF.M        608.533              : kb           - ELEVATION OF DEPTH REFERENCE
DATM.M        605.485              : datum        - DATUM ELEVATION
TDD .M        380.695              : tdd          - TOTAL DEPTH DRILLER
RUN .         ONE                  : Run          - RUN NUMBER
ENG .         CLARK                : Engineer     - RECORDING ENGINEER
WIT .         McDOUGAL             : Witness      - WITNESSED BY
MUD .         CHEM GEL             : Mud_type     - MUD TYPE
MATR.         SANDSTONE            : Logunit      - NEUTRON MATRIX
TMAX.C        25                   : BHT          - MAXIMUM RECORDED TEMPERATURE
BHTD.M        380.695              : BHTDEP       - MAXIMUM RECORDED TEMPERATURE
RMT .C        15.5556              : MDTP         - TEMPERATURE OF MUD
MUDD.KG/M     9200                 : MWT          - MUD DENSITY
NEUT.         1                    : NEUTRON      - NEUTRON TYPE
RESI.         0                    : RESIST       - RESISTIVITY TYPE
RM  .OHMM     8.8                  : RM           - RESISTIVITY OF MUD
RMC .OHMM     0                    : RMC          - RESISTIVITY OF MUD CAKE
RMF .OHMM     0                    : RMF          - RESISTIVITY OF MUD FILTRATE
SUFT.C        4                    : SUFT         - SURFACE TEMPERATURE
~A  DEPTH      CAL       GR     PHIN     PHID     RESD
  192.024  239.074   49.228    0.452    0.204    2.835
  192.274  239.121   46.433    0.476    0.187    2.940
  192.524  240.291   44.070    0.497    0.217    2.993
  192.774  243.335   43.355    0.512    0.244    3.048
  193.024  245.867   42.832    0.510    0.260    3.047
  193.274  244.450   42.121    0.492    0.261    3.047
  193.524  241.696   41.288    0.483    0.256    3.075
  193.774  241.521   40.818    0.475    0.258    3.074
  194.024  240.419   40.039    0.471    0.264    3.046
  194.274  240.143   39.694    0.476    0.267    3.019
  194.524  240.601   40.455    0.471    0.266    2.991
  194.774  240.227   41.399    0.447    0.266    3.018
  195.024  239.539   43.806    0.420    0.266    3.158
  195.274  238.022   41.990    0.391    0.255    5.637
  195.524  236.294   33.807    0.365    0.241    7.133
  195.774  234.470   31.994    0.354    0.196   10.247
  196.024  233.363   20.994    0.351    0.203   21.926
  196.274  236.095   17.590    0.365    0.190   30.652
  196.524  237.171   22.942    0.383    0.172   40.953
  196.774  235.036   23.695    0.407    0.141   44.832
  197.024  231.339   24.331    0.424    0.335   44.828
  197.274  231.792   25.517    0.423    0.336   44.020
  197.524  231.834   24.130    0.415    0.323   42.835
  197.774  231.038   26.543    0.407    0.300   41.683
  198.024  230.252   25.462    0.413    0.295   40.562
  198.274  229.256   23.406    0.407    0.307   39.830
  198.524  229.292   26.425    0.386    0.319   39.468
  198.774  229.223   23.756    0.380    0.330   39.464
  199.024  229.261   21.326    0.384    0.345   40.182
  199.274  229.298   29.189    0.411    0.347   40.544
  199.524  229.852   26.026    0.410    0.333   41.657
  199.774  231.756   27.027    0.401    0.319   42.800
  200.024  233.976   29.438    0.399    0.315   43.579
  200.274  234.428   21.930    0.403    0.315   44.372
  200.524  232.909   28.687    0.422    0.319   45.179
  200.774  233.776   21.303    0.430    0.318   46.842
  201.024  235.480   17.404    0.427    0.310   48.127
  201.274  235.307   18.959    0.417    0.316   48.561
  201.524  236.076   20.759    0.410    0.321   49.894
  201.774  238.388   14.228    0.396    0.320   52.675
  202.024  242.785   11.679    0.392    0.323   56.627
  202.274  244.376    9.928    0.392    0.327   58.183
  202.524  242.336   12.092    0.394    0.322   56.619
  202.774  239.265    9.358    0.397    0.302   55.597
  203.024  238.582   13.789    0.397    0.306   56.097
  203.274  238.618   15.161    0.401    0.295   55.587
  203.524  237.828   16.713    0.419    0.299   54.092
  203.774  239.010   17.533    0.440    0.288   52.638
  204.024  239.978   17.308    0.435    0.299   51.222
  204.274  240.220   15.986    0.427    0.325   49.394
  204.524  240.268   14.903    0.428    0.334   47.633
  204.774  240.306   17.682    0.431    0.334   45.109
  205.024  239.816   15.684    0.437    0.325   43.897
  205.274  238.713   14.547    0.445    0.320   43.105
  205.524  238.241   16.097    0.446    0.322   43.101
  205.774  237.861   16.915    0.442    0.322   43.489
  206.024  237.589   17.120    0.435    0.317   43.489
  206.274  237.736   13.409    0.430    0.312   44.275
  206.524  237.977   14.473    0.428    0.310   45.081
  206.774  238.633   13.272    0.427    0.307   45.901
  207.024  238.879   13.660    0.423    0.306   46.736
  207.274  237.780   12.459    0.415    0.320   47.157
  207.524  235.635   10.833    0.404    0.328   47.153
  207.774  235.885   16.179    0.411    0.320   47.577
  208.024  237.897   15.405    0.422    0.319   48.006
  208.274  238.242   16.652    0.436    0.312   47.140
  208.524  238.070   15.939    0.449    0.310   45.049
  208.774  238.626   13.943    0.439    0.320   43.442
  209.024  239.599   12.554    0.422    0.327   43.834
  209.274  238.391   15.334    0.407    0.324   44.228
  209.524  235.845   17.014    0.396    0.316   44.627
  209.774  235.152   18.439    0.385    0.278   44.623
  210.024  234.877   21.706    0.371    0.246   43.818
  210.274  234.813   22.651    0.401    0.190   40.751
  210.524  235.271   22.732    0.426    0.116   36.551
  210.774  236.033   18.407    0.421    0.076   33.384
  211.024  236.173   18.921    0.416    0.098   29.673
  211.274  234.036   18.819    0.414    0.303   27.847
  211.524  232.830   16.456    0.416    0.305   27.845
  211.774  233.383   16.604    0.413    0.298   27.842
  212.024  234.249   15.401    0.404    0.308   28.349
  212.274  234.500   14.134    0.396    0.327   28.604
  212.524  234.227   14.343    0.393    0.329   28.088
  212.774  233.332   15.710    0.400    0.314   27.333
  213.024  232.748   14.998    0.406    0.304   25.651
  213.274  232.369   11.347    0.418    0.307   25.649
  213.524  232.411   10.694    0.433    0.315   25.647
  213.774  232.340   13.963    0.441    0.318   25.644
  214.024  232.075   15.271    0.438    0.330   25.642
  214.274  232.105   14.682    0.438    0.334   25.640
  214.524  232.354   14.949    0.431    0.328   25.407
  214.774  232.906   19.319    0.415    0.328   25.175
  215.024  232.847   16.098    0.417    0.325   24.945
  215.274  232.778   13.241    0.414    0.316   24.718
  215.524  232.302   15.900    0.408    0.317   24.716
  215.774  232.130   21.307    0.406    0.322   24.491
  216.024  230.508   23.961    0.413    0.322   24.268
  216.274  228.679   22.331    0.416    0.318   24.047
  216.524  227.473   24.742    0.407    0.268   23.828
  216.774  226.581   26.236    0.408    0.193   23.187
  217.024  226.929   28.035    0.413    0.179   22.360
  217.274  228.834   29.770    0.417    0.242   21.176
  217.524  231.149   30.283    0.412    0.248   20.421
  217.774  233.988   27.489    0.415    0.254   18.151
  218.024  236.514   28.734    0.403    0.197   15.559
  218.274  238.111   26.678    0.388    0.183   13.217
  218.524  235.141   26.881    0.386    0.201   11.228
  218.774  229.060   23.111    0.391    0.242    9.890
  219.024  229.824   26.926    0.388    0.237    9.115
  219.274  232.869   34.173    0.384    0.206    9.032
  219.524  234.050   30.585    0.389    0.190    9.113
  219.774  232.847   27.668    0.401    0.192    9.279
  220.024  230.705   32.713    0.412    0.233    9.448
  220.274  230.015   33.161    0.416    0.286    9.194
  220.524  230.884   27.554    0.393    0.314    8.473
  220.774  231.336   25.435    0.395    0.297    8.024
  221.024  230.855   25.517    0.400    0.295    7.599
  221.274  231.310   25.603    0.392    0.295    7.262
  221.524  232.284   22.376    0.389    0.290    7.196
  221.774  232.524   22.034    0.393    0.289    7.195
  222.024  233.087   20.649    0.401    0.289    7.393
  222.274  233.329   20.668    0.401    0.286    7.596
  222.524  233.470   20.324    0.398    0.282    8.166
  222.774  233.403   21.757    0.397    0.284    9.354
  223.024  232.403   20.369    0.395    0.285   11.729
  223.274  231.001   23.698    0.401    0.287   17.002
  223.524  230.514   18.884    0.395    0.295   19.299
  223.774  231.177   19.273    0.399    0.298   19.829
  224.024  231.523   17.644    0.406    0.300   19.471
  224.274  231.254   19.256    0.406    0.301   18.947
  224.524  230.772   22.646    0.411    0.297   18.438
  224.774  230.702   26.465    0.411    0.281   18.105
  225.024  230.640   25.450    0.405    0.272   17.940
  225.274  230.477   26.877    0.396    0.271   17.777
  225.524  230.510   25.372    0.392    0.273   17.615
  225.774  230.443   24.292    0.391    0.266   17.774
  226.024  230.170   24.315    0.408    0.224   18.097
  226.274  229.173   35.479    0.427    0.204   18.260
  226.524  228.273   31.277    0.423    0.230   18.258
  226.774  228.831   32.586    0.420    0.257   17.768
  227.024  231.151   24.464    0.413    0.275   17.289
  227.274  232.330   18.978    0.394    0.297   16.978
  227.524  232.268   18.633    0.393    0.302   16.521
  227.774  231.993   19.633    0.397    0.307   16.223
  228.024  232.134   19.780    0.398    0.317   15.931
  228.274  232.381   19.068    0.395    0.326   15.643
