~VERSION INFORMATION
 VERS.                 2.0:   CWLS LOG ASCII STANDARD -VERSION 2.0
 WRAP.                  NO:   ONE LINE PER DEPTH STEP
~WELL INFORMATION BLOCK
#MNEM.UNIT           DATA                    DESCRIPTION OF MNEMONIC
#---------    -------------------            -------------------------------
# Generated from Intellog Unique Number	CW_73_75/WELL/3518
WELL.         PINNACLE RT AL NARTINHILL      : Well_name    - WELL
LOC .         00/03-05-075-02W5/0            : Location     - LOCATION
UWI .         00/03-05-075-02W5/0            : Uwi          - UNIQUE WELL ID
ENTR.         TIM                            : Entered      - ENTERED BY
SRVC.         SCHLUMBERGER                   : Scn          - SERVICE COMPANY
DATE.         05/25/92                       : Date         - LOG DATE
STRT.M        405                            : top_depth    - START DEPTH
STOP.M        650                            : bot_depth    - STOP DEPTH
STEP.M        0.25                           : increment    - STEP LENGTH
 NULL. -999.2500:NULL Value
~CURVE INFORMATION BLOCK
#MNEM UNIT       ERCB CURVE CODE    CURVE DESCRIPTION
#-----------   ------------------   ----------------------------------
DEPT.M        00 001 00 00         : DEPTH        - DEPTH
ILD .OHMM     00 120 00 00         : RESD         - DEEP RESISTIVITY (DIL)
DPHI.V/V      00 890 00 00         : PHID         - DENSITY POROSITY (SANDSTONE)
NPHI.V/V      00 330 00 00         : PHIN         - NEUTRON POROSITY (SANDSTONE)
GR  .API      00 310 00 00         : GR           - GAMMA RAY
~PARAMETER INFORMATION
#MNEM.UNIT           DATA             DESCRIPTION OF MNEMONIC
#---------         -----------     ------------------------------
GL  .M        702                  : gl           - GROUND LEVEL ELEVATION
EREF.M        706                  : kb           - ELEVATION OF DEPTH REFERENCE
DATM.M        706                  : datum        - DATUM ELEVATION
TDD .M        659                  : tdd          - TOTAL DEPTH DRILLER
RUN .         ONE                  : Run          - RUN NUMBER
ENG .         BILL                 : Engineer     - RECORDING ENGINEER
WIT .         JIM                  : Witness      - WITNESSED BY
MUD .         GEL                  : Mud_type     - MUD TYPE
MATR.         SANDSTONE            : Logunit      - NEUTRON MATRIX
TMAX.C        36                   : BHT          - MAXIMUM RECORDED TEMPERATURE
BHTD.M        658                  : BHTDEP       - MAXIMUM RECORDED TEMPERATURE
RMT .C        16                   : MDTP         - TEMPERATURE OF MUD
MUDD.KG/M     1045                 : MWT          - MUD DENSITY
NEUT.         1                    : NEUTRON      - NEUTRON TYPE
RESI.         0                    : RESIST       - RESISTIVITY TYPE
RM  .OHMM     9.2                  : RM           - RESISTIVITY OF MUD
RMC .OHMM     6.78                 : RMC          - RESISTIVITY OF MUD CAKE
RMF .OHMM     7.28                 : RMF          - RESISTIVITY OF MUD FILTRATE
SUFT.C        4                    : SUFT         - SURFACE TEMPERATURE
~A  DEPTH     RESD     PHID     PHIN       GR
# ...
  535.500    6.029    0.238    0.388   58.234
  535.750    6.008    0.263    0.417   62.864
  536.000    5.885    0.291    0.438   67.516
  536.250    5.444    0.291    0.444   69.786
  536.500    5.040    0.289    0.439   65.526
  536.750    4.412    0.282    0.447   68.999
  537.000    4.007    0.277    0.483   73.061
  537.250    3.850    0.288    0.468   64.105
  537.500    3.836    0.300    0.450   64.606
  537.750    3.758    0.296    0.452   68.034
  538.000    3.747    0.291    0.451   66.789
  538.250    3.737    0.276    0.447   68.470
  538.500    3.655    0.268    0.438   69.561
  538.750    3.645    0.276    0.428   66.502
  539.000    3.502    0.284    0.430   68.206
  539.250    3.492    0.275    0.422   71.066
  539.500    3.754    0.250    0.418   70.956
  539.750    3.811    0.246    0.416   70.256
  540.000    3.594    0.255    0.406   71.959
  540.250    3.455    0.263    0.417   74.230
  540.500    3.443    0.262    0.426   74.164
  540.750    3.431    0.257    0.427   75.233
  541.000    3.421    0.238    0.423   77.504
  541.250    3.478    0.221    0.421   77.438
  541.500    3.531    0.215    0.416   72.020
  541.750    3.456    0.228    0.418   72.500
  542.000    3.447    0.225    0.424   75.382
  542.250    3.439    0.220    0.433   72.936
  542.500    3.430    0.212    0.443   71.056
  542.750    3.295    0.207    0.450   75.096
  543.000    3.048    0.231    0.449   76.799
  543.250    2.931    0.295    0.441   70.224
  543.500    2.867    0.337    0.428   54.192
  543.750    2.857    0.357    0.429   51.701
  544.000    2.900    0.338    0.422   52.792
  544.250    3.004    0.323    0.416   51.502
  544.500    3.109    0.310    0.421   51.458
  544.750    3.280    0.305    0.427   51.960
  545.000    3.395    0.311    0.420   54.231
  545.250    3.514    0.297    0.411   55.912
  545.500    3.636    0.298    0.402   54.644
  545.750    3.832    0.306    0.401   49.838
  546.000    3.826    0.307    0.411   49.160
  546.250    3.671    0.306    0.425   51.431
  546.500    3.591    0.309    0.445   51.911
  546.750    3.650    0.317    0.454   50.054
  547.000    3.708    0.316    0.445   49.965
  547.250    3.841    0.313    0.435   51.647
  547.500    3.975    0.312    0.432   52.738
  547.750    4.114    0.313    0.425   51.448
  548.000    4.258    0.316    0.416   50.181
  548.250    4.165    0.320    0.396   49.503
  548.500    3.928    0.320    0.409   50.594
  548.750    3.920    0.318    0.422   51.686
  549.000    3.834    0.313    0.413   51.598
  549.250    3.898    0.309    0.411   52.689
  549.500    3.954    0.305    0.420   54.370
  549.750    4.020    0.299    0.415   51.945
  550.000    4.081    0.297    0.425   49.476
  550.250    4.075    0.303    0.434   49.388
  550.500    4.064    0.310    0.427   48.710
  550.750    4.052    0.315    0.417   49.212
  551.000    4.038    0.316    0.423   52.662
  551.250    4.030    0.312    0.419   54.955
  551.500    4.015    0.310    0.403   56.046
  551.750    4.004    0.298    0.388   58.885
  552.000    3.993    0.221    0.394   61.178
  552.250    4.056    0.186    0.412   66.987
  552.500    4.198    0.196    0.429   74.543
  552.750    4.184    0.209    0.420   76.814
  553.000    4.020    0.219    0.415   78.495
  553.250    3.937    0.226    0.425   80.198
  553.500    3.783    0.236    0.447   82.491
  553.750    3.703    0.259    0.450   82.970
  554.000    3.692    0.275    0.439   71.088
  554.250    3.682    0.294    0.432   59.183
  554.500    3.808    0.319    0.432   57.326
  554.750    3.941    0.306    0.443   58.395
  555.000    3.784    0.294    0.446   60.688
  555.250    3.704    0.295    0.452   59.420
  555.500    3.628    0.297    0.451   61.669
  555.750    3.549    0.301    0.445   53.325
  556.000    3.539    0.301    0.438   52.625
  556.250    3.529    0.302    0.432   54.918
  556.500    3.521    0.317    0.427   58.346
  556.750    3.509    0.313    0.432   60.049
  557.000    3.502    0.304    0.444   60.551
  557.250    3.552    0.296    0.439   58.694
  557.500    3.545    0.295    0.438   55.045
  557.750    3.535    0.294    0.443   57.294
  558.000    3.589    0.292    0.433   58.997
  558.250    3.651    0.297    0.431   60.110
  558.500    3.706    0.278    0.376   56.484
  558.750    3.836    0.141    0.192   53.403
  559.000    3.900    0.068    0.191   52.158
  559.250    4.112    0.069    0.202   50.300
  559.500    4.938    0.082    0.243   47.264
  559.750    6.045    0.099    0.297   44.205
  560.000    7.535    0.200    0.325   45.296
  560.250    9.923    0.232    0.307   47.567
  560.500    9.902    0.100    0.284   49.270
  560.750    9.339    0.042    0.227   49.138
  561.000    9.846    0.025    0.190   49.640
  561.250   11.183    0.011    0.179   53.134
  561.500   12.476    0.021    0.228   58.943
  561.750   10.916    0.085    0.402   62.371
  562.000    8.085    0.126    0.411   57.587
  562.250    6.690    0.181    0.412   58.089
  562.500    5.749    0.268    0.421   59.770
  562.750    5.224    0.273    0.420   63.198
  563.000    4.830    0.291    0.415   65.469
  563.250    4.552    0.288    0.411   61.865
  563.500    4.461    0.275    0.414   64.725
  563.750    4.364    0.262    0.428   73.483
  564.000    4.269    0.242    0.455   81.083
  564.250    4.181    0.237    0.426   87.482
  564.500    3.943    0.255    0.415   85.035
  564.750    3.719    0.248    0.421   80.797
  565.000    3.708    0.239    0.418   77.738
  565.250    3.835    0.228    0.412   77.060
  565.500    4.044    0.222    0.400   76.383
  565.750    4.033    0.221    0.399   75.705
  566.000    3.950    0.227    0.404   75.617
  566.250    4.085    0.238    0.407   70.811
  566.500    4.640    0.231    0.397   64.803
  566.750    4.809    0.223    0.388   67.664
  567.000    5.158    0.218    0.396   72.316
  567.250    5.151    0.227    0.411   76.334
  567.500    4.677    0.235    0.409   73.909
  567.750    4.578    0.224    0.403   75.000
  568.000    4.562    0.218    0.414   76.069
  568.250    4.549    0.223    0.423   74.802
  568.500    4.622    0.209    0.329   75.303
  568.750    4.689    0.194    0.330   77.596
  569.000    4.770    0.157    0.347   81.636
  569.250    4.940    0.170    0.376   85.676
  569.500    5.106    0.186    0.399   81.460
  569.750    5.194    0.201    0.391   81.372
  570.000    5.269    0.211    0.411   83.643
  570.250    5.258    0.237    0.430   86.481
  570.500    5.143    0.243    0.428   87.573
  570.750    4.949    0.231    0.432   82.789
  571.000    4.661    0.219    0.424   79.140
  571.250    4.562    0.206    0.407   77.873
  571.500    4.469    0.205    0.401   77.763
  571.750    4.456    0.212    0.411   78.242
  572.000    4.524    0.217    0.415   78.766
  572.250    4.685    0.202    0.385   78.700
  572.500    5.029    0.191    0.380   77.432
  572.750    5.402    0.183    0.357   72.626
  573.000    5.591    0.177    0.360   69.567
  573.250    4.805    0.192    0.412   76.578
  573.500    4.445    0.210    0.429   84.156
  573.750    4.436    0.228    0.422   84.658
  574.000    4.426    0.222    0.412   84.570
  574.250    4.414    0.218    0.415   87.409
  574.500    4.565    0.218    0.414   88.500
  574.750    4.552    0.222    0.405   90.181
  575.000    4.459    0.224    0.395   90.093
  575.250    4.440    0.223    0.399   89.415
  575.500    4.428    0.216    0.415   88.737
  575.750    4.418    0.218    0.417   85.111
  576.000    4.403    0.220    0.415   83.253
  576.250    4.387    0.219    0.425   81.374
  576.500    4.381    0.215    0.422   84.846
  576.750    4.363    0.209    0.416   87.117
  577.000    4.354    0.204    0.411   87.007
  577.250    4.341    0.202    0.426   86.351
  577.500    4.332    0.202    0.426   86.241
  577.750    4.401    0.201    0.418   86.153
  578.000    4.468    0.196    0.420   86.655
  578.250    4.621    0.192    0.436   84.230
  578.500    4.698    0.194    0.435   80.559
  578.750    4.862    0.190    0.427   81.673
