~VERSION INFORMATION
 VERS.                 2.0:   CWLS LOG ASCII STANDARD -VERSION 2.0
 WRAP.                  NO:   ONE LINE PER DEPTH STEP
~WELL INFORMATION BLOCK
#MNEM.UNIT           DATA                    DESCRIPTION OF MNEMONIC
#---------    -------------------            -------------------------------
# Generated from Intellog Unique Number	CX_WELLS/WELL/2902
NULL.         -999.25                        : NULL_VALUE
WELL.         GULF RISNNIN                   : Well_name    - WELL              
LOC .         00/07-24-082-06W4/0            : Location     - LOCATION          
UWI .         00/07-24-082-06W4/0            : Uwi          - UNIQUE WELL ID    
ENTR.         T                              : Entered      - ENTERED BY        
SRVC.         SCHLUMBERGER                   : Scn          - SERVICE COMPANY   
STRT.M        90                             : top_depth    - START DEPTH       
STOP.M        270                            : bot_depth    - STOP DEPTH        
STEP.M        0.25                           : increment    - STEP LENGTH       
~CURVE INFORMATION BLOCK
#MNEM UNIT       ERCB CURVE CODE    CURVE DESCRIPTION
#-----------   ------------------   ----------------------------------
DEPT.M        00 001 00 00         : DEPTH        - DEPTH                       
GR  .API      00 310 00 00         : GR           - GAMMA RAY                   
NPHI.V/V      00 330 00 00         : PHIN         - NEUTRON POROSITY (SANDSTONE)
DPHI.V/V      00 890 00 00         : PHID         - DENSITY POROSITY (SANDSTONE)
ILD .OHMM     00 120 00 00         : RESD         - DEEP RESISTIVITY (OTHER)    
~PARAMETER INFORMATION       
#MNEM.UNIT           DATA             DESCRIPTION OF MNEMONIC
#---------         -----------     ------------------------------
GL  .M        471.6                : gl           - GROUND LEVEL ELEVATION      
EREF.M        474.8                : kb           - ELEVATION OF DEPTH REFERENCE
DATM.M        474.8                : datum        - DATUM ELEVATION             
TDD .M        320                  : tdd          - TOTAL DEPTH DRILLER         
RUN .         ONE                  : Run          - RUN NUMBER                  
ENG .         BILL                 : Engineer     - RECORDING ENGINEER          
WIT .         JIM                  : Witness      - WITNESSED BY                
MUD .         GEL                  : Mud_type     - MUD TYPE                    
MATR.         SANDSTONE            : Logunit      - NEUTRON MATRIX              
TMAX.C        19                   : BHT          - MAXIMUM RECORDED TEMPERATURE
BHTD.M        320                  : BHTDEP       - MAXIMUM RECORDED TEMPERATURE
MATR.         1                    : LOGUNIT      - NEUTRON MATRIX              
RMT .C        17                   : MDTP         - TEMPERATURE OF MUD          
NEUT.         1                    : NEUTRON      - NEUTRON TYPE                
RESI.         4                    : RESIST       - RESISTIVITY TYPE            
RMC .OHMM     6.36                 : RMC          - RESISTIVITY OF MUD CAKE     
RMF .OHMM     6.36                 : RMF          - RESISTIVITY OF MUD FILTRATE 
SUFT.C        4                    : SUFT         - SURFACE TEMPERATURE         
~A  DEPTH       GR     PHIN     PHID     RESD
# ...
  133.500   53.896    0.447    0.332   21.486
  133.750   52.813    0.444    0.330   21.491
  134.000   52.283    0.433    0.330   21.493
  134.250   51.212    0.433    0.331   21.496
  134.500   50.129    0.426    0.334   21.500
  134.750   50.186    0.418    0.337   21.505
  135.000   49.656    0.430    0.340   21.510
  135.250   49.691    0.438    0.343   21.070
  135.500   50.325    0.444    0.342   21.073
  135.750   50.347    0.435    0.337   21.078
  136.000   51.523    0.427    0.332   21.081
  136.250   53.273    0.423    0.328   20.651
  136.500   54.449    0.422    0.327   20.654
  136.750   55.059    0.418    0.326   20.658
  137.000   56.234    0.417    0.322   20.662
  137.250   56.856    0.421    0.319   20.666
  137.500   56.902    0.432    0.318   20.668
  137.750   57.513    0.445    0.319   20.672
  138.000   57.547    0.458    0.324   20.250
  138.250   57.605    0.456    0.329   20.254
  138.500   57.651    0.445    0.334   19.841
  138.750   57.121    0.434    0.338   19.844
  139.000   56.614    0.418    0.344   19.439
  139.250   56.648    0.408    0.347   19.043
  139.500   57.282    0.416    0.343   19.047
  139.750   57.881    0.432    0.338   19.049
  140.000   59.068    0.433    0.332   19.053
  140.250   59.678    0.431    0.325   19.057
  140.500   59.724    0.429    0.326   19.059
  140.750   60.335    0.432    0.327   19.063
  141.000   61.510    0.433    0.328   19.067
  141.250   62.120    0.434    0.328   19.069
  141.500   61.049    0.430    0.328   19.074
  141.750   59.943    0.422    0.329   19.076
  142.000   57.731    0.415    0.331   19.481
  142.250   57.224    0.411    0.328   19.483
  142.500   58.410    0.414    0.325   19.488
  142.750   59.010    0.419    0.325   19.491
  143.000   59.609    0.420    0.325   19.494
  143.250   59.113    0.422    0.327   19.498
  143.500   58.019    0.424    0.328   19.502
  143.750   55.807    0.425    0.328   19.505
  144.000   58.111    0.426    0.328   19.509
  144.250   61.544    0.429    0.328   19.512
  144.500   63.283    0.433    0.326   19.515
  144.750   63.329    0.433    0.324   19.520
  145.000   62.258    0.426    0.324   19.522
  145.250   62.880    0.421    0.323   19.525
  145.500   64.032    0.416    0.323   19.127
  145.750   67.488    0.412    0.320   18.737
  146.000   69.792    0.415    0.318   18.354
  146.250   70.967    0.428    0.312   17.610
  146.500   71.577    0.442    0.304   17.251
  146.750   72.188    0.454    0.293   16.898
  147.000   74.492    0.464    0.279   15.879
  147.250   77.349    0.474    0.275   14.614
  147.500   81.911    0.486    0.276   12.121
  147.750   84.237    0.465    0.277   10.265
  148.000   83.731    0.442    0.278    8.876
  148.250   84.883    0.433    0.278    7.837
  148.500   86.634    0.442    0.277    7.364
  148.750   88.926    0.467    0.274    6.501
  149.000   90.677    0.490    0.272    5.739
  149.250   91.841    0.511    0.271    4.760
  149.500   93.580    0.525    0.272    3.948
  149.750   95.884    0.544    0.274    3.414
  150.000   98.764    0.520    0.275    3.208
  150.250   99.374    0.525    0.275    3.014
  150.500   99.420    0.540    0.271    3.015
  150.750   98.361    0.555    0.268    3.079
  151.000   98.384    0.552    0.258    3.278
  151.250   98.430    0.541    0.250    3.638
  151.500   97.911    0.524    0.243    4.037
  151.750   97.957    0.522    0.238    4.298
  152.000   97.439    0.518    0.234    4.769
  152.250   95.791    0.493    0.231    5.404
  152.500   93.038    0.463    0.229    6.253
  152.750   91.932    0.469    0.228    6.519
  153.000   89.732    0.473    0.232    6.940
  153.250   88.085    0.478    0.235    7.087
  153.500   87.555    0.475    0.239    7.704
  153.750   86.472    0.456    0.245    8.032
  154.000   84.824    0.436    0.253    9.101
  154.250   84.317    0.369    0.264   10.977
  154.500   83.799    0.334    0.281   12.181
  154.750   83.280    0.302    0.302   14.692
  155.000   82.762    0.286    0.325   16.647
  155.250   82.808    0.280    0.337   18.475
  155.500   82.854    0.280    0.348   20.081
  155.750   82.889    0.281    0.359   21.377
  156.000   82.935    0.284    0.354   21.831
  156.250   84.121    0.289    0.355   22.295
  156.500   85.308    0.301    0.356   22.297
  156.750   87.047    0.330    0.313   21.393
  157.000   88.798    0.369    0.288   18.117
  157.250   88.821    0.419    0.267   14.415
  157.500   88.867    0.452    0.246   12.208
  157.750   89.478    0.450    0.236   11.471
  158.000   90.664    0.436    0.229   11.238
  158.250   91.275    0.424    0.223   11.240
  158.500   91.897    0.424    0.219   11.241
  158.750   91.378    0.421    0.216   11.721
  159.000   90.860    0.419    0.219   11.969
  159.250   90.894    0.416    0.222   11.972
  159.500   90.376    0.422    0.231   11.973
  159.750   90.422    0.431    0.236   11.729
  160.000   92.162    0.448    0.238   11.253
  160.250   95.594    0.457    0.227   10.574
  160.500   96.781    0.448    0.217    9.936
  160.750   96.251    0.432    0.222    9.534
  161.000   95.180    0.423    0.225    9.339
  161.250   94.650    0.416    0.234    9.537
  161.500   94.143    0.411    0.247    9.739
  161.750   94.177    0.409    0.263   10.155
  162.000   95.375    0.414    0.267   10.587
  162.250   96.527    0.429    0.264   10.812
  162.500   98.843    0.441    0.262   10.591
  162.750  100.582    0.459    0.254    9.748
  163.000  100.651    0.466    0.244    8.971
  163.250  100.110    0.469    0.234    8.086
  163.500   99.615    0.472    0.228    7.442
  163.750   99.073    0.462    0.226    6.570
  164.000   97.426    0.466    0.225    6.047
  164.250   94.649    0.485    0.224    5.923
  164.500   91.885    0.502    0.224    5.925
  164.750   88.532    0.472    0.229    5.926
  165.000   85.191    0.434    0.244    6.308
  165.250   82.980    0.386    0.279    7.001
  165.500   86.412    0.362    0.295    7.770
  165.750   90.986    0.404    0.281    8.271
  166.000   93.843    0.430    0.262    7.935
  166.250   96.711    0.459    0.246    6.582
  166.500   96.780    0.487    0.244    5.691
  166.750   94.568    0.466    0.242    5.238
  167.000   94.038    0.453    0.238    5.131
  167.250   91.838    0.430    0.233    5.577
  167.500   90.191    0.399    0.226    5.937
  167.750   88.543    0.364    0.223    6.869
  168.000   85.767    0.355    0.235    8.284
  168.250   83.544    0.354    0.277    9.387
  168.500   83.025    0.405    0.272   10.203
  168.750   83.071    0.430    0.250   10.639
  169.000   83.117    0.422    0.255   10.207
  169.250   81.481    0.374    0.285    9.591
  169.500   79.823    0.313    0.309   10.000
  169.750   78.751    0.281    0.378   11.098
  170.000   77.657    0.293    0.374   12.575
  170.250   77.150    0.319    0.360   13.955
  170.500   78.325    0.343    0.337   14.550
  170.750   80.629    0.350    0.316   14.254
  171.000   82.933    0.361    0.295   13.119
  171.250   85.237    0.400    0.220   12.073
  171.500   88.094    0.425    0.179   10.659
  171.750   89.292    0.440    0.187   10.016
  172.000   89.326    0.449    0.198    9.610
  172.250   88.243    0.452    0.216    9.413
  172.500   88.301    0.455    0.219    9.415
  172.750   88.900    0.453    0.224    9.417
  173.000   90.075    0.449    0.224    9.419
  173.250   90.697    0.444    0.222    9.618
  173.500   90.743    0.430    0.220    9.620
  173.750   90.777    0.412    0.219    9.621
  174.000   90.835    0.393    0.219    9.825
  174.250   91.445    0.392    0.218    9.827
  174.500   91.480    0.392    0.218    9.829
  174.750   92.666    0.395    0.220    9.629
  175.000   92.701    0.402    0.221    9.237
  175.250   92.747    0.409    0.222    8.156
  175.500   92.805    0.423    0.223    7.200
  175.750   92.298    0.444    0.231    6.098
  176.000   91.779    0.455    0.256    5.164
  176.250   90.143    0.471    0.274    4.559
  176.500   89.037    0.499    0.282    3.781
  176.750   86.826    0.523    0.279    3.338
