~VERSION INFORMATION
 VERS.                 2.0:   CWLS LOG ASCII STANDARD -VERSION 2.0
 WRAP.                  NO:   ONE LINE PER DEPTH STEP
~WELL INFORMATION BLOCK
#MNEM.UNIT           DATA                    DESCRIPTION OF MNEMONIC
#---------    -------------------            -------------------------------
# Generated from Intellog Unique Number	CX_WELLS/WELL/3156
WELL.         SURMONT                        : Well_name    - WELL
LOC .         00/06-27-083-09W4/0            : Location     - LOCATION
UWI .         00/06-27-083-09W400            : Uwi          - UNIQUE WELL ID
ENTR.         TIM                            : Entered      - ENTERED BY
SRVC.         SCHLUMBERGER                   : Scn          - SERVICE COMPANY
DATE.         03/04/92                       : Date         - LOG DATE
STRT.F        900                            : top_depth    - START DEPTH
STOP.F        1649.67                        : bot_depth    - STOP DEPTH
STEP.F        0.82                           : increment    - STEP LENGTH
 NULL. -999.2500:NULL Value
~CURVE INFORMATION BLOCK
#MNEM UNIT       ERCB CURVE CODE    CURVE DESCRIPTION
#-----------   ------------------   ----------------------------------
DEPT.F        00 001 00 00         : DEPTH        - DEPTH
GR  .API      00 310 00 00         : GR           - GAMMA RAY
NPHI.V/V      00 330 00 00         : PHIN         - NEUTRON POROSITY (SANDSTONE)
DPHI.V/V      00 890 00 00         : PHID         - DENSITY POROSITY (SANDSTONE)
ILD .OHMM     00 120 00 00         : RESD         - DEEP RESISTIVITY (OTHER)
~PARAMETER INFORMATION
#MNEM.UNIT           DATA             DESCRIPTION OF MNEMONIC
#---------         -----------     ------------------------------
GL  .F        2455.75              : gl           - GROUND LEVEL ELEVATION
EREF.F        2465.25              : kb           - ELEVATION OF DEPTH REFERENCE
DATM.F        2465.25              : datum        - DATUM ELEVATION
TDD .F        1694                 : tdd          - TOTAL DEPTH DRILLER
RUN .         ONE                  : Run          - RUN NUMBER
ENG .         JO                   : Engineer     - RECORDING ENGINEER
WIT .         TIM                  : Witness      - WITNESSED BY
MUD .         GEL                  : Mud_type     - MUD TYPE
MATR.         SANDSTONE            : Logunit      - NEUTRON MATRIX
TMAX.F        72                   : BHT          - MAXIMUM RECORDED TEMPERATURE
BHTD.F        1694                 : BHTDEP       - MAXIMUM RECORDED TEMPERATURE
RMT .F        72                   : MDTP         - TEMPERATURE OF MUD
MUDD.LB/G     1                    : MWT          - MUD DENSITY
NEUT.         1                    : NEUTRON      - NEUTRON TYPE
RESI.         8.35                 : RESIST       - RESISTIVITY TYPE
RM  .OHMM     7.8                  : RM           - RESISTIVITY OF MUD
RMC .OHMM     9.7                  : RMC          - RESISTIVITY OF MUD CAKE
RMF .OHMM     9.7                  : RMF          - RESISTIVITY OF MUD FILTRATE
SUFT.F        32                   : SUFT         - SURFACE TEMPERATURE
~A  DEPTH       GR     PHIN     PHID     RESD
# ...
 1042.720  104.954    0.450    0.270    5.312
 1043.540  104.427    0.448    0.265    6.422
 1044.360  105.107    0.446    0.262    8.061
 1045.180  105.175    0.444    0.262   10.117
 1046.000  103.391    0.442    0.267   13.440
 1046.820   99.789    0.442    0.271   17.855
 1047.640   94.980    0.442    0.280   18.590
 1048.460   91.955    0.440    0.286   18.611
 1049.280   88.353    0.438    0.288   19.027
 1050.100   87.215    0.441    0.290   19.410
 1050.920   87.877    0.441    0.294   19.844
 1051.740   88.574    0.443    0.298   19.866
 1052.560   89.866    0.444    0.299   19.911
 1053.380   90.529    0.444    0.296   19.968
 1054.200   91.837    0.442    0.286   20.013
 1055.020   93.129    0.442    0.269   19.685
 1055.840   95.661    0.441    0.241   19.730
 1056.660   96.936    0.441    0.220   19.763
 1057.480   98.839    0.443    0.205   19.440
 1058.300  100.776    0.444    0.190   18.087
 1059.120  102.051    0.449    0.180   17.451
 1059.940  102.714    0.454    0.180   15.925
 1060.760  103.394    0.462    0.212   13.240
 1061.580  103.462    0.463    0.268   12.082
 1062.400  104.159    0.463    0.293   11.658
 1063.220  103.003    0.457    0.297   11.684
 1064.040   96.954    0.457    0.298   11.717
 1064.860   97.634    0.459    0.298   11.959
 1065.680   96.461    0.461    0.297   13.925
 1066.500   93.488    0.461    0.300   16.224
 1067.320   91.109    0.459    0.304   17.212
 1068.140   91.194    0.457    0.301   17.890
 1068.960   91.874    0.457    0.296   18.279
 1069.780   92.520    0.459    0.289   18.331
 1070.600   95.052    0.461    0.279   18.352
 1071.420   96.343    0.458    0.269   17.727
 1072.240   98.230    0.457    0.260   17.103
 1073.060  101.390    0.455    0.243   15.912
 1073.880  103.889    0.460    0.231   15.353
 1074.700  107.644    0.464    0.227   14.284
 1075.520  108.953    0.466    0.223   13.541
 1076.350  108.392    0.458    0.219   13.057
 1077.170  107.865    0.453    0.217   12.155
 1077.990  107.899    0.451    0.213   11.721
 1078.810  107.373    0.451    0.210   11.117
 1079.630  105.589    0.451    0.203   10.726
 1080.450  103.193    0.452    0.198   10.545
 1081.270  102.666    0.453    0.196   10.373
 1082.090  103.958    0.456    0.200   10.197
 1082.910  104.621    0.457    0.201    9.672
 1083.730  106.558    0.456    0.202    9.509
 1084.550  108.461    0.456    0.204    9.174
 1085.370  109.736    0.457    0.209    8.697
 1086.190  112.268    0.459    0.215    8.396
 1087.010  114.154    0.464    0.215    8.105
 1087.830  116.058    0.468    0.212    7.825
 1088.650  119.830    0.471    0.212    7.692
 1089.470  121.717    0.475    0.211    7.426
 1090.290  122.991    0.479    0.211    7.173
 1091.110  125.540    0.488    0.209    7.056
 1091.930  123.161    0.490    0.202    6.940
 1092.750  120.137    0.489    0.192    6.827
 1093.570  115.311    0.481    0.182    6.842
 1094.390  111.726    0.474    0.174    6.730
 1095.210  111.811    0.470    0.184    6.745
 1096.030  111.845    0.468    0.211    6.893
 1096.850  111.913    0.466    0.234    7.031
 1097.670  110.758    0.466    0.245    7.600
 1098.490  112.066    0.466    0.255    8.529
 1099.310  115.210    0.467    0.252    9.037
 1100.130  116.467    0.467    0.250    9.582
 1100.950  119.000    0.467    0.248    9.780
 1101.770  119.051    0.465    0.249   10.176
 1102.590  115.448    0.463    0.255   10.601
 1103.410  111.846    0.458    0.258   10.625
 1104.230  108.244    0.455    0.260   10.246
 1105.050  104.658    0.455    0.258    9.713
 1105.870  103.486    0.454    0.258    9.376
 1106.690   99.884    0.452    0.258    9.218
 1107.510   96.893    0.451    0.261    9.592
 1108.330   94.497    0.451    0.264    9.795
 1109.150   89.671    0.450    0.269   10.588
 1109.970   85.457    0.449    0.275   12.100
 1110.790   82.467    0.448    0.282   13.828
 1111.610   78.864    0.447    0.288   14.938
 1112.430   75.891    0.447    0.296   16.138
 1113.250   74.719    0.448    0.310   17.110
 1114.070   73.546    0.451    0.312   18.152
 1114.900   71.796    0.455    0.319   18.537
 1115.720   70.046    0.453    0.318   19.300
 1116.540   68.874    0.453    0.317   19.698
 1117.360   68.313    0.459    0.315   20.116
 1118.180   67.174    0.462    0.319   20.932
 1119.000   66.019    0.468    0.317   20.991
 1119.820   64.269    0.471    0.316   21.027
 1120.640   63.691    0.471    0.315   20.683
 1121.460   62.536    0.466    0.315   19.978
 1122.280   62.621    0.458    0.314   19.651
 1123.100   62.672    0.455    0.314   18.971
 1123.920   63.352    0.452    0.314   18.640
 1124.740   65.289    0.451    0.315   18.692
 1125.560   65.952    0.448    0.311   19.472
 1126.380   66.615    0.449    0.308   19.875
 1127.200   68.535    0.453    0.304   20.308
 1128.020   69.844    0.460    0.301   20.716
 1128.840   71.764    0.465    0.300   21.179
 1129.660   71.832    0.463    0.300   21.215
 1130.480   72.478    0.460    0.301   21.666
 1131.300   73.175    0.456    0.303   22.138
 1132.120   73.872    0.453    0.305   22.175
 1132.940   73.906    0.453    0.307   22.213
 1133.760   73.974    0.455    0.313   22.276
 1134.580   74.671    0.458    0.317   22.339
 1135.400   74.739    0.459    0.321   21.949
 1136.220   74.195    0.459    0.319   21.998
 1137.040   72.411    0.459    0.319   21.249
 1137.860   70.032    0.460    0.320   21.285
 1138.680   68.282    0.461    0.322   20.548
 1139.500   68.334    0.461    0.323   19.836
 1140.320   67.195    0.461    0.323   19.149
 1141.140   66.635    0.459    0.322   19.193
 1141.960   66.074    0.459    0.325   19.247
 1142.780   65.530    0.460    0.331   19.291
 1143.600   65.598    0.466    0.335   19.711
 1144.420   65.666    0.466    0.330   19.745
 1145.240   66.992    0.461    0.325   19.778
 1146.060   66.448    0.456    0.319   19.834
 1146.880   65.259    0.455    0.315   19.868
 1147.700   63.492    0.456    0.318   19.913
 1148.520   62.965    0.458    0.324   19.598
 1149.340   63.628    0.459    0.324   19.288
 1150.160   64.937    0.459    0.316   19.321
 1150.980   65.634    0.458    0.309   19.365
 1151.800   65.719    0.457    0.306   19.398
 1152.620   65.753    0.455    0.305   19.102
 1153.440   65.209    0.455    0.306   19.123
 1154.270   64.665    0.455    0.312   19.177
 1155.090   62.915    0.457    0.316   18.864
 1155.910   62.355    0.458    0.319   18.907
 1156.730   61.794    0.458    0.317   18.597
 1157.550   61.251    0.457    0.315   18.650
 1158.370   61.964    0.455    0.312   18.692
 1159.190   62.627    0.454    0.311   18.376
 1160.010   63.324    0.455    0.308   18.407
 1160.830   63.375    0.456    0.311   18.438
 1161.650   63.443    0.460    0.313   18.157
 1162.470   63.528    0.464    0.309   18.188
 1163.290   64.191    0.468    0.310   18.250
 1164.110   66.723    0.467    0.314   18.270
 1164.930   67.998    0.461    0.308   18.301
 1165.750   70.530    0.456    0.303   18.363
 1166.570   72.433    0.455    0.305   18.384
 1167.390   71.261    0.456    0.308   18.436
 1168.210   71.346    0.457    0.311   18.488
 1169.030   72.026    0.461    0.309   18.520
 1169.850   72.706    0.463    0.307   18.237
 1170.670   72.757    0.463    0.307   18.268
 1171.490   70.990    0.462    0.307   18.299
 1172.310   70.480    0.460    0.306   18.330
 1173.130   70.531    0.459    0.308   18.392
 1173.950   70.616    0.458    0.307   18.424
 1174.770   71.262    0.455    0.309   18.465
 1175.590   71.959    0.451    0.308   18.528
 1176.410   72.010    0.447    0.309   18.559
 1177.230   72.707    0.445    0.313   18.591
 1178.050   73.387    0.444    0.318   18.633
 1178.870   74.067    0.442    0.313   18.686
 1179.690   74.763    0.443    0.300   18.738
 1180.510   74.814    0.444    0.293   18.760
 1181.330   74.900    0.447    0.284   18.802
 1182.150   74.934    0.448    0.287   18.515
 1182.970   75.631    0.449    0.291   18.547
 1183.790   76.293    0.449    0.292   18.578
 1184.610   78.843    0.450    0.294   18.631
