~VERSION INFORMATION
 VERS.                 2.0:   CWLS LOG ASCII STANDARD -VERSION 2.0
 WRAP.                  NO:   ONE LINE PER DEPTH STEP
~WELL INFORMATION BLOCK
#MNEM.UNIT           DATA                    DESCRIPTION OF MNEMONIC
#---------    -------------------            -------------------------------
# Generated from Intellog Unique Number	CW_73_75/WELL/554
WELL.         GULF POC DROWNED 06-26         : Well_name    - WELL
LOC .         00/06-26-075-21W4/0            : Location     - LOCATION
UWI .         00/06-26-075-21W4/0            : Uwi          - UNIQUE WELL ID
ENTR.         JAYE                           : Entered      - ENTERED BY
SRVC.         SCHLUMBERGER                   : Scn          - SERVICE COMPANY
DATE.         2 MAR 78                       : Date         - LOG DATE
STRT.M        393.192                        : top_depth    - START DEPTH
STOP.M        594.442                        : bot_depth    - STOP DEPTH
STEP.M        0.25                           : increment    - STEP LENGTH
 NULL. -999.2500:NULL Value
~CURVE INFORMATION BLOCK
#MNEM UNIT       ERCB CURVE CODE    CURVE DESCRIPTION
#-----------   ------------------   ----------------------------------
DEPT.M        00 001 00 00         : DEPTH        - DEPTH
ILD .OHMM     00 120 00 00         : RESD         - DEEP RESISTIVITY (DIL)
NPHI.V/V      00 330 00 00         : PHIN         - NEUTRON POROSITY (SANDSTONE)
DPHI.V/V      00 890 00 00         : PHID         - DENSITY POROSITY (SANDSTONE)
GR  .API      00 310 00 00         : GR           - GAMMA RAY
CALI.MM       00 280 01 00         : CAL          - CALIPER
~PARAMETER INFORMATION
#MNEM.UNIT           DATA             DESCRIPTION OF MNEMONIC
#---------         -----------     ------------------------------
GL  .M        698.297              : gl           - GROUND LEVEL ELEVATION
EREF.M        702.412              : kb           - ELEVATION OF DEPTH REFERENCE
DATM.M        698.297              : datum        - DATUM ELEVATION
TDD .M        595.884              : tdd          - TOTAL DEPTH DRILLER
RUN .         ONE                  : Run          - RUN NUMBER
ENG .         VERRAIRES            : Engineer     - RECORDING ENGINEER
WIT .         BRINKMAN             : Witness      - WITNESSED BY
BASE.         EDM                  : Branch       - HOME BASE OF LOGGING UNIT
MUD .         GEL CHEM             : Mud_type     - MUD TYPE
MATR.         SANDSTONE            : Logunit      - NEUTRON MATRIX
TMAX.C        28.3333              : BHT          - MAXIMUM RECORDED TEMPERATURE
BHTD.M        590.702              : BHTDEP       - MAXIMUM RECORDED TEMPERATURE
RMT .C        15.5556              : MDTP         - TEMPERATURE OF MUD
MUDD.KG/M     1104                 : MWT          - MUD DENSITY
NEUT.         1                    : NEUTRON      - NEUTRON TYPE
RESI.         0                    : RESIST       - RESISTIVITY TYPE
RM  .OHMM     3.39                 : RM           - RESISTIVITY OF MUD
RMC .OHMM     0                    : RMC          - RESISTIVITY OF MUD CAKE
RMF .OHMM     4.56                 : RMF          - RESISTIVITY OF MUD FILTRATE
SUFT.C        -17.7778             : SUFT         - SURFACE TEMPERATURE
~A  DEPTH     RESD     PHIN     PHID       GR      CAL
# ...
  466.192    7.738    0.401    0.243   67.839  155.641
  466.442    6.822    0.456    0.301   64.153  154.724
  466.692    5.795    0.475    0.318   61.642  154.025
  466.942    5.090    0.487    0.318   60.116  154.056
  467.192    4.580    0.489    0.322   57.232  154.191
  467.442    4.229    0.481    0.327   53.792  154.226
  467.692    4.045    0.465    0.316   54.243  154.147
  467.942    3.956    0.471    0.306   55.002  154.079
  468.192    3.912    0.484    0.323   55.391  154.311
  468.442    3.912    0.463    0.321   55.595  154.760
  468.692    3.933    0.465    0.319   55.613  155.210
  468.942    3.984    0.470    0.324   55.878  155.765
  469.192    4.029    0.481    0.321   56.575  155.798
  469.442    4.073    0.481    0.313   59.002  155.831
  469.692    4.088    0.460    0.304   61.427  155.650
  469.942    4.134    0.445    0.317   62.741  155.582
  470.192    4.156    0.446    0.312   63.440  155.609
  470.442    4.172    0.451    0.317   62.962  155.743
  470.692    4.202    0.451    0.328   61.006  156.083
  470.942    4.241    0.450    0.319   59.542  156.851
  471.192    4.272    0.449    0.310   58.944  157.400
  471.442    4.304    0.446    0.309   60.876  158.380
  471.692    4.328    0.441    0.308   63.362  158.824
  471.942    4.335    0.437    0.302   63.690  159.376
  472.192    4.327    0.437    0.304   60.683  159.932
  472.442    4.343    0.448    0.307   57.490  160.067
  472.692    4.327    0.444    0.307   55.225  160.408
  472.942    4.342    0.435    0.306   54.563  160.441
  473.192    4.326    0.455    0.322   53.721  160.471
  473.442    4.326    0.467    0.322   53.118  160.401
  473.692    4.317    0.474    0.306   51.841  160.323
  473.942    4.309    0.442    0.311   50.563  160.357
  474.192    4.301    0.449    0.317   51.136  160.283
  474.442    4.277    0.462    0.319   54.116  160.415
  474.692    4.269    0.475    0.319   57.345  160.756
  474.942    4.261    0.478    0.318   59.465  160.789
  475.192    4.284    0.469    0.318   60.902  160.717
  475.442    4.284    0.468    0.314   62.709  160.329
  475.692    4.299    0.468    0.302   64.949  159.940
  475.942    4.339    0.470    0.289   66.388  159.244
  476.192    4.379    0.469    0.269   66.344  158.955
  476.442    4.436    0.468    0.263   65.868  158.672
  476.692    4.493    0.481    0.256   65.763  158.391
  476.942    4.527    0.490    0.301   65.287  158.315
  477.192    4.577    0.472    0.310   62.342  158.347
  477.442    4.602    0.461    0.297   60.755  158.386
  477.692    4.662    0.470    0.301   60.218  158.411
  477.942    4.670    0.469    0.322   60.731  158.439
  478.192    4.670    0.459    0.321   62.847  158.782
  478.442    4.678    0.456    0.310   66.198  158.921
  478.692    4.661    0.449    0.300   68.748  158.951
  478.942    4.635    0.436    0.273   70.494  158.981
  479.192    4.617    0.452    0.258   72.240  158.907
  479.442    4.591    0.467    0.253   72.258  159.046
  479.692    4.557    0.483    0.266   68.326  159.076
  479.942    4.506    0.471    0.291   67.788  159.312
  480.192    4.448    0.468    0.291   69.969  159.550
  480.442    4.358    0.465    0.274   72.886  159.689
  480.692    4.278    0.464    0.251   79.572  160.346
  480.942    4.160    0.474    0.235   85.701  161.109
  481.192    4.031    0.490    0.215   93.128  162.918
  481.442    3.899    0.514    0.221   92.900  164.200
  481.692    3.750    0.497    0.223   94.152  166.113
  481.942    3.627    0.475    0.207   98.862  167.711
  482.192    3.534    0.490    0.195  101.042  169.102
  482.442    3.533    0.509    0.212   97.601  170.282
  482.692    3.606    0.524    0.224   96.077  170.943
  482.942    3.687    0.516    0.226   96.900  170.865
  483.192    3.755    0.495    0.219   95.433  169.748
  483.442    3.948    0.471    0.237   90.451  166.223
  483.692    4.212    0.462    0.251   90.224  164.164
  483.942    4.452    0.483    0.240   92.155  163.779
  484.192    4.689    0.487    0.219   91.185  163.916
  484.442    4.812    0.474    0.234   92.993  164.151
  484.692    4.829    0.478    0.235   95.110  164.706
  484.942    4.731    0.497    0.240   93.895  165.470
  485.192    4.551    0.530    0.256   87.185  165.607
  485.442    4.281    0.576    0.264   83.746  165.738
  485.692    4.042    0.545    0.256   83.640  165.353
  485.942    3.894    0.484    0.239   85.571  165.067
  486.192    3.996    0.485    0.234   87.751  164.472
  486.442    4.209    0.474    0.234   89.377  164.084
  486.692    4.375    0.459    0.222   90.626  163.909
  486.942    4.549    0.479    0.212   93.052  163.626
  487.192    4.115    0.492    0.209  100.416  163.343
  487.442    3.717    0.493    0.183   99.014  163.375
  487.692    3.344    0.498    0.193   95.513  163.820
  487.942    3.193    0.487    0.206   93.742  164.690
  488.192    3.496    0.473    0.214   93.390  165.555
  488.442    4.069    0.466    0.215   92.666  166.422
  488.692    4.521    0.480    0.217   93.612  166.763
  488.942    5.052    0.487    0.217   94.804  166.694
  489.192    5.262    0.473    0.209   95.808  166.412
  489.442    5.262    0.465    0.201   96.507  165.920
  489.692    5.242    0.466    0.207   93.807  165.322
  489.942    5.203    0.471    0.218   91.788  164.519
  490.192    5.232    0.482    0.223   96.436  163.813
  490.442    5.329    0.485    0.228   97.689  163.117
  490.692    5.612    0.481    0.226   92.957  162.623
  490.942    5.900    0.462    0.211   91.243  162.132
  491.192    6.202    0.439    0.190   90.336  161.952
  491.442    6.483    0.443    0.195   90.109  161.667
  491.692    6.604    0.445    0.199   90.374  161.284
  491.942    6.555    0.438    0.195   91.069  161.104
  492.192    6.422    0.457    0.197   89.482  161.028
  492.442    6.223    0.464    0.204   85.550  161.064
  492.692    5.974    0.450    0.205   82.358  161.402
  492.942    5.651    0.443    0.218   78.795  161.331
  493.192    5.455    0.459    0.240   74.741  161.046
  493.442    5.276    0.471    0.265   71.856  160.449
  493.692    5.160    0.466    0.284   69.344  159.434
  493.942    5.065    0.456    0.288   67.880  157.482
  494.192    5.008    0.455    0.288   65.181  156.364
  494.442    4.934    0.455    0.291   61.929  155.660
  494.692    4.889    0.464    0.290   59.723  155.170
  494.942    4.861    0.473    0.289   58.075  155.305
  495.192    4.888    0.482    0.299   58.095  156.065
  495.442    4.997    0.482    0.291   59.100  156.831
  495.692    5.195    0.460    0.280   59.303  157.277
  495.942    5.741    0.416    0.262   59.938  158.461
  496.192    6.560    0.275    0.107   57.858  159.433
  496.442    7.579    0.247    0.091   54.666  159.981
  496.692    9.749    0.228    0.079   55.980  161.167
  496.942   13.232    0.211    0.066   53.715  162.349
  497.192   16.647    0.201    0.048   51.386  163.210
  497.442   21.533    0.192    0.042   50.541  164.291
  497.692   25.249    0.186    0.051   52.905  164.738
  497.942   27.442    0.182    0.044   54.652  165.087
  498.192   29.386    0.178    0.031   53.805  165.112
  498.442   30.100    0.177    0.041   54.070  165.040
  498.692   30.378    0.181    0.049   55.569  164.655
  498.942   29.930    0.184    0.038   52.995  164.265
  499.192   27.688    0.190    0.030   52.273  163.670
  499.442   23.006    0.204    0.071   55.192  162.964
  499.692   15.913    0.249    0.155   61.260  161.537
  499.942   12.624    0.337    0.221   64.551  159.998
  500.192    9.941    0.389    0.259   68.026  158.355
  500.442    8.108    0.432    0.277   71.624  156.714
  500.692    6.625    0.433    0.298   75.160  155.699
  500.942    5.917    0.427    0.278   78.698  155.311
  501.192    5.525    0.424    0.263   81.555  155.762
  501.442    5.464    0.428    0.243   84.414  156.206
  501.692    5.524    0.434    0.223   86.654  157.080
  501.942    5.565    0.445    0.206   89.577  157.733
  502.192    5.554    0.453    0.218   91.321  158.807
  502.442    5.503    0.455    0.232   93.561  159.988
