~VERSION INFORMATION
 VERS.                 2.0:   CWLS LOG ASCII STANDARD -VERSION 2.0
 WRAP.                  NO:   ONE LINE PER DEPTH STEP
~WELL INFORMATION BLOCK
#MNEM.UNIT           DATA                    DESCRIPTION OF MNEMONIC
#---------    -------------------            -------------------------------
# Generated from Intellog Unique Number	CX_WELLS/WELL/2729
WELL.         05-14-080-12W4                 : Well_name    - WELL
LOC .         00/05-14-080-12W4/0            : Location     - LOCATION
UWI .         00/05-14-080-12W4/0            : Uwi          - UNIQUE WELL ID
ENTR.         T                              : Entered      - ENTERED BY
SRVC.         SCHLUMBERGER                   : Scn          - SERVICE COMPANY
STRT.M        260                            : top_depth    - START DEPTH
STOP.M        485                            : bot_depth    - STOP DEPTH
STEP.M        0.25                           : increment    - STEP LENGTH
 NULL. -999.2500:NULL Value
~CURVE INFORMATION BLOCK
#MNEM UNIT       ERCB CURVE CODE    CURVE DESCRIPTION
#-----------   ------------------   ----------------------------------
DEPT.M        00 001 00 00         : DEPTH        - DEPTH
GR  .API      00 310 00 00         : GR           - GAMMA RAY
NPHI.V/V      00 330 00 00         : PHIN         - NEUTRON POROSITY (SANDSTONE)
DPHI.V/V      00 890 00 00         : PHID         - DENSITY POROSITY (SANDSTONE)
ILD .OHMM     00 120 00 00         : RESD         - DEEP RESISTIVITY (DLL)
~PARAMETER INFORMATION
#MNEM.UNIT           DATA             DESCRIPTION OF MNEMONIC
#---------         -----------     ------------------------------
GL  .M        686                  : gl           - GROUND LEVEL ELEVATION
EREF.M        689.7                : kb           - ELEVATION OF DEPTH REFERENCE
DATM.M        689.7                : datum        - DATUM ELEVATION
TDD .M        495                  : tdd          - TOTAL DEPTH DRILLER
RUN .         ONE                  : Run          - RUN NUMBER
ENG .         BILL                 : Engineer     - RECORDING ENGINEER
WIT .         JIM                  : Witness      - WITNESSED BY
MUD .         GEL                  : Mud_type     - MUD TYPE
MATR.         SANDSTONE            : Logunit      - NEUTRON MATRIX
TMAX.C        0                    : BHT          - MAXIMUM RECORDED TEMPERATURE
BHTD.M        22                   : BHTDEP       - MAXIMUM RECORDED TEMPERATURE
MATR.         495                  : LOGUNIT      - NEUTRON MATRIX
RMT .C        1                    : MDTP         - TEMPERATURE OF MUD
NEUT.         17                   : NEUTRON      - NEUTRON TYPE
RESI.         1                    : RESIST       - RESISTIVITY TYPE
RMC .OHMM     4                    : RMC          - RESISTIVITY OF MUD CAKE
RMF .OHMM     3.9                  : RMF          - RESISTIVITY OF MUD FILTRATE
SUFT.C        3.8                  : SUFT         - SURFACE TEMPERATURE
SUFT.C        4                    : SUFT         - SURFACE TEMPERATURE
~A  DEPTH       GR     PHIN     PHID     RESD
  260.000  103.569    0.491    0.251    4.344
  260.250  103.620    0.481    0.253    4.598
  260.500  103.066    0.482    0.254    4.776
  260.750  100.716    0.483    0.251    4.962
  261.000   95.412    0.480    0.251    5.153
  261.250   90.087    0.473    0.253    5.869
  261.500   82.987    0.465    0.255    6.442
  261.750   65.177    0.459    0.248    7.610
  262.000   65.823    0.448    0.235    8.989
  262.250   67.649    0.432    0.215   10.424
  262.500   69.475    0.422    0.131   12.318
  262.750   71.311    0.408    0.140   13.766
  263.000   72.521    0.393    0.217   16.266
  263.250   74.347    0.377    0.324   17.223
  263.500   76.778    0.366    0.340   17.235
  263.750   79.199    0.354    0.343   16.037
  264.000   82.215    0.342    0.331   14.651
  264.250   84.041    0.322    0.318   13.633
  264.500   84.677    0.334    0.285   13.408
  264.750   84.718    0.385    0.280   13.427
  265.000   83.569    0.389    0.294   13.441
  265.250   80.029    0.389    0.310   13.713
  265.500   72.929    0.388    0.329   15.331
  265.750   64.639    0.370    0.350   17.451
  266.000   62.300    0.322    0.364   20.995
  266.250   46.859    0.287    0.364   26.203
  266.500   37.974    0.257    0.364   32.715
  266.750   35.040    0.251    0.367   36.573
  267.000   36.271    0.260    0.372   37.315
  267.250   40.477    0.269    0.366   35.365
  267.500   53.044    0.281    0.365   32.309
  267.750   54.860    0.292    0.367   28.444
  268.000   54.911    0.298    0.373   24.594
  268.250   55.537    0.301    0.386   22.461
  268.500   56.758    0.308    0.393   14.758
  268.750   71.675    0.310    0.374   13.478
  269.000   79.451    0.316    0.365    9.876
  269.250  103.909    0.326    0.249    9.026
  269.500  107.510    0.350    0.203    8.096
  269.750  107.571    0.363    0.194    7.670
  270.000  106.997    0.419    0.200    6.878
  270.250  106.443    0.437    0.206    6.171
  270.500  105.888    0.442    0.208    5.957
  270.750  105.344    0.436    0.205    5.965
  271.000  104.780    0.430    0.202    5.973
  271.250  104.831    0.428    0.202    5.984
  271.500  104.861    0.429    0.198    5.988
  271.750  104.923    0.441    0.202    6.112
  272.000  105.548    0.442    0.210    6.231
  272.250  105.589    0.437    0.215    6.240
  272.500  105.630    0.437    0.202    6.366
  272.750  104.481    0.438    0.194    6.373
  273.000  102.736    0.444    0.191    6.384
  273.250  102.182    0.448    0.193    6.391
  273.500  102.213    0.439    0.198    6.523
  273.750  102.264    0.427    0.200    6.529
  274.000  104.100    0.404    0.202    6.536
  274.250  105.331    0.401    0.204    6.669
  274.500  105.967    0.394    0.207    7.189
  274.750  106.007    0.396    0.208    7.194
  275.000  106.058    0.400    0.204    7.342
  275.250  106.079    0.424    0.202    7.348
  275.500  105.525    0.433    0.200    7.358
  275.750  103.185    0.438    0.199    7.373
  276.000   99.656    0.431    0.199    7.517
  276.250   97.911    0.423    0.199    7.525
  276.500   99.142    0.415    0.199    7.678
  276.750   99.799    0.408    0.202    7.688
  277.000   99.829    0.407    0.203    7.699
  277.250   99.860    0.415    0.206    7.710
  277.500   99.326    0.426    0.207    7.866
  277.750   98.761    0.426    0.208    8.017
  278.000   98.207    0.416    0.208    8.028
  278.250   99.448    0.416    0.206    8.040
  278.500  100.064    0.418    0.206    8.051
  278.750  101.295    0.419    0.206    7.918
  279.000  102.526    0.419    0.206    7.926
  279.250  101.971    0.417    0.206    7.940
  279.500   97.847    0.412    0.207    7.951
  279.750   93.127    0.409    0.206    8.109
  280.000   89.598    0.404    0.206    8.427
  280.250   88.448    0.398    0.213    8.592
  280.500   87.904    0.388    0.225    8.926
  280.750   84.375    0.384    0.244    9.272
  281.000   82.620    0.379    0.257    9.457
  281.250   81.471    0.385    0.249    9.473
  281.500   85.082    0.394    0.226    9.311
  281.750   89.883    0.401    0.215    8.991
  282.000   92.899    0.410    0.210    8.679
  282.250   96.510    0.421    0.209    8.530
  282.500  100.132    0.432    0.207    8.084
  282.750  101.363    0.442    0.201    7.804
  283.000  101.404    0.433    0.194    7.533
  283.250  101.434    0.425    0.189    7.276
  283.500   98.500    0.423    0.191    7.284
  283.750   94.385    0.428    0.203    7.427
  284.000   95.021    0.432    0.214    7.718
  284.250   97.452    0.431    0.226    7.869
  284.500   98.078    0.431    0.223    8.028
  284.750   98.109    0.432    0.223    8.191
  285.000   95.184    0.434    0.221    8.200
  285.250   94.045    0.433    0.218    8.214
  285.500   95.851    0.431    0.216    8.219
  285.750   98.887    0.431    0.212    8.234
  286.000  100.118    0.436    0.209    8.248
  286.250  100.149    0.439    0.207    8.257
  286.500  100.190    0.443    0.206    8.265
  286.750  100.241    0.444    0.203    8.279
  287.000  100.271    0.447    0.203    8.288
  287.250  100.322    0.448    0.204    8.299
  287.500  100.343    0.445    0.204    8.311
  287.750  100.394    0.437    0.205    8.325
  288.000  100.435    0.432    0.204    8.337
  288.250  100.475    0.427    0.202    8.346
  288.500   99.921    0.426    0.204    8.211
  288.750   99.962    0.424    0.208    8.216
  289.000  100.013    0.424    0.209    8.228
  289.250  100.064    0.427    0.208    7.114
  289.500  100.084    0.434    0.207    7.124
  289.750  100.125    0.438    0.205    7.136
  290.000  100.176    0.446    0.204    7.019
  290.250   99.622    0.452    0.204    7.026
  290.500   99.078    0.429    0.203    7.038
  290.750   98.513    0.426    0.203    7.178
  291.000   97.364    0.425    0.206    7.457
  291.250   95.610    0.420    0.215    8.036
  291.500   89.690    0.411    0.249    8.345
  291.750   83.185    0.403    0.274    9.506
  292.000   74.895    0.397    0.300    9.871
  292.250   67.200    0.384    0.314   10.448
  292.500   57.720    0.386    0.328   10.850
  292.750   63.712    0.397    0.293    9.916
  293.000   84.579    0.411    0.278    9.062
  293.250   91.186    0.429    0.273    8.745
  293.500   87.051    0.433    0.280    8.601
  293.750   82.321    0.405    0.283    8.606
  294.000   73.436    0.399    0.289    9.106
  294.250   65.742    0.390    0.295    9.460
  294.500   58.642    0.384    0.291    9.830
  294.750   59.288    0.386    0.281   10.026
  295.000   61.124    0.389    0.274   10.230
  295.250   61.739    0.391    0.274   10.237
  295.500   62.970    0.391    0.274   10.251
  295.750   63.606    0.393    0.268   10.459
  296.000   64.252    0.397    0.264   10.477
  296.250   64.878    0.404    0.257   10.484
  296.500   66.714    0.411    0.251   10.499
  296.750   69.125    0.416    0.244   10.513
  297.000   73.351    0.412    0.238   10.535
  297.250   73.967    0.401    0.225   10.354
  297.500   73.413    0.403    0.229   10.372
  297.750   69.298    0.414    0.256   10.390
  298.000   58.023    0.424    0.265   10.401
  298.250   56.279    0.432    0.275   10.419
  298.500   61.685    0.428    0.269   10.426
  298.750   65.286    0.415    0.266   10.444
  299.000   70.682    0.405    0.261   10.455
  299.250   72.518    0.404    0.259   10.473
  299.500   73.760    0.407    0.258   10.488
  299.750   73.811    0.411    0.258   10.697
  300.000   73.236    0.411    0.264   10.711
  300.250   72.692    0.415    0.272   10.921
  300.500   75.113    0.425    0.277   10.936
  300.750   78.139    0.437    0.285   11.166
  301.000   79.360    0.445    0.289   11.384
  301.250   79.996    0.455    0.282   11.607
  301.500   80.621    0.467    0.274   11.847
  301.750   81.873    0.482    0.275   12.079
  302.000   82.498    0.483    0.280   12.311
  302.250   83.729    0.478    0.281   12.793
  302.500   84.375    0.470    0.282   13.049
  302.750   84.396    0.459    0.283   13.309
  303.000   84.436    0.455    0.283   13.830
  303.250   83.882    0.456    0.283   13.840
