~VERSION INFORMATION
 VERS.                 2.0:   CWLS LOG ASCII STANDARD -VERSION 2.0
 WRAP.                  NO:   ONE LINE PER DEPTH STEP
~WELL INFORMATION BLOCK
#MNEM.UNIT           DATA                    DESCRIPTION OF MNEMONIC
#---------    -------------------            -------------------------------
# Generated from Intellog Unique Number	CS_71_72/WELL/786
WELL.         BOW VALLEY EXPLORATION         : Well_name    - WELL
LOC .         00/06-34-072-18W4/0            : Location     - LOCATION
UWI .         00/06-34-072-18W4/0            : Uwi          - UNIQUE WELL ID
ENTR.         SP                             : Entered      - ENTERED BY
SRVC.         SCHLUMBERGER                   : Scn          - SERVICE COMPANY
STRT.M        268.224                        : top_depth    - START DEPTH
STOP.M        462.974                        : bot_depth    - STOP DEPTH
STEP.M        0.25                           : increment    - STEP LENGTH
 NULL. -999.2500:NULL Value
~CURVE INFORMATION BLOCK
#MNEM UNIT       ERCB CURVE CODE    CURVE DESCRIPTION
#-----------   ------------------   ----------------------------------
DEPT.M        00 001 00 00         : DEPTH        - DEPTH
GR  .API      00 310 00 00         : GR           - GAMMA RAY
DPHI.V/V      00 890 00 00         : PHID         - DENSITY POROSITY (SANDSTONE)
NPHI.V/V      00 330 00 00         : PHIN         - NEUTRON POROSITY (SANDSTONE)
ILD .OHMM     00 120 00 00         : RESD         - DEEP RESISTIVITY (DIL)
~PARAMETER INFORMATION
#MNEM.UNIT           DATA             DESCRIPTION OF MNEMONIC
#---------         -----------     ------------------------------
GL  .M        585.734              : gl           - GROUND LEVEL ELEVATION
EREF.M        588.874              : kb           - ELEVATION OF DEPTH REFERENCE
DATM.M        585.734              : datum        - DATUM ELEVATION
TDD .M        472.44               : tdd          - TOTAL DEPTH DRILLER
RUN .         ONE                  : Run          - RUN NUMBER
ENG .         BILL                 : Engineer     - RECORDING ENGINEER
WIT .         JIM                  : Witness      - WITNESSED BY
MUD .         GEL                  : Mud_type     - MUD TYPE
MATR.         SANDSTONE            : Logunit      - NEUTRON MATRIX
TMAX.C        21.1111              : BHT          - MAXIMUM RECORDED TEMPERATURE
BHTD.M        472.44               : BHTDEP       - MAXIMUM RECORDED TEMPERATURE
MATR.         1                    : LOGUNIT      - NEUTRON MATRIX
RMT .C        25                   : MDTP         - TEMPERATURE OF MUD
NEUT.         1                    : NEUTRON      - NEUTRON TYPE
RESI.         0                    : RESIST       - RESISTIVITY TYPE
RMC .OHMM     0.25                 : RMC          - RESISTIVITY OF MUD CAKE
RMF .OHMM     0.25                 : RMF          - RESISTIVITY OF MUD FILTRATE
SUFT.C        15                   : SUFT         - SURFACE TEMPERATURE
~A  DEPTH       GR     PHID     PHIN     RESD
# ...
  355.224   66.359    0.351    0.416    4.729
  355.474   67.289    0.346    0.418    4.727
  355.724   69.022    0.334    0.409    4.832
  355.974   70.593    0.336    0.403    4.821
  356.224   70.663    0.335    0.403    4.933
  356.474   70.682    0.329    0.400    4.928
  356.724   69.643    0.330    0.399    4.931
  356.974   69.421    0.336    0.402    4.933
  357.224   68.370    0.326    0.405    4.938
  357.474   68.005    0.336    0.405    4.941
  357.724   67.694    0.346    0.407    4.945
  357.974   67.225    0.349    0.414    4.948
  358.224   67.546    0.359    0.411    4.952
  358.474   68.685    0.348    0.408    4.956
  358.724   71.789    0.337    0.404    4.951
  358.974   73.887    0.331    0.399    5.064
  359.224   74.442    0.328    0.403    5.060
  359.474   73.918    0.329    0.411    4.991
  359.724   72.873    0.334    0.417    4.969
  359.974   71.552    0.335    0.416    5.070
  360.224   70.017    0.338    0.412    5.060
  360.474   68.425    0.342    0.426    5.176
  360.724   69.779    0.336    0.437    5.262
  360.974   71.831    0.331    0.440    5.430
  361.224   73.544    0.338    0.428    5.615
  361.474   74.572    0.324    0.419    5.890
  361.724   75.180    0.309    0.423    5.952
  361.974   72.649    0.303    0.409    6.013
  362.224   70.126    0.297    0.388    5.936
  362.474   68.787    0.256    0.365    5.761
  362.724   68.819    0.234    0.359    5.595
  362.974   69.226    0.261    0.426    5.425
  363.224   69.397    0.287    0.446    5.416
  363.474   69.447    0.303    0.444    5.314
  363.724   68.448    0.303    0.435    5.318
  363.974   68.392    0.318    0.423    5.314
  364.224   69.940    0.338    0.416    5.415
  364.474   72.519    0.333    0.413    5.423
  364.724   75.028    0.328    0.424    5.430
  364.974   75.450    0.321    0.432    5.442
  365.224   74.266    0.314    0.421    5.340
  365.474   74.419    0.311    0.415    5.242
  365.724   74.449    0.319    0.414    5.177
  365.974   73.855    0.324    0.419    5.154
  366.224   72.623    0.339    0.433    5.260
  366.474   72.628    0.344    0.431    5.318
  366.724   73.413    0.336    0.428    5.476
  366.974   72.157    0.330    0.431    5.964
  367.224   71.374    0.332    0.439    6.690
  367.474   72.871    0.332    0.432    7.205
  367.724   72.230    0.316    0.419    8.132
  367.974   70.983    0.252    0.346    9.005
  368.224   69.755    0.175    0.247    9.750
  368.474   68.211    0.155    0.230   10.088
  368.724   67.873    0.136    0.247    9.148
  368.974   66.830    0.150    0.270    8.195
  369.224   66.341    0.165    0.306    7.240
  369.474   65.773    0.184    0.326    6.785
  369.724   67.523    0.209    0.347    6.268
  369.974   69.603    0.228    0.305    5.716
  370.224   71.087    0.171    0.335    5.514
  370.474   74.573    0.239    0.375    5.522
  370.724   77.931    0.294    0.405    5.518
  370.974   79.788    0.305    0.413    5.653
  371.224   82.296    0.317    0.421    5.831
  371.474   84.191    0.337    0.424    6.063
  371.724   83.686    0.352    0.417    6.312
  371.974   82.225    0.334    0.420    6.509
  372.224   80.533    0.331    0.424    6.667
  372.474   76.632    0.331    0.428    6.796
  372.724   72.439    0.327    0.429    6.797
  372.974   69.827    0.336    0.427    6.802
  373.224   68.420    0.341    0.425    6.812
  373.474   67.462    0.347    0.429    6.616
  373.724   66.535    0.344    0.436    6.432
  373.974   65.005    0.348    0.425    6.136
  374.224   63.957    0.341    0.418    5.888
  374.474   63.750    0.335    0.422    5.793
  374.724   63.181    0.330    0.424    5.520
  374.974   63.911    0.331    0.418    5.508
  375.224   66.220    0.339    0.409    5.393
  375.474   67.052    0.336    0.408    5.413
  375.724   67.375    0.335    0.423    5.297
  375.974   67.410    0.339    0.432    5.312
  376.224   69.068    0.339    0.414    5.252
  376.474   70.018    0.334    0.408    5.225
  376.724   71.005    0.331    0.403    5.225
  376.974   71.696    0.333    0.402    5.175
  377.224   71.591    0.338    0.404    5.139
  377.474   71.144    0.329    0.407    5.149
  377.724   70.526    0.319    0.403    5.043
  377.974   69.910    0.315    0.400    5.059
  378.224   70.359    0.322    0.400    4.987
  378.474   72.103    0.327    0.403    4.974
  378.724   73.042    0.319    0.404    4.977
  378.974   75.072    0.314    0.405    4.916
  379.224   76.033    0.308    0.405    4.902
  379.474   76.633    0.328    0.408    4.810
  379.724   76.602    0.337    0.425    4.811
  379.974   77.442    0.340    0.439    4.796
  380.224   78.389    0.347    0.442    4.728
  380.474   80.129    0.340    0.440    4.733
  380.724   80.313    0.335    0.436    4.736
  380.974   80.406    0.329    0.437    4.742
  381.224   79.927    0.323    0.440    4.745
  381.474   81.046    0.325    0.446    4.748
  381.724   83.572    0.335    0.449    4.740
  381.974   84.750    0.339    0.445    4.844
  382.224   86.423    0.332    0.441    4.935
  382.474   87.105    0.326    0.446    4.999
  382.724   86.243    0.312    0.441    5.031
  382.974   85.874    0.300    0.435    5.037
  383.224   85.901    0.290    0.434    5.045
  383.474   85.931    0.287    0.439    5.061
  383.724   85.854    0.283    0.435    5.150
  383.974   87.522    0.291    0.446    5.005
  384.224   88.452    0.292    0.457    4.862
  384.474   89.441    0.299    0.456    4.728
  384.724   90.432    0.314    0.453    4.469
  384.974   91.428    0.322    0.463    4.127
  385.224   90.991    0.303    0.460    3.703
  385.474   90.888    0.291    0.448    3.387
  385.724   91.397    0.282    0.440    3.156
  385.974   95.886    0.270    0.438    3.000
  386.224   99.147    0.253    0.443    2.992
  386.474  103.216    0.217    0.499    3.254
  386.724  105.261    0.221    0.500    3.574
  386.974  107.227    0.223    0.493    3.833
  387.224  108.622    0.228    0.485    4.202
  387.474  109.740    0.231    0.478    4.571
  387.724  108.348    0.212    0.465    4.853
  387.974  108.076    0.224    0.463    5.091
  388.224  105.673    0.252    0.455    5.254
  388.474  104.823    0.250    0.439    5.312
  388.724  105.789    0.252    0.437    5.416
  388.974  107.491    0.241    0.445    5.391
  389.224  108.431    0.231    0.454    5.320
  389.474  109.433    0.224    0.452    5.325
  389.724  110.447    0.219    0.453    5.327
  389.974  110.538    0.223    0.444    5.415
  390.224  107.271    0.234    0.439    5.537
  390.474  104.727    0.252    0.436    5.659
  390.724  104.203    0.236    0.442    5.833
  390.974  105.025    0.229    0.446    6.018
  391.224  105.692    0.231    0.442    6.205
  391.474  107.202    0.229    0.440    6.311
  391.724  103.414    0.219    0.429    6.451
  391.974  103.274    0.209    0.421    6.442
  392.224  105.504    0.200    0.418    6.435
  392.474  108.108    0.200    0.431    6.345
  392.724  109.341    0.222    0.427    5.997
  392.974  108.763    0.218    0.418    5.905
  393.224  107.561    0.212    0.421    5.672
  393.474  107.598    0.222    0.423    5.622
  393.724  107.556    0.228    0.426    5.381
  393.974  108.271    0.240    0.427    5.283
  394.224  108.243    0.252    0.432    5.212
  394.474  108.257    0.258    0.447    5.105
  394.724  108.277    0.243    0.458    5.120
  394.974  107.729    0.230    0.460    5.224
  395.224  107.058    0.226    0.446    5.219
  395.474  107.167    0.224    0.442    5.227
  395.724  106.199    0.218    0.442    5.135
  395.974  105.195    0.213    0.434    5.034
  396.224  102.637    0.218    0.435    5.049
  396.474  100.564    0.210    0.435    5.051
  396.724  100.104    0.205    0.431    5.052
  396.974   99.980    0.219    0.428    5.135
  397.224  101.345    0.241    0.426    5.161
  397.474  102.601    0.261    0.429    5.059
  397.724  103.188    0.247    0.433    4.848
  397.974  103.479    0.248    0.440    4.686
  398.224   98.426    0.278    0.439    4.549
  398.474   91.408    0.305    0.430    4.461
