~VERSION INFORMATION
 VERS.                 2.0:   CWLS LOG ASCII STANDARD -VERSION 2.0
 WRAP.                  NO:   ONE LINE PER DEPTH STEP
~WELL INFORMATION BLOCK
#MNEM.UNIT           DATA                    DESCRIPTION OF MNEMONIC
#---------    -------------------            -------------------------------
# Generated from Intellog Unique Number	CS_67_68/WELL/2169
WELL.         CHIEFCO et al TWEEDIE          : Well_name    - WELL
LOC .         00/06-13-067-12W4/0            : Location     - LOCATION
UWI .         00/06-13-067-12W4/0            : Uwi          - UNIQUE WELL ID
ENTR.         SP                             : Entered      - ENTERED BY
SRVC.         SCHLUMBERGER                   : Scn          - SERVICE COMPANY
STRT.M        320                            : top_depth    - START DEPTH
STOP.M        525                            : bot_depth    - STOP DEPTH
STEP.M        0.25                           : increment    - STEP LENGTH
 NULL. -999.2500:NULL Value
~CURVE INFORMATION BLOCK
#MNEM UNIT       ERCB CURVE CODE    CURVE DESCRIPTION
#-----------   ------------------   ----------------------------------
DEPT.M        00 001 00 00         : DEPTH        - DEPTH
ILD .OHMM     00 120 00 00         : RESD         - DEEP RESISTIVITY (DIL)
DPHI.V/V      00 890 00 00         : PHID         - DENSITY POROSITY (LIMESTONE)
NPHI.V/V      00 330 00 00         : PHIN         - NEUTRON POROSITY (LIMESTONE)
GR  .API      00 310 00 00         : GR           - GAMMA RAY
CALI.MM       00 280 01 00         : CAL          - CALIPER
~PARAMETER INFORMATION
#MNEM.UNIT           DATA             DESCRIPTION OF MNEMONIC
#---------         -----------     ------------------------------
GL  .M        604.6                : gl           - GROUND LEVEL ELEVATION
EREF.M        607.6                : kb           - ELEVATION OF DEPTH REFERENCE
DATM.M        607.6                : datum        - DATUM ELEVATION
TDD .M        532                  : tdd          - TOTAL DEPTH DRILLER
RUN .         ONE                  : Run          - RUN NUMBER
ENG .         BILL                 : Engineer     - RECORDING ENGINEER
WIT .         JIM                  : Witness      - WITNESSED BY
MUD .         GEL                  : Mud_type     - MUD TYPE
MATR.         LIMESTONE            : Logunit      - NEUTRON MATRIX
TMAX.C        20                   : BHT          - MAXIMUM RECORDED TEMPERATURE
BHTD.M        529                  : BHTDEP       - MAXIMUM RECORDED TEMPERATURE
MATR.         1                    : LOGUNIT      - NEUTRON MATRIX
RMT .C        25                   : MDTP         - TEMPERATURE OF MUD
NEUT.         1                    : NEUTRON      - NEUTRON TYPE
RESI.         0                    : RESIST       - RESISTIVITY TYPE
RMC .OHMM     0.25                 : RMC          - RESISTIVITY OF MUD CAKE
RMF .OHMM     0.25                 : RMF          - RESISTIVITY OF MUD FILTRATE
SUFT.C        15                   : SUFT         - SURFACE TEMPERATURE
~A  DEPTH     RESD     PHID     PHIN       GR      CAL
  320.000    2.193    0.200    0.418  104.179  172.817
  320.250    2.287    0.196    0.412   98.850  172.805
  320.500    2.359    0.192    0.415   99.822  172.489
  320.750    2.387    0.186    0.426   94.065  171.867
  321.000    2.389    0.184    0.427   94.365  171.856
  321.250    2.396    0.190    0.421   98.028  172.151
  321.500    2.394    0.203    0.436   99.123  172.140
  321.750    2.370    0.202    0.448   99.178  172.129
  322.000    2.354    0.202    0.436   98.192  172.220
  322.250    2.339    0.206    0.414   97.941  172.107
  322.500    2.319    0.191    0.413   99.526  172.199
  322.750    2.309    0.176    0.415  102.456  171.984
  323.000    2.311    0.165    0.407  105.447  172.176
  323.250    2.392    0.163    0.400  108.070  172.065
  323.500    2.435    0.160    0.393  106.473  171.850
  323.750    2.474    0.157    0.389  106.528  171.734
  324.000    2.504    0.158    0.396  107.867  171.625
  324.250    2.558    0.155    0.401  107.004  171.103
  324.500    2.638    0.152    0.400  101.737  170.482
  324.750    2.730    0.152    0.395  102.954  169.859
  325.000    2.847    0.129    0.390  102.397  168.828
  325.250    2.958    0.056    0.384   94.499  167.391
  325.500    3.022    0.014    0.373   87.886  164.627
  325.750    3.071    0.103    0.359   87.023  161.455
  326.000    3.068    0.173    0.347   95.090  161.853
  326.250    3.025    0.178    0.335   98.817  164.798
  326.500    2.966    0.165    0.357   98.994  167.131
  326.750    2.898    0.159    0.368   96.296  168.751
  327.000    2.821    0.157    0.374   98.980  169.660
  327.250    2.762    0.159    0.382  106.253  168.730
  327.500    2.728    0.161    0.394  105.819  167.395
  327.750    2.696    0.169    0.404  103.305  165.955
  328.000    2.693    0.180    0.411  102.319  164.926
  328.250    2.701    0.187    0.416  102.864  163.999
  328.500    2.698    0.195    0.418  100.288  162.458
  328.750    2.701    0.206    0.416  105.359  161.019
  329.000    2.673    0.179    0.407  108.289  160.193
  329.250    2.583    0.168    0.407  107.670  159.775
  329.500    2.514    0.172    0.392  107.113  158.949
  329.750    2.456    0.171    0.381  112.001  158.632
  330.000    2.414    0.187    0.370  117.439  158.723
  330.250    2.489    0.201    0.378  108.379  159.222
  330.500    2.749    0.208    0.389  101.275  160.128
  330.750    2.970    0.214    0.372   97.904  160.525
  331.000    3.257    0.207    0.365   87.865  160.514
  331.250    3.505    0.067    0.342   77.766  159.688
  331.500    3.717    0.018    0.319   84.917  158.658
  331.750    3.869    0.077    0.306   95.922  157.627
  332.000    3.909    0.127    0.330  100.624  156.393
  332.250    3.805    0.158    0.321   96.765  155.056
  332.500    3.717    0.166    0.319   98.655  154.231
  332.750    3.625    0.161    0.335  101.767  153.098
  333.000    3.549    0.157    0.344  103.291  151.864
  333.250    3.513    0.171    0.353  104.753  151.242
  333.500    3.562    0.179    0.356  106.213  150.618
  333.750    3.653    0.167    0.350  107.676  150.609
  334.000    3.795    0.168    0.333  106.201  151.209
  334.250    4.001    0.207    0.316   93.226  151.708
  334.500    4.396    0.263    0.295   79.332  151.289
  334.750    4.893    0.249    0.279   76.695  150.769
  335.000    5.455    0.232    0.253   74.977  150.147
  335.250    6.220    0.226    0.227   78.946  149.830
  335.500    7.755    0.246    0.185   75.820  149.309
  335.750    9.923    0.340    0.159   66.271  148.686
  336.000   12.534    0.376    0.145   58.190  148.063
  336.250   15.953    0.390    0.136   50.475  147.441
  336.500   18.120    0.398    0.131   45.146  146.717
  336.750   20.090    0.404    0.131   45.873  146.094
  337.000   20.036    0.387    0.139   48.497  145.573
  337.250   19.142    0.376    0.145   51.244  145.359
  337.500   17.491    0.360    0.148   53.685  145.449
  337.750   15.922    0.352    0.149   50.681  145.338
  338.000   14.821    0.374    0.158   46.270  145.225
  338.250   13.620    0.396    0.161   49.016  144.907
  338.500   12.654    0.413    0.162   47.113  144.796
  338.750   11.735    0.406    0.165   47.964  144.478
  339.000   10.803    0.400    0.169   50.893  144.570
  339.250    9.761    0.396    0.172   50.091  144.559
  339.500    9.002    0.399    0.173   47.088  144.546
  339.750    8.474    0.403    0.176   45.429  144.741
  340.000    7.743    0.402    0.182   42.486  144.832
  340.250    6.654    0.390    0.187   42.480  144.924
  340.500    5.654    0.387    0.191   45.837  145.015
  340.750    4.552    0.394    0.202   47.728  144.800
  341.000    3.832    0.378    0.225   48.456  144.483
  341.250    3.167    0.359    0.249   46.002  144.065
  341.500    2.637    0.339    0.275   43.793  143.747
  341.750    2.299    0.322    0.303   51.005  143.534
  342.000    2.051    0.312    0.326   65.130  143.013
  342.250    2.163    0.299    0.337   76.991  142.898
  342.500    2.376    0.287    0.351   88.118  142.890
  342.750    2.596    0.277    0.372   97.533  142.878
  343.000    2.783    0.251    0.382   96.486  143.683
  343.250    2.951    0.221    0.366   89.506  143.366
  343.500    3.060    0.217    0.356   83.076  142.948
  343.750    3.156    0.219    0.368   81.174  142.632
  344.000    3.118    0.196    0.385   79.393  142.212
  344.250    2.996    0.173    0.394   75.104  141.896
  344.500    2.965    0.195    0.382   73.018  141.783
  344.750    2.919    0.224    0.371   77.477  141.567
  345.000    2.905    0.234    0.373   82.058  141.558
  345.250    2.930    0.197    0.367   85.416  141.548
  345.500    3.017    0.186    0.362   89.570  141.433
  345.750    3.030    0.202    0.358   91.705  141.321
  346.000    3.072    0.182    0.367   89.312  141.311
  346.250    3.175    0.165    0.360   87.287  141.707
  346.500    3.237    0.177    0.352   84.588  142.002
  346.750    3.326    0.184    0.358   85.072  141.992
  347.000    3.366    0.191    0.367   89.469  141.981
  347.250    3.369    0.202    0.367   92.950  142.071
  347.500    3.341    0.214    0.356   95.758  142.366
  347.750    3.240    0.218    0.356   97.464  142.662
  348.000    3.062    0.211    0.344   95.255  143.060
  348.250    2.626    0.226    0.333   89.498  143.151
  348.500    2.018    0.247    0.326   75.667  143.344
  348.750    1.803    0.272    0.320   66.913  143.536
  349.000    1.638    0.277    0.309   53.815  143.627
  349.250    1.607    0.295    0.295   49.648  143.617
  349.500    1.626    0.303    0.318   48.480  143.300
  349.750    1.696    0.301    0.333   55.386  143.085
  350.000    1.778    0.294    0.343   68.654  142.871
  350.250    1.935    0.276    0.342   76.601  142.452
  350.500    1.934    0.259    0.338   83.507  142.034
  350.750    1.794    0.250    0.339   67.594  141.513
  351.000    1.698    0.267    0.341   56.944  141.503
  351.250    1.595    0.294    0.337   56.754  141.492
  351.500    1.621    0.294    0.343   58.583  141.481
  351.750    1.760    0.290    0.335   65.611  141.470
  352.000    1.952    0.276    0.331   74.169  141.765
  352.250    2.089    0.263    0.331   83.828  141.652
  352.500    2.211    0.252    0.340   91.346  141.438
  352.750    2.345    0.246    0.348   98.742  141.732
  353.000    2.454    0.256    0.355  100.142  141.722
  353.250    2.484    0.266    0.350   91.510  141.711
  353.500    2.445    0.272    0.348   87.160  141.904
  353.750    2.315    0.260    0.356   86.603  142.097
  354.000    2.195    0.245    0.358   89.655  142.189
  354.250    2.097    0.235    0.357   88.793  142.280
  354.500    2.061    0.256    0.363   86.338  142.371
  354.750    2.109    0.278    0.370   85.721  142.768
  355.000    2.241    0.279    0.364   90.914  143.062
  355.250    2.376    0.269    0.357   97.391  143.562
  355.500    2.506    0.267    0.351  101.974  144.163
  355.750    2.584    0.273    0.345  101.906  144.968
  356.000    2.615    0.283    0.350   99.880  145.671
  356.250    2.637    0.292    0.354  101.771  146.169
