~VERSION INFORMATION
 VERS.                 2.0:   CWLS LOG ASCII STANDARD -VERSION 2.0
 WRAP.                  NO:   ONE LINE PER DEPTH STEP
~WELL INFORMATION BLOCK
#MNEM.UNIT           DATA                    DESCRIPTION OF MNEMONIC
#---------    -------------------            -------------------------------
# Generated from Intellog Unique Number	CS_77_79/WELL/903
WELL.         CANADIAN WORLDWIDE ENERGY      : Well_name    - WELL
LOC .         00/07-22-077-05W4/0            : Location     - LOCATION
UWI .         00/07-22-077-05W4/0            : Uwi          - UNIQUE WELL ID
ENTR.         SP                             : Entered      - ENTERED BY
SRVC.         SCHLUMBERGER                   : Scn          - SERVICE COMPANY
STRT.M        175                            : top_depth    - START DEPTH
STOP.M        425                            : bot_depth    - STOP DEPTH
STEP.M        0.25                           : increment    - STEP LENGTH
 NULL. -999.2500:NULL Value
~CURVE INFORMATION BLOCK
#MNEM UNIT       ERCB CURVE CODE    CURVE DESCRIPTION
#-----------   ------------------   ----------------------------------
DEPT.M        00 001 00 00         : DEPTH        - DEPTH
GR  .API      00 310 00 00         : GR           - GAMMA RAY
DPHI.V/V      00 890 00 00         : PHID         - DENSITY POROSITY (LIMESTONE)
NPHI.V/V      00 330 00 00         : PHIN         - NEUTRON POROSITY (LIMESTONE)
ILD .OHMM     00 120 00 00         : RESD         - DEEP RESISTIVITY (DIL)
~PARAMETER INFORMATION
#MNEM.UNIT           DATA             DESCRIPTION OF MNEMONIC
#---------         -----------     ------------------------------
GL  .M        582                  : gl           - GROUND LEVEL ELEVATION
EREF.M        585                  : kb           - ELEVATION OF DEPTH REFERENCE
DATM.M        582                  : datum        - DATUM ELEVATION
TDD .M        434                  : tdd          - TOTAL DEPTH DRILLER
RUN .         ONE                  : Run          - RUN NUMBER
ENG .         BILL                 : Engineer     - RECORDING ENGINEER
WIT .         JIM                  : Witness      - WITNESSED BY
MUD .         GEL                  : Mud_type     - MUD TYPE
MATR.         LIMESTONE            : Logunit      - NEUTRON MATRIX
TMAX.C        23                   : BHT          - MAXIMUM RECORDED TEMPERATURE
BHTD.M        434                  : BHTDEP       - MAXIMUM RECORDED TEMPERATURE
MATR.         1                    : LOGUNIT      - NEUTRON MATRIX
RMT .C        25                   : MDTP         - TEMPERATURE OF MUD
NEUT.         1                    : NEUTRON      - NEUTRON TYPE
RESI.         0                    : RESIST       - RESISTIVITY TYPE
RMC .OHMM     0.25                 : RMC          - RESISTIVITY OF MUD CAKE
RMF .OHMM     0.25                 : RMF          - RESISTIVITY OF MUD FILTRATE
SUFT.C        15                   : SUFT         - SURFACE TEMPERATURE
~A  DEPTH       GR     PHID     PHIN     RESD
# ...
  218.500   57.978    0.301    0.373   19.778
  218.750   54.880    0.320    0.377   18.342
  219.000   53.650    0.341    0.393   16.383
  219.250   63.002    0.356    0.421   14.633
  219.500   77.333    0.389    0.433   12.586
  219.750   92.906    0.369    0.426   10.827
  220.000   95.413    0.292    0.400    8.969
  220.250   94.182    0.215    0.360    8.318
  220.500   96.064    0.210    0.355    7.714
  220.750   99.816    0.207    0.373    7.290
  221.000  101.694    0.216    0.389    7.154
  221.250  102.332    0.218    0.381    6.889
  221.500  104.837    0.208    0.379    6.635
  221.750  107.344    0.206    0.398    6.634
  222.000  105.489    0.197    0.413    7.858
  222.250   92.433    0.184    0.375    9.309
  222.500   84.355    0.164    0.371   11.236
  222.750   86.242    0.145    0.371   13.061
  223.000   89.363    0.177    0.367   15.183
  223.250   84.399    0.222    0.365   16.370
  223.500   89.395    0.265    0.356   16.369
  223.750   94.396    0.295    0.349   15.469
  224.000   95.648    0.272    0.353   13.817
  224.250   95.039    0.251    0.367   13.306
  224.500  100.659    0.228    0.380   12.110
  224.750  107.520    0.224    0.389   11.231
  225.000  121.848    0.217    0.398   10.816
  225.250  124.976    0.214    0.401   10.416
  225.500  123.746    0.214    0.404   10.030
  225.750  120.025    0.219    0.405    9.659
  226.000  113.816    0.225    0.405    9.659
  226.250  110.100    0.230    0.412    9.659
  226.500  111.359    0.234    0.419   10.219
  226.750  112.628    0.236    0.428   11.440
  227.000  113.260    0.240    0.423   13.051
  227.250  112.022    0.244    0.419   13.808
  227.500  102.078    0.255    0.418   14.610
  227.750   92.757    0.262    0.421   15.170
  228.000   90.285    0.268    0.394   15.751
  228.250   95.278    0.272    0.353   15.750
  228.500  102.139    0.274    0.352   16.981
  228.750   94.686    0.277    0.372   18.308
  229.000   82.878    0.280    0.395   19.009
  229.250   75.420    0.288    0.399   21.281
  229.500   59.875    0.303    0.393   22.096
  229.750   49.933    0.322    0.385   23.379
  230.000   46.211    0.340    0.377   23.378
  230.250   46.226    0.333    0.375   22.093
  230.500   56.823    0.321    0.378   20.879
  230.750   69.284    0.305    0.380   20.107
  231.000   81.125    0.281    0.391   19.731
  231.250   73.675    0.294    0.405   19.730
  231.500   73.690    0.311    0.412   19.000
  231.750   76.816    0.311    0.394   17.956
  232.000   79.321    0.300    0.379   16.970
  232.250   78.091    0.292    0.365   15.738
  232.500   75.612    0.297    0.360   13.795
  232.750   71.896    0.303    0.381   12.321
  233.000   75.021    0.295    0.397   11.005
  233.250   82.505    0.279    0.412   10.206
  233.500  103.682    0.261    0.430   10.015
  233.750  104.319    0.264    0.444   12.089
  234.000   90.640    0.269    0.442   13.791
  234.250   85.678    0.275    0.434   15.151
  234.500   88.807    0.279    0.420   16.646
  234.750   91.930    0.277    0.402   16.961
  235.000   86.966    0.260    0.387   14.866
  235.250   90.719    0.254    0.381   14.317
  235.500   96.334    0.244    0.380   13.530
  235.750  100.079    0.231    0.375   13.029
  236.000  103.830    0.228    0.397   14.314
  236.250  101.354    0.228    0.413   15.146
  236.500   90.165    0.234    0.419   16.955
  236.750   78.357    0.240    0.405   17.605
  237.000   74.012    0.300    0.378   17.939
  237.250   69.674    0.319    0.367   17.603
  237.500   68.441    0.309    0.352   17.602
  237.750   70.944    0.298    0.346   17.273
  238.000   74.697    0.277    0.346   17.273
  238.250   68.490    0.251    0.355   17.272
  238.500   66.009    0.248    0.357   16.633
  238.750   72.254    0.256    0.350   15.138
  239.000   77.870    0.251    0.353   14.578
  239.250   82.238    0.237    0.361   14.855
  239.500   83.499    0.230    0.380   16.320
  239.750   75.423    0.240    0.394   16.629
  240.000   68.592    0.256    0.394   16.944
  240.250   66.740    0.269    0.395   16.943
  240.500   71.116    0.311    0.396   16.317
  240.750   73.616    0.317    0.400   16.012
  241.000   72.382    0.311    0.410   15.419
  241.250   66.795    0.310    0.417   15.131
  241.500   66.192    0.305    0.422   14.300
  241.750   67.456    0.297    0.412   14.033
  242.000   68.710    0.280    0.410   13.513
  242.250   70.592    0.263    0.408   13.513
  242.500   71.226    0.265    0.406   12.770
  242.750   73.731    0.268    0.387   12.531
  243.000   76.863    0.268    0.379   12.297
  243.250   76.876    0.261    0.374   11.842
  243.500   78.134    0.248    0.366   11.404
  243.750   82.503    0.247    0.382   11.404
  244.000   80.036    0.253    0.395   10.982
  244.250   81.292    0.244    0.396   10.982
  244.500   85.665    0.230    0.396   11.619
  244.750   88.787    0.222    0.412   13.007
  245.000   76.977    0.239    0.419   14.838
  245.250   68.277    0.271    0.421   16.302
  245.500   65.180    0.299    0.412   16.927
  245.750   63.329    0.314    0.401   18.249
  246.000   61.475    0.334    0.407   18.949
  246.250   60.875    0.336    0.399   18.948
  246.500   61.508    0.343    0.396   19.307
  246.750   61.521    0.346    0.391   19.306
  247.000   61.542    0.329    0.393   18.945
  247.250   60.929    0.310    0.410   18.591
  247.500   59.701    0.302    0.429   18.243
  247.750   59.713    0.298    0.420   18.243
  248.000   59.731    0.309    0.400   18.242
  248.250   60.367    0.315    0.389   18.587
  248.500   60.382    0.328    0.392   18.940
  248.750   60.397    0.332    0.402   18.939
  249.000   59.170    0.332    0.405   19.297
  249.250   57.316    0.331    0.410   19.297
  249.500   56.083    0.332    0.419   19.663
  249.750   58.594    0.335    0.416   19.662
  250.000   61.717    0.336    0.405   19.294
  250.250   63.597    0.310    0.404   18.234
  250.500   62.369    0.300    0.410   17.232
  250.750   63.007    0.301    0.399   16.595
  251.000   65.511    0.309    0.382   15.981
  251.250   61.165    0.314    0.382   15.682
  251.500   60.559    0.320    0.390   15.389
  251.750   64.930    0.325    0.395   15.101
  252.000   63.702    0.321    0.394   14.819
  252.250   62.472    0.310    0.393   14.542
  252.500   62.490    0.306    0.390   14.270
  252.750   61.877    0.305    0.385   14.270
  253.000   58.157    0.306    0.380   14.003
  253.250   57.548    0.315    0.386   14.268
  253.500   60.055    0.322    0.389   14.268
  253.750   64.426    0.320    0.371   13.740
  254.000   70.664    0.281    0.360   12.505
  254.250   78.150    0.234    0.360   11.381
  254.500   86.876    0.202    0.361   10.756
  254.750   91.871    0.216    0.364   10.358
  255.000   88.153    0.237    0.406   10.358
  255.250   88.797    0.261    0.421   10.357
  255.500   88.807    0.270    0.414   10.357
  255.750   88.817    0.270    0.406   10.356
  256.000   89.459    0.256    0.418   10.163
  256.250   91.343    0.244    0.427    9.604
  256.500   93.220    0.237    0.432    9.249
  256.750   95.727    0.237    0.435    9.076
  257.000   95.118    0.233    0.433    8.906
  257.250   92.643    0.224    0.428    8.740
  257.500   94.528    0.222    0.417    8.906
  257.750   94.541    0.222    0.415    8.905
  258.000   90.820    0.225    0.414    9.074
  258.250   88.352    0.246    0.434    9.246
  258.500   88.361    0.255    0.442    9.245
  258.750   89.623    0.249    0.425    9.245
  259.000   90.881    0.231    0.417    9.072
  259.250   92.760    0.229    0.413    9.072
  259.500   94.644    0.225    0.423    8.902
  259.750   97.153    0.218    0.430    8.902
  260.000   96.538    0.219    0.428    8.901
  260.250   92.822    0.232    0.431    8.901
  260.500   92.212    0.229    0.435    8.901
  260.750   94.097    0.225    0.427    8.900
  261.000   95.354    0.227    0.418    8.900
  261.250   93.501    0.236    0.419    8.899
  261.500   91.651    0.229    0.413    8.899
  261.750   90.423    0.225    0.401    8.898
