~VERSION INFORMATION
 VERS.                 2.0:   CWLS LOG ASCII STANDARD -VERSION 2.0
 WRAP.                  NO:   ONE LINE PER DEPTH STEP
~WELL INFORMATION BLOCK
#MNEM.UNIT           DATA                    DESCRIPTION OF MNEMONIC
#---------    -------------------            -------------------------------
# Generated from Intellog Unique Number	CX_WELLS/WELL/2711
WELL.         MAYNARD THORTANY               : Well_name    - WELL
LOC .         00/06-03-080-12W4/0            : Location     - LOCATION
UWI .         00/06-03-080-12W4/0            : Uwi          - UNIQUE WELL ID
ENTR.         T                              : Entered      - ENTERED BY
SRVC.         SCHLUMBERGER                   : Scn          - SERVICE COMPANY
STRT.M        250                            : top_depth    - START DEPTH
STOP.M        495                            : bot_depth    - STOP DEPTH
STEP.M        0.25                           : increment    - STEP LENGTH
 NULL. -999.2500:NULL Value
~CURVE INFORMATION BLOCK
#MNEM UNIT       ERCB CURVE CODE    CURVE DESCRIPTION
#-----------   ------------------   ----------------------------------
DEPT.M        00 001 00 00         : DEPTH        - DEPTH
GR  .API      00 310 00 00         : GR           - GAMMA RAY
NPHI.V/V      00 330 00 00         : PHIN         - NEUTRON POROSITY (SANDSTONE)
DPHI.V/V      00 890 00 00         : PHID         - DENSITY POROSITY (SANDSTONE)
ILD .OHMM     00 120 00 00         : RESD         - DEEP RESISTIVITY (DIL)
~PARAMETER INFORMATION
#MNEM.UNIT           DATA             DESCRIPTION OF MNEMONIC
#---------         -----------     ------------------------------
GL  .M        687                  : gl           - GROUND LEVEL ELEVATION
EREF.M        690                  : kb           - ELEVATION OF DEPTH REFERENCE
DATM.M        690                  : datum        - DATUM ELEVATION
TDD .M        505                  : tdd          - TOTAL DEPTH DRILLER
RUN .         ONE                  : Run          - RUN NUMBER
ENG .         BILL                 : Engineer     - RECORDING ENGINEER
WIT .         JIM                  : Witness      - WITNESSED BY
MUD .         GEL                  : Mud_type     - MUD TYPE
MATR.         SANDSTONE            : Logunit      - NEUTRON MATRIX
TMAX.C        21                   : BHT          - MAXIMUM RECORDED TEMPERATURE
BHTD.M        505                  : BHTDEP       - MAXIMUM RECORDED TEMPERATURE
MATR.         1                    : LOGUNIT      - NEUTRON MATRIX
RMT .C        20                   : MDTP         - TEMPERATURE OF MUD
NEUT.         1                    : NEUTRON      - NEUTRON TYPE
RESI.         3.2                  : RESIST       - RESISTIVITY TYPE
RMC .OHMM     3                    : RMC          - RESISTIVITY OF MUD CAKE
RMF .OHMM     2.1                  : RMF          - RESISTIVITY OF MUD FILTRATE
SUFT.C        3                    : SUFT         - SURFACE TEMPERATURE
~A  DEPTH       GR     PHIN     PHID     RESD
# ...
  380.500   89.331    0.433    0.231    6.425
  380.750   89.987    0.433    0.230    6.433
  381.000   91.240    0.434    0.222    6.436
  381.250   91.886    0.435    0.218    6.443
  381.500   92.533    0.437    0.210    6.451
  381.750   92.572    0.440    0.204    6.455
  382.000   94.452    0.439    0.200    6.463
  382.250   95.079    0.444    0.202    6.468
  382.500   96.332    0.445    0.207    6.476
  382.750   97.605    0.446    0.212    6.484
  383.000   98.232    0.448    0.221    6.487
  383.250   98.888    0.447    0.225    6.493
  383.500  100.151    0.449    0.230    6.420
  383.750  100.777    0.450    0.231    6.346
  384.000  102.658    0.452    0.233    6.273
  384.250  103.901    0.454    0.236    6.042
  384.500  103.940    0.464    0.239    5.889
  384.750  101.560    0.472    0.241    5.657
  385.000   99.160    0.472    0.244    5.504
  385.250   96.770    0.470    0.246    5.273
  385.500   96.819    0.468    0.246    5.119
  385.750   96.858    0.472    0.247    4.966
  386.000   98.121    0.474    0.247    4.813
  386.250   98.747    0.474    0.251    4.581
  386.500  100.011    0.474    0.252    4.506
  386.750  101.871    0.473    0.256    4.355
  387.000  103.115    0.468    0.259    4.203
  387.250  103.761    0.463    0.260    4.206
  387.500  103.810    0.459    0.261    4.138
  387.750  103.849    0.454    0.263    4.143
  388.000  104.514    0.452    0.268    4.146
  388.250  104.544    0.449    0.269    4.314
  388.500  104.573    0.447    0.262    4.399
  388.750  104.612    0.447    0.259    4.644
  389.000  104.651    0.447    0.252    4.809
  389.250  104.082    0.445    0.242    5.137
  389.500  103.514    0.443    0.242    5.300
  389.750  102.338    0.442    0.249    5.386
  390.000  101.780    0.440    0.256    5.474
  390.250  100.604    0.438    0.267    5.556
  390.500  100.026    0.430    0.267    5.803
  390.750   98.243    0.423    0.266    5.967
  391.000   96.470    0.417    0.262    6.535
  391.250   95.902    0.412    0.261    6.777
  391.500   97.165    0.406    0.261    7.184
  391.750   99.633    0.402    0.257    7.348
  392.000  101.484    0.396    0.255    7.512
  392.250  102.130    0.385    0.248    7.917
  392.500  100.955    0.368    0.234    8.081
  392.750   96.135    0.347    0.216    8.488
  393.000   91.316    0.336    0.194    8.571
  393.250   81.639    0.349    0.186    8.899
  393.500   82.295    0.370    0.213    9.063
  393.750   82.932    0.380    0.225    9.150
  394.000   83.588    0.391    0.236    9.155
  394.250   84.234    0.407    0.239    8.925
  394.500   87.319    0.427    0.242    8.769
  394.750   90.991    0.438    0.243    8.537
  395.000   95.271    0.436    0.245    8.147
  395.250  101.412    0.423    0.249    7.757
  395.500  101.432    0.415    0.253    7.523
  395.750   99.041    0.408    0.260    7.213
  396.000   96.044    0.401    0.269    7.057
  396.250   94.281    0.401    0.269    6.827
  396.500   93.693    0.401    0.249    6.753
  396.750   92.537    0.401    0.232    6.757
  397.000   91.949    0.400    0.223    6.845
  397.250   89.559    0.402    0.248    6.929
  397.500   86.562    0.405    0.269    7.016
  397.750   84.191    0.410    0.293    7.102
  398.000   83.613    0.415    0.305    7.109
  398.250   83.054    0.417    0.304    7.035
  398.500   83.681    0.418    0.301    6.964
  398.750   86.159    0.420    0.288    6.967
  399.000   88.010    0.421    0.277    6.815
  399.250   91.104    0.422    0.271    6.744
  399.500   92.358    0.424    0.269    6.747
  399.750   92.994    0.425    0.266    6.677
  400.000   94.248    0.425    0.261    6.680
  400.250   94.296    0.424    0.255    6.689
  400.500   93.738    0.424    0.251    6.692
  400.750   92.552    0.423    0.250    6.781
  401.000   91.367    0.422    0.256    6.866
  401.250   88.987    0.422    0.262    7.031
  401.500   85.990    0.417    0.269    7.198
  401.750   83.002    0.412    0.280    7.363
  402.000   81.817    0.408    0.286    7.529
  402.250   80.024    0.403    0.295    7.615
  402.500   77.644    0.384    0.299    7.779
  402.750   76.468    0.367    0.174    8.184
  403.000   75.900    0.326    0.099    8.428
  403.250   75.948    0.284    0.100    8.992
  403.500   75.978    0.258    0.154   11.704
  403.750   76.007    0.265    0.177   13.781
  404.000   76.055    0.304    0.220   12.197
  404.250   76.104    0.359    0.233   10.927
  404.500   76.750    0.386    0.256   10.058
  404.750   76.779    0.412    0.276    8.234
  405.000   77.426    0.438    0.297    7.046
  405.250   78.082    0.455    0.311    6.735
  405.500   78.728    0.454    0.319    6.740
  405.750   79.991    0.445    0.320    6.668
  406.000   80.627    0.437    0.316    6.673
  406.250   81.881    0.432    0.305    6.681
  406.500   83.144    0.432    0.293    6.689
  406.750   83.183    0.434    0.282    6.614
  407.000   82.007    0.439    0.277    6.620
  407.250   81.429    0.446    0.272    6.629
  407.500   83.300    0.447    0.266    6.629
  407.750   84.543    0.446    0.261    6.483
  408.000   87.021    0.442    0.257    6.330
  408.250   88.275    0.441    0.256    6.254
  408.500   90.145    0.440    0.261    6.182
  408.750   90.772    0.436    0.264    6.110
  409.000   90.203    0.433    0.271    6.035
  409.250   89.038    0.432    0.277    6.040
  409.500   89.067    0.432    0.290    5.968
  409.750   88.508    0.433    0.289    5.897
  410.000   88.557    0.433    0.288    5.900
  410.250   87.979    0.434    0.288    5.826
  410.500   88.027    0.434    0.289    5.755
  410.750   89.898    0.435    0.285    5.681
  411.000   91.749    0.442    0.280    5.607
  411.250   92.993    0.447    0.275    5.536
  411.500   94.863    0.448    0.269    5.540
  411.750   94.892    0.448    0.263    5.547
  412.000   93.736    0.447    0.261    5.552
  412.250   93.148    0.444    0.257    5.640
  412.500   92.580    0.426    0.253    5.724
  412.750   91.424    0.406    0.253    5.972
  413.000   90.856    0.383    0.254    6.298
  413.250   88.475    0.379    0.254    6.460
  413.500   87.280    0.384    0.253    6.785
  413.750   83.685    0.385    0.247    7.189
  414.000   80.678    0.382    0.232    7.514
  414.250   78.905    0.377    0.198    7.840
  414.500   79.551    0.381    0.167    8.004
  414.750   80.188    0.387    0.193    8.330
  415.000   82.656    0.400    0.211    8.576
  415.250   86.348    0.430    0.228    8.264
  415.500   88.816    0.441    0.232    7.952
  415.750   90.069    0.444    0.232    7.799
  416.000   90.098    0.445    0.231    7.569
  416.250   90.754    0.445    0.231    7.492
  416.500   91.400    0.444    0.231    7.339
  416.750   91.439    0.443    0.231    7.108
  417.000   93.320    0.438    0.229    7.034
  417.250   95.171    0.433    0.226    6.882
  417.500   97.022    0.428    0.225    6.889
  417.750  100.097    0.423    0.225    6.895
  418.000   99.538    0.419    0.225    6.901
  418.250   99.567    0.413    0.223    6.906
  418.500  100.831    0.411    0.223    6.992
  418.750  101.486    0.409    0.222    7.078
  419.000  102.133    0.409    0.222    7.085
  419.250  102.172    0.410    0.221    7.090
  419.500  102.210    0.413    0.219    7.020
  419.750  102.249    0.411    0.218    6.947
  420.000  102.288    0.405    0.214    6.791
  420.250  102.337    0.402    0.213    6.558
  420.500  102.366    0.400    0.212    6.168
  420.750  101.817    0.400    0.212    5.934
  421.000  101.239    0.406    0.213    5.465
  421.250  100.661    0.412    0.224    5.231
  421.500  100.083    0.423    0.239    4.839
  421.750   98.310    0.441    0.261    4.288
  422.000   97.135    0.456    0.281    3.897
  422.250   94.744    0.471    0.295    3.348
  422.500   91.747    0.485    0.302    2.955
  422.750   89.367    0.500    0.312    2.643
  423.000   88.779    0.512    0.300    2.410
  423.250   88.220    0.514    0.286    2.257
  423.500   88.249    0.485    0.273    2.184
  423.750   88.298    0.472    0.260    2.190
