~VERSION INFORMATION
 VERS.                 2.0:   CWLS LOG ASCII STANDARD -VERSION 2.0
 WRAP.                  NO:   ONE LINE PER DEPTH STEP
~WELL INFORMATION BLOCK
#MNEM.UNIT           DATA                    DESCRIPTION OF MNEMONIC
#---------    -------------------            -------------------------------
# Generated from Intellog Unique Number	CS_71_72/WELL/662
WELL.         BOW VALLEY EXPLORATION         : Well_name    - WELL
LOC .         00/05-13-071-10W4/0            : Location     - LOCATION
UWI .         00/05-13-071-10W4/0            : Uwi          - UNIQUE WELL ID
ENTR.         SP                             : Entered      - ENTERED BY
SRVC.         SCHLUMBERGER                   : Scn          - SERVICE COMPANY
STRT.M        325                            : top_depth    - START DEPTH
STOP.M        535                            : bot_depth    - STOP DEPTH
STEP.M        0.25                           : increment    - STEP LENGTH
 NULL. -999.2500:NULL Value
~CURVE INFORMATION BLOCK
#MNEM UNIT       ERCB CURVE CODE    CURVE DESCRIPTION
#-----------   ------------------   ----------------------------------
DEPT.M        00 001 00 00         : DEPTH        - DEPTH
ILD .OHMM     00 120 00 00         : RESD         - DEEP RESISTIVITY (DIL)
DPHI.V/V      00 890 00 00         : PHID         - DENSITY POROSITY (LIMESTONE)
NPHI.V/V      00 330 00 00         : PHIN         - NEUTRON POROSITY (LIMESTONE)
GR  .API      00 310 00 00         : GR           - GAMMA RAY
~PARAMETER INFORMATION
#MNEM.UNIT           DATA             DESCRIPTION OF MNEMONIC
#---------         -----------     ------------------------------
GL  .M        679.68               : gl           - GROUND LEVEL ELEVATION
EREF.M        684.3                : kb           - ELEVATION OF DEPTH REFERENCE
DATM.M        679.68               : datum        - DATUM ELEVATION
TDD .M        535                  : tdd          - TOTAL DEPTH DRILLER
RUN .         ONE                  : Run          - RUN NUMBER
ENG .         BILL                 : Engineer     - RECORDING ENGINEER
WIT .         JIM                  : Witness      - WITNESSED BY
MUD .         GEL                  : Mud_type     - MUD TYPE
MATR.         LIMESTONE            : Logunit      - NEUTRON MATRIX
TMAX.C        21                   : BHT          - MAXIMUM RECORDED TEMPERATURE
BHTD.M        535                  : BHTDEP       - MAXIMUM RECORDED TEMPERATURE
MATR.         1                    : LOGUNIT      - NEUTRON MATRIX
RMT .C        25                   : MDTP         - TEMPERATURE OF MUD
NEUT.         1                    : NEUTRON      - NEUTRON TYPE
RESI.         0                    : RESIST       - RESISTIVITY TYPE
RMC .OHMM     0.25                 : RMC          - RESISTIVITY OF MUD CAKE
RMF .OHMM     0.25                 : RMF          - RESISTIVITY OF MUD FILTRATE
SUFT.C        15                   : SUFT         - SURFACE TEMPERATURE
~A  DEPTH     RESD     PHID     PHIN       GR
# ...
  455.500    6.983    0.232    0.407   82.099
  455.750    6.996    0.227    0.401   83.989
  456.000    7.049    0.236    0.408   85.330
  456.250    7.089    0.248    0.417   86.428
  456.500    7.129    0.258    0.421   84.722
  456.750    7.142    0.262    0.429   83.321
  457.000    7.155    0.251    0.452   86.247
  457.250    7.021    0.247    0.467   88.868
  457.500    6.366    0.246    0.475   89.539
  457.750    6.084    0.240    0.455   83.871
  458.000    7.007    0.166    0.448   76.070
  458.250    7.950    0.058    0.239   63.393
  458.500    8.523    0.031    0.206   50.655
  458.750    8.604    0.088    0.311   60.590
  459.000    8.523    0.151    0.375   70.709
  459.250    8.084    0.204    0.423   78.450
  459.500    7.152    0.234    0.457   83.997
  459.750    6.256    0.246    0.477   85.522
  460.000    5.640    0.249    0.481   84.425
  460.250    5.370    0.239    0.478   83.085
  460.500    5.310    0.232    0.481   84.305
  460.750    5.310    0.229    0.494   87.170
  461.000    5.319    0.230    0.477   87.963
  461.250    5.319    0.237    0.464   87.537
  461.500    5.289    0.245    0.459   86.501
  461.750    5.239    0.242    0.452   88.635
  462.000    5.132    0.234    0.463   91.074
  462.250    5.017    0.222    0.462   91.318
  462.500    4.932    0.218    0.452   86.077
  462.750    4.886    0.241    0.452   82.603
  463.000    4.913    0.248    0.460   81.567
  463.250    5.006    0.241    0.457   81.812
  463.500    5.179    0.239    0.466   83.641
  463.750    5.378    0.242    0.477   84.434
  464.000    5.511    0.247    0.470   82.972
  464.250    5.573    0.243    0.460   82.363
  464.500    5.479    0.235    0.454   84.070
  464.750    5.428    0.230    0.449   84.375
  465.000    5.207    0.228    0.454   86.082
  465.250    4.977    0.221    0.470   88.887
  465.500    4.256    0.228    0.491   92.728
  465.750    3.552    0.262    0.515   95.044
  466.000    3.020    0.278    0.548   96.447
  466.250    2.672    0.287    0.556   96.447
  466.500    2.427    0.265    0.531   94.314
  466.750    2.355    0.246    0.521   92.060
  467.000    2.386    0.249    0.528   91.695
  467.250    2.506    0.259    0.557   92.488
  467.500    2.661    0.247    0.518   90.477
  467.750    2.908    0.236    0.491   88.466
  468.000    3.207    0.250    0.476   88.101
  468.250    3.451    0.263    0.467   85.663
  468.500    3.687    0.275    0.473   81.519
  468.750    3.828    0.289    0.464   76.034
  469.000    3.960    0.303    0.457   73.414
  469.250    4.035    0.308    0.462   75.731
  469.500    4.104    0.287    0.475   77.987
  469.750    4.198    0.276    0.481   80.547
  470.000    4.367    0.261    0.467   81.401
  470.250    4.551    0.246    0.450   82.377
  470.500    4.762    0.233    0.445   82.499
  470.750    5.010    0.220    0.439   81.951
  471.000    5.271    0.211    0.439   80.794
  471.250    5.474    0.208    0.443   78.905
  471.500    5.609    0.205    0.454   77.808
  471.750    5.705    0.211    0.452   79.942
  472.000    5.641    0.225    0.433   82.259
  472.250    5.351    0.234    0.430   83.905
  472.500    4.999    0.226    0.443   84.759
  472.750    4.999    0.222    0.452   84.272
  473.000    5.133    0.215    0.460   83.602
  473.250    5.240    0.205    0.469   84.334
  473.500    5.380    0.213    0.475   85.493
  473.750    5.461    0.227    0.448   87.627
  474.000    5.492    0.240    0.428   88.724
  474.250    5.482    0.233    0.423   85.555
  474.500    5.410    0.219    0.435   83.728
  474.750    5.318    0.213    0.444   84.155
  475.000    5.258    0.212    0.433   85.374
  475.250    5.248    0.212    0.441   86.838
  475.500    5.258    0.219    0.437   88.667
  475.750    5.238    0.228    0.426   88.058
  476.000    5.238    0.231    0.433   87.693
  476.250    5.208    0.222    0.439   88.242
  476.500    5.188    0.217    0.448   88.791
  476.750    5.169    0.222    0.456   87.390
  477.000    5.159    0.228    0.459   92.815
  477.250    5.168    0.235    0.436   95.254
  477.500    5.227    0.242    0.416   91.292
  477.750    5.296    0.245    0.401   86.783
  478.000    5.386    0.239    0.393   86.844
  478.250    5.509    0.227    0.390   91.721
  478.500    5.635    0.212    0.392   94.952
  478.750    5.731    0.201    0.395   94.647
  479.000    5.785    0.197    0.397   94.526
  479.250    5.807    0.204    0.400   96.782
  479.500    5.677    0.211    0.404   97.209
  479.750    5.127    0.214    0.412   91.724
  480.000    4.352    0.217    0.410   89.165
  480.250    3.452    0.228    0.427   89.348
  480.500    2.886    0.258    0.459   88.069
  480.750    2.534    0.270    0.504   88.740
  481.000    2.297    0.256    0.544   91.179
  481.250    2.167    0.259    0.534   92.764
  481.500    2.208    0.267    0.524   94.349
  481.750    2.363    0.269    0.525   96.117
  482.000    2.529    0.259    0.538   97.276
  482.250    2.768    0.257    0.557   95.875
  482.500    3.076    0.268    0.417   86.367
  482.750    3.392    0.273    0.424   84.722
  483.000    3.692    0.259    0.447   84.357
  483.250    3.907    0.249    0.440   82.407
  483.500    4.064    0.246    0.451   81.798
  483.750    4.080    0.248    0.454   83.139
  484.000    4.049    0.250    0.441   84.603
  484.250    3.996    0.249    0.431   81.312
  484.500    3.891    0.242    0.442   78.265
  484.750    3.840    0.241    0.443   79.363
  485.000    3.913    0.243    0.439   81.619
  485.250    4.071    0.242    0.454   82.655
  485.500    4.332    0.139    0.467   79.974
  485.750    4.575    0.120    0.324   72.417
  486.000    4.778    0.100    0.302   73.027
  486.250    4.952    0.139    0.324   77.721
  486.500    5.171    0.184    0.372   75.649
  486.750    5.471    0.226    0.411   70.834
  487.000    5.866    0.227    0.424   67.665
  487.250    6.230    0.228    0.327   67.849
  487.500    6.568    0.150    0.316   69.983
  487.750    6.756    0.162    0.340   69.496
  488.000    6.667    0.208    0.387   69.374
  488.250    6.396    0.243    0.425   72.849
  488.500    5.999    0.254    0.411   77.421
  488.750    5.337    0.262    0.393   82.054
  489.000    4.454    0.233    0.383   86.992
  489.250    3.867    0.215    0.406   90.588
  489.500    3.466    0.215    0.444   93.149
  489.750    3.239    0.223    0.471   95.465
  490.000    3.072    0.230    0.474   96.807
  490.250    2.970    0.235    0.472   97.783
  490.500    2.881    0.228    0.472   97.662
  490.750    2.833    0.217    0.472   96.260
  491.000    2.811    0.216    0.464   97.419
  491.250    2.870    0.219    0.463  101.442
  491.500    2.947    0.217    0.475  105.465
  491.750    3.037    0.216    0.476  102.175
  492.000    3.106    0.219    0.475   92.850
  492.250    3.118    0.218    0.460   93.521
  492.500    3.059    0.218    0.455   95.228
  492.750    2.974    0.219    0.467   95.472
  493.000    2.880    0.213    0.476   94.254
  493.250    2.968    0.217    0.473   88.708
  493.500    3.387    0.229    0.470   82.187
  493.750    3.893    0.239    0.444   78.104
  494.000    4.351    0.241    0.415   75.666
  494.250    4.844    0.231    0.395   74.204
  494.500    5.155    0.217    0.390   73.656
  494.750    5.322    0.225    0.390   74.571
  495.000    5.393    0.230    0.392   73.291
  495.250    5.674    0.200    0.405   70.488
  495.500    6.305    0.178    0.393   69.818
  495.750    6.684    0.187    0.384   71.343
  496.000    6.824    0.210    0.391   72.440
  496.250    6.785    0.224    0.387   71.649
  496.500    6.485    0.236    0.374   69.089
  496.750    6.257    0.247    0.365   65.250
  497.000    6.014    0.256    0.362   62.630
  497.250    5.769    0.263    0.375   61.228
  497.500    5.683    0.266    0.383   62.631
  497.750    5.736    0.265    0.390   64.277
  498.000    5.834    0.260    0.387   64.948
  498.250    5.990    0.250    0.382   64.705
  498.500    6.161    0.240    0.380   66.351
  498.750    6.495    0.222    0.391   67.205
