~VERSION INFORMATION
 VERS.                 2.0:   CWLS LOG ASCII STANDARD -VERSION 2.0
 WRAP.                  NO:   ONE LINE PER DEPTH STEP
~WELL INFORMATION BLOCK
#MNEM.UNIT           DATA                    DESCRIPTION OF MNEMONIC
#---------    -------------------            -------------------------------
# Generated from Intellog Unique Number	CS_77_79/WELL/915
WELL.         MESA HB LEISMER                : Well_name    - WELL
LOC .         00/07-33-078-09W4/0            : Location     - LOCATION
UWI .         00/07-33-078-09W4/0            : Uwi          - UNIQUE WELL ID
ENTR.         JHS                            : Entered      - ENTERED BY
SRVC.         SCHLUMBERGER                   : Scn          - SERVICE COMPANY
STRT.M        228.6                          : top_depth    - START DEPTH
STOP.M        460.1                          : bot_depth    - STOP DEPTH
STEP.M        0.25                           : increment    - STEP LENGTH
 NULL. -999.2500:NULL Value
~CURVE INFORMATION BLOCK
#MNEM UNIT       ERCB CURVE CODE    CURVE DESCRIPTION
#-----------   ------------------   ----------------------------------
DEPT.M        00 001 00 00         : DEPTH        - DEPTH
RHOB.KG/M3    00 350 00 00         : DENS         - BULK DENSITY
GR  .API      00 310 00 00         : GR           - GAMMA RAY
DPHI.V/V      00 890 00 00         : PHID         - DENSITY POROSITY (SANDSTONE)
NPHI.V/V      00 330 00 00         : PHIN         - NEUTRON POROSITY (SANDSTONE)
ILD .OHMM     00 120 00 00         : RESD         - DEEP RESISTIVITY (DIL)
~PARAMETER INFORMATION
#MNEM.UNIT           DATA             DESCRIPTION OF MNEMONIC
#---------         -----------     ------------------------------
GL  .M        660.38               : gl           - GROUND LEVEL ELEVATION
EREF.M        661.416              : kb           - ELEVATION OF DEPTH REFERENCE
DATM.M        661.416              : datum        - DATUM ELEVATION
TDD .M        475.488              : tdd          - TOTAL DEPTH DRILLER
RUN .         ONE                  : Run          - RUN NUMBER
ENG .         BILL                 : Engineer     - RECORDING ENGINEER
WIT .         JIM                  : Witness      - WITNESSED BY
MUD .         GEL                  : Mud_type     - MUD TYPE
MATR.         SANDSTONE            : Logunit      - NEUTRON MATRIX
TMAX.C        60                   : BHT          - MAXIMUM RECORDED TEMPERATURE
BHTD.M        475.488              : BHTDEP       - MAXIMUM RECORDED TEMPERATURE
MATR.         1                    : LOGUNIT      - NEUTRON MATRIX
RMT .C        25                   : MDTP         - TEMPERATURE OF MUD
NEUT.         1                    : NEUTRON      - NEUTRON TYPE
RESI.         0                    : RESIST       - RESISTIVITY TYPE
RMC .OHMM     0.25                 : RMC          - RESISTIVITY OF MUD CAKE
RMF .OHMM     0.25                 : RMF          - RESISTIVITY OF MUD FILTRATE
SUFT.C        15                   : SUFT         - SURFACE TEMPERATURE
~A  DEPTH     DENS       GR     PHID     PHIN     RESD
  228.600    0.000   99.398    0.296    0.576    3.124
  228.850    0.000   98.352    0.300    0.580    3.129
  229.100    0.000   98.223    0.297    0.598    3.144
  229.350    0.000  101.044    0.287    0.564    3.189
  229.600    0.000  103.341    0.270    0.543    3.295
  229.850    0.000  106.325    0.269    0.537    3.321
  230.100    0.000  107.791    0.263    0.538    3.491
  230.350    0.000  107.875    0.266    0.547    3.609
  230.600    0.000  108.008    0.289    0.564    3.729
  230.850    0.000  109.755    0.285    0.570    3.906
  231.100    0.000  108.366    0.267    0.590    4.088
  231.350    0.000  106.662    0.275    0.593    4.161
  231.600    0.000  108.672    0.270    0.593    4.350
  231.850    0.000  110.486    0.258    0.569    4.509
  232.100    0.000  111.452    0.256    0.543    4.653
  232.350    0.000  109.862    0.253    0.521    4.742
  232.600    0.000  105.990    0.253    0.517    4.848
  232.850    0.000  103.602    0.260    0.536    4.848
  233.100    0.000  106.096    0.256    0.561    4.712
  233.350    0.000  109.369    0.254    0.553    4.579
  233.600    0.000  111.066    0.264    0.535    4.456
  233.850    0.000  107.144    0.278    0.554    4.268
  234.100    0.000  106.035    0.259    0.570    4.198
  234.350    0.000  102.600    0.256    0.550    4.261
  234.600    0.000  100.821    0.257    0.534    4.395
  234.850    0.000  104.252    0.248    0.536    4.536
  235.100    0.000  105.938    0.264    0.551    4.605
  235.350    0.000  106.369    0.246    0.560    4.539
  235.600    0.000  110.130    0.239    0.561    4.470
  235.850    0.000  112.015    0.235    0.541    4.425
  236.100    0.000  109.708    0.244    0.538    4.394
  236.350    0.000  107.232    0.250    0.543    4.400
  236.600    0.000  107.986    0.244    0.516    4.477
  236.850    0.000  102.563    0.224    0.512    4.671
  237.100    0.000   96.873    0.226    0.528    4.972
  237.350    0.000   90.287    0.224    0.531    5.256
  237.600    0.000   85.464    0.194    0.502    5.412
  237.850    0.000   84.059    0.166    0.467    5.584
  238.100    0.000   89.536    0.119    0.445    5.754
  238.350    0.000   90.453    0.100    0.467    6.049
  238.600    0.000   85.438    0.268    0.444    6.410
  238.850    0.000   80.270    0.262    0.376    7.172
  239.100    0.000   92.272    0.236    0.384    7.953
  239.350    0.000   99.680    0.238    0.448    8.635
  239.600    0.000  100.759    0.233    0.471    9.146
  239.850    0.000  101.636    0.254    0.485    9.595
  240.100    0.000  104.089    0.268    0.486    9.703
  240.350    0.000  108.824    0.271    0.497   10.029
  240.600    0.000  113.743    0.255    0.496   10.632
  240.850    0.000  116.374    0.232    0.476   11.266
  241.100    0.000  116.914    0.235    0.476   12.087
  241.350    0.000  115.915    0.250    0.477   12.863
  241.600    0.000  113.864    0.262    0.482   13.340
  241.850    0.000  113.255    0.272    0.496   13.524
  242.100    0.000  112.828    0.266    0.501   13.537
  242.350    0.000  108.449    0.274    0.485   13.574
  242.600    0.000  102.368    0.314    0.478   14.250
  242.850    0.000   96.242    0.355    0.496   15.133
  243.100    0.000   81.118    0.423    0.571   16.482
  243.350    0.000   61.599    0.480    0.601   18.657
  243.600    0.000   54.059    0.491    0.517   20.507
  243.850    0.000   53.182    0.380    0.470   22.012
  244.100    0.000   58.879    0.337    0.445   23.431
  244.350    0.000   63.563    0.328    0.444   24.151
  244.600    0.000   63.938    0.343    0.450   24.144
  244.850    0.000   62.615    0.368    0.453   24.203
  245.100    0.000   68.280    0.357    0.437   23.606
  245.350    0.000   70.432    0.368    0.428   23.360
  245.600    0.000   70.904    0.388    0.433   22.888
  245.850    0.000   69.896    0.378    0.440   22.898
  246.100    0.000   70.041    0.342    0.451   22.547
  246.350    0.000   68.498    0.307    0.460   22.438
  246.600    0.000   65.390    0.301    0.462   21.783
  246.850    0.000   61.373    0.317    0.458   21.525
  247.100    0.000   57.721    0.329    0.466   20.731
  247.350    0.000   59.166    0.333    0.462   20.304
  247.600    0.000   61.036    0.326    0.464   19.936
  247.850    0.000   61.244    0.343    0.448   20.065
  248.100    0.000   66.125    0.340    0.427   20.709
  248.350    0.000   71.205    0.321    0.429   21.514
  248.600    0.000   73.374    0.327    0.449   22.435
  248.850    0.000   75.350    0.334    0.462   22.731
  249.100    0.000   75.181    0.333    0.446   23.229
  249.350    0.000   73.472    0.325    0.436   23.724
  249.600    0.000   71.514    0.336    0.436   24.090
  249.850    0.000   70.600    0.332    0.445   24.189
  250.100    0.000   74.457    0.324    0.456   24.235
  250.350    0.000   81.474    0.321    0.469   24.701
  250.600    0.000   86.329    0.336    0.468   24.571
  250.850    0.000   88.635    0.343    0.452   24.283
  251.100    0.000   87.286    0.346    0.461   24.006
  251.350    0.000   88.381    0.339    0.458   23.818
  251.600    0.000   92.580    0.336    0.451   23.061
  251.850    0.000   97.245    0.327    0.459   22.680
  252.100    0.000  100.195    0.322    0.456   21.355
  252.350    0.000  100.449    0.323    0.443   20.785
  252.600    0.000  104.139    0.318    0.437   19.597
  252.850    0.000  104.768    0.300    0.436   18.881
  253.100    0.000  101.334    0.305    0.456   18.553
  253.350    0.000   96.520    0.290    0.483   19.110
  253.600    0.000   90.908    0.268    0.501   19.705
  253.850    0.000   82.746    0.231    0.506   20.999
  254.100    0.000   74.505    0.209    0.450   21.779
  254.350    0.000   66.558    0.223    0.426   21.667
  254.600    0.000   62.102    0.263    0.401   21.145
  254.850    0.000   66.185    0.253    0.393   19.137
  255.100    0.000   76.374    0.237    0.404   17.241
  255.350    0.000   85.995    0.252    0.437   15.847
  255.600    0.000   94.758    0.245    0.474   15.285
  255.850    0.000   96.252    0.253    0.470   15.280
  256.100    0.000   90.150    0.276    0.451   15.747
  256.350    0.000   68.579    0.300    0.427   16.584
  256.600    0.000   70.172    0.309    0.407   17.608
  256.850    0.000   71.697    0.303    0.427   18.528
  257.100    0.000   68.777    0.314    0.464   19.588
  257.350    0.000   65.459    0.362    0.508   20.841
  257.600    0.000   62.480    0.371    0.524   22.176
  257.850    0.000   55.398    0.368    0.540   23.132
  258.100    0.000   49.254    0.369    0.477   24.399
  258.350    0.000   51.058    0.354    0.439   24.548
  258.600    0.000   55.630    0.355    0.432   24.203
  258.850    0.000   60.875    0.346    0.442   23.714
  259.100    0.000   69.171    0.343    0.461   23.274
  259.350    0.000   73.222    0.337    0.473   22.977
  259.600    0.000   72.350    0.334    0.471   22.922
  259.850    0.000   68.683    0.342    0.441   22.930
  260.100    0.000   68.696    0.334    0.436   22.950
  260.350    0.000   71.951    0.344    0.453   22.976
  260.600    0.000   75.364    0.336    0.465   22.998
  260.850    0.000   76.470    0.328    0.462   23.061
  261.100    0.000   73.735    0.315    0.444   22.584
  261.350    0.000   74.103    0.319    0.447   22.651
  261.600    0.000   76.313    0.324    0.461   22.700
  261.850    0.000   79.972    0.332    0.466   22.209
  262.100    0.000   84.064    0.317    0.479   21.256
  262.350    0.000   85.605    0.313    0.469   19.878
  262.600    0.000   80.834    0.313    0.450   18.557
  262.850    0.000   83.897    0.303    0.455   17.783
  263.100    0.000   83.719    0.291    0.449   17.278
  263.350    0.000   79.007    0.273    0.456   17.317
  263.600    0.000   76.712    0.253    0.453   16.341
  263.850    0.000   74.710    0.252    0.439   15.073
  264.100    0.000   78.819    0.329    0.432   14.226
  264.350    0.000   86.903    0.287    0.436   13.274
  264.600    0.000   94.623    0.239    0.454   12.447
  264.850    0.000  101.794    0.253    0.436   12.118
