~VERSION INFORMATION
 VERS.                 2.0:   CWLS LOG ASCII STANDARD -VERSION 2.0
 WRAP.                  NO:   ONE LINE PER DEPTH STEP
~WELL INFORMATION BLOCK
#MNEM.UNIT           DATA                    DESCRIPTION OF MNEMONIC
#---------    -------------------            -------------------------------
# Generated from Intellog Unique Number	CX_WELLS/WELL/2884
WELL.         06-12-088-17W4                 : Well_name    - WELL
LOC .         00/06-11-082-02W4/0            : Location     - LOCATION
UWI .         00/06-11-082-02W400            : Uwi          - UNIQUE WELL ID
ENTR.         T                              : Entered      - ENTERED BY
SRVC.         SCHLUMBERGER                   : Scn          - SERVICE COMPANY
STRT.F        400                            : top_depth    - START DEPTH
STOP.F        1029.92                        : bot_depth    - STOP DEPTH
STEP.F        0.82                           : increment    - STEP LENGTH
 NULL. -999.2500:NULL Value
~CURVE INFORMATION BLOCK
#MNEM UNIT       ERCB CURVE CODE    CURVE DESCRIPTION
#-----------   ------------------   ----------------------------------
DEPT.F        00 001 00 00         : DEPTH        - DEPTH
GR  .API      00 310 00 00         : GR           - GAMMA RAY
NPHI.V/V      00 330 00 00         : PHIN         - NEUTRON POROSITY (SANDSTONE)
DPHI.V/V      00 890 00 00         : PHID         - DENSITY POROSITY (SANDSTONE)
ILD .OHMM     00 120 00 00         : RESD         - DEEP RESISTIVITY (OTHER)
~PARAMETER INFORMATION
#MNEM.UNIT           DATA             DESCRIPTION OF MNEMONIC
#---------         -----------     ------------------------------
GL  .F        1552                 : gl           - GROUND LEVEL ELEVATION
EREF.F        1562                 : kb           - ELEVATION OF DEPTH REFERENCE
DATM.F        1562                 : datum        - DATUM ELEVATION
TDD .F        1295                 : tdd          - TOTAL DEPTH DRILLER
RUN .         ONE                  : Run          - RUN NUMBER
ENG .         BILL                 : Engineer     - RECORDING ENGINEER
WIT .         JIM                  : Witness      - WITNESSED BY
MUD .         GEL                  : Mud_type     - MUD TYPE
MATR.         SANDSTONE            : Logunit      - NEUTRON MATRIX
TMAX.F        71.6                 : BHT          - MAXIMUM RECORDED TEMPERATURE
BHTD.F        1292                 : BHTDEP       - MAXIMUM RECORDED TEMPERATURE
MATR.         1                    : LOGUNIT      - NEUTRON MATRIX
RMT .F        77                   : MDTP         - TEMPERATURE OF MUD
NEUT.         1                    : NEUTRON      - NEUTRON TYPE
RESI.         1.35                 : RESIST       - RESISTIVITY TYPE
RMC .OHMM     1.35                 : RMC          - RESISTIVITY OF MUD CAKE
RMF .OHMM     1.35                 : RMF          - RESISTIVITY OF MUD FILTRATE
SUFT.F        32                   : SUFT         - SURFACE TEMPERATURE
~A  DEPTH       GR     PHIN     PHID     RESD
  400.000   61.202    0.463    0.299   10.457
  400.820   60.744    0.468    0.304   10.502
  401.640   62.079    0.469    0.307   10.546
  402.461   64.012    0.462    0.306   10.395
  403.281   65.347    0.456    0.301   10.450
  404.101   66.119    0.455    0.293   10.495
  404.921   66.259    0.456    0.292   10.727
  405.741   66.996    0.452    0.290   10.585
  406.562   67.733    0.453    0.291   10.433
  407.382   67.838    0.464    0.293   10.082
  408.202   66.220    0.475    0.295    9.753
  409.022   65.199    0.470    0.295    9.794
  409.843   64.707    0.457    0.302    9.857
  410.663   64.811    0.451    0.306    9.878
  411.483   64.951    0.440    0.306    9.747
  412.303   66.884    0.443    0.300    9.778
  413.123   69.449    0.450    0.295    9.479
  413.944   71.979    0.457    0.283    8.981
  414.764   74.544    0.463    0.282    8.360
  415.584   75.879    0.471    0.286    7.236
  416.404   76.054    0.480    0.291    6.736
  417.224   74.365    0.488    0.295    7.030
  418.045   71.482    0.475    0.298    7.321
  418.865   69.231    0.447    0.298    8.082
  419.685   67.578    0.450    0.297    8.261
  420.505   67.120    0.454    0.299    8.784
  421.325   67.260    0.456    0.299    8.988
  422.146   67.365    0.461    0.301    9.017
  422.966   66.344    0.470    0.301    8.888
  423.786   65.323    0.490    0.295    8.770
  424.606   64.796    0.497    0.296    8.798
  425.427   67.361    0.501    0.297    9.365
  426.247   71.086    0.496    0.298    9.415
  427.067   71.859    0.497    0.298    9.435
  427.887   71.998    0.488    0.295    9.300
  428.707   70.908    0.477    0.294    9.349
  429.528   68.657    0.471    0.294    9.747
  430.348   66.406    0.466    0.294   10.162
  431.168   65.316    0.459    0.295   10.409
  431.988   64.858    0.453    0.297   10.442
  432.808   65.067    0.446    0.301   10.487
  433.629   65.137    0.435    0.302   10.347
  434.449   65.312    0.430    0.304   10.188
  435.269   66.049    0.433    0.303   10.231
  436.089   65.556    0.437    0.301   10.084
  436.909   65.098    0.444    0.293   10.127
  437.730   66.503    0.454    0.283   10.171
  438.550   66.045    0.447    0.285   10.225
  439.370   64.920    0.441    0.288   10.247
  440.190   63.899    0.437    0.291   10.290
  441.010   64.637    0.439    0.298    9.965
  441.831   66.007    0.446    0.306    9.997
  442.651   66.779    0.451    0.309   10.229
  443.471   66.884    0.459    0.310   10.273
  444.291   67.023    0.463    0.309   10.317
  445.112   67.198    0.450    0.303   10.372
  445.932   66.705    0.448    0.301   10.416
  446.752   66.212    0.452    0.299   10.449
  447.572   65.754    0.460    0.299   10.505
  448.392   65.894    0.464    0.299   10.550
  449.213   64.276    0.469    0.295   10.595
  450.033   63.783    0.468    0.293   10.640
  450.853   63.360    0.461    0.293   10.498
  451.673   63.465    0.458    0.298   10.521
  452.493   64.835    0.451    0.300   10.565
  453.314   66.169    0.442    0.301   10.622
  454.134   66.309    0.439    0.297   10.857
  454.954   65.254    0.440    0.299   10.903
  455.774   66.589    0.448    0.302   10.961
  456.594   68.521    0.455    0.304   11.228
  457.415   71.016    0.461    0.300   11.252
  458.235   71.226    0.458    0.295   11.312
  459.055   68.940    0.449    0.296   11.360
  459.875   68.448    0.440    0.297   11.408
  460.696   67.427    0.431    0.298   11.269
  461.516   67.602    0.426    0.295   11.083
  462.336   67.074    0.424    0.298   11.119
  463.156   64.260    0.429    0.299   11.190
  463.976   63.205    0.437    0.300   11.018
  464.797   62.747    0.443    0.295   11.076
  465.617   62.289    0.438    0.295   10.894
  466.437   61.796    0.435    0.297   10.738
  467.257   62.533    0.436    0.300   10.410
  468.077   63.271    0.437    0.303   10.249
  468.898   64.675    0.438    0.303   10.304
  469.718   65.343    0.438    0.305   10.337
  470.538   66.115    0.438    0.304   10.199
  471.358   66.255    0.441    0.304   10.221
  472.178   65.797    0.442    0.303   10.275
  472.999   65.937    0.447    0.304   10.319
  473.819   67.306    0.451    0.297   10.385
  474.639   68.572    0.456    0.287   10.408
  475.459   69.309    0.460    0.286   10.441
  476.280   68.886    0.467    0.292   10.302
  477.100   67.268    0.467    0.300   10.346
  477.920   66.740    0.463    0.304   10.390
  478.740   64.489    0.460    0.308   10.445
  479.560   63.434    0.459    0.313   10.479
  480.381   64.803    0.460    0.313   10.523
  481.201   66.771    0.461    0.295   10.579
  482.021   68.669    0.459    0.285   10.624
  482.841   71.831    0.449    0.286   10.659
  483.661   73.132    0.441    0.289   10.715
  484.482   70.916    0.439    0.290   10.772
  485.302   71.055    0.445    0.292   10.795
  486.122   72.988    0.451    0.292   10.841
  486.942   74.288    0.457    0.291   10.888
  487.762   75.060    0.461    0.288   10.946
  488.583   75.165    0.459    0.288   11.004
  489.403   73.512    0.452    0.288   11.027
  490.223   70.101    0.443    0.287   11.098
  491.043   68.412    0.437    0.287   11.133
  491.864   69.748    0.433    0.287   11.181
  492.684   70.555    0.434    0.286   11.453
  493.504   71.222    0.437    0.286   11.477
  494.324   71.994    0.448    0.288   11.756
  495.144   72.099    0.455    0.292   11.794
  495.965   72.274    0.466    0.297   11.844
  496.785   72.413    0.463    0.299   11.895
  497.605   72.553    0.458    0.303   11.945
  498.425   72.658    0.451    0.306   12.009
  499.245   72.200    0.454    0.308   12.047
  500.066   70.582    0.471    0.308   12.124
  500.886   68.929    0.485    0.303   12.163
  501.706   68.436    0.498    0.300   12.202
  502.526   69.806    0.497    0.287   12.267
  503.346   72.969    0.448    0.270   12.078
  504.167   77.291    0.450    0.260   11.905
  504.987   82.177    0.455    0.256   11.315
  505.807   90.156    0.457    0.252    9.958
  506.627   92.651    0.464    0.252    7.981
  507.448   92.791    0.474    0.250    6.047
  508.268   89.943    0.477    0.250    5.850
  509.088   88.887    0.477    0.248    6.458
  509.908   89.659    0.478    0.247    6.608
  510.728   90.397    0.481    0.247    6.506
  511.549   91.766    0.489    0.241    6.184
  512.369   91.836    0.489    0.239    6.088
  513.189   93.206    0.484    0.232    6.121
  514.009   95.139    0.484    0.230    6.256
  514.829   96.544    0.485    0.222    6.523
  515.650   96.614    0.487    0.217    7.074
  516.470   92.570    0.490    0.217    7.801
  517.290   87.296    0.491    0.221    8.278
  518.110   85.643    0.491    0.228    8.640
  518.930   85.185    0.488    0.236    9.351
  519.751   84.727    0.485    0.241    9.568
  520.571   83.109    0.478    0.240    9.975
  521.391   82.088    0.471    0.237   10.229
  522.211   81.525    0.465    0.234   10.444
  523.031   81.665    0.455    0.241   10.709
  523.852   81.840    0.449    0.248   10.946
  524.672   81.979    0.449    0.252   10.993
  525.492   84.544    0.455    0.257   11.260
  526.312   87.075    0.458    0.257   11.284
  527.133   88.410    0.459    0.253   11.345
  527.953   89.147    0.457    0.249   11.405
  528.773   89.287    0.456    0.247   11.429
  529.593   89.391    0.458    0.243   11.478
  530.413   89.601    0.461    0.242   11.527
  531.234   89.671    0.460    0.239   11.576
  532.054   89.811    0.448    0.238   11.625
  532.874   88.790    0.449    0.235   11.687
  533.694   87.700    0.456    0.237   11.520
  534.514   87.909    0.463    0.242   11.569
  535.335   87.416    0.469    0.244   11.391
  536.155   86.993    0.472    0.245   11.439
  536.975   87.098    0.459    0.244   11.275
  537.795   87.203    0.442    0.246   11.137
  538.615   88.010    0.438    0.248   11.161
  539.436   88.115    0.443    0.251   11.000
  540.256   90.082    0.448    0.250   10.866
  541.076   91.417    0.453    0.244   10.900
  541.896   94.545    0.458    0.238   10.732
