~VERSION INFORMATION
 VERS.                 2.0:   CWLS LOG ASCII STANDARD -VERSION 2.0
 WRAP.                  NO:   ONE LINE PER DEPTH STEP
~WELL INFORMATION BLOCK
#MNEM.UNIT           DATA                    DESCRIPTION OF MNEMONIC
#---------    -------------------            -------------------------------
# Generated from Intellog Unique Number	CW_76_78/WELL/2568
WELL.         06-25-078-25W4                 : Well_name    - WELL
LOC .         00/06-25-078-25W4/0            : Location     - LOCATION
UWI .         00/06-25-078-25W4/0            : Uwi          - UNIQUE WELL ID
ENTR.         MAX                            : Entered      - ENTERED BY
SRVC.         SCHLUMBERGER                   : Scn          - SERVICE COMPANY
STRT.M        274.32                         : top_depth    - START DEPTH
STOP.M        533.32                         : bot_depth    - STOP DEPTH
STEP.M        0.25                           : increment    - STEP LENGTH
 NULL. -999.2500:NULL Value
~CURVE INFORMATION BLOCK
#MNEM UNIT       ERCB CURVE CODE    CURVE DESCRIPTION
#-----------   ------------------   ----------------------------------
DEPT.M        00 001 00 00         : DEPTH        - DEPTH
ILD .OHMM     00 120 00 00         : RESD         - DEEP RESISTIVITY (DIL)
NPHI.V/V      00 330 00 00         : PHIN         - NEUTRON POROSITY (SANDSTONE)
DPHI.V/V      00 890 00 00         : PHID         - DENSITY POROSITY (SANDSTONE)
CALI.MM       00 280 01 00         : CAL          - CALIPER
GR  .API      00 310 00 00         : GR           - GAMMA RAY
~PARAMETER INFORMATION
#MNEM.UNIT           DATA             DESCRIPTION OF MNEMONIC
#---------         -----------     ------------------------------
GL  .M        589.483              : gl           - GROUND LEVEL ELEVATION
EREF.M        593.019              : kb           - ELEVATION OF DEPTH REFERENCE
DATM.M        589.483              : datum        - DATUM ELEVATION
TDD .M        535.534              : tdd          - TOTAL DEPTH DRILLER
RUN .         ONE                  : Run          - RUN NUMBER
ENG .         BILL                 : Engineer     - RECORDING ENGINEER
WIT .         JIM                  : Witness      - WITNESSED BY
MUD .         GEL                  : Mud_type     - MUD TYPE
MATR.         SANDSTONE            : Logunit      - NEUTRON MATRIX
TMAX.C        22.2222              : BHT          - MAXIMUM RECORDED TEMPERATURE
BHTD.M        535.534              : BHTDEP       - MAXIMUM RECORDED TEMPERATURE
RMT .C        10                   : MDTP         - TEMPERATURE OF MUD
MUDD.KG/M     9000                 : MWT          - MUD DENSITY
NEUT.         1                    : NEUTRON      - NEUTRON TYPE
RESI.         0                    : RESIST       - RESISTIVITY TYPE
RM  .OHMM     5.62                 : RM           - RESISTIVITY OF MUD
RMC .OHMM     0.25                 : RMC          - RESISTIVITY OF MUD CAKE
RMF .OHMM     5.41                 : RMF          - RESISTIVITY OF MUD FILTRATE
SUFT.C        -6.66667             : SUFT         - SURFACE TEMPERATURE
~A  DEPTH     RESD     PHIN     PHID      CAL       GR
# ...
  456.820   16.960    0.386    0.165  215.395   74.719
  457.070   16.464    0.394    0.166  215.429   72.397
  457.320   14.880    0.400    0.166  215.456   70.953
  457.570   14.186    0.395    0.166  215.486   71.268
  457.820   14.579    0.404    0.168  216.515   69.529
  458.070   15.467    0.426    0.190  217.033   61.069
  458.320   18.433    0.422    0.221  217.566   54.359
  458.570   23.771    0.405    0.252  220.567   41.803
  458.820   29.010    0.405    0.269  220.598   31.878
  459.070   39.392    0.417    0.316  217.657   26.047
  459.320   46.115    0.381    0.314  207.784   23.141
  459.570   49.179    0.377    0.308  201.876   21.407
  459.820   51.056    0.384    0.311  200.417   20.547
  460.070   51.351    0.381    0.314  199.956   20.567
  460.320   51.547    0.372    0.311  199.990   21.757
  460.570   51.742    0.365    0.302  200.520   22.941
  460.820   51.840    0.357    0.294  201.045   24.425
  461.070   51.837    0.358    0.302  202.062   24.735
  461.320   51.935    0.369    0.308  202.093   23.874
  461.570   51.932    0.378    0.308  202.127   21.557
  461.820   51.931    0.381    0.309  202.161   20.700
  462.070   51.929    0.385    0.306  202.161   20.713
  462.320   52.125    0.382    0.315  201.730   20.731
  462.570   52.320    0.385    0.318  201.753   19.876
  462.820   52.418    0.386    0.317  201.795   19.015
  463.070   52.515    0.387    0.314  201.821   18.450
  463.320   52.513    0.380    0.306  201.360   18.466
  463.570   52.511    0.364    0.305  201.360   19.363
  463.820   52.509    0.363    0.308  201.425   20.551
  464.070   52.507    0.381    0.307  201.448   22.323
  464.320   52.505    0.379    0.305  201.977   22.643
  464.570   52.503    0.365    0.301  202.004   21.777
  464.820   52.501    0.369    0.286  201.547   20.333
  465.070   52.697    0.382    0.276  201.581   20.357
  465.320   52.794    0.391    0.273  201.611   21.540
  465.570   52.792    0.393    0.276  202.137   22.436
  465.820   52.592    0.394    0.276  202.163   22.746
  466.070   52.393    0.382    0.293  202.194   23.351
  466.320   52.094    0.374    0.296  202.719   23.954
  466.570   51.598    0.366    0.289  202.753   24.849
  466.820   51.299    0.369    0.287  203.782   26.039
  467.070   50.704    0.371    0.287  206.776   26.642
  467.320   50.208    0.373    0.286  209.286   27.247
  467.570   49.514    0.374    0.281  209.811   28.144
  467.820   48.325    0.378    0.276  209.350   30.211
  468.070   43.477    0.380    0.275  208.882   31.979
  468.320   38.926    0.383    0.274  212.390   34.629
  468.570   35.957    0.385    0.268  214.401   38.743
  468.820   29.527    0.386    0.262  214.926   42.563
  469.070   25.372    0.391    0.248  216.446   44.922
  469.320   21.810    0.396    0.239  217.958   45.233
  469.570   20.027    0.398    0.221  218.484   44.083
  469.820   19.136    0.382    0.213  217.032   40.882
  470.070   18.442    0.360    0.209  214.587   38.855
  470.320   17.648    0.339    0.206  214.126   38.291
  470.570   17.152    0.334    0.204  215.634   38.309
  470.820   16.458    0.340    0.205  214.686   39.496
  471.070   15.467    0.343    0.208  211.242   43.901
  471.320   14.872    0.351    0.217  206.820   40.995
  471.570   13.584    0.366    0.247  205.361   34.579
  471.820   12.099    0.371    0.261  203.414   30.211
  472.070   11.207    0.359    0.274  202.454   27.601
  472.320   10.414    0.353    0.281  202.489   27.909
  472.570   10.412    0.346    0.272  202.515   29.389
  472.820   10.608    0.338    0.277  203.048   30.579
  473.070   11.001    0.329    0.286  203.581   31.182
  473.320   11.197    0.321    0.303  204.591   31.787
  473.570   11.293    0.329    0.299  207.101   33.267
  473.820   11.490    0.337    0.283  206.141   34.747
  474.070   11.686    0.355    0.276  204.194   35.935
  474.320   11.981    0.367    0.275  203.726   37.707
  474.570   12.375    0.379    0.276  204.750   40.069
  474.820   12.669    0.386    0.271  204.788   41.547
  475.070   13.063    0.379    0.264  204.819   42.739
  475.320   13.457    0.373    0.269  204.841   43.927
  475.570   13.850    0.376    0.267  205.371   45.990
  475.820   14.343    0.384    0.251  206.395   47.762
  476.070   14.835    0.385    0.243  207.911   49.829
  476.320   15.427    0.379    0.226  209.922   52.479
  476.570   15.821    0.355    0.208  211.442   54.841
  476.820   16.116    0.337    0.172  211.975   57.486
  477.070   15.718    0.338    0.161  212.489   61.018
  477.320   14.826    0.343    0.171  214.512   60.449
  477.570   12.352    0.307    0.148  215.525   59.591
  477.820   11.658    0.290    0.131  217.041   63.703
  478.070   10.469    0.301    0.080  221.040   83.021
  478.320    9.280    0.361    0.122  226.019  100.297
  478.570    8.784    0.371    0.142  233.480  100.610
  478.820    8.485    0.379    0.154  231.035   97.993
  479.070    8.286    0.385    0.174  224.632   94.507
  479.320    8.284    0.379    0.145  225.649   91.600
  479.570    8.578    0.379    0.159  226.174   91.906
  479.820    8.774    0.399    0.172  230.170   96.020
  480.070    9.168    0.428    0.178  225.744   95.454
  480.320    9.858    0.440    0.190  220.331   83.482
  480.570   12.328    0.420    0.194  226.799   62.445
  480.820   14.503    0.388    0.167  221.386   56.032
  481.070   16.775    0.330    0.174  216.956   54.003
  481.320   18.355    0.318    0.150  215.009   52.849
  481.570   18.848    0.301    0.134  215.044   51.992
  481.820   16.572    0.280    0.112  215.044   53.767
  482.070   15.977    0.265    0.097  215.120   56.709
  482.320   12.315    0.271    0.119  214.640   60.238
  482.570   11.226    0.314    0.159  214.674   61.718
  482.820   10.432    0.343    0.207  215.196   63.781
  483.070   10.529    0.376    0.206  215.230   68.772
  483.320   11.418    0.381    0.202  215.751   73.177
  483.570   13.690    0.385    0.185  215.789   67.346
  483.820   16.556    0.410    0.195  214.826   64.440
  484.070   21.203    0.429    0.219  210.403   47.497
  484.320   24.365    0.396    0.231  210.434   43.129
  484.570   20.605    0.387    0.238  211.454   44.321
  484.820   15.956    0.417    0.300  213.961   42.877
  485.070   12.789    0.450    0.331  214.989   41.140
  485.320   11.205    0.502    0.364  214.520   44.372
  485.570    9.719    0.573    0.405  214.063   52.290
  485.820    8.827    0.610    0.422  216.071   59.909
  486.070    8.529    0.599    0.375  219.076   68.995
  486.320    8.032    0.562    0.338  216.630   72.522
  486.570    7.734    0.574    0.338  214.676   71.374
  486.820    7.435    0.565    0.352  213.716   68.466
  487.070    6.939    0.606    0.365  213.754   68.776
  487.320    6.541    0.606    0.371  210.817   75.522
  487.570    6.243    0.575    0.346  208.859   78.757
  487.820    6.043    0.554    0.322  209.389   82.286
  488.070    5.744    0.535    0.302  213.381   82.306
  488.320    5.545    0.530    0.296  220.343   80.862
  488.570    5.543    0.555    0.282  224.834   80.293
  488.820    5.541    0.570    0.281  224.868   83.235
  489.070    5.539    0.570    0.306  218.458   87.934
  489.320    5.636    0.556    0.314  213.045   92.923
  489.570    5.931    0.524    0.280  210.104   87.093
  489.820    6.127    0.500    0.242  211.620   70.445
  490.070    6.718    0.476    0.130  214.126   63.442
  490.320    7.408    0.438    0.089  214.652   63.462
  490.570    8.494    0.402    0.132  214.187   66.699
  490.820    9.086    0.406    0.172  213.730   73.733
  491.070    8.293    0.429    0.198  213.730   86.330
  491.320    7.203    0.443    0.205  213.296   89.272
  491.570    7.003    0.458    0.200  213.821   91.047
  491.820    7.100    0.453    0.177  214.354   91.355
  492.070    7.197    0.448    0.151  213.387   88.158
  492.320    7.591    0.436    0.127  211.932   82.035
  492.570    7.985    0.414    0.194  214.445   78.542
  492.820    8.576    0.410    0.197  216.952   73.593
  493.070    9.069    0.418    0.204  216.978   73.609
