~VERSION INFORMATION
 VERS.                 2.0:   CWLS LOG ASCII STANDARD -VERSION 2.0
 WRAP.                  NO:   ONE LINE PER DEPTH STEP
~WELL INFORMATION BLOCK
#MNEM.UNIT           DATA                    DESCRIPTION OF MNEMONIC
#---------    -------------------            -------------------------------
# Generated from Intellog Unique Number	CS_67_68/WELL/2161
WELL.         BVX et al TWEEDIE              : Well_name    - WELL
LOC .         00/03-06-067-11W4/0            : Location     - LOCATION
UWI .         00/03-06-067-11W4/0            : Uwi          - UNIQUE WELL ID
ENTR.         SP                             : Entered      - ENTERED BY
SRVC.         SCHLUMBERGER                   : Scn          - SERVICE COMPANY
STRT.M        365                            : top_depth    - START DEPTH
STOP.M        564                            : bot_depth    - STOP DEPTH
STEP.M        0.25                           : increment    - STEP LENGTH
 NULL. -999.2500:NULL Value
~CURVE INFORMATION BLOCK
#MNEM UNIT       ERCB CURVE CODE    CURVE DESCRIPTION
#-----------   ------------------   ----------------------------------
DEPT.M        00 001 00 00         : DEPTH        - DEPTH
ILD .OHMM     00 120 00 00         : RESD         - DEEP RESISTIVITY (DIL)
DPHI.V/V      00 890 00 00         : PHID         - DENSITY POROSITY (LIMESTONE)
NPHI.V/V      00 330 00 00         : PHIN         - NEUTRON POROSITY (LIMESTONE)
GR  .API      00 310 00 00         : GR           - GAMMA RAY
CALI.MM       00 280 01 00         : CAL          - CALIPER
~PARAMETER INFORMATION
#MNEM.UNIT           DATA             DESCRIPTION OF MNEMONIC
#---------         -----------     ------------------------------
GL  .M        643.48               : gl           - GROUND LEVEL ELEVATION
EREF.M        647.88               : kb           - ELEVATION OF DEPTH REFERENCE
DATM.M        647.88               : datum        - DATUM ELEVATION
TDD .M        563.2                : tdd          - TOTAL DEPTH DRILLER
RUN .         ONE                  : Run          - RUN NUMBER
ENG .         BILL                 : Engineer     - RECORDING ENGINEER
WIT .         JIM                  : Witness      - WITNESSED BY
MUD .         GEL                  : Mud_type     - MUD TYPE
MATR.         LIMESTONE            : Logunit      - NEUTRON MATRIX
TMAX.C        30                   : BHT          - MAXIMUM RECORDED TEMPERATURE
BHTD.M        562                  : BHTDEP       - MAXIMUM RECORDED TEMPERATURE
MATR.         1                    : LOGUNIT      - NEUTRON MATRIX
RMT .C        25                   : MDTP         - TEMPERATURE OF MUD
NEUT.         1                    : NEUTRON      - NEUTRON TYPE
RESI.         0                    : RESIST       - RESISTIVITY TYPE
RMC .OHMM     0.25                 : RMC          - RESISTIVITY OF MUD CAKE
RMF .OHMM     0.25                 : RMF          - RESISTIVITY OF MUD FILTRATE
SUFT.C        15                   : SUFT         - SURFACE TEMPERATURE
~A  DEPTH     RESD     PHID     PHIN       GR      CAL
# ...
  511.000    3.482    0.174    0.356   97.020  167.628
  511.250    2.889    0.166    0.344  102.263  167.548
  511.500    2.582    0.209    0.365   97.473  167.161
  511.750    2.382    0.216    0.383   91.221  166.479
  512.000    2.299    0.214    0.366   86.308  165.482
  512.250    2.324    0.218    0.343   85.409  163.983
  512.500    2.359    0.220    0.326   86.272  162.381
  512.750    2.376    0.219    0.330   85.981  160.682
  513.000    2.363    0.207    0.336   96.026  160.194
  513.250    2.301    0.197    0.353  110.206  164.066
  513.500    2.221    0.201    0.380  103.715  170.778
  513.750    2.175    0.206    0.400   96.732  172.519
  514.000    2.150    0.209    0.421   97.415  170.311
  514.250    2.166    0.211    0.409  102.354  168.915
  514.500    2.223    0.205    0.404  106.560  167.821
  514.750    2.299    0.199    0.389  106.999  167.233
  515.000    2.346    0.195    0.380  100.687  169.385
  515.250    2.421    0.181    0.383   93.101  170.215
  515.500    2.537    0.168    0.392   94.025  165.475
  515.750    2.668    0.159    0.394   98.722  161.136
  516.000    2.853    0.177    0.381  101.773  155.990
  516.250    3.074    0.197    0.378   97.224  154.187
  516.500    3.256    0.195    0.364   90.001  158.971
  516.750    3.443    0.178    0.331   85.515  161.929
  517.000    3.669    0.177    0.305   76.347  160.533
  517.250    3.945    0.180    0.292   76.238  159.541
  517.500    4.266    0.159    0.287   89.809  158.750
  517.750    4.614    0.164    0.325  103.806  157.157
  518.000    4.843    0.177    0.359   96.644  156.566
  518.250    4.806    0.100    0.349   90.637  156.382
  518.500    4.376    0.086    0.341   95.212  157.010
  518.750    4.061    0.142    0.332   94.128  157.237
  519.000    3.803    0.191    0.368   92.136  157.662
  519.250    3.636    0.219    0.354   97.134  158.089
  519.500    3.669    0.209    0.341  102.071  158.513
  519.750    3.801    0.173    0.331  103.543  160.163
  520.000    3.945    0.149    0.307  103.677  162.816
  520.250    4.049    0.129    0.332   94.448  165.470
  520.500    4.171    0.154    0.337   93.306  168.833
  520.750    3.965    0.171    0.353  100.493  168.348
  521.000    3.721    0.177    0.362  106.585  164.315
  521.250    3.511    0.177    0.354  110.064  160.992
  521.500    3.319    0.179    0.386  112.874  159.392
  521.750    3.185    0.181    0.399  113.131  160.021
  522.000    3.062    0.185    0.415  110.892  165.009
  522.250    2.988    0.192    0.402  112.305  169.386
  522.500    2.954    0.188    0.392  114.079  172.448
  522.750    2.970    0.184    0.388  114.700  175.002
  523.000    3.003    0.177    0.380  113.740  176.850
  523.250    3.042    0.165    0.364  109.132  177.273
  523.500    3.093    0.149    0.347  105.131  171.518
  523.750    3.104    0.132    0.351  107.334  162.824
  524.000    3.081    0.112    0.385  112.820  157.374
  524.250    3.001    0.097    0.408  116.843  158.408
  524.500    2.874    0.139    0.417  121.355  159.037
  524.750    2.784    0.155    0.400  112.613  162.711
  525.000    2.676    0.166    0.385  107.456  164.755
  525.250    2.631    0.176    0.403  110.023  165.789
  525.500    2.601    0.174    0.415  114.049  164.797
  525.750    2.670    0.170    0.400  118.257  163.298
  526.000    2.720    0.171    0.389  117.600  162.812
  526.250    2.770    0.175    0.384  120.288  164.961
  526.500    2.770    0.181    0.379  117.687  167.414
  526.750    2.754    0.189    0.372  116.849  165.409
  527.000    2.743    0.201    0.369  116.922  164.518
  527.250    2.769    0.204    0.376  121.860  164.032
  527.500    2.874    0.190    0.364  124.243  163.853
  527.750    3.136    0.165    0.328  108.386  164.583
  528.000    3.201    0.138    0.240   94.536  163.490
  528.250    3.527    0.087    0.210   74.970  162.800
  528.500    3.952    0.062    0.193   71.942  163.531
  528.750    4.470    0.064    0.198   77.246  166.185
  529.000    5.028    0.105    0.229   86.562  168.639
  529.250    5.550    0.137    0.262   95.693  169.774
  529.500    5.355    0.151    0.298  105.739  169.693
  529.750    4.551    0.156    0.360  109.400  169.109
  530.000    4.450    0.157    0.355  107.467  168.623
  530.250    4.168    0.150    0.339  105.898  168.338
  530.500    4.067    0.142    0.325   97.520  161.165
  530.750    4.074    0.146    0.315  103.979  154.397
  531.000    4.340    0.153    0.317  110.740  153.099
  531.250    4.521    0.148    0.316   87.951  153.121
  531.500    5.010    0.094    0.312   79.877  156.792
  531.750    5.448    0.080    0.309   78.795  158.739
  532.000    5.881    0.088    0.303   82.822  159.874
  532.250    6.348    0.090    0.296   88.612  156.651
  532.500    6.467    0.245    0.285   96.953  149.376
  532.750    6.357    0.246    0.274  102.620  145.445
  533.000    6.228    0.235    0.286   99.350  143.946
  533.250    5.942    0.225    0.325  101.006  141.029
  533.500    5.886    0.216    0.366  103.450  138.616
  533.750    6.770    0.207    0.371   89.598  135.498
  534.000    7.349    0.225    0.353   74.653  133.188
  534.250    8.757    0.237    0.326   49.676  129.965
  534.500    8.989    0.249    0.301   41.237  137.992
  534.750   10.147    0.265    0.283   40.824  150.073
  535.000   10.933    0.270    0.265   51.477  154.045
  535.250   11.583    0.237    0.299   67.116  153.662
  535.500   11.282    0.222    0.316   83.484  153.991
  535.750   10.028    0.232    0.332   76.019  153.907
  536.000    9.427    0.246    0.313   74.693  153.624
  536.250    9.046    0.217    0.249   72.153  148.988
  536.500    8.794    0.193    0.229   66.754  145.761
  536.750    8.454    0.129    0.218   69.503  148.722
  537.000    7.874    0.179    0.273   78.758  153.205
  537.250    7.251    0.210    0.295   87.830  155.353
  537.500    6.530    0.235    0.300   84.681  156.285
  537.750    6.162    0.235    0.289   85.301  157.420
  538.000    6.024    0.202    0.281   94.738  157.850
  538.250    6.057    0.184    0.274  105.270  157.564
  538.500    6.182    0.169    0.269  110.268  156.672
  538.750    6.440    0.164    0.261  104.019  155.781
  539.000    6.622    0.155    0.280  109.140  155.802
  539.250    6.847    0.141    0.295  115.050  157.040
  539.500    6.962    0.130    0.307  108.374  157.972
  539.750    7.039    0.118    0.288   96.164  157.690
  540.000    7.104    0.124    0.269   88.882  155.079
  540.250    7.103    0.149    0.255   86.888  153.476
  540.500    7.102    0.165    0.241   85.138  152.686
  540.750    7.100    0.162    0.228   83.933  148.352
  541.000    7.033    0.150    0.235   83.824  145.435
  541.250    6.876    0.138    0.257   86.391  145.456
  541.500    6.598    0.155    0.270   90.052  147.703
  541.750    6.391    0.150    0.252   94.381  149.143
  542.000    6.248    0.167    0.234   80.957  147.340
  542.250    6.120    0.170    0.223   94.468  146.651
  542.500    6.051    0.153    0.249  109.863  148.498
  542.750    6.005    0.131    0.268   89.690  152.068
  543.000    5.970    0.119    0.279   79.000  154.620
  543.250    5.970    0.170    0.258   71.534  156.060
  543.500    5.991    0.203    0.249   74.527  155.676
  543.750    6.069    0.156    0.250   78.004  154.176
  544.000    6.079    0.111    0.271   77.228  152.174
  544.250    5.966    0.144    0.288   84.780  151.484
  544.500    5.756    0.179    0.306   90.568  150.591
  544.750    5.576    0.206    0.308   90.460  143.624
  545.000    5.320    0.223    0.297   89.499  139.082
  545.250    5.134    0.212    0.283   88.357  135.049
  545.500    5.429    0.196    0.265   87.335  132.739
  545.750    5.849    0.163    0.243   92.215  137.118
  546.000    6.397    0.135    0.226   98.549  144.941
  546.250    6.854    0.114    0.226  106.648  151.955
  546.500    6.878    0.098    0.284  117.363  158.968
  546.750    6.526    0.072    0.314  119.443  165.373
  547.000    6.204    0.046    0.343  118.603  169.247
  547.250    5.954    0.098    0.382  118.680  170.081
