~VERSION INFORMATION
 VERS.                 2.0:   CWLS LOG ASCII STANDARD -VERSION 2.0
 WRAP.                  NO:   ONE LINE PER DEPTH STEP
~WELL INFORMATION BLOCK
#MNEM.UNIT           DATA                    DESCRIPTION OF MNEMONIC
#---------    -------------------            -------------------------------
# Generated from Intellog Unique Number	CC_80_83/WELL/2304
NULL.         -999.25                        : NULL_VALUE
WELL.         CAN SUP PONY                   : Well_name    - WELL
LOC .         07-26-082-07W4                 : Location     - LOCATION          
UWI .         00/07-26-082-07W4/0            : Uwi          - UNIQUE WELL ID    
ENTR.         DW                             : Entered      - ENTERED BY        
SRVC.         SCHLUMBERGER                   : Scn          - SERVICE COMPANY   
DATE.         22 FEB 77                      : Date         - LOG DATE
STRT.M        198.12                         : top_depth    - START DEPTH       
STOP.M        451.109                        : bot_depth    - STOP DEPTH        
STEP.M        0.305                          : increment    - STEP LENGTH       
~CURVE INFORMATION BLOCK
#MNEM UNIT       ERCB CURVE CODE    CURVE DESCRIPTION
#-----------   ------------------   ----------------------------------
DEPT.M        00 001 00 00         : DEPTH        - DEPTH                       
DPHI.V/V      00 890 00 00         : PHID         - DENSITY POROSITY (LIMESTONE)
NPHI.V/V      00 330 00 00         : PHIN         - NEUTRON POROSITY (LIMESTONE)
GR  .API      00 310 00 00         : GR           - GAMMA RAY                   
ILD .OHMM     00 120 00 00         : RESD         - DEEP RESISTIVITY (DIL)      
~PARAMETER INFORMATION       
#MNEM.UNIT           DATA             DESCRIPTION OF MNEMONIC
#---------         -----------     ------------------------------
GL  .M        651.967              : gl           - GROUND LEVEL ELEVATION      
EREF.M        655.625              : kb           - ELEVATION OF DEPTH REFERENCE
DATM.M        655.625              : datum        - DATUM ELEVATION             
TDD .M        457.81               : tdd          - TOTAL DEPTH DRILLER         
RUN .         ONE                  : Run          - RUN NUMBER                  
ENG .         BILL                 : Engineer     - RECORDING ENGINEER          
WIT .         JIM                  : Witness      - WITNESSED BY                
MUD .         GEL                  : Mud_type     - MUD TYPE                    
MATR.         LIMESTONE            : Logunit      - NEUTRON MATRIX              
TMAX.C        31.1111              : BHT          - MAXIMUM RECORDED TEMPERATURE
BHTD.M        457.81               : BHTDEP       - MAXIMUM RECORDED TEMPERATURE
MATR.         1                    : LOGUNIT      - NEUTRON MATRIX              
RMT .C        25                   : MDTP         - TEMPERATURE OF MUD          
NEUT.         1                    : NEUTRON      - NEUTRON TYPE                
RESI.         0                    : RESIST       - RESISTIVITY TYPE            
RMC .OHMM     0.25                 : RMC          - RESISTIVITY OF MUD CAKE     
RMF .OHMM     0.25                 : RMF          - RESISTIVITY OF MUD FILTRATE 
SUFT.C        4                    : SUFT         - SURFACE TEMPERATURE         
~A  DEPTH     PHID     PHIN       GR     RESD
# ...
  304.191    0.261    0.368   57.899   16.206
  304.496    0.224    0.385   60.334   17.146
  304.800    0.257    0.440   59.693   17.461
  305.105    0.348    0.448   59.041   16.794
  305.410    0.339    0.462   59.029   15.547
  305.715    0.357    0.446   59.616   14.672
  306.020    0.345    0.461   58.355   13.843
  306.324    0.354    0.473   57.102   13.835
  306.629    0.349    0.452   57.689   14.363
  306.934    0.338    0.453   58.886   14.624
  307.239    0.349    0.448   59.473   14.612
  307.544    0.357    0.439   60.057   14.604
  307.849    0.358    0.435   59.420   14.313
  308.153    0.358    0.430   57.547   14.304
  308.458    0.341    0.423   56.290   14.294
  308.763    0.359    0.425   58.721   14.013
  309.068    0.354    0.430   59.921   13.731
  309.373    0.348    0.435   56.208   13.725
  309.677    0.326    0.426   56.176   13.710
  309.982    0.329    0.420   57.988   13.703
  310.287    0.347    0.430   57.965   13.434
  310.592    0.364    0.431   63.465   13.167
  310.897    0.346    0.423   65.290   12.908
  311.201    0.334    0.434   64.648   12.898
  311.506    0.332    0.423   62.160   12.889
  311.811    0.343    0.451   58.434   12.878
  312.116    0.356    0.446   60.248   12.869
  312.421    0.344    0.450   60.846   12.859
  312.725    0.362    0.446   60.817   13.347
  313.030    0.356    0.449   61.399   13.337
  313.335    0.348    0.455   60.760   13.326
  313.640    0.356    0.464   57.032   13.315
  313.945    0.355    0.462   56.402   13.302
  314.250    0.353    0.442   61.288   13.294
  314.554    0.353    0.443   60.650   13.541
  314.859    0.359    0.450   61.239   13.530
  315.164    0.360    0.436   63.054   13.520
  315.469    0.364    0.431   65.485   13.254
  315.774    0.357    0.416   64.845   12.990
  316.078    0.358    0.424   64.815   12.735
  316.383    0.349    0.436   69.085   12.723
  316.688    0.349    0.445   69.672   12.712
  316.993    0.345    0.437   64.721   12.706
  317.298    0.350    0.440   62.856   12.698
  317.602    0.353    0.422   63.423   12.442
  317.907    0.347    0.434   63.405   12.438
  318.212    0.356    0.451   62.776   12.426
  318.517    0.359    0.470   60.276   12.417
  318.822    0.355    0.464   59.643   12.406
  319.126    0.356    0.439   59.615   12.395
  319.431    0.351    0.430   62.037   12.385
  319.736    0.344    0.440   62.638   12.141
  320.041    0.328    0.450   63.838   11.906
  320.346    0.341    0.441   63.801   11.235
  320.651    0.350    0.453   63.783   10.598
  320.955    0.362    0.473   63.755   10.392
  321.260    0.345    0.473   63.112   10.380
  321.565    0.351    0.475   62.469   10.575
  321.870    0.358    0.436   63.669   10.770
  322.175    0.354    0.425   64.252   11.178
  322.479    0.344    0.442   61.152   11.603
  322.784    0.357    0.476   62.967   11.816
  323.089    0.344    0.489   67.245   12.039
  323.394    0.343    0.480   64.129   12.027
  323.699    0.315    0.475   62.878   12.019
  324.003    0.320    0.452   62.861   12.010
  324.308    0.347    0.442   65.279   12.231
  324.613    0.363    0.446   65.870   12.456
  324.918    0.340    0.456   65.849   12.447
  325.223    0.347    0.454   65.813   12.437
  325.527    0.365    0.463   65.786   12.663
  325.832    0.362    0.462   65.145   12.412
  326.137    0.355    0.451   67.582   12.407
  326.442    0.356    0.441   68.168   12.397
  326.747    0.332    0.447   65.067   12.151
  327.052    0.341    0.461   62.573   11.908
  327.356    0.340    0.461   61.934   11.902
  327.661    0.338    0.466   63.751   11.671
  327.966    0.329    0.477   64.339   11.660
  328.271    0.333    0.454   63.072   11.429
  328.576    0.348    0.454   63.671   11.206
  328.880    0.349    0.483   64.871   10.780
  329.185    0.351    0.504   65.460   10.365
  329.490    0.349    0.478   67.889   10.163
  329.795    0.327    0.458   69.090    9.776
  330.100    0.316    0.450   70.288    8.547
  330.404    0.317    0.453   75.792    6.295
  330.709    0.313    0.466   82.533    4.295
  331.014    0.283    0.488   91.109    3.684
  331.319    0.348    0.553   91.083    3.752
  331.624    0.360    0.534   83.674    4.450
  331.928    0.323    0.493   81.193    4.800
  332.233    0.295    0.484   84.237    5.277
  332.538    0.230    0.523   87.898    5.581
  332.843    0.241    0.515   89.100    5.578
  333.148    0.236    0.501   89.687    5.365
  333.453    0.246    0.487   95.176    4.514
  333.757    0.244    0.503   95.780    4.024
  334.062    0.267    0.523   95.748    3.260
  334.367    0.263    0.624   97.563    2.850
  334.672    0.288    0.615   99.995    2.589
  334.977    0.306    0.588  102.427    2.397
  335.281    0.310    0.568  100.550    2.305
  335.586    0.296    0.544   98.067    2.218
  335.891    0.296    0.551   95.582    2.216
  336.196    0.287    0.565   94.329    2.482
  336.501    0.278    0.539   94.296    2.728
  336.805    0.278    0.515   93.649    3.116
  337.110    0.273    0.482   93.619    3.767
  337.415    0.282    0.452   93.594    4.643
  337.720    0.272    0.469   92.959    5.613
  338.025    0.220    0.489   94.157    6.170
  338.329    0.241    0.479   92.903    6.780
  338.634    0.247    0.487   94.100    6.776
  338.939    0.253    0.477   97.147    6.518
  339.244    0.247    0.487   95.277    6.513
  339.549    0.249    0.476   91.562    7.295
  339.854    0.293    0.456   95.214    8.018
  340.158    0.318    0.440   99.485    8.646
  340.463    0.279    0.454  100.700    8.641
  340.768    0.239    0.451  102.513    8.471
  341.073    0.209    0.452  106.174    8.629
  341.378    0.246    0.433  104.303    9.303
  341.682    0.246    0.428   99.967   10.031
  341.987    0.235    0.430   98.102   10.220
  342.292    0.244    0.445   96.841   10.210
  342.597    0.239    0.446   96.816    8.927
  342.902    0.244    0.445   91.868    8.109
  343.206    0.211    0.456   93.682    7.090
  343.511    0.205    0.453   97.344    6.318
  343.816    0.223    0.448   97.317    5.849
  344.121    0.229    0.505   94.831    5.735
  344.426    0.233    0.481   92.343    5.954
  344.730    0.254    0.427   89.855    7.196
  345.035    0.254    0.410   89.820    7.762
  345.340    0.249    0.442   90.406    8.371
  345.645    0.270    0.464   94.057    8.690
  345.950    0.252    0.458   95.884    8.683
  346.255    0.258    0.471   97.707    7.308
  346.559    0.227    0.502   96.444    6.034
  346.864    0.253    0.518   95.186    5.378
  347.169    0.270    0.492   94.551    4.885
  347.474    0.242    0.481   94.518    4.609
  347.779    0.246    0.485   92.647    4.518
  348.083    0.254    0.485   88.319    4.602
  348.388    0.272    0.494   83.368    4.777
  348.693    0.264    0.489   82.118    5.250
  348.998    0.306    0.459   81.475    5.663
  349.303    0.290    0.445   82.672    6.718
  349.607    0.295    0.444   84.485    7.526
  349.912    0.285    0.440   86.301    8.431
  350.217    0.285    0.445   86.897    7.096
  350.522    0.284    0.483   88.707    5.127
  350.827    0.289    0.502   89.300    3.923
  351.132    0.304    0.474   89.267    3.496
  351.436    0.284    0.459   88.011    3.698
  351.741    0.304    0.443   85.525    4.304
  352.046    0.299    0.425   84.269    5.010
  352.351    0.332    0.412   84.238    6.538
  352.656    0.338    0.439   81.751    8.369
  352.960    0.321    0.470   77.416    9.741
  353.265    0.304    0.465   75.551    9.922
  353.570    0.310    0.454   73.674    9.364
  353.875    0.315    0.453   70.577    8.664
  354.180    0.303    0.437   66.246    8.497
  354.484    0.220    0.379   58.222    8.821
  354.789    0.156    0.327   50.819   10.873
  355.094    0.053    0.232   47.098   13.919
  355.399    0.034    0.220   51.378   13.906
  355.704    0.096    0.254   61.181   12.877
  356.008    0.180    0.375   69.151   10.430
  356.313    0.236    0.452   69.730    9.296
  356.618    0.250    0.459   67.244    8.443
  356.923    0.221    0.427   70.291    8.122
