~VERSION INFORMATION
 VERS.                 2.0:   CWLS LOG ASCII STANDARD -VERSION 2.0
 WRAP.                  NO:   ONE LINE PER DEPTH STEP
~WELL INFORMATION BLOCK
#MNEM.UNIT           DATA                    DESCRIPTION OF MNEMONIC
#---------    -------------------            -------------------------------
# Generated from Intellog Unique Number	CN_94_101/WELL/2572
WELL.         PARAMOUNT RESOURCES LTD.       : Well_name    - WELL
LOC .         00/07-24-094-19W4/0            : Location     - LOCATION
UWI .         00/07-24-094-19W4/0            : Uwi          - UNIQUE WELL ID
ENTR.         JOETTE                         : Entered      - ENTERED BY
SRVC.         COMPUTALOG                     : Scn          - SERVICE COMPANY
DATE.         06\12\92                       : Date         - LOG DATE
STRT.M        90                             : top_depth    - START DEPTH
STOP.M        277                            : bot_depth    - STOP DEPTH
STEP.M        0.25                           : increment    - STEP LENGTH
 NULL. -999.2500:NULL Value
~CURVE INFORMATION BLOCK
#MNEM UNIT       ERCB CURVE CODE    CURVE DESCRIPTION
#-----------   ------------------   ----------------------------------
DEPT.M        00 001 00 00         : DEPTH        - DEPTH
CALI.MM       00 280 01 00         : CAL          - CALIPER
GR  .API      00 310 00 00         : GR           - GAMMA RAY
NPHI.V/V      00 330 00 00         : PHIN         - NEUTRON POROSITY (SANDSTONE)
DPHI.V/V      00 890 00 00         : PHID         - DENSITY POROSITY (SANDSTONE)
ILD .OHMM     00 120 00 00         : RESD         - DEEP RESISTIVITY (DIL)
~PARAMETER INFORMATION
#MNEM.UNIT           DATA             DESCRIPTION OF MNEMONIC
#---------         -----------     ------------------------------
GL  .M        557.4                : gl           - GROUND LEVEL ELEVATION
EREF.M        560.8                : kb           - ELEVATION OF DEPTH REFERENCE
DATM.M        560.8                : datum        - DATUM ELEVATION
TDD .M        280.1                : tdd          - TOTAL DEPTH DRILLER
RUN .         ONE                  : Run          - RUN NUMBER
ENG .         JO                   : Engineer     - RECORDING ENGINEER
WIT .         TIM                  : Witness      - WITNESSED BY
MUD .         GEL                  : Mud_type     - MUD TYPE
MATR.         SANDSTONE            : Logunit      - NEUTRON MATRIX
TMAX.C        32                   : BHT          - MAXIMUM RECORDED TEMPERATURE
BHTD.M        280.1                : BHTDEP       - MAXIMUM RECORDED TEMPERATURE
RMT .C        19                   : MDTP         - TEMPERATURE OF MUD
MUDD.KG/M     1130                 : MWT          - MUD DENSITY
NEUT.         1                    : NEUTRON      - NEUTRON TYPE
RESI.         0                    : RESIST       - RESISTIVITY TYPE
RM  .OHMM     5.3                  : RM           - RESISTIVITY OF MUD
RMC .OHMM     5.3                  : RMC          - RESISTIVITY OF MUD CAKE
RMF .OHMM     5.3                  : RMF          - RESISTIVITY OF MUD FILTRATE
SUFT.C        4                    : SUFT         - SURFACE TEMPERATURE
~A  DEPTH      CAL       GR     PHIN     PHID     RESD
# ...
  126.500  168.210   87.654    0.399    0.269    7.558
  126.750  174.383   90.124    0.391    0.281    7.700
  127.000  177.469   91.358    0.385    0.285    7.695
  127.250  173.354   87.654    0.376    0.294    7.691
  127.500  165.123   82.716    0.406    0.308    7.543
  127.750  162.037   78.395    0.418    0.321    6.472
  128.000  163.066   77.778    0.412    0.289    5.884
  128.250  173.354   76.543    0.408    0.271    4.862
  128.500  179.527   79.630    0.436    0.254    4.503
  128.750  178.498   84.568    0.464    0.255    4.251
  129.000  176.440   88.889    0.458    0.257    4.090
  129.250  181.584   90.741    0.457    0.257    4.166
  129.500  189.815   95.679    0.473    0.260    4.494
  129.750  186.728   99.383    0.492    0.271    5.230
  130.000  183.642   98.148    0.501    0.268    6.202
  130.250  183.642   90.741    0.492    0.255    6.690
  130.500  187.757   85.185    0.480    0.254    6.686
  130.750  189.815   81.481    0.469    0.292    5.962
  131.000  183.642   77.778    0.455    0.305    5.418
  131.250  175.412   80.247    0.455    0.266    5.115
  131.500  178.498   85.185    0.470    0.257    5.515
  131.750  190.844   89.506    0.466    0.223    6.063
  132.000  187.757   91.358    0.434    0.180    6.792
  132.250  182.613   88.889    0.406    0.174    7.187
  132.500  176.440   87.037    0.403    0.170    7.049
  132.750  173.354   83.951    0.401    0.212    6.527
  133.000  172.325   82.099    0.413    0.228    6.163
  133.250  172.325   80.864    0.423    0.247    5.709
  133.500  175.412   82.716    0.431    0.254    4.900
  133.750  179.527   88.272    0.440    0.244    4.539
  134.000  186.728   92.593    0.461    0.239    4.536
  134.250  188.786   95.062    0.454    0.245    4.892
  134.500  188.786   94.444    0.449    0.253    4.983
  134.750  187.757   88.272    0.458    0.260    4.981
  135.000  187.757   85.802    0.461    0.271    4.885
  135.250  181.584   83.951    0.450    0.279    4.611
  135.500  168.210   87.037    0.449    0.289    4.353
  135.750  166.152   92.593    0.477    0.258    4.032
  136.000  170.267   93.827    0.494    0.255    3.879
  136.250  175.412   88.889    0.491    0.255    3.732
  136.500  177.469   88.889    0.479    0.254    3.802
  136.750  184.671   93.210    0.475    0.252    4.023
  137.000  182.613   96.914    0.460    0.247    4.507
  137.250  175.412   95.679    0.428    0.212    5.147
  137.500  172.325   88.889    0.396    0.180    6.223
  137.750  166.152   79.012    0.376    0.228    7.380
  138.000  165.123   74.691    0.363    0.252    7.662
  138.250  173.354   77.778    0.382    0.265    7.656
  138.500  178.498   79.630    0.434    0.274    7.510
  138.750  179.527   79.630    0.444    0.284    7.089
  139.000  179.527   79.012    0.452    0.298    6.820
  139.250  177.469   78.395    0.449    0.281    6.689
  139.500  177.469   80.864    0.439    0.263    6.314
  139.750  177.469   83.333    0.414    0.244    6.312
  140.000  175.412   87.037    0.400    0.226    6.308
  140.250  172.325   91.358    0.391    0.211    6.305
  140.500  181.584   84.568    0.402    0.224    6.300
  140.750  174.383   80.247    0.414    0.253    6.298
  141.000  173.354   88.272    0.428    0.248    6.295
  141.250  184.671   97.531    0.439    0.235    6.291
  141.500  183.642  101.235    0.443    0.233    6.052
  141.750  180.556  101.235    0.453    0.234    5.937
  142.000  182.613  100.617    0.447    0.231    5.711
  142.250  191.872  103.086    0.448    0.226    5.816
  142.500  192.901  109.259    0.449    0.228    5.814
  142.750  185.700  111.111    0.435    0.239    5.922
  143.000  184.671  107.407    0.434    0.249    6.033
  143.250  182.613  106.173    0.461    0.266    6.030
  143.500  181.584  103.086    0.450    0.264    6.028
  143.750  180.556   98.765    0.432    0.237    5.911
  144.000  180.556  100.000    0.427    0.234    5.906
  144.250  180.556  104.321    0.417    0.229    5.792
  144.500  180.556  104.321    0.405    0.223    5.791
  144.750  180.556  101.852    0.402    0.217    5.572
  145.000  180.556  102.469    0.443    0.232    5.360
  145.250  183.642  104.938    0.444    0.240    5.158
  145.500  187.757  103.704    0.424    0.242    4.776
  145.750  189.815   98.148    0.413    0.243    4.596
  146.000  188.786   94.444    0.403    0.250    4.506
  146.250  186.728   95.679    0.429    0.259    4.505
  146.500  183.642   97.531    0.439    0.271    4.589
  146.750  179.527   88.889    0.445    0.275    4.856
  147.000  175.412   83.333    0.435    0.276    5.237
  147.250  171.296   82.716    0.413    0.274    5.757
  147.500  166.152   83.951    0.403    0.274    5.864
  147.750  168.210   83.333    0.398    0.268    5.972
  148.000  169.239   79.012    0.409    0.245    5.971
  148.250  169.239   74.074    0.406    0.232    5.855
  148.500  172.325   78.395    0.418    0.249    5.527
  148.750  178.498   84.568    0.449    0.253    5.218
  149.000  182.613   88.889    0.402    0.258    4.741
  149.250  185.700   85.185    0.413    0.274    4.739
  149.500  186.728   85.185    0.427    0.277    4.737
  149.750  185.700   85.802    0.426    0.275    5.205
  150.000  183.642   86.420    0.406    0.276    5.509
  150.250  181.584   81.481    0.409    0.286    5.720
  150.500  179.527   80.864    0.422    0.293    6.168
  150.750  177.469   82.099    0.434    0.295    6.165
  151.000  175.412   84.568    0.442    0.295    6.046
  151.250  171.296   80.864    0.424    0.296    5.494
  151.500  169.239   75.309    0.430    0.301    5.187
  151.750  170.267   75.309    0.440    0.303    4.805
  152.000  174.383   76.543    0.454    0.300    4.284
  152.250  180.556   79.012    0.463    0.296    3.968
  152.500  184.671   83.951    0.467    0.286    3.745
  152.750  185.700   91.358    0.469    0.277    3.744
  153.000  183.642   95.062    0.467    0.268    3.962
  153.250  182.613   96.296    0.460    0.284    4.355
  153.500  178.498   90.124    0.445    0.296    4.972
  153.750  177.469   88.889    0.424    0.297    5.466
  154.000  176.440   84.568    0.406    0.269    5.895
  154.250  175.412   75.926    0.422    0.239    6.358
  154.500  174.383   69.136    0.434    0.224    6.355
  154.750  172.325   69.136    0.413    0.242    5.999
  155.000  169.239   72.222    0.408    0.254    5.348
  155.250  174.383   79.630    0.409    0.244    4.954
  155.500  182.613   87.037    0.402    0.256    4.767
  155.750  184.671   95.679    0.397    0.250    4.587
  156.000  182.613   96.914    0.397    0.245    4.498
  156.250  179.527   93.210    0.404    0.259    4.410
  156.500  185.700   91.358    0.419    0.263    4.407
  156.750  191.872   95.062    0.434    0.253    4.490
  157.000  189.815   99.383    0.442    0.245    4.661
  157.250  187.757   98.765    0.445    0.246    4.748
  157.500  184.671   93.210    0.449    0.253    4.747
  157.750  184.671   90.124    0.442    0.246    4.654
  158.000  184.671   92.593    0.427    0.240    4.565
  158.250  189.815   95.062    0.437    0.239    4.476
  158.500  194.959   93.827    0.445    0.240    4.474
  158.750  195.988   91.975    0.460    0.251    4.557
  159.000  199.074   92.593    0.488    0.270    4.554
  159.250  200.103   96.296    0.514    0.275    4.552
  159.500  192.901   99.383    0.496    0.275    4.465
  159.750  185.700   95.679    0.450    0.274    4.461
  160.000  184.671   94.444    0.430    0.269    4.459
  160.250  185.700   96.296    0.433    0.261    4.542
  160.500  185.700   99.383    0.445    0.259    4.540
  160.750  186.728  101.235    0.456    0.267    4.625
  161.000  188.786   93.210    0.458    0.271    4.623
  161.250  189.815   93.210    0.403    0.264    4.620
  161.500  191.872   94.444    0.404    0.256    4.706
  161.750  191.872   97.531    0.427    0.254    4.980
  162.000  189.815   99.383    0.459    0.254    5.270
  162.250  185.700   98.765    0.443    0.244    5.792
  162.500  178.498   91.975    0.430    0.208    6.014
  162.750  175.412   83.951    0.427    0.146    5.261
