~VERSION INFORMATION
 VERS.                 2.0:   CWLS LOG ASCII STANDARD -VERSION 2.0
 WRAP.                  NO:   ONE LINE PER DEPTH STEP
~WELL INFORMATION BLOCK
#MNEM.UNIT           DATA                    DESCRIPTION OF MNEMONIC
#---------    -------------------            -------------------------------
# Generated from Intellog Unique Number	CS_69_70/WELL/776
WELL.         MAYNARD EXPLORATION            : Well_name    - WELL
LOC .         00/06-25-070-16W4/0            : Location     - LOCATION
UWI .         00/06-25-070-16W4/0            : Uwi          - UNIQUE WELL ID
ENTR.         SP                             : Entered      - ENTERED BY
SRVC.         SCHLUMBERGER                   : Scn          - SERVICE COMPANY
STRT.M        280                            : top_depth    - START DEPTH
STOP.M        490                            : bot_depth    - STOP DEPTH
STEP.M        0.25                           : increment    - STEP LENGTH
 NULL. -999.2500:NULL Value
~CURVE INFORMATION BLOCK
#MNEM UNIT       ERCB CURVE CODE    CURVE DESCRIPTION
#-----------   ------------------   ----------------------------------
DEPT.M        00 001 00 00         : DEPTH        - DEPTH
ILD .OHMM     00 120 00 00         : RESD         - DEEP RESISTIVITY (DIL)
DPHI.V/V      00 890 00 00         : PHID         - DENSITY POROSITY (LIMESTONE)
NPHI.V/V      00 330 00 00         : PHIN         - NEUTRON POROSITY (LIMESTONE)
GR  .API      00 310 00 00         : GR           - GAMMA RAY
~PARAMETER INFORMATION
#MNEM.UNIT           DATA             DESCRIPTION OF MNEMONIC
#---------         -----------     ------------------------------
GL  .M        580.53               : gl           - GROUND LEVEL ELEVATION
EREF.M        583.73               : kb           - ELEVATION OF DEPTH REFERENCE
DATM.M        580.53               : datum        - DATUM ELEVATION
TDD .M        499                  : tdd          - TOTAL DEPTH DRILLER
RUN .         ONE                  : Run          - RUN NUMBER
ENG .         BILL                 : Engineer     - RECORDING ENGINEER
WIT .         JIM                  : Witness      - WITNESSED BY
MUD .         GEL                  : Mud_type     - MUD TYPE
MATR.         LIMESTONE            : Logunit      - NEUTRON MATRIX
TMAX.C        23                   : BHT          - MAXIMUM RECORDED TEMPERATURE
BHTD.M        499                  : BHTDEP       - MAXIMUM RECORDED TEMPERATURE
MATR.         1                    : LOGUNIT      - NEUTRON MATRIX
RMT .C        25                   : MDTP         - TEMPERATURE OF MUD
NEUT.         1                    : NEUTRON      - NEUTRON TYPE
RESI.         0                    : RESIST       - RESISTIVITY TYPE
RMC .OHMM     0.25                 : RMC          - RESISTIVITY OF MUD CAKE
RMF .OHMM     0.25                 : RMF          - RESISTIVITY OF MUD FILTRATE
SUFT.C        15                   : SUFT         - SURFACE TEMPERATURE
~A  DEPTH     RESD     PHID     PHIN       GR
# ...
  410.500    3.445    0.242    0.408   91.866
  410.750    3.518    0.246    0.412   92.165
  411.000    3.740    0.253    0.405   88.081
  411.250    3.805    0.262    0.397   86.736
  411.500    3.887    0.259    0.390   85.695
  411.750    3.945    0.253    0.384   85.870
  412.000    4.002    0.249    0.377   88.235
  412.250    4.035    0.246    0.371   89.748
  412.500    4.035    0.250    0.366   89.497
  412.750    4.076    0.265    0.361   88.517
  413.000    4.092    0.271    0.358   87.719
  413.250    4.101    0.264    0.366   87.165
  413.500    4.117    0.249    0.372   86.548
  413.750    4.142    0.239    0.373   84.413
  414.000    4.174    0.225    0.374   81.182
  414.250    4.207    0.208    0.369   79.593
  414.500    4.265    0.198    0.367   78.611
  414.750    4.404    0.198    0.376   81.646
  415.000    4.470    0.223    0.383   86.140
  415.250    4.683    0.245    0.388   89.600
  415.500    4.814    0.240    0.389   90.079
  415.750    4.847    0.233    0.391   91.653
  416.000    4.879    0.229    0.394   96.695
  416.250    4.666    0.230    0.408  101.493
  416.500    4.322    0.236    0.432  105.074
  416.750    3.880    0.238    0.446  106.222
  417.000    3.568    0.228    0.456  106.945
  417.250    3.306    0.220    0.446  106.328
  417.500    3.175    0.214    0.436  105.105
  417.750    3.093    0.217    0.443  102.179
  418.000    3.076    0.226    0.455  101.563
  418.250    3.093    0.229    0.467  102.834
  418.500    3.134    0.228    0.458  105.015
  418.750    3.158    0.225    0.447  105.495
  419.000    3.199    0.223    0.439  104.941
  419.250    3.208    0.230    0.444  104.446
  419.500    3.191    0.238    0.452  104.560
  419.750    2.716    0.245    0.444  105.162
  420.000    2.716    0.253    0.447  106.188
  420.250    2.650    0.263    0.444  107.336
  420.500    2.609    0.276    0.434  108.424
  420.750    2.585    0.279    0.422  109.452
  421.000    2.585    0.257    0.411  110.357
  421.250    2.626    0.242    0.394  109.741
  421.500    2.798    0.240    0.377  104.746
  421.750    2.847    0.243    0.362   97.682
  422.000    3.208    0.250    0.339   91.228
  422.250    3.536    0.239    0.322   84.955
  422.500    4.175    0.204    0.310   80.325
  422.750    5.028    0.156    0.282   71.559
  423.000    6.347    0.095    0.223   65.286
  423.250    8.593    0.038    0.186   64.427
  423.500   10.528    0.070    0.165   64.540
  423.750   12.454    0.103    0.246   68.001
  424.000   13.355    0.185    0.293   72.799
  424.250   10.651    0.229    0.313   73.704
  424.500    7.864    0.257    0.332   74.549
  424.750    6.757    0.267    0.343   77.339
  425.000    6.003    0.262    0.354   79.704
  425.250    5.536    0.251    0.363   81.036
  425.500    5.183    0.245    0.366   82.000
  425.750    4.995    0.230    0.366   81.994
  426.000    4.856    0.196    0.361   80.405
  426.250    4.790    0.160    0.354   82.526
  426.500    4.716    0.125    0.352   86.594
  426.750    4.790    0.155    0.367   89.082
  427.000    4.880    0.161    0.379   93.331
  427.250    4.971    0.154    0.375   96.184
  427.500    4.995    0.158    0.384   98.123
  427.750    4.971    0.155    0.382   98.906
  428.000    4.889    0.154    0.374   99.019
  428.250    4.790    0.156    0.368   98.952
  428.500    4.676    0.163    0.368   99.492
  428.750    4.610    0.185    0.375  101.005
  429.000    4.544    0.200    0.377  101.850
  429.250    4.512    0.210    0.370  102.145
  429.500    4.503    0.216    0.364  102.382
  429.750    4.520    0.214    0.368  101.159
  430.000    4.569    0.210    0.375   98.719
  430.250    4.651    0.206    0.372   95.123
  430.500    4.700    0.210    0.360   92.743
  430.750    4.758    0.221    0.358   93.769
  431.000    4.790    0.226    0.371   97.654
  431.250    4.823    0.239    0.381   98.317
  431.500    4.823    0.236    0.393   97.336
  431.750    4.774    0.213    0.400   97.026
  432.000    4.717    0.198    0.405   95.072
  432.250    4.618    0.181    0.392   90.076
  432.500    4.471    0.168    0.382   86.358
  432.750    4.422    0.145    0.370   83.979
  433.000    4.430    0.128    0.364   83.059
  433.250    4.487    0.133    0.354   84.390
  433.500    4.651    0.137    0.342   86.208
  433.750    4.922    0.126    0.329   88.449
  434.000    5.348    0.167    0.321   89.782
  434.250    5.701    0.198    0.347   91.295
  434.500    5.856    0.242    0.359   92.200
  434.750    5.569    0.256    0.366   92.738
  435.000    5.192    0.243    0.363   92.977
  435.250    4.750    0.231    0.372   93.817
  435.500    4.422    0.217    0.380   94.116
  435.750    4.201    0.195    0.387   94.232
  436.000    4.029    0.186    0.388   94.650
  436.250    3.889    0.180    0.384   95.130
  436.500    3.734    0.197    0.382   96.094
  436.750    3.537    0.212    0.381   97.059
  437.000    3.397    0.225    0.381   98.270
  437.250    3.111    0.238    0.397  100.695
  437.500    2.898    0.232    0.426  102.879
  437.750    2.537    0.225    0.444  105.913
  438.000    2.348    0.209    0.444  107.974
  438.250    2.242    0.189    0.435  108.210
  438.500    2.463    0.169    0.391  103.397
  438.750    2.873    0.140    0.327   92.442
  439.000    3.209    0.118    0.304   79.417
  439.250    3.652    0.098    0.291   83.850
  439.500    3.939    0.179    0.351   91.933
  439.750    4.135    0.199    0.379   96.731
  440.000    4.209    0.210    0.390   98.244
  440.250    4.217    0.219    0.396   97.628
  440.500    4.209    0.225    0.379   97.012
  440.750    4.365    0.219    0.361   95.665
  441.000    4.709    0.155    0.343   92.983
  441.250    5.816    0.078    0.320   84.461
  441.500    7.758    0.027    0.297   74.721
  441.750    8.513    0.014    0.247   64.556
  442.000    9.086    0.053    0.185   74.524
  442.250    9.414    0.109    0.227   87.960
  442.500    9.455    0.147    0.286   96.043
  442.750    8.324    0.181    0.333   99.867
  443.000    6.906    0.190    0.355  101.198
  443.250    6.119    0.190    0.347   98.635
  443.500    5.628    0.184    0.344   97.230
  443.750    5.136    0.176    0.342  100.324
  444.000    4.898    0.163    0.345  104.210
  444.250    4.841    0.157    0.361  107.243
  444.500    4.718    0.180    0.374  107.784
  444.750    4.554    0.182    0.374  106.135
  445.000    4.300    0.184    0.374  107.281
  445.250    4.136    0.184    0.405  107.457
  445.500    3.906    0.176    0.413  106.295
  445.750    3.693    0.169    0.404  102.882
  446.000    3.505    0.162    0.398  100.684
  446.250    3.423    0.157    0.393  102.076
  446.500    3.406    0.156    0.396  102.921
  446.750    3.398    0.169    0.396  101.575
  447.000    3.390    0.164    0.407   99.256
  447.250    3.357    0.159    0.421   98.884
  447.500    3.349    0.168    0.414   99.911
  447.750    3.333    0.187    0.407  101.485
  448.000    3.308    0.183    0.412  102.815
  448.250    3.275    0.175    0.414  103.659
  448.500    3.275    0.176    0.408  103.653
  448.750    3.316    0.172    0.402  102.064
  449.000    3.333    0.155    0.396   98.651
  449.250    3.357    0.136    0.397  103.448
  449.500    3.398    0.122    0.410  110.009
  449.750    3.357    0.155    0.419  112.922
  450.000    3.300    0.180    0.417  113.828
  450.250    3.276    0.193    0.408  112.968
  450.500    3.202    0.193    0.408  111.866
  450.750    3.144    0.186    0.419  110.399
  451.000    3.038    0.181    0.411  108.565
  451.250    3.005    0.173    0.401  107.282
  451.500    3.038    0.173    0.393  105.085
  451.750    3.079    0.164    0.388  106.478
  452.000    3.038    0.163    0.395  111.823
  452.250    2.923    0.176    0.417  115.586
  452.500    2.759    0.188    0.438  115.762
  452.750    2.661    0.193    0.452  113.016
  453.000    2.628    0.199    0.448  110.697
  453.250    2.718    0.206    0.407  108.501
  453.500    3.317    0.173    0.384  102.230
  453.750    4.087    0.126    0.358   90.665
