~VERSION INFORMATION
 VERS.                 2.0:   CWLS LOG ASCII STANDARD -VERSION 2.0
 WRAP.                  NO:   ONE LINE PER DEPTH STEP
~WELL INFORMATION BLOCK
#MNEM.UNIT           DATA                    DESCRIPTION OF MNEMONIC
#---------    -------------------            -------------------------------
# Generated from Intellog Unique Number	CS_73_76/WELL/1084
WELL.         BOW VALLEY INDUSTRIES LTD.     : Well_name    - WELL
LOC .         00/06-30-075-13W4/0            : Location     - LOCATION
UWI .         00/06-30-075-13W4/0            : Uwi          - UNIQUE WELL ID
ENTR.         SP                             : Entered      - ENTERED BY
SRVC.         SCHLUMBERGER                   : Scn          - SERVICE COMPANY
STRT.M        360                            : top_depth    - START DEPTH
STOP.M        597                            : bot_depth    - STOP DEPTH
STEP.M        0.25                           : increment    - STEP LENGTH
 NULL. -999.2500:NULL Value
~CURVE INFORMATION BLOCK
#MNEM UNIT       ERCB CURVE CODE    CURVE DESCRIPTION
#-----------   ------------------   ----------------------------------
DEPT.M        00 001 00 00         : DEPTH        - DEPTH
ILD .OHMM     00 120 00 00         : RESD         - DEEP RESISTIVITY (DIL)
DPHI.V/V      00 890 00 00         : PHID         - DENSITY POROSITY (LIMESTONE)
NPHI.V/V      00 330 00 00         : PHIN         - NEUTRON POROSITY (LIMESTONE)
GR  .API      00 310 00 00         : GR           - GAMMA RAY
~PARAMETER INFORMATION
#MNEM.UNIT           DATA             DESCRIPTION OF MNEMONIC
#---------         -----------     ------------------------------
GL  .M        736                  : gl           - GROUND LEVEL ELEVATION
EREF.M        739.2                : kb           - ELEVATION OF DEPTH REFERENCE
DATM.M        736                  : datum        - DATUM ELEVATION
TDD .M        603                  : tdd          - TOTAL DEPTH DRILLER
RUN .         ONE                  : Run          - RUN NUMBER
ENG .         BILL                 : Engineer     - RECORDING ENGINEER
WIT .         JIM                  : Witness      - WITNESSED BY
MUD .         GEL                  : Mud_type     - MUD TYPE
MATR.         LIMESTONE            : Logunit      - NEUTRON MATRIX
TMAX.C        23                   : BHT          - MAXIMUM RECORDED TEMPERATURE
BHTD.M        603                  : BHTDEP       - MAXIMUM RECORDED TEMPERATURE
MATR.         1                    : LOGUNIT      - NEUTRON MATRIX
RMT .C        25                   : MDTP         - TEMPERATURE OF MUD
NEUT.         1                    : NEUTRON      - NEUTRON TYPE
RESI.         0                    : RESIST       - RESISTIVITY TYPE
RMC .OHMM     0.25                 : RMC          - RESISTIVITY OF MUD CAKE
RMF .OHMM     0.25                 : RMF          - RESISTIVITY OF MUD FILTRATE
SUFT.C        15                   : SUFT         - SURFACE TEMPERATURE
~A  DEPTH     RESD     PHID     PHIN       GR
  360.000    3.575    0.250    0.503   97.752
  360.250    3.575    0.248    0.474   98.947
  360.500    3.574    0.252    0.478  100.754
  360.750    3.507    0.248    0.484  104.374
  361.000    3.442    0.249    0.493  106.183
  361.250    3.316    0.239    0.500  105.559
  361.500    3.195    0.249    0.499  104.330
  361.750    3.022    0.262    0.516  102.491
  362.000    2.965    0.263    0.519  101.258
  362.250    2.910    0.264    0.521  100.030
  362.500    2.964    0.265    0.512  100.620
  362.750    3.018    0.276    0.489  102.423
  363.000    3.309    0.278    0.474   99.977
  363.250    3.432    0.254    0.487   99.957
  363.500    3.560    0.258    0.500   99.943
  363.750    3.626    0.259    0.503  100.535
  364.000    3.624    0.256    0.499  101.128
  364.250    3.557    0.263    0.521  100.503
  364.500    3.491    0.255    0.527   96.232
  364.750    3.490    0.261    0.531   93.791
  365.000    3.554    0.258    0.515   90.739
  365.250    3.755    0.266    0.484   91.322
  365.500    3.895    0.258    0.467   93.737
  365.750    3.684    0.252    0.496   95.543
  366.000    3.420    0.247    0.516   95.530
  366.250    3.235    0.239    0.524   88.832
  366.500    3.175    0.230    0.525   83.351
  366.750    3.293    0.201    0.458   76.655
  367.000    4.034    0.204    0.422   74.211
  367.250    5.623    0.279    0.402   76.623
  367.500    8.596    0.317    0.411   75.996
  367.750    9.601    0.300    0.418   74.159
  368.000   10.722    0.291    0.419   76.571
  368.250   10.919    0.282    0.402   78.378
  368.500   10.138    0.287    0.406   78.969
  368.750    9.767    0.274    0.410   78.343
  369.000    9.069    0.266    0.409   76.506
  369.250    8.737    0.283    0.409   76.489
  369.500    8.735    0.296    0.427   73.438
  369.750    8.571    0.295    0.438   67.342
  370.000    8.892    0.295    0.444   65.512
  370.250    9.396    0.314    0.443   61.852
  370.500    9.745    0.329    0.436   58.190
  370.750    9.925    0.318    0.422   64.851
  371.000   10.106    0.312    0.418   74.548
  371.250   10.103    0.304    0.414   79.392
  371.500    9.556    0.294    0.405   84.234
  371.750    8.873    0.288    0.397   89.074
  372.000    8.086    0.276    0.395   93.914
  372.250    7.649    0.265    0.404   96.934
  372.500    7.102    0.254    0.414   98.735
  372.750    6.717    0.255    0.424   99.322
  373.000    6.237    0.250    0.439   99.313
  373.250    5.791    0.248    0.450  101.115
  373.500    5.376    0.252    0.450  102.314
  373.750    5.277    0.255    0.442   93.790
  374.000    6.115    0.277    0.435   89.529
  374.250    6.956    0.300    0.420   82.225
  374.500    8.212    0.333    0.400   77.353
  374.750    9.342    0.359    0.388   73.082
  375.000   10.433    0.356    0.410   71.856
  375.250   11.230    0.344    0.427   75.480
  375.500   11.650    0.338    0.443   78.501
  375.750   11.222    0.330    0.447   84.547
  376.000   10.615    0.321    0.434   85.752
  376.250    9.855    0.318    0.429   89.374
  376.500    9.321    0.314    0.440   92.392
  376.750    9.319    0.308    0.436   93.597
  377.000    9.316    0.303    0.431   94.794
  377.250    9.487    0.294    0.424   92.349
  377.500    9.840    0.280    0.410   85.654
  377.750   10.020    0.272    0.391   73.492
  378.000   10.203    0.270    0.374   64.975
  378.250   10.013    0.282    0.380   58.885
  378.500   10.011    0.303    0.397   56.441
  378.750    9.825    0.304    0.410   55.818
  379.000    9.641    0.286    0.404   56.406
  379.250    9.462    0.309    0.409   53.354
  379.500    9.460    0.320    0.409   50.303
  379.750    9.456    0.320    0.396   47.857
  380.000    9.629    0.312    0.382   42.978
  380.250    9.806    0.324    0.373   39.324
  380.500    9.803    0.317    0.383   35.663
  380.750    9.983    0.306    0.394   31.998
  381.000    9.980    0.312    0.382   30.775
  381.250   10.163    0.330    0.364   28.930
  381.500   10.347    0.341    0.358   28.309
  381.750   10.343    0.343    0.360   27.683
  382.000   10.533    0.342    0.369   27.060
  382.250   10.530    0.336    0.381   26.436
  382.500   10.723    0.343    0.388   25.811
  382.750   10.720    0.347    0.386   25.800
  383.000   10.717    0.337    0.384   25.781
  383.250   10.714    0.333    0.383   26.974
  383.500   10.323    0.333    0.378   28.783
  383.750    9.584    0.331    0.374   33.624
  384.000    9.235    0.325    0.369   42.109
  384.250    8.111    0.321    0.368   53.017
  384.500    7.259    0.298    0.375   63.932
  384.750    6.259    0.259    0.422   79.097
  385.000    5.601    0.210    0.488  102.760
  385.250    5.012    0.172    0.520  111.240
  385.500    4.485    0.160    0.498  113.045
  385.750    4.242    0.175    0.507  119.708
  386.000    3.939    0.187    0.524  119.085
  386.250    3.590    0.210    0.543  122.705
  386.500    3.333    0.207    0.550  123.909
  386.750    3.095    0.228    0.553  120.853
  387.000    3.037    0.239    0.559  119.017
  387.250    2.873    0.255    0.564  117.178
  387.500    2.925    0.257    0.566  116.556
  387.750    3.787    0.259    0.518  113.505
  388.000    4.554    0.275    0.499  108.020
  388.250    5.376    0.282    0.480  102.534
  388.500    6.960    0.289    0.461  100.092
  388.750    8.216    0.285    0.455  101.287
  389.000    8.842    0.287    0.444  101.885
  389.250    9.005    0.280    0.432  101.865
  389.500    9.169    0.273    0.423   99.421
  389.750    9.167    0.269    0.432   95.763
  390.000    8.996    0.297    0.438   92.102
  390.250    8.829    0.309    0.448   91.481
  390.500    8.665    0.321    0.458   90.855
  390.750    8.194    0.321    0.464   87.804
  391.000    7.895    0.308    0.459   88.393
  391.250    7.607    0.299    0.460   98.697
  391.500    7.329    0.288    0.456  107.180
  391.750    7.192    0.270    0.462  111.417
  392.000    7.324    0.250    0.480  112.614
  392.250    7.597    0.259    0.479  102.272
  392.500    8.027    0.269    0.459   98.007
  392.750    8.483    0.270    0.428   96.772
  393.000    8.963    0.269    0.424   96.756
  393.250    9.127    0.276    0.435   95.523
  393.500    9.125    0.284    0.435   95.513
  393.750    8.629    0.287    0.432   93.671
  394.000    8.161    0.298    0.451   93.051
  394.250    7.719    0.289    0.455   96.671
  394.500    7.436    0.262    0.460  102.115
  394.750    7.298    0.269    0.467  104.535
  395.000    7.032    0.286    0.472  107.556
  395.250    6.901    0.281    0.460  108.748
  395.500    6.773    0.263    0.451  108.737
  395.750    6.896    0.251    0.458  108.721
  396.000    7.154    0.259    0.472  102.631
  396.250    7.843    0.267    0.486   94.721
  396.500    8.760    0.287    0.500   83.774
  396.750    9.964    0.282    0.473   74.042
  397.000   10.529    0.285    0.460   63.702
  397.250   11.125    0.323    0.456   55.186
  397.500   11.755    0.340    0.444   47.883
  397.750   12.195    0.350    0.432   44.835
  398.000   12.651    0.353    0.424   42.384
  398.250   12.645    0.355    0.421   42.369
  398.500   12.410    0.356    0.419   44.177
  398.750   12.408    0.359    0.414   45.369
  399.000   12.175    0.367    0.423   45.966
  399.250   11.950    0.359    0.429   45.339
  399.500   11.726    0.353    0.432   45.323
  399.750   11.510    0.348    0.423   46.517
  400.000   10.886    0.342    0.414   47.112
  400.250   10.108    0.337    0.417   49.521
  400.500    9.213    0.332    0.422   52.539
  400.750    8.093    0.338    0.422   58.594
  401.000    6.979    0.344    0.417   64.651
  401.250    6.131    0.331    0.430   70.706
  401.500    5.588    0.326    0.448   77.367
  401.750    5.094    0.314    0.456   84.023
  402.000    4.817    0.301    0.467   87.050
  402.250    4.728    0.305    0.477   87.636
  402.500    4.640    0.300    0.496   89.442
  402.750    4.639    0.310    0.490   93.069
  403.000    4.551    0.312    0.464   99.730
  403.250    4.635    0.302    0.484  104.573
