~VERSION INFORMATION
 VERS.                 2.0:   CWLS LOG ASCII STANDARD -VERSION 2.0
 WRAP.                  NO:   ONE LINE PER DEPTH STEP
~WELL INFORMATION BLOCK
#MNEM.UNIT           DATA                    DESCRIPTION OF MNEMONIC
#---------    -------------------            -------------------------------
# Generated from Intellog Unique Number	CS_73_76/WELL/2016
WELL.         09-29-073-07W4                 : Well_name    - WELL
LOC .         AA/09-29-073-07W4/0            : Location     - LOCATION
UWI .         AA/09-29-073-07W4/0            : Uwi          - UNIQUE WELL ID
ENTR.         TIM                            : Entered      - ENTERED BY
SRVC.         SCHLUMBERGER                   : Scn          - SERVICE COMPANY
STRT.M        360                            : top_depth    - START DEPTH
STOP.M        595                            : bot_depth    - STOP DEPTH
STEP.M        0.25                           : increment    - STEP LENGTH
 NULL. -999.2500:NULL Value
~CURVE INFORMATION BLOCK
#MNEM UNIT       ERCB CURVE CODE    CURVE DESCRIPTION
#-----------   ------------------   ----------------------------------
DEPT.M        00 001 00 00         : DEPTH        - DEPTH
NPHI.V/V      00 330 00 00         : PHIN         - NEUTRON POROSITY (SANDSTONE)
DPHI.V/V      00 890 00 00         : PHID         - DENSITY POROSITY (SANDSTONE)
GR  .API      00 310 00 00         : GR           - GAMMA RAY
ILD .OHMM     00 120 00 00         : RESD         - DEEP RESISTIVITY (DIL)
CALI.MM       00 280 01 00         : CAL          - CALIPER
~PARAMETER INFORMATION
#MNEM.UNIT           DATA             DESCRIPTION OF MNEMONIC
#---------         -----------     ------------------------------
GL  .M        727.6                : gl           - GROUND LEVEL ELEVATION
EREF.M        731.5                : kb           - ELEVATION OF DEPTH REFERENCE
DATM.M        731.5                : datum        - DATUM ELEVATION
TDD .M        602                  : tdd          - TOTAL DEPTH DRILLER
RUN .         ONE                  : Run          - RUN NUMBER
ENG .         BILL                 : Engineer     - RECORDING ENGINEER
WIT .         JIM                  : Witness      - WITNESSED BY
MUD .         GEL                  : Mud_type     - MUD TYPE
MATR.         SANDSTONE            : Logunit      - NEUTRON MATRIX
TMAX.C        23                   : BHT          - MAXIMUM RECORDED TEMPERATURE
BHTD.M        602                  : BHTDEP       - MAXIMUM RECORDED TEMPERATURE
RMT .C        22                   : MDTP         - TEMPERATURE OF MUD
MUDD.KG/M     1090                 : MWT          - MUD DENSITY
NEUT.         1                    : NEUTRON      - NEUTRON TYPE
RESI.         0                    : RESIST       - RESISTIVITY TYPE
RM  .OHMM     6.09                 : RM           - RESISTIVITY OF MUD
RMC .OHMM     7.05                 : RMC          - RESISTIVITY OF MUD CAKE
RMF .OHMM     7.05                 : RMF          - RESISTIVITY OF MUD FILTRATE
SUFT.C        4                    : SUFT         - SURFACE TEMPERATURE
~A  DEPTH     PHIN     PHID       GR     RESD      CAL
# ...
  469.500    0.435    0.233   79.757    6.050  267.072
  469.750    0.407    0.237   79.750    5.943  266.046
  470.000    0.395    0.230   80.352    5.838  264.005
  470.250    0.411    0.222   79.740    5.626  260.947
  470.500    0.452    0.218   77.294    5.224  258.901
  470.750    0.475    0.213   76.679    4.675  257.878
  471.000    0.475    0.213   76.673    4.261  256.852
  471.250    0.463    0.221   77.886    3.811  255.829
  471.500    0.466    0.232   79.709    3.474  255.819
  471.750    0.486    0.247   81.532    3.166  254.789
  472.000    0.503    0.261   83.965    2.996  254.782
  472.250    0.523    0.270   85.180    2.998  254.775
  472.500    0.534    0.266   86.393    3.056  253.747
  472.750    0.534    0.268   86.997    3.175  253.735
  473.000    0.536    0.263   86.990    3.297  253.723
  473.250    0.550    0.257   85.765    3.425  253.718
  473.500    0.580    0.249   84.540    3.557  254.722
  473.750    0.595    0.246   85.144    3.694  254.712
  474.000    0.584    0.244   86.966    3.910  254.703
  474.250    0.530    0.247   88.179    4.061  254.693
  474.500    0.506    0.259   88.783    4.461  254.686
  474.750    0.524    0.268   87.559    4.993  255.690
  475.000    0.535    0.259   82.066    5.383  255.683
  475.250    0.522    0.247   80.842    5.914  254.652
  475.500    0.491    0.243   79.008    6.376  254.647
  475.750    0.465    0.248   77.783    6.622  253.622
  476.000    0.491    0.254   76.558    6.751  249.548
  476.250    0.483    0.263   71.675    6.882  245.475
  476.500    0.463    0.270   64.353    7.017  242.417
  476.750    0.466    0.277   67.395    7.020  239.360
  477.000    0.459    0.285   71.048    7.027  238.327
  477.250    0.471    0.285   73.481    6.901  238.322
  477.500    0.490    0.270   75.304    6.905  238.310
  477.750    0.505    0.260   75.297    7.040  237.289
  478.000    0.506    0.257   74.072    7.313  237.280
  478.250    0.478    0.259   71.629    7.453  237.268
  478.500    0.468    0.267   69.185    7.744  236.240
  478.750    0.479    0.275   65.520    7.746  236.235
  479.000    0.487    0.286   65.513    7.897  236.223
  479.250    0.495    0.301   65.510    7.902  235.195
  479.500    0.490    0.313   66.114    7.908  235.188
  479.750    0.478    0.325   66.108    7.913  235.181
  480.000    0.461    0.330   66.103    7.917  235.171
  480.250    0.443    0.314   66.705    7.923  235.161
  480.500    0.438    0.279   67.918    7.929  236.168
  480.750    0.428    0.263   68.524    7.642  236.158
  481.000    0.421    0.259   69.126    7.504  236.149
  481.250    0.443    0.268   69.119    7.370  236.137
  481.500    0.454    0.279   67.895    7.239  235.113
  481.750    0.442    0.300   66.672    7.381  234.083
  482.000    0.422    0.311   64.225    7.384  234.073
  482.250    0.414    0.311   63.001    7.388  233.045
  482.500    0.429    0.305   61.774    7.533  233.041
  482.750    0.461    0.297   64.206    7.261  233.029
  483.000    0.468    0.292   67.250    6.870  235.049
  483.250    0.455    0.285   69.074    6.381  236.060
  483.500    0.461    0.257   70.286    6.151  238.080
  483.750    0.448    0.251   70.890    6.389  240.100
  484.000    0.417    0.245   72.104    6.513  241.111
  484.250    0.408    0.237   74.536    6.764  243.133
  484.500    0.424    0.232   75.750    7.159  244.135
  484.750    0.440    0.232   73.915    7.434  245.146
  485.000    0.445    0.233   71.471    7.441  245.134
  485.250    0.421    0.237   69.028    7.447  246.138
  485.500    0.406    0.243   67.802    7.449  246.133
  485.750    0.401    0.250   69.625    7.316  246.124
  486.000    0.417    0.257   72.058    7.053  247.130
  486.250    0.428    0.259   72.053    6.800  247.121
  486.500    0.425    0.253   71.438    6.553  248.127
  486.750    0.415    0.249   72.040    6.201  249.133
  487.000    0.413    0.248   73.863    5.978  250.137
  487.250    0.441    0.243   73.856    5.763  251.144
  487.500    0.476    0.242   73.244    5.555  252.153
  487.750    0.491    0.240   72.628    5.455  254.173
  488.000    0.474    0.242   72.623    5.357  256.197
  488.250    0.471    0.242   75.052    5.165  258.217
  488.500    0.465    0.240   77.485    5.073  258.210
  488.750    0.453    0.240   79.309    5.171  258.198
  489.000    0.461    0.242   79.304    5.681  255.141
  489.250    0.506    0.247   78.690    6.125  252.083
  489.500    0.541    0.259   75.026    6.856  250.042
  489.750    0.542    0.273   71.363    7.253  248.000
  490.000    0.502    0.286   69.528    7.821  244.942
  490.250    0.459    0.287   69.521    8.278  242.901
  490.500    0.412    0.276   69.517    8.281  241.878
  490.750    0.466    0.270   69.508    8.441  239.831
  491.000    0.461    0.270   69.504    8.449  238.808
  491.250    0.441    0.275   68.889    8.454  237.782
  491.500    0.428    0.286   68.273    8.457  237.770
  491.750    0.421    0.294   67.048    8.309  237.763
  492.000    0.427    0.295   67.043    8.008  237.749
  492.250    0.449    0.295   66.427    7.718  237.742
  492.500    0.457    0.293   66.420    7.037  237.730
  492.750    0.452    0.289   66.414    6.656  238.741
  493.000    0.424    0.280   66.409    5.737  239.745
  493.250    0.409    0.277   67.012    4.504  241.770
  493.500    0.435    0.277   69.447    3.739  244.808
  493.750    0.463    0.281   73.097    3.048  248.860
  494.000    0.496    0.305   76.139    2.883  250.885
  494.250    0.525    0.322   77.353    2.885  254.937
  494.500    0.547    0.315   76.129    3.352  257.973
  494.750    0.576    0.313   76.122    3.682  260.000
  495.000    0.597    0.313   74.897    4.278  262.020
  495.250    0.584    0.309   72.453    4.787  257.949
  495.500    0.513    0.304   68.789    5.358  251.841
  495.750    0.504    0.299   64.518    5.777  247.767
  496.000    0.491    0.299   59.635    6.229  244.710
  496.250    0.491    0.308   55.971    6.592  243.684
  496.500    0.489    0.285   55.357    6.847  243.677
  496.750    0.456    0.230   54.132    6.851  242.651
  497.000    0.420    0.201   51.686    6.729  242.639
  497.250    0.367    0.235   50.461    6.486  242.632
  497.500    0.389    0.284   50.456    6.369  242.620
  497.750    0.408    0.308   51.669    6.256  242.613
  498.000    0.417    0.316   52.882    6.145  242.599
  498.250    0.417    0.318   54.705    6.034  242.594
  498.500    0.419    0.318   57.138    6.038  243.598
  498.750    0.423    0.312   60.180    5.930  243.591
  499.000    0.416    0.312   62.613    5.934  244.597
  499.250    0.445    0.316   63.217    5.938  245.599
  499.500    0.466    0.321   62.601    5.832  245.591
  499.750    0.461    0.318   61.376    5.835  246.595
  500.000    0.452    0.304   60.761    5.731  246.588
  500.250    0.450    0.302   61.974    5.629  247.597
  500.500    0.458    0.302   63.797    5.529  248.601
  500.750    0.456    0.300   71.716    5.531  250.621
  501.000    0.456    0.290   74.149    5.432  251.630
  501.250    0.454    0.269   74.751    5.436  254.666
  501.500    0.441    0.247   74.746    5.439  257.702
  501.750    0.426    0.240   74.741    5.442  258.711
  502.000    0.412    0.242   74.734    5.447  261.749
  502.250    0.419    0.243   74.730    5.449  262.755
  502.500    0.455    0.240   74.723    5.453  264.778
  502.750    0.452    0.239   75.325    5.559  265.787
  503.000    0.440    0.246   75.932    5.562  262.729
  503.250    0.430    0.254   77.144    5.567  254.591
  503.500    0.421    0.250   78.357    5.674  245.438
  503.750    0.418    0.244   78.961    5.679  242.378
  504.000    0.434    0.237   79.565    5.682  240.339
  504.250    0.442    0.226   79.558    5.793  239.308
  504.500    0.440    0.224   78.945    5.797  239.304
  504.750    0.432    0.223   78.939    5.799  239.294
  505.000    0.427    0.221   78.932    5.803  239.282
  505.250    0.419    0.215   79.536    5.808  240.286
  505.500    0.447    0.209   80.748    5.811  240.281
  505.750    0.419    0.209   81.355    5.706  242.301
