~VERSION INFORMATION
 VERS.                 2.0:   CWLS LOG ASCII STANDARD -VERSION 2.0
 WRAP.                  NO:   ONE LINE PER DEPTH STEP
~WELL INFORMATION BLOCK
#MNEM.UNIT           DATA                    DESCRIPTION OF MNEMONIC
#---------    -------------------            -------------------------------
# Generated from Intellog Unique Number	CW_70_72/WELL/879
NULL.         -999.25                        : NULL_VALUE
WELL.         ICG ET AL CALL W 07-10         : Well_name    - WELL              
LOC .         07-10-072-20W4                 : Location     - LOCATION          
UWI .         00/07-10-072-20W4/0            : Uwi          - UNIQUE WELL ID    
ENTR.         JAYE                           : Entered      - ENTERED BY        
SRVC.         SCHLUMBERGER                   : Scn          - SERVICE COMPANY   
DATE.         22 MAR 77                      : Date         - LOG DATE          
STRT.M        320.04                         : top_depth    - START DEPTH       
STOP.M        503.04                         : bot_depth    - STOP DEPTH        
STEP.M        0.25                           : increment    - STEP LENGTH       
~CURVE INFORMATION BLOCK
#MNEM UNIT       ERCB CURVE CODE    CURVE DESCRIPTION
#-----------   ------------------   ----------------------------------
DEPT.M        00 001 00 00         : DEPTH        - DEPTH                       
DPHI.V/V      00 890 00 00         : PHID         - DENSITY POROSITY (SANDSTONE)
NPHI.V/V      00 330 00 00         : PHIN         - NEUTRON POROSITY (SANDSTONE)
GR  .API      00 310 00 00         : GR           - GAMMA RAY                   
CALI.MM       00 280 01 00         : CAL          - CALIPER                     
ILD .OHMM     00 120 00 00         : RESD         - DEEP RESISTIVITY (DIL)      
~PARAMETER INFORMATION       
#MNEM.UNIT           DATA             DESCRIPTION OF MNEMONIC
#---------         -----------     ------------------------------
GL  .M        594.36               : gl           - GROUND LEVEL ELEVATION      
EREF.M        597.408              : kb           - ELEVATION OF DEPTH REFERENCE
DATM.M        594.36               : datum        - DATUM ELEVATION             
TDD .M        504.444              : tdd          - TOTAL DEPTH DRILLER         
RUN .         ONE                  : Run          - RUN NUMBER                  
ENG .         WORONUK              : Engineer     - RECORDING ENGINEER          
WIT .         GREEN                : Witness      - WITNESSED BY                
BASE.         EDM                  : Branch       - HOME BASE OF LOGGING UNIT   
MUD .         GEL CHEM             : Mud_type     - MUD TYPE                    
MATR.         SANDSTONE            : Logunit      - NEUTRON MATRIX              
TMAX.C        22.7778              : BHT          - MAXIMUM RECORDED TEMPERATURE
BHTD.M        504.444              : BHTDEP       - MAXIMUM RECORDED TEMPERATURE
RMT .C        17.2222              : MDTP         - TEMPERATURE OF MUD          
MUDD.KG/M     1140                 : MWT          - MUD DENSITY                 
NEUT.         1                    : NEUTRON      - NEUTRON TYPE                
RESI.         0                    : RESIST       - RESISTIVITY TYPE            
RM  .OHMM     4.75                 : RM           - RESISTIVITY OF MUD          
RMC .OHMM     0                    : RMC          - RESISTIVITY OF MUD CAKE     
RMF .OHMM     5.46                 : RMF          - RESISTIVITY OF MUD FILTRATE 
SUFT.C        -17.7778             : SUFT         - SURFACE TEMPERATURE         
~A  DEPTH     PHID     PHIN       GR      CAL     RESD
  320.040    0.203    0.548  141.309  168.561    2.382
  320.290    0.188    0.526  136.111  167.269    2.402
  320.540    0.187    0.514  135.342  166.690    2.480
  320.790    0.214    0.519  133.970  166.423    2.547
  321.040    0.207    0.514  131.626  166.978    2.635
  321.290    0.201    0.520  132.436  167.322    2.691
  321.540    0.188    0.533  134.710  168.087    2.699
  321.790    0.180    0.485  139.412  168.542    2.696
  322.040    0.187    0.484  143.200  168.476    2.698
  322.290    0.209    0.527  137.576  167.792    2.695
  322.540    0.201    0.536  132.192  166.505    2.678
  322.790    0.195    0.527  129.176  165.610    2.669
  323.040    0.220    0.517  128.535  165.036    2.667
  323.290    0.221    0.503  128.195  165.383    2.689
  323.540    0.205    0.481  128.337  165.327    2.691
  323.790    0.195    0.484  127.330  164.232    2.693
  324.040    0.192    0.523  125.592  163.760    2.705
  324.290    0.209    0.537  122.819  163.690    2.763
  324.540    0.234    0.547  118.711  161.776    2.906
  324.790    0.230    0.519  109.926  157.602    3.062
  325.040    0.216    0.483   99.621  152.494    3.335
  325.290    0.272    0.427   87.313  145.237    3.666
  325.540    0.314    0.414   80.351  140.437    3.927
  325.790    0.287    0.430   81.650  137.289    4.215
  326.040    0.263    0.434   90.301  135.586    4.450
  326.290    0.249    0.433   96.583  135.315    4.697
  326.540    0.239    0.450  102.624  136.688    4.977
  326.790    0.258    0.485  109.145  139.612    5.110
  327.040    0.276    0.523  115.425  143.559    4.976
  327.290    0.231    0.458  122.983  149.565    4.765
  327.540    0.200    0.425  128.232  158.762    4.588
  327.790    0.225    0.438  127.526  157.470    4.443
  328.040    0.235    0.439  118.983  155.452    4.587
  328.290    0.233    0.435  119.432  153.017    4.745
  328.540    0.207    0.430  121.704  150.899    4.811
  328.790    0.211    0.420  123.003  150.535    4.832
  329.040    0.211    0.428  127.280  150.567    4.792
  329.290    0.209    0.423  131.922  151.330    4.640
  329.540    0.202    0.425  136.320  153.230    4.378
  329.790    0.200    0.431  135.736  153.881    4.101
  330.040    0.189    0.432  131.144  154.747    3.928
  330.290    0.209    0.441  125.214  155.090    3.952
  330.540    0.238    0.460  121.774  155.026    4.120
  330.790    0.248    0.476  119.673  153.422    4.230
  331.040    0.268    0.482  116.413  151.923    4.608
  331.290    0.247    0.471  111.941  152.267    4.909
  331.540    0.236    0.470  104.736  154.671    5.050
  331.790    0.227    0.491   98.197  159.447    5.082
  332.040    0.206    0.475   95.550  163.496    4.967
  332.290    0.208    0.455  100.919  156.746    4.791
  332.540    0.216    0.461  106.289  153.393    4.571
  332.790    0.243    0.460  108.560  152.925    4.258
  333.040    0.267    0.467  107.975  153.370    3.967
  333.290    0.275    0.475  109.640  154.646    3.736
  333.540    0.263    0.464  112.826  156.848    3.611
  333.790    0.229    0.480  116.127  163.573    3.777
  334.040    0.229    0.476  120.464  164.331    3.921
  334.290    0.250    0.456  120.305  155.012    4.148
  334.540    0.240    0.433  114.255  154.539    4.330
  334.790    0.222    0.435  112.760  154.063    4.513
  335.040    0.236    0.436  113.088  147.314    4.695
  335.290    0.241    0.429  113.656  146.121    4.812
  335.540    0.213    0.420  111.251  146.987    5.061
  335.790    0.229    0.412  107.386  148.876    5.442
  336.040    0.232    0.423   97.326  152.002    5.671
  336.290    0.244    0.440   85.503  153.789    6.131
  336.540    0.275    0.442   78.601  153.217    6.665
  336.790    0.288    0.435   78.626  150.580    7.340
  337.040    0.290    0.433   79.620  149.282    7.735
  337.290    0.301    0.429   82.379  149.430    7.379
  337.540    0.277    0.429   85.198  149.881    6.411
  337.790    0.257    0.426   88.743  150.018    5.714
  338.040    0.210    0.416   92.048  149.961    5.226
  338.290    0.208    0.407   91.707  149.482    4.877
  338.540    0.218    0.405   89.604  147.982    4.628
  338.790    0.262    0.422   92.606  147.305    4.391
  339.040    0.277    0.435   99.919  148.170    4.190
  339.290    0.260    0.426  106.686  149.027    4.170
  339.540    0.258    0.415  113.697  149.785    4.266
  339.790    0.254    0.416  118.278  150.757    4.302
  340.040    0.250    0.419  118.850  151.511    4.173
  340.290    0.256    0.425  116.258  151.661    3.930
  340.540    0.272    0.431  121.693  152.003    3.654
  340.790    0.267    0.440  126.393  150.913    3.300
  341.040    0.240    0.470  132.612  150.954    2.957
  341.290    0.224    0.505  139.379  151.816    2.725
  341.540    0.201    0.544  152.585  153.503    2.571
  341.790    0.223    0.583  160.689  155.908    2.522
  342.040    0.212    0.564  161.990  157.186    2.451
  342.290    0.231    0.580  165.355  157.535    2.466
  342.540    0.210    0.571  167.504  156.751    2.500
  342.790    0.171    0.545  166.008  157.408    2.634
  343.040    0.163    0.540  164.695  158.477    2.833
  343.290    0.220    0.559  162.472  160.680    3.012
  343.540    0.229    0.525  157.209  163.187    3.360
  343.790    0.210    0.478  149.822  163.946    4.665
  344.040    0.218    0.436  143.041  163.988    5.100
  344.290    0.189    0.444  141.851  164.334    5.257
  344.540    0.187    0.459  148.374  164.170    5.223
  344.790    0.210    0.480  148.763  163.596    5.198
  345.040    0.188    0.498  144.958  162.502    5.193
  345.290    0.195    0.503  140.245  161.103    5.293
  345.540    0.215    0.487  133.402  158.877    5.712
  345.790    0.241    0.456  117.023  153.979    6.199
  346.040    0.269    0.431  120.815  151.452    6.593
  346.290    0.264    0.425  121.022  151.496    6.921
  346.540    0.253    0.440  115.032  151.528    7.226
  346.790    0.241    0.469  108.675  151.163    7.517
  347.040    0.259    0.491  104.932  150.688    8.053
  347.290    0.279    0.485  102.282  151.239    8.659
  347.540    0.273    0.477   99.207  151.692    9.258
  347.790    0.283    0.463   96.014  152.039    9.403
  348.040    0.247    0.448   92.754  152.294    9.377
  348.290    0.218    0.431   88.039  152.530    8.576
  348.540    0.197    0.415   88.429  153.187    7.989
  348.790    0.177    0.441   92.158  153.642    7.469
  349.040    0.232    0.463  102.571  153.473    7.205
  349.290    0.251    0.479  104.177  153.213    7.373
  349.540    0.239    0.494  102.072  153.455    7.797
  349.790    0.266    0.505   96.322  153.394    8.524
  350.040    0.316    0.507   89.238  153.126    9.336
  350.290    0.328    0.502   92.727  153.165    9.622
  350.540    0.310    0.502   98.582  153.102    9.282
  350.790    0.285    0.500   96.480  153.865    8.615
  351.040    0.266    0.499   95.169  155.238    7.708
  351.290    0.254    0.501   97.862  156.304    6.894
  351.540    0.278    0.492  104.023  157.171    6.203
  351.790    0.283    0.479  111.457  158.238    5.338
  352.040    0.253    0.494  122.113  159.305    4.672
  352.290    0.258    0.485  131.188  160.480    4.328
  352.540    0.239    0.472  137.105  160.517    4.093
  352.790    0.228    0.478  136.460  160.971    4.072
  353.040    0.221    0.475  134.848  161.116    4.237
  353.290    0.215    0.464  136.329  160.847    4.464
  353.540    0.207    0.452  139.935  160.784    4.695
  353.790    0.238    0.442  147.673  161.234    4.830
  354.040    0.228    0.447  155.412  162.109    4.669
  354.290    0.211    0.475  155.621  162.662    4.495
  354.540    0.224    0.496  148.778  163.116    4.195
  354.790    0.194    0.509  137.016  163.260    3.808
  355.040    0.215    0.492  122.338  162.786    3.272
  355.290    0.231    0.479  127.708  161.998    2.949
  355.540    0.239    0.476  142.250  160.797    2.571
  355.790    0.238    0.518  151.143  160.221    2.334
  356.040    0.220    0.550  154.083  160.369    2.358
  356.290    0.197    0.541  151.860  160.507    2.503
