~VERSION INFORMATION
 VERS.                 2.0:   CWLS LOG ASCII STANDARD -VERSION 2.0
 WRAP.                  NO:   ONE LINE PER DEPTH STEP
~WELL INFORMATION BLOCK
#MNEM.UNIT           DATA                    DESCRIPTION OF MNEMONIC
#---------    -------------------            -------------------------------
# Generated from Intellog Unique Number	CS_67_68/WELL/778
WELL.         ICG RESOURCES LTD.             : Well_name    - WELL
LOC .         00/07-28-068-09W4/0            : Location     - LOCATION
UWI .         00/07-28-068-09W4/0            : Uwi          - UNIQUE WELL ID
ENTR.         SP                             : Entered      - ENTERED BY
SRVC.         SCHLUMBERGER                   : Scn          - SERVICE COMPANY
STRT.M        515                            : top_depth    - START DEPTH
STOP.M        735                            : bot_depth    - STOP DEPTH
STEP.M        0.25                           : increment    - STEP LENGTH
 NULL. -999.2500:NULL Value
~CURVE INFORMATION BLOCK
#MNEM UNIT       ERCB CURVE CODE    CURVE DESCRIPTION
#-----------   ------------------   ----------------------------------
DEPT.M        00 001 00 00         : DEPTH        - DEPTH
ILD .OHMM     00 120 00 00         : RESD         - DEEP RESISTIVITY (DIL)
DPHI.V/V      00 890 00 00         : PHID         - DENSITY POROSITY (LIMESTONE)
NPHI.V/V      00 330 00 00         : PHIN         - NEUTRON POROSITY (LIMESTONE)
GR  .API      00 310 00 00         : GR           - GAMMA RAY
~PARAMETER INFORMATION
#MNEM.UNIT           DATA             DESCRIPTION OF MNEMONIC
#---------         -----------     ------------------------------
GL  .M        839.1                : gl           - GROUND LEVEL ELEVATION
EREF.M        842.3                : kb           - ELEVATION OF DEPTH REFERENCE
DATM.M        839.1                : datum        - DATUM ELEVATION
TDD .M        739                  : tdd          - TOTAL DEPTH DRILLER
RUN .         ONE                  : Run          - RUN NUMBER
ENG .         BILL                 : Engineer     - RECORDING ENGINEER
WIT .         JIM                  : Witness      - WITNESSED BY
MUD .         GEL                  : Mud_type     - MUD TYPE
MATR.         LIMESTONE            : Logunit      - NEUTRON MATRIX
TMAX.C        23.8                 : BHT          - MAXIMUM RECORDED TEMPERATURE
BHTD.M        739                  : BHTDEP       - MAXIMUM RECORDED TEMPERATURE
MATR.         1                    : LOGUNIT      - NEUTRON MATRIX
RMT .C        25                   : MDTP         - TEMPERATURE OF MUD
NEUT.         1                    : NEUTRON      - NEUTRON TYPE
RESI.         0                    : RESIST       - RESISTIVITY TYPE
RMC .OHMM     0.25                 : RMC          - RESISTIVITY OF MUD CAKE
RMF .OHMM     0.25                 : RMF          - RESISTIVITY OF MUD FILTRATE
SUFT.C        15                   : SUFT         - SURFACE TEMPERATURE
~A  DEPTH     RESD     PHID     PHIN       GR
# ...
  558.500    3.673    0.283    0.503   90.094
  558.750    3.632    0.262    0.498   92.660
  559.000    3.557    0.240    0.494   93.150
  559.250    3.497    0.230    0.483   90.650
  559.500    3.399    0.253    0.476   90.163
  559.750    3.323    0.265    0.489   94.317
  560.000    3.237    0.279    0.484   98.531
  560.250    3.170    0.281    0.473   99.388
  560.500    3.105    0.271    0.463   90.232
  560.750    3.075    0.263    0.459   84.007
  561.000    3.052    0.260    0.463   78.758
  561.250    3.045    0.278    0.455   74.975
  561.500    3.050    0.292    0.436   72.474
  561.750    3.061    0.296    0.435   76.201
  562.000    3.094    0.285    0.450   80.781
  562.250    3.111    0.279    0.453   79.318
  562.500    3.128    0.298    0.441   76.023
  562.750    3.127    0.309    0.437   73.278
  563.000    3.046    0.316    0.452   71.510
  563.250    3.039    0.333    0.475   69.680
  563.500    3.016    0.349    0.488   68.583
  563.750    2.993    0.345    0.476   66.449
  564.000    2.992    0.334    0.467   71.518
  564.250    2.974    0.314    0.472   75.427
  564.500    2.968    0.304    0.462   80.191
  564.750    2.956    0.303    0.473   79.155
  565.000    2.972    0.304    0.476   77.387
  565.250    2.999    0.308    0.469   77.877
  565.500    3.015    0.312    0.464   77.757
  565.750    3.077    0.317    0.460   76.965
  566.000    3.175    0.323    0.448   74.647
  566.250    3.351    0.322    0.441   71.047
  566.500    3.536    0.305    0.436   70.011
  566.750    3.622    0.292    0.427   70.990
  567.000    3.676    0.285    0.421   70.687
  567.250    3.716    0.288    0.421   68.674
  567.500    3.757    0.296    0.425   66.051
  567.750    3.885    0.301    0.430   63.245
  568.000    4.344    0.232    0.412   61.721
  568.250    5.042    0.176    0.376   62.578
  568.500    5.819    0.138    0.325   61.786
  568.750    6.881    0.117    0.281   59.651
  569.000    8.077    0.087    0.248   57.699
  569.250    9.695    0.071    0.232   55.381
  569.500   12.493    0.062    0.218   50.194
  569.750   14.555    0.059    0.209   46.716
  570.000   15.189    0.081    0.209   48.489
  570.250   13.704    0.122    0.233   50.383
  570.500   11.138    0.163    0.266   52.827
  570.750    9.361    0.192    0.294   56.431
  571.000    7.537    0.212    0.311   59.486
  571.250    6.114    0.230    0.331   61.320
  571.500    5.236    0.248    0.349   61.993
  571.750    4.831    0.268    0.363   60.652
  572.000    4.592    0.291    0.403   61.020
  572.250    4.357    0.305    0.444   63.281
  572.500    4.252    0.316    0.431   65.053
  572.750    4.157    0.323    0.433   67.009
  573.000    4.102    0.320    0.453   67.988
  573.250    4.032    0.316    0.462   68.234
  573.500    3.964    0.310    0.471   68.297
  573.750    3.948    0.308    0.462   67.872
  574.000    3.918    0.304    0.445   67.874
  574.250    3.895    0.309    0.440   68.548
  574.500    3.865    0.314    0.451   69.404
  574.750    3.828    0.312    0.446   69.345
  575.000    3.785    0.309    0.450   67.454
  575.250    3.749    0.310    0.459   67.884
  575.500    4.000    0.314    0.451   69.901
  575.750    3.947    0.317    0.448   71.185
  576.000    3.917    0.304    0.446   69.660
  576.250    3.780    0.296    0.432   69.846
  576.500    3.620    0.289    0.423   72.168
  576.750    3.480    0.311    0.436   73.879
  577.000    3.383    0.322    0.444   72.904
  577.250    3.332    0.310    0.431   68.816
  577.500    3.288    0.314    0.424   64.911
  577.750    3.281    0.330    0.424   65.462
  578.000    3.274    0.324    0.413   70.104
  578.250    3.286    0.319    0.401   73.403
  578.500    3.310    0.316    0.390   77.007
  578.750    3.346    0.305    0.407   78.535
  579.000    3.408    0.297    0.422   75.851
  579.250    3.459    0.306    0.434   77.684
  579.500    3.523    0.296    0.444   80.250
  579.750    3.555    0.284    0.447   83.244
  580.000    3.587    0.269    0.434   84.833
  580.250    3.613    0.258    0.427   86.239
  580.500    3.646    0.256    0.426   82.212
  580.750    3.659    0.263    0.422   78.856
  581.000    3.665    0.247    0.407   82.094
  581.250    3.664    0.216    0.395   86.553
  581.500    3.649    0.194    0.426   91.256
  581.750    3.662    0.182    0.456   93.394
  582.000    3.709    0.214    0.503   95.045
  582.250    3.864    0.238    0.458   95.169
  582.500    4.002    0.257    0.438   86.380
  582.750    4.046    0.261    0.433   80.521
  583.000    4.015    0.271    0.435   73.929
  583.250    3.962    0.269    0.433   69.719
  583.500    3.939    0.263    0.439   69.049
  583.750    3.960    0.255    0.434   70.394
  584.000    3.996    0.247    0.417   73.632
  584.250    4.070    0.266    0.409   77.358
  584.500    4.130    0.268    0.420   80.291
  584.750    4.176    0.261    0.429   81.941
  585.000    4.198    0.255    0.415   79.501
  585.250    4.197    0.252    0.401   77.427
  585.500    4.212    0.254    0.387   80.848
  585.750    4.234    0.252    0.382   82.803
  586.000    4.249    0.250    0.388   84.149
  586.250    4.256    0.262    0.402   80.610
  586.500    4.279    0.270    0.405   72.248
  586.750    4.277    0.254    0.390   74.204
  587.000    4.277    0.244    0.380   79.334
  587.250    4.275    0.235    0.389   84.769
  587.500    4.282    0.233    0.394   88.984
  587.750    4.281    0.240    0.388   83.797
  588.000    4.288    0.237    0.386   83.493
  588.250    4.303    0.231    0.385   87.708
  588.500    4.286    0.225    0.384   91.739
  588.750    4.269    0.223    0.384   95.404
  589.000    4.189    0.223    0.385   97.360
  589.250    4.080    0.225    0.387   88.998
  589.500    3.952    0.228    0.392   85.031
  589.750    3.770    0.231    0.396   81.859
  590.000    3.714    0.234    0.402   83.753
  590.250    3.644    0.220    0.410   88.273
  590.500    3.596    0.211    0.417   91.267
  590.750    3.568    0.240    0.413   84.981
  591.000    3.541    0.276    0.402   70.636
  591.250    3.560    0.289    0.389   64.655
  591.500    3.619    0.275    0.379   68.503
  591.750    3.693    0.263    0.371   72.168
  592.000    3.776    0.259    0.363   74.001
  592.250    3.853    0.257    0.365   75.347
  592.500    3.831    0.253    0.384   75.043
  592.750    3.773    0.248    0.403   73.519
  593.000    3.647    0.271    0.419   70.591
  593.250    3.619    0.297    0.416   67.479
  593.500    3.592    0.283    0.406   70.228
  593.750    3.564    0.260    0.397   73.100
  594.000    3.543    0.249    0.402   76.887
  594.250    3.529    0.238    0.424   79.514
  594.500    3.522    0.230    0.431   82.935
  594.750    3.527    0.232    0.431   86.417
  595.000    3.520    0.232    0.437   88.311
  595.250    3.359    0.231    0.444   87.703
  595.500    3.320    0.229    0.440   87.033
  595.750    3.289    0.225    0.438   85.570
  596.000    3.233    0.222    0.445   84.778
  596.250    3.173    0.227    0.451   86.246
  596.500    3.131    0.238    0.450   87.347
  596.750    3.066    0.230    0.458   87.898
  597.000    3.009    0.228    0.467   86.557
  597.250    2.986    0.230    0.461   85.582
  597.500    2.952    0.228    0.455   83.753
  597.750    2.924    0.241    0.446   78.505
  598.000    2.858    0.248    0.437   73.378
  598.250    2.841    0.237    0.431   78.020
  598.500    2.883    0.228    0.425   86.203
  598.750    2.970    0.235    0.449   85.961
  599.000    3.036    0.251    0.460   85.413
  599.250    3.110    0.267    0.468   74.853
  599.500    3.192    0.286    0.483   65.454
  599.750    3.263    0.301    0.478   60.999
  600.000    3.330    0.325    0.455   60.268
  600.250    3.367    0.327    0.441   61.369
  600.500    3.378    0.322    0.430   62.836
  600.750    3.365    0.317    0.424   64.548
  601.000    3.345    0.316    0.430   65.893
  601.250    3.313    0.308    0.436   64.918
  601.500    3.300    0.301    0.432   61.990
  601.750    3.287    0.319    0.462   61.687
