~VERSION INFORMATION
 VERS.                 2.0:   CWLS LOG ASCII STANDARD -VERSION 2.0
 WRAP.                  NO:   ONE LINE PER DEPTH STEP
~WELL INFORMATION BLOCK
#MNEM.UNIT           DATA                    DESCRIPTION OF MNEMONIC
#---------    -------------------            -------------------------------
# Generated from Intellog Unique Number	CS_69_70/WELL/134
WELL.         AFC MEDLEY 6-7-69 2 W4M        : Well_name    - WELL
LOC .         00/06-07-069-02W4/0            : Location     - LOCATION
UWI .         00/06-07-069-02W4/0            : Uwi          - UNIQUE WELL ID
ENTR.         ANDERSEN                       : Entered      - ENTERED BY
SRVC.         SCHLUMBERGER                   : Scn          - SERVICE COMPANY
STRT.M        375                            : top_depth    - START DEPTH
STOP.M        625                            : bot_depth    - STOP DEPTH
STEP.M        0.25                           : increment    - STEP LENGTH
 NULL. -999.2500:NULL Value
~CURVE INFORMATION BLOCK
#MNEM UNIT       ERCB CURVE CODE    CURVE DESCRIPTION
#-----------   ------------------   ----------------------------------
DEPT.M        00 001 00 00         : DEPTH        - DEPTH
ILD .OHMM     00 120 00 00         : RESD         - DEEP RESISTIVITY (DIL)
DPHI.V/V      00 890 00 00         : PHID         - DENSITY POROSITY (SANDSTONE)
NPHI.V/V      00 330 00 00         : PHIN         - NEUTRON POROSITY (SANDSTONE)
CALI.MM       00 280 01 00         : CAL          - CALIPER
GR  .API      00 310 00 00         : GR           - GAMMA RAY
~PARAMETER INFORMATION
#MNEM.UNIT           DATA             DESCRIPTION OF MNEMONIC
#---------         -----------     ------------------------------
GL  .M        717.8                : gl           - GROUND LEVEL ELEVATION
EREF.M        721.4                : kb           - ELEVATION OF DEPTH REFERENCE
DATM.M        721.4                : datum        - DATUM ELEVATION
TDD .M        626                  : tdd          - TOTAL DEPTH DRILLER
RUN .         ONE                  : Run          - RUN NUMBER
ENG .         BILL                 : Engineer     - RECORDING ENGINEER
WIT .         JIM                  : Witness      - WITNESSED BY
MUD .         GEL                  : Mud_type     - MUD TYPE
MATR.         SANDSTONE            : Logunit      - NEUTRON MATRIX
TMAX.C        27                   : BHT          - MAXIMUM RECORDED TEMPERATURE
BHTD.M        626                  : BHTDEP       - MAXIMUM RECORDED TEMPERATURE
MATR.         1                    : LOGUNIT      - NEUTRON MATRIX
RMT .C        19                   : MDTP         - TEMPERATURE OF MUD
NEUT.         1                    : NEUTRON      - NEUTRON TYPE
RESI.         0                    : RESIST       - RESISTIVITY TYPE
RMC .OHMM     3.3                  : RMC          - RESISTIVITY OF MUD CAKE
RMF .OHMM     6.9                  : RMF          - RESISTIVITY OF MUD FILTRATE
SUFT.C        15                   : SUFT         - SURFACE TEMPERATURE
~A  DEPTH     RESD     PHID     PHIN      CAL       GR
# ...
  521.000    2.754    0.317    0.512  146.534   84.322
  521.250    3.190    0.314    0.526  147.469   82.580
  521.500    3.498    0.307    0.544  149.359   80.840
  521.750    3.907    0.298    0.462  149.344   79.101
  522.000    4.055    0.279    0.479  150.283   77.361
  522.250    4.210    0.261    0.494  152.183   77.928
  522.500    4.213    0.232    0.505  153.123   75.031
  522.750    4.217    0.136    0.404  154.062   71.564
  523.000    4.069    0.143    0.350  154.043   68.100
  523.250    3.855    0.174    0.384  154.018   66.361
  523.500    3.459    0.263    0.413  153.043   74.987
  523.750    2.884    0.267    0.433  152.058   80.154
  524.000    2.732    0.273    0.453  151.079   80.721
  524.250    2.589    0.277    0.468  150.104   82.433
  524.500    2.498    0.280    0.467  150.079   85.876
  524.750    2.455    0.284    0.467  150.054   91.044
  525.000    2.412    0.289    0.472  150.039   90.456
  525.250    2.414    0.297    0.478  150.020   87.565
  525.500    2.416    0.301    0.487  150.954   86.977
  525.750    2.463    0.304    0.507  150.934   83.513
  526.000    2.511    0.308    0.516  150.914   84.650
  526.250    2.655    0.281    0.489  150.900   85.214
  526.500    2.806    0.272    0.499  151.839   85.202
  526.750    3.135    0.268    0.521  152.774   85.766
  527.000    3.253    0.259    0.495  153.704   84.599
  527.250    3.316    0.239    0.485  154.649   82.284
  527.500    3.442    0.224    0.485  154.629   81.696
  527.750    3.510    0.235    0.450  155.564   84.563
  528.000    3.512    0.249    0.444  155.549   88.006
  528.250    3.452    0.252    0.457  155.534   89.719
  528.500    3.455    0.243    0.465  155.504   87.979
  528.750    3.458    0.244    0.466  155.479   89.698
  529.000    3.656    0.253    0.475  155.459   90.835
  529.250    3.865    0.258    0.470  155.449   89.095
  529.500    4.317    0.261    0.463  153.505   86.780
  529.750    4.733    0.266    0.470  152.525   82.737
  530.000    5.384    0.289    0.461  151.546   79.267
  530.250    6.468    0.315    0.385  150.566   75.803
  530.500    8.208    0.307    0.339  150.546   70.033
  530.750   12.281    0.270    0.354  150.526   67.142
  531.000   13.470    0.248    0.372  151.466   63.672
  531.250   11.648    0.126    0.250  152.406   55.023
  531.500   10.445    0.313    0.236  153.345   45.798
  531.750    8.551    0.353    0.249  153.326   46.362
  532.000    7.670    0.382    0.282  152.336   49.229
  532.250    7.135    0.356    0.292  151.351   53.824
  532.500    6.401    0.359    0.307  151.341   58.991
  532.750    6.064    0.372    0.325  151.316   53.221
  533.000    5.644    0.376    0.329  151.292   47.451
  533.250    5.061    0.362    0.348  150.322   46.860
  533.500    5.159    0.358    0.363  150.297   49.151
  533.750    5.163    0.352    0.381  150.277   52.597
  534.000    5.167    0.337    0.402  150.257   60.647
  534.250    5.172    0.338    0.414  150.237   61.781
  534.500    5.176    0.343    0.422  150.217   62.347
  534.750    5.180    0.344    0.420  151.157   61.184
  535.000    5.185    0.343    0.383  153.057   58.290
  535.250    5.287    0.336    0.388  153.027   58.278
  535.500    5.388    0.328    0.407  151.082   59.996
  535.750    5.493    0.321    0.410  150.108   62.864
  536.000    5.497    0.310    0.400  150.093   66.301
  536.250    5.604    0.304    0.398  150.063   63.988
  536.500    5.710    0.309    0.394  150.053   59.946
  536.750    5.929    0.314    0.375  150.033   54.172
  537.000    6.154    0.320    0.363  150.008   50.706
  537.250    6.390    0.323    0.363  149.983   53.000
  537.500    6.397    0.317    0.376  150.923   59.322
  537.750    6.401    0.308    0.384  152.823   69.096
  538.000    6.405    0.296    0.358  153.757   74.842
  538.250    6.294    0.270    0.340  153.747   80.013
  538.500    6.187    0.231    0.345  153.728   85.759
  538.750    6.192    0.230    0.362  154.657   90.353
  539.000    6.197    0.262    0.379  154.632   88.038
  539.250    6.318    0.273    0.394  154.622   82.844
  539.500    6.441    0.256    0.394  154.598   81.680
  539.750    6.444    0.223    0.357  155.537   84.544
  540.000    6.449    0.191    0.361  155.517   87.987
  540.250    6.574    0.209    0.357  155.503   85.669
  540.500    6.580    0.231    0.352  153.558   85.082
  540.750    6.585    0.242    0.348  153.528   83.918
  541.000    6.472    0.246    0.354  153.518   80.454
  541.250    6.478    0.246    0.359  153.498   78.715
  541.500    6.483    0.237    0.358  153.474   78.121
  541.750    6.490    0.226    0.349  154.418   78.109
  542.000    6.495    0.210    0.341  154.398   78.097
  542.250    6.501    0.210    0.350  154.369   76.933
  542.500    6.506    0.220    0.366  154.349   74.618
  542.750    6.394    0.230    0.365  154.329   72.306
  543.000    6.283    0.242    0.362  154.304   69.988
  543.250    6.175    0.245    0.361  154.294   69.400
  543.500    6.068    0.240    0.359  154.274   69.388
  543.750    5.963    0.225    0.363  153.289   71.676
  544.000    5.968    0.229    0.372  153.269   70.516
  544.250    5.866    0.244    0.382  153.245   67.049
  544.500    5.871    0.260    0.363  154.189   55.518
  544.750    5.665    0.264    0.354  155.129   50.899
  545.000    5.567    0.273    0.363  156.069   45.705
  545.250    5.373    0.300    0.361  156.049   39.359
  545.500    5.281    0.295    0.334  156.024   34.740
  545.750    5.284    0.308    0.331  156.004   30.119
  546.000    5.193    0.327    0.331  155.984   28.379
  546.250    5.198    0.325    0.343  155.964   27.792
  546.500    5.298    0.324    0.361  155.939   28.928
  546.750    5.302    0.321    0.367  155.924   34.102
  547.000    5.211    0.303    0.337  155.900   43.879
  547.250    5.027    0.284    0.342  155.880   46.170
  547.500    5.033    0.321    0.342  154.900   39.248
  547.750    5.036    0.329    0.337  154.880   32.324
  548.000    5.133    0.327    0.333  154.855   27.705
  548.250    5.139    0.310    0.340  154.840   29.996
  548.500    5.143    0.303    0.342  154.810   34.015
  548.750    5.054    0.310    0.345  154.800   37.455
  549.000    4.877    0.308    0.348  154.771   36.870
  549.250    4.880    0.300    0.345  154.756   32.825
  549.500    4.798    0.310    0.338  154.736   28.203
  549.750    4.802    0.315    0.332  154.711   26.467
  550.000    4.806    0.315    0.336  154.686   25.303
  550.250    4.810    0.325    0.347  153.716   26.443
  550.500    4.814    0.334    0.358  153.696   26.431
  550.750    4.818    0.331    0.340  153.666   25.840
  551.000    4.734    0.326    0.340  153.647   38.499
  551.250    4.652    0.324    0.344  153.632   53.456
  551.500    4.656    0.333    0.339  153.612   44.806
  551.750    4.576    0.340    0.343  153.587   36.157
  552.000    4.838    0.338    0.347  153.572   25.205
  552.250    4.754    0.334    0.346  153.547   21.735
  552.500    4.673    0.331    0.339  153.527   24.026
  552.750    4.676    0.326    0.351  153.507   28.045
  553.000    4.680    0.331    0.363  153.487   28.033
  553.250    4.684    0.338    0.356  153.457   26.294
  553.500    4.688    0.342    0.349  153.447   24.554
  553.750    4.694    0.342    0.340  153.427   25.118
  554.000    4.698    0.338    0.333  153.403   26.258
  554.250    4.702    0.332    0.339  153.383   29.122
  554.500    4.791    0.328    0.349  153.363   31.986
  554.750    4.796    0.322    0.354  153.343   31.977
  555.000    4.712    0.318    0.350  152.363   31.959
  555.250    4.631    0.321    0.347  152.343   32.529
  555.500    4.636    0.332    0.341  151.359   34.820
  555.750    4.726    0.341    0.345  150.379   30.202
  556.000    4.817    0.348    0.356  151.319   23.853
  556.250    4.910    0.356    0.369  152.259   20.386
  556.500    5.004    0.355    0.372  155.113   23.253
  556.750    5.100    0.344    0.338  157.012   35.909
  557.000    5.105    0.316    0.351  157.947   44.534
  557.250    5.017    0.301    0.367  157.937   41.068
