~VERSION INFORMATION
 VERS.                 2.0:   CWLS LOG ASCII STANDARD -VERSION 2.0
 WRAP.                  NO:   ONE LINE PER DEPTH STEP
~WELL INFORMATION BLOCK
#MNEM.UNIT           DATA                    DESCRIPTION OF MNEMONIC
#---------    -------------------            -------------------------------
# Generated from Intellog Unique Number	CS_69_70/WELL/820
WELL.         GENERAL AMERICAN OILS          : Well_name    - WELL
LOC .         00/07-15-069-14W4/0            : Location     - LOCATION
UWI .         00/07-15-069-14W4/0            : Uwi          - UNIQUE WELL ID
ENTR.         SP                             : Entered      - ENTERED BY
SRVC.         SCHLUMBERGER                   : Scn          - SERVICE COMPANY
STRT.M        265.176                        : top_depth    - START DEPTH
STOP.M        453.926                        : bot_depth    - STOP DEPTH
STEP.M        0.25                           : increment    - STEP LENGTH
 NULL. -999.2500:NULL Value
~CURVE INFORMATION BLOCK
#MNEM UNIT       ERCB CURVE CODE    CURVE DESCRIPTION
#-----------   ------------------   ----------------------------------
DEPT.M        00 001 00 00         : DEPTH        - DEPTH
GR  .API      00 310 00 00         : GR           - GAMMA RAY
DPHI.V/V      00 890 00 00         : PHID         - DENSITY POROSITY (SANDSTONE)
NPHI.V/V      00 330 00 00         : PHIN         - NEUTRON POROSITY (SANDSTONE)
ILD .OHMM     00 120 00 00         : RESD         - DEEP RESISTIVITY (DIL)
~PARAMETER INFORMATION
#MNEM.UNIT           DATA             DESCRIPTION OF MNEMONIC
#---------         -----------     ------------------------------
GL  .M        561.899              : gl           - GROUND LEVEL ELEVATION
EREF.M        565.191              : kb           - ELEVATION OF DEPTH REFERENCE
DATM.M        561.899              : datum        - DATUM ELEVATION
TDD .M        457.2                : tdd          - TOTAL DEPTH DRILLER
RUN .         ONE                  : Run          - RUN NUMBER
ENG .         BILL                 : Engineer     - RECORDING ENGINEER
WIT .         JIM                  : Witness      - WITNESSED BY
MUD .         GEL                  : Mud_type     - MUD TYPE
MATR.         SANDSTONE            : Logunit      - NEUTRON MATRIX
TMAX.C        12.2222              : BHT          - MAXIMUM RECORDED TEMPERATURE
BHTD.M        457.2                : BHTDEP       - MAXIMUM RECORDED TEMPERATURE
MATR.         1                    : LOGUNIT      - NEUTRON MATRIX
RMT .C        25                   : MDTP         - TEMPERATURE OF MUD
NEUT.         1                    : NEUTRON      - NEUTRON TYPE
RESI.         0                    : RESIST       - RESISTIVITY TYPE
RMC .OHMM     0.25                 : RMC          - RESISTIVITY OF MUD CAKE
RMF .OHMM     0.25                 : RMF          - RESISTIVITY OF MUD FILTRATE
SUFT.C        15                   : SUFT         - SURFACE TEMPERATURE
~A  DEPTH       GR     PHID     PHIN     RESD
# ...
  395.676   72.185    0.280    0.412    2.527
  395.926   73.951    0.310    0.443    2.559
  396.176   75.534    0.308    0.452    2.694
  396.426   77.358    0.302    0.448    2.859
  396.676   80.343    0.299    0.450    2.989
  396.926   83.063    0.286    0.456    3.109
  397.176   85.947    0.275    0.451    3.247
  397.426   88.131    0.266    0.446    3.366
  397.676   90.021    0.258    0.460    3.412
  397.926   91.893    0.251    0.477    3.396
  398.176   93.370    0.261    0.487    3.389
  398.426   93.464    0.270    0.526    3.403
  398.676   91.044    0.277    0.501    3.457
  398.926   88.094    0.281    0.488    3.539
  399.176   86.171    0.286    0.477    3.637
  399.426   86.627    0.286    0.469    3.678
  399.676   88.332    0.276    0.471    3.645
  399.926   90.429    0.270    0.474    3.482
  400.176   92.578    0.263    0.471    3.313
  400.426   95.028    0.257    0.468    3.193
  400.676   97.559    0.251    0.468    3.056
  400.926   99.336    0.248    0.491    2.927
  401.176  101.017    0.241    0.513    2.827
  401.426  102.196    0.237    0.531    2.752
  401.676  103.187    0.251    0.536    2.665
  401.926  103.231    0.247    0.538    2.571
  402.176  101.621    0.245    0.539    2.418
  402.426  101.987    0.242    0.534    2.294
  402.676  102.500    0.238    0.532    2.213
  402.926  101.802    0.241    0.534    2.113
  403.176  101.625    0.251    0.557    2.053
  403.426  102.304    0.257    0.561    2.003
  403.676  103.690    0.259    0.562    1.981
  403.926  104.369    0.257    0.564    2.005
  404.176  104.329    0.252    0.563    2.080
  404.426  104.168    0.241    0.571    2.175
  404.676  104.232    0.227    0.571    2.378
  404.926  103.621    0.214    0.552    2.544
  405.176  101.770    0.208    0.531    2.672
  405.426   99.508    0.206    0.508    2.735
  405.676   95.433    0.207    0.500    2.805
  405.926   92.639    0.212    0.495    2.872
  406.176   89.360    0.217    0.486    2.891
  406.426   87.061    0.223    0.478    2.892
  406.676   84.499    0.237    0.472    2.836
  406.926   82.933    0.246    0.469    2.790
  407.176   82.053    0.252    0.476    2.734
  407.426   83.639    0.242    0.476    2.699
  407.676   85.954    0.225    0.468    2.734
  407.926   86.809    0.227    0.468    2.858
  408.176   84.805    0.234    0.471    3.033
  408.426   82.040    0.238    0.464    3.211
  408.676   81.082    0.230    0.455    3.206
  408.926   84.692    0.216    0.448    3.180
  409.176   88.811    0.206    0.446    3.144
  409.426   91.995    0.228    0.453    3.160
  409.676   92.433    0.221    0.464    3.265
  409.926   92.621    0.210    0.473    3.467
  410.176   92.671    0.208    0.456    3.627
  410.426   91.181    0.213    0.447    3.647
  410.676   89.844    0.219    0.448    3.684
  410.926   90.198    0.223    0.456    3.655
  411.176   91.282    0.225    0.466    3.631
  411.426   91.843    0.230    0.470    3.616
  411.676   92.282    0.234    0.478    3.584
  411.926   92.459    0.222    0.480    3.507
  412.176   92.260    0.214    0.473    3.440
  412.426   91.812    0.209    0.467    3.410
  412.676   91.311    0.208    0.462    3.441
  412.926   91.478    0.202    0.462    3.544
  413.176   91.506    0.198    0.468    3.700
  413.426   91.633    0.192    0.471    3.807
  413.676   91.652    0.187    0.466    3.935
  413.926   92.173    0.183    0.462    3.949
  414.176   93.325    0.181    0.459    3.902
  414.426   95.469    0.181    0.454    3.814
  414.676   97.983    0.192    0.447    3.688
  414.926   99.197    0.207    0.442    3.535
  415.176   98.503    0.209    0.443    3.431
  415.426   97.640    0.209    0.450    3.343
  415.676   97.050    0.210    0.450    3.289
  415.926   96.779    0.201    0.450    3.277
  416.176   96.242    0.194    0.449    3.304
  416.426   95.910    0.197    0.438    3.312
  416.676   95.757    0.205    0.431    3.311
  416.926   95.601    0.211    0.441    3.355
  417.176   95.172    0.216    0.454    3.415
  417.426   94.259    0.210    0.466    3.467
  417.676   93.042    0.203    0.473    3.508
  417.926   92.122    0.200    0.479    3.565
  418.176   91.524    0.199    0.471    3.602
  418.426   91.759    0.193    0.463    3.634
  418.676   92.742    0.185    0.455    3.652
  418.926   94.122    0.179    0.450    3.836
  419.176   96.089    0.184    0.448    3.990
  419.426   97.743    0.204    0.449    4.169
  419.676   99.522    0.218    0.443    4.315
  419.926  101.123    0.210    0.435    4.503
  420.176  102.493    0.202    0.428    4.778
  420.426  104.471    0.197    0.424    4.866
  420.676  105.285    0.199    0.423    4.903
  420.926  104.266    0.197    0.429    4.840
  421.176  103.749    0.191    0.436    4.608
  421.426  103.780    0.186    0.440    3.892
  421.676  103.788    0.186    0.445    2.999
  421.926  104.002    0.200    0.454    2.540
  422.176  104.074    0.214    0.470    2.262
  422.426  104.256    0.227    0.494    2.034
  422.676  104.466    0.237    0.514    1.880
  422.926  105.150    0.254    0.532    1.783
  423.176  106.913    0.266    0.555    1.873
  423.426  108.632    0.255    0.563    2.122
  423.676  108.258    0.246    0.553    2.467
  423.926  105.001    0.237    0.541    2.776
  424.176  101.078    0.254    0.521    3.216
  424.426   95.879    0.266    0.501    3.609
  424.676   92.395    0.268    0.469    4.052
  424.926   89.107    0.253    0.449    4.341
  425.176   87.755    0.240    0.441    4.496
  425.426   87.071    0.228    0.429    4.532
  425.676   86.967    0.212    0.413    4.391
  425.926   87.885    0.195    0.394    4.243
  426.176   89.334    0.193    0.402    4.108
  426.426   91.232    0.204    0.422    4.024
  426.676   92.313    0.174    0.435    4.031
  426.926   92.226    0.149    0.430    3.998
  427.176   92.383    0.138    0.424    3.920
  427.426   94.994    0.150    0.422    3.748
  427.676   98.602    0.169    0.432    3.614
  427.926  100.784    0.203    0.443    3.405
  428.176  101.302    0.204    0.454    3.151
  428.426  100.861    0.197    0.465    3.063
  428.676   99.723    0.193    0.471    3.015
  428.926   98.549    0.193    0.462    3.038
  429.176   96.383    0.202    0.454    3.056
  429.426   95.598    0.205    0.448    2.940
  429.676   96.716    0.207    0.444    2.809
  429.926   98.314    0.205    0.458    2.658
  430.176  100.240    0.202    0.474    2.551
  430.426  102.356    0.199    0.487    2.520
  430.676  102.954    0.204    0.496    2.528
  430.926  101.829    0.199    0.504    2.615
  431.176  100.944    0.193    0.513    2.720
  431.426   99.975    0.188    0.504    2.730
  431.676   98.896    0.185    0.485    2.689
  431.926  101.159    0.187    0.480    2.538
  432.176  105.962    0.195    0.482    2.465
  432.426  108.626    0.207    0.496    2.428
  432.676  109.828    0.218    0.505    2.378
  432.926  110.545    0.224    0.498    2.361
  433.176  111.807    0.227    0.497    2.377
  433.426  113.131    0.227    0.504    2.457
  433.676  113.880    0.222    0.506    2.561
  433.926  114.477    0.218    0.503    2.666
  434.176  115.007    0.214    0.505    2.659
  434.426  115.293    0.205    0.505    2.552
  434.676  115.505    0.202    0.498    2.398
  434.926  116.302    0.208    0.500    2.276
  435.176  115.985    0.203    0.517    2.201
  435.426  112.135    0.200    0.515    2.476
  435.676  106.552    0.200    0.483    3.128
  435.926  101.771    0.202    0.459    4.104
  436.176   93.908    0.198    0.426    4.961
  436.426   87.419    0.193    0.397    6.166
  436.676   83.469    0.192    0.372    7.397
  436.926   82.531    0.185    0.359    8.673
  437.176   83.025    0.168    0.356   10.056
  437.426   88.060    0.136    0.351   10.272
  437.676   94.386    0.143    0.340    9.205
  437.926  102.070    0.194    0.340    8.540
  438.176  105.497    0.231    0.370    7.612
  438.426  104.811    0.233    0.393    6.441
  438.676  100.105    0.226    0.401    5.525
  438.926   95.901    0.221    0.392    4.787
