~VERSION INFORMATION
 VERS.                 2.0:   CWLS LOG ASCII STANDARD -VERSION 2.0
 WRAP.                  NO:   ONE LINE PER DEPTH STEP
~WELL INFORMATION BLOCK
#MNEM.UNIT           DATA                    DESCRIPTION OF MNEMONIC
#---------    -------------------            -------------------------------
# Generated from Intellog Unique Number	CW_70_72/WELL/702
NULL.         -999.25                        : NULL_VALUE
WELL.         LANDBANK ET AL VICTOR 06-26    : Well_name    - WELL              
LOC .         06-26-071-01W5                 : Location     - LOCATION          
UWI .         00/06-26-071-01W5/0            : Uwi          - UNIQUE WELL ID    
ENTR.         JAYE                           : Entered      - ENTERED BY        
SRVC.         SCHLUMBERGER                   : Scn          - SERVICE COMPANY   
DATE.         20 NOV 79                      : Date         - LOG DATE          
STRT.M        410                            : top_depth    - START DEPTH       
STOP.M        665                            : bot_depth    - STOP DEPTH        
STEP.M        0.25                           : increment    - STEP LENGTH       
~CURVE INFORMATION BLOCK
#MNEM UNIT       ERCB CURVE CODE    CURVE DESCRIPTION
#-----------   ------------------   ----------------------------------
DEPT.M        00 001 00 00         : DEPTH        - DEPTH                       
DPHI.V/V      00 890 00 00         : PHID         - DENSITY POROSITY (SANDSTONE)
NPHI.V/V      00 330 00 00         : PHIN         - NEUTRON POROSITY (SANDSTONE)
GR  .API      00 310 00 00         : GR           - GAMMA RAY                   
CALI.MM       00 280 01 00         : CAL          - CALIPER                     
ILD .OHMM     00 120 00 00         : RESD         - DEEP RESISTIVITY (DIL)      
~PARAMETER INFORMATION       
#MNEM.UNIT           DATA             DESCRIPTION OF MNEMONIC
#---------         -----------     ------------------------------
GL  .M        603.9                : gl           - GROUND LEVEL ELEVATION      
EREF.M        607.7                : kb           - ELEVATION OF DEPTH REFERENCE
DATM.M        603.9                : datum        - DATUM ELEVATION             
TDD .M        679                  : tdd          - TOTAL DEPTH DRILLER         
RUN .         ONE                  : Run          - RUN NUMBER                  
ENG .         WALTERHOUSE          : Engineer     - RECORDING ENGINEER          
WIT .         LOWTHER              : Witness      - WITNESSED BY                
BASE.         EDM                  : Branch       - HOME BASE OF LOGGING UNIT   
MUD .         GEL CHEM             : Mud_type     - MUD TYPE                    
MATR.         SANDSTONE            : Logunit      - NEUTRON MATRIX              
TMAX.C        41.7                 : BHT          - MAXIMUM RECORDED TEMPERATURE
BHTD.M        680                  : BHTDEP       - MAXIMUM RECORDED TEMPERATURE
RMT .C        20                   : MDTP         - TEMPERATURE OF MUD          
MUDD.KG/M     1090                 : MWT          - MUD DENSITY                 
NEUT.         1                    : NEUTRON      - NEUTRON TYPE                
RESI.         0                    : RESIST       - RESISTIVITY TYPE            
RM  .OHMM     2.97                 : RM           - RESISTIVITY OF MUD          
RMC .OHMM     0                    : RMC          - RESISTIVITY OF MUD CAKE     
RMF .OHMM     3.58                 : RMF          - RESISTIVITY OF MUD FILTRATE 
SUFT.C        0                    : SUFT         - SURFACE TEMPERATURE         
~A  DEPTH     PHID     PHIN       GR      CAL     RESD
# ...
  629.000    0.158    0.295   68.204  147.862    6.012
  629.250    0.144    0.309   71.807  150.009    5.976
  629.500    0.121    0.303   74.530  151.121    6.088
  629.750    0.110    0.301   78.069  151.603    6.063
  630.000    0.124    0.320   81.982  152.305    5.697
  630.250    0.168    0.354   86.703  152.164    5.292
  630.500    0.180    0.366   92.427  150.147    4.981
  630.750    0.188    0.374   96.525  145.744    4.750
  631.000    0.178    0.377   98.815  145.292    4.661
  631.250    0.161    0.380  101.915  148.488    4.893
  631.500    0.156    0.397  105.449  151.676    5.365
  631.750    0.150    0.385  103.307  152.888    5.893
  632.000    0.148    0.353   98.480  151.293    6.376
  632.250    0.146    0.336   94.339  150.018    6.900
  632.500    0.158    0.343   91.386  151.338    7.479
  632.750    0.131    0.336   85.374  153.167    8.216
  633.000    0.109    0.310   78.860  154.696    8.724
  633.250    0.075    0.279   69.227  154.764    9.439
  633.500    0.055    0.263   72.390  154.539    9.799
  633.750    0.070    0.309   82.793  154.178    9.505
  634.000    0.088    0.346   92.949  153.939    9.100
  634.250    0.109    0.351   97.796  154.001    8.828
  634.500    0.118    0.321   94.778  154.281    8.710
  634.750    0.092    0.301   90.641  154.366    8.806
  635.000    0.071    0.281   88.996  154.428    8.804
  635.250    0.069    0.317   94.093  154.388    8.919
  635.500    0.094    0.343   97.570  154.673    8.701
  635.750    0.106    0.359  102.290  154.846    8.190
  636.000    0.104    0.345   96.901  155.115    8.080
  636.250    0.091    0.311   84.962  155.600    8.435
  636.500    0.041    0.286   73.890  154.524    8.840
  636.750    0.047    0.256   63.885  151.993    9.821
  637.000    0.041    0.222   72.601  149.465   11.435
  637.250    0.027    0.277   88.684  150.572   11.347
  637.500    0.060    0.316   99.711  153.346   10.781
  637.750    0.071    0.403  120.913  153.734    9.591
  638.000    0.131    0.420  131.815  154.225    8.063
  638.250    0.164    0.433  141.407  156.263    6.766
  638.500    0.143    0.442  139.330  159.974    5.774
  638.750    0.120    0.422  133.126  160.987    5.344
  639.000    0.091    0.396  119.127  159.487    5.194
  639.250    0.074    0.381  110.928  156.851    5.163
  639.500    0.065    0.371  109.784  153.802    5.161
  639.750    0.144    0.380  111.387  155.430    5.073
  640.000    0.168    0.392  109.867  155.291    4.894
  640.250    0.188    0.383   99.736  150.896    4.478
  640.500    0.230    0.364   91.164  148.254    3.999
  640.750    0.246    0.359   85.528  147.909    3.645
  641.000    0.238    0.357   87.068  148.922    3.348
  641.250    0.226    0.358   88.604  150.338    3.134
  641.500    0.216    0.360   93.266  150.726    3.199
  641.750    0.209    0.350   99.548  150.792    3.441
  642.000    0.179    0.339  107.830  151.068    3.773
  642.250    0.151    0.330  113.991  151.449    4.137
  642.500    0.152    0.343  118.399  152.150    4.451
  642.750    0.140    0.361  110.639  152.524    4.753
  643.000    0.137    0.359   97.947  152.604    4.943
  643.250    0.160    0.348   80.075  152.457    5.131
  643.500    0.169    0.317   64.576  152.421    5.179
  643.750    0.182    0.302   71.361  152.811    5.109
  644.000    0.190    0.297   74.025  153.296    4.855
  644.250    0.207    0.326   75.874  153.672    4.230
  644.500    0.219    0.342   76.788  152.594    3.530
  644.750    0.230    0.349   77.396  148.089    3.122
  645.000    0.236    0.356   79.558  145.039    2.895
  645.250    0.235    0.362   81.596  145.105    2.782
  645.500    0.218    0.364   83.886  147.358    2.818
  645.750    0.214    0.361   85.863  149.301    2.936
  646.000    0.202    0.355   88.215  148.537    3.142
  646.250    0.191    0.341   88.945  148.405    3.536
  646.500    0.156    0.323   80.682  149.000    4.149
  646.750    0.131    0.312   76.104  150.005    4.759
  647.000    0.098    0.339   92.250  151.001    5.584
  647.250    0.053    0.395  101.530  152.531    6.203
  647.500    0.027    0.424  113.620  154.261    6.440
  647.750    0.018    0.390  121.152  157.350    5.893
  648.000    0.169    0.355  120.381  158.563    5.547
  648.250    0.144    0.358  120.360  152.805    5.360
  648.500    0.123    0.366  123.336  153.298    5.259
  648.750    0.092    0.368  125.562  154.927    5.198
  649.000    0.058    0.355  117.864  158.113    5.217
  649.250    0.046    0.337  106.172  158.914    5.264
  649.500    0.061    0.335  109.584  151.494    5.373
  649.750    0.122    0.339  111.685  152.610    5.495
  650.000    0.120    0.330  112.665  155.692    5.651
  650.250    0.115    0.336  113.144  156.912    5.724
  650.500    0.107    0.335  114.558  156.869    5.723
  650.750    0.084    0.326  117.972  156.630    5.689
  651.000    0.071    0.320  121.445  156.696    5.730
  651.250    0.063    0.335  123.610  157.185    5.761
  651.500    0.088    0.365  126.152  157.875    5.760
  651.750    0.097    0.382  130.433  159.192    5.758
  652.000    0.109    0.352  124.856  160.203    5.746
  652.250    0.125    0.338  117.724  160.278    5.755
  652.500    0.120    0.330  117.517  160.451    5.710
  652.750    0.111    0.340  119.863  160.002    5.592
  653.000    0.110    0.332  125.649  159.539    5.384
  653.250    0.105    0.347  130.437  159.207    5.302
  653.500    0.112    0.429  133.472  158.763    5.241
  653.750    0.107    0.442  131.828  158.503    5.259
  654.000    0.095    0.399  123.194  158.259    5.328
  654.250    0.077    0.375  116.122  158.021    5.306
  654.500    0.050    0.347  120.596  158.089    5.186
  654.750    0.029    0.372  128.064  158.370    4.984
  655.000    0.090    0.380  132.723  158.647    4.691
  655.250    0.058    0.396  129.148  158.618    4.690
  655.500    0.040    0.413  117.328  158.693    5.008
  655.750    0.016    0.440  115.438  158.024    5.016
  656.000    0.003    0.452  130.519  154.760    3.526
  656.250    0.054    0.448  140.177  157.117    2.775
  656.500    0.114    0.438  144.399  158.854    1.568
  656.750    0.087    0.412  147.499  159.451    1.395
  657.000    0.098    0.402  151.597  159.305    1.321
  657.250    0.078    0.419  143.648  159.063    1.330
  657.500    0.052    0.444  144.876  158.924    1.373
  657.750    0.079    0.468  148.290  158.475    1.543
  658.000    0.069    0.445  150.141  158.649    1.851
  658.250    0.033    0.423  149.438  159.027    2.277
  658.500    0.056    0.410  146.042  159.621    3.504
  658.750    0.063    0.425  145.399  160.015    3.841
  659.000    0.058    0.441  144.566  159.978    4.188
  659.250    0.084    0.447  143.234  160.037    4.258
  659.500    0.073    0.452  141.032  160.207    3.809
  659.750    0.038    0.466  138.764  159.760    3.940
  660.000    0.061    0.466  134.686  157.748    3.829
  660.250    0.056    0.432  130.794  155.009    2.930
  660.500    0.019    0.426  134.519  154.562    2.686
  660.750   -0.010    0.430  139.927  155.987    2.695
  661.000    0.007    0.437  140.844  157.611    2.873
  661.250    0.052    0.444  135.958  159.560    3.295
  661.500    0.036    0.449  125.509  160.357    3.559
  661.750    0.035    0.454  111.819  160.210    3.758
  662.000    0.050    0.453   71.227  156.953    3.659
  662.250    0.068    0.431   47.800  153.383    3.431
  662.500    0.101    0.326   44.849  151.166    2.967
  662.750    0.153    0.316   47.948  149.987    2.605
  663.000    0.181    0.313   39.562  149.748    2.202
  663.250    0.226    0.323   33.051  149.916    2.116
  663.500    0.228    0.332   36.213  150.201    2.072
  663.750    0.202    0.340   37.005  150.261    2.060
  664.000    0.188    0.344   35.111  150.140    2.175
  664.250    0.169    0.348   29.596  149.995    2.367
  664.500    0.154    0.364   22.398  149.749    2.715
  664.750    0.131    0.339   17.260  149.617    2.921
  665.000    0.125    0.325   14.937  149.360    3.078
