~VERSION INFORMATION
 VERS.                 2.0:   CWLS LOG ASCII STANDARD -VERSION 2.0
 WRAP.                  NO:   ONE LINE PER DEPTH STEP
~WELL INFORMATION BLOCK
#MNEM.UNIT           DATA                    DESCRIPTION OF MNEMONIC
#---------    -------------------            -------------------------------
# Generated from Intellog Unique Number	CS_71_72/WELL/819
WELL.         AMOCO AEC IPIATIK              : Well_name    - WELL
LOC .         00/07-28-072-04W4/0            : Location     - LOCATION
UWI .         00/07-28-072-04W4/0            : Uwi          - UNIQUE WELL ID
ENTR.         SP                             : Entered      - ENTERED BY
SRVC.         SCHLUMBERGER                   : Scn          - SERVICE COMPANY
STRT.M        315                            : top_depth    - START DEPTH
STOP.M        510                            : bot_depth    - STOP DEPTH
STEP.M        0.25                           : increment    - STEP LENGTH
 NULL. -999.2500:NULL Value
~CURVE INFORMATION BLOCK
#MNEM UNIT       ERCB CURVE CODE    CURVE DESCRIPTION
#-----------   ------------------   ----------------------------------
DEPT.M        00 001 00 00         : DEPTH        - DEPTH
ILD .OHMM     00 120 00 00         : RESD         - DEEP RESISTIVITY (DIL)
DPHI.V/V      00 890 00 00         : PHID         - DENSITY POROSITY (LIMESTONE)
NPHI.V/V      00 330 00 00         : PHIN         - NEUTRON POROSITY (LIMESTONE)
GR  .API      00 310 00 00         : GR           - GAMMA RAY
~PARAMETER INFORMATION
#MNEM.UNIT           DATA             DESCRIPTION OF MNEMONIC
#---------         -----------     ------------------------------
GL  .M        697.26               : gl           - GROUND LEVEL ELEVATION
EREF.M        701.51               : kb           - ELEVATION OF DEPTH REFERENCE
DATM.M        697.26               : datum        - DATUM ELEVATION
TDD .M        529.8                : tdd          - TOTAL DEPTH DRILLER
RUN .         ONE                  : Run          - RUN NUMBER
ENG .         BILL                 : Engineer     - RECORDING ENGINEER
WIT .         JIM                  : Witness      - WITNESSED BY
MUD .         GEL                  : Mud_type     - MUD TYPE
MATR.         LIMESTONE            : Logunit      - NEUTRON MATRIX
TMAX.C        21                   : BHT          - MAXIMUM RECORDED TEMPERATURE
BHTD.M        529.8                : BHTDEP       - MAXIMUM RECORDED TEMPERATURE
MATR.         1                    : LOGUNIT      - NEUTRON MATRIX
RMT .C        25                   : MDTP         - TEMPERATURE OF MUD
NEUT.         1                    : NEUTRON      - NEUTRON TYPE
RESI.         0                    : RESIST       - RESISTIVITY TYPE
RMC .OHMM     0.25                 : RMC          - RESISTIVITY OF MUD CAKE
RMF .OHMM     0.25                 : RMF          - RESISTIVITY OF MUD FILTRATE
SUFT.C        15                   : SUFT         - SURFACE TEMPERATURE
~A  DEPTH     RESD     PHID     PHIN       GR
  315.000    4.086    0.229    0.542   95.957
  315.250    4.486    0.237    0.532   97.786
  315.500    4.659    0.235    0.530   99.008
  315.750    4.493    0.223    0.524   99.626
  316.000    4.333    0.239    0.516   98.419
  316.250    4.335    0.239    0.525   99.034
  316.500    4.673    0.232    0.513   98.438
  316.750    4.943    0.228    0.503   98.446
  317.000    5.133    0.221    0.525  100.881
  317.250    4.859    0.214    0.537  102.712
  317.500    4.600    0.209    0.560  101.507
  317.750    4.867    0.203    0.567   99.085
  318.000    5.054    0.224    0.543   95.450
  318.250    5.249    0.215    0.527   91.817
  318.500    5.156    0.217    0.510   91.217
  318.750    5.065    0.210    0.496   91.833
  319.000    4.795    0.199    0.507   93.055
  319.250    4.375    0.219    0.492   94.278
  319.500    4.218    0.208    0.493   95.502
  319.750    4.068    0.215    0.532   97.944
  320.000    3.996    0.215    0.552   98.557
  320.250    3.999    0.203    0.573  100.387
  320.500    4.153    0.216    0.575  101.003
  320.750    4.313    0.226    0.566  101.010
  321.000    4.478    0.223    0.561   99.197
  321.250    4.566    0.214    0.568   97.383
  321.500    4.569    0.214    0.563   96.786
  321.750    4.572    0.223    0.534   96.796
  322.000    4.662    0.241    0.517   96.195
  322.250    4.753    0.249    0.516   94.381
  322.500    4.844    0.250    0.503   93.176
  322.750    4.848    0.232    0.501   90.757
  323.000    4.763    0.224    0.511   90.158
  323.250    4.592    0.221    0.523   90.165
  323.500    4.348    0.223    0.538   90.783
  323.750    4.516    0.243    0.552   91.396
  324.000    4.689    0.236    0.559   93.226
  324.250    5.148    0.239    0.572   92.630
  324.500    5.757    0.250    0.565   91.421
  324.750    6.558    0.310    0.562   85.965
  325.000    7.753    0.330    0.535   76.864
  325.250    8.512    0.337    0.460   69.584
  325.500    9.006    0.326    0.438   75.667
  325.750    9.181    0.282    0.453   82.964
  326.000    9.712    0.242    0.473   84.184
  326.250   10.087    0.242    0.425   73.263
  326.500   10.476    0.265    0.410   62.947
  326.750   10.678    0.293    0.417   55.669
  327.000   10.887    0.299    0.433   52.642
  327.250   10.894    0.296    0.431   52.044
  327.500   10.701    0.294    0.413   53.267
  327.750   10.321    0.282    0.391   56.310
  328.000   10.138    0.262    0.393   59.961
  328.250    9.959    0.249    0.392   69.686
  328.500   10.343    0.251    0.390   75.768
  328.750   10.741    0.243    0.398   72.133
  329.000   11.157    0.242    0.409   69.714
  329.250   11.373    0.240    0.403   67.904
  329.500   11.379    0.102    0.368   67.301
  329.750   11.180    0.012    0.339   67.309
  330.000   10.583    0.184    0.372   70.356
  330.250   10.205    0.241    0.387   74.009
  330.500   10.213    0.261    0.411   75.837
  330.750   10.412    0.271    0.420   78.276
  331.000   10.419    0.261    0.416   79.500
  331.250   10.429    0.255    0.420   80.723
  331.500   10.631    0.266    0.436   81.340
  331.750   10.444    0.272    0.434   82.564
  332.000   10.258    0.276    0.431   83.785
  332.250    9.893    0.284    0.439   84.399
  332.500    9.539    0.288    0.431   83.801
  332.750    9.031    0.279    0.422   83.809
  333.000    8.709    0.275    0.417   86.248
  333.250    8.716    0.269    0.438   87.470
  333.500    8.722    0.258    0.456   90.518
  333.750    8.890    0.249    0.470   91.130
  334.000    9.064    0.235    0.477   91.746
  334.250    8.904    0.239    0.467   83.253
  334.500    8.747    0.279    0.447   74.152
  334.750    8.435    0.294    0.430   69.303
  335.000    8.135    0.274    0.424   68.095
  335.250    8.294    0.250    0.428   77.216
  335.500    8.300    0.241    0.422   82.082
  335.750    8.463    0.221    0.445   86.948
  336.000    8.625    0.199    0.453   88.171
  336.250    8.474    0.217    0.456   86.964
  336.500    8.324    0.234    0.467   87.582
  336.750    8.176    0.245    0.476   89.410
  337.000    7.886    0.263    0.476   95.493
  337.250    7.328    0.282    0.462  100.969
  337.500    6.936    0.273    0.450  104.012
  337.750    6.211    0.260    0.444  100.376
  338.000    5.460    0.211    0.463   98.566
  338.250    4.890    0.197    0.468   99.181
  338.500    4.460    0.167    0.477  101.011
  338.750    4.145    0.129    0.475  105.272
  339.000    3.852    0.186    0.488  107.099
  339.250    3.580    0.212    0.506  106.503
  339.500    3.388    0.216    0.518  105.904
  339.750    3.267    0.221    0.537  105.913
  340.000    3.151    0.205    0.539  106.529
  340.250    3.153    0.209    0.527  107.750
  340.500    3.336    0.214    0.523  112.012
  340.750    3.595    0.224    0.555  110.197
  341.000    4.096    0.210    0.570  108.382
  341.250    4.667    0.216    0.578  109.001
  341.500    5.316    0.238    0.563  107.792
  341.750    6.285    0.247    0.544   99.906
  342.000    7.160    0.251    0.526   92.627
  342.250    8.007    0.276    0.495   80.490
  342.500    8.791    0.293    0.480   68.959
  342.750    8.478    0.313    0.405   57.430
  343.000    8.025    0.333    0.337   50.151
  343.250    7.458    0.317    0.328   44.086
  343.500    7.060    0.326    0.328   39.843
  343.750    6.684    0.344    0.322   35.602
  344.000    6.446    0.363    0.326   33.182
  344.250    6.332    0.367    0.337   32.581
  344.500    6.221    0.369    0.344   31.984
  344.750    6.225    0.372    0.360   32.603
  345.000    6.115    0.373    0.371   33.215
  345.250    6.120    0.368    0.374   34.439
  345.500    6.011    0.364    0.379   36.268
  345.750    5.905    0.367    0.381   38.707
  346.000    5.909    0.352    0.384   42.359
  346.250    5.699    0.340    0.391   47.226
  346.500    5.598    0.337    0.395   51.486
  346.750    5.399    0.320    0.399   57.568
  347.000    5.207    0.289    0.407   63.042
  347.250    5.115    0.277    0.405   67.908
  347.500    5.024    0.264    0.396   68.523
  347.750    4.936    0.263    0.390   61.243
  348.000    4.940    0.310    0.391   54.574
  348.250    5.035    0.312    0.420   53.974
  348.500    5.229    0.305    0.430   53.983
  348.750    5.431    0.311    0.440   55.812
  349.000    5.536    0.298    0.445   58.253
  349.250    5.643    0.290    0.428   59.474
  349.500    5.544    0.292    0.421   61.305
  349.750    5.446    0.304    0.416   65.564
  350.000    5.351    0.271    0.406   71.646
  350.250    5.065    0.255    0.394   76.514
  350.500    4.884    0.244    0.383   78.342
  350.750    4.539    0.232    0.386   75.316
  351.000    4.378    0.218    0.408   70.465
  351.250    4.221    0.225    0.421   63.189
  351.500    4.071    0.243    0.435   61.371
  351.750    3.999    0.260    0.441   58.955
  352.000    3.929    0.274    0.427   58.352
  352.250    4.005    0.285    0.416   57.758
  352.500    4.083    0.277    0.414   57.156
  352.750    4.162    0.257    0.430   55.952
  353.000    4.322    0.242    0.438   53.533
  353.250    4.488    0.259    0.430   52.324
  353.500    4.576    0.284    0.426   52.333
  353.750    4.665    0.291    0.423   56.593
  354.000    4.756    0.280    0.426   60.245
  354.250    4.759    0.262    0.428   63.896
  354.500    4.675    0.268    0.413   67.550
  354.750    4.508    0.277    0.406   71.205
  355.000    4.348    0.273    0.412   73.032
  355.250    4.271    0.271    0.417   77.294
  355.500    4.196    0.245    0.421   80.946
  355.750    4.199    0.231    0.424   83.380
  356.000    4.124    0.235    0.430   85.818
  356.250    4.364    0.217    0.450   84.613
  356.500    4.532    0.215    0.452   82.192
  356.750    4.706    0.229    0.440   80.377
  357.000    4.710    0.241    0.437   82.818
  357.250    4.626    0.227    0.437   85.260
  357.500    4.717    0.237    0.445   85.873
  357.750    4.990    0.243    0.447   85.273
  358.000    5.182    0.255    0.445   82.849
  358.250    5.186    0.264    0.439   77.392
