~VERSION INFORMATION
 VERS.                 2.0:   CWLS LOG ASCII STANDARD -VERSION 2.0
 WRAP.                  NO:   ONE LINE PER DEPTH STEP
~WELL INFORMATION BLOCK
#MNEM.UNIT           DATA                    DESCRIPTION OF MNEMONIC
#---------    -------------------            -------------------------------
# Generated from Intellog Unique Number	CW_76_78/WELL/702
NULL.         -999.25                        : NULL_VALUE
WELL.         ERSKINE-MARTEN HILLS 08-09     : Well_name    - WELL              
LOC .         00/08-09-077-02W5/0            : Location     - LOCATION          
UWI .         00/08-09-077-02W5/0            : Uwi          - UNIQUE WELL ID    
ENTR.         JAYE                           : Entered      - ENTERED BY        
SRVC.         WESTERN ATLAS                  : Scn          - SERVICE COMPANY   
DATE.         24 NOV 77                      : Date         - LOG DATE          
STRT.M        450                            : top_depth    - START DEPTH       
STOP.M        650                            : bot_depth    - STOP DEPTH        
STEP.M        0.25                           : increment    - STEP LENGTH       
~CURVE INFORMATION BLOCK
#MNEM UNIT       ERCB CURVE CODE    CURVE DESCRIPTION
#-----------   ------------------   ----------------------------------
DEPT.M        00 001 00 00         : DEPTH        - DEPTH                       
DPHI.V/V      00 890 00 00         : PHID         - DENSITY POROSITY (SANDSTONE)
NPHI.V/V      00 330 00 00         : PHIN         - NEUTRON POROSITY (SANDSTONE)
GR  .API      00 310 00 00         : GR           - GAMMA RAY                   
CALI.IN       00 280 01 00         : CAL          - CALIPER                     
ILD .OHMM     00 120 00 00         : RESD         - DEEP RESISTIVITY (DIL)      
~PARAMETER INFORMATION       
#MNEM.UNIT           DATA             DESCRIPTION OF MNEMONIC
#---------         -----------     ------------------------------
GL  .M        742.1                : gl           - GROUND LEVEL ELEVATION      
EREF.M        745.1                : kb           - ELEVATION OF DEPTH REFERENCE
DATM.M        742.1                : datum        - DATUM ELEVATION             
TDD .M        656                  : tdd          - TOTAL DEPTH DRILLER         
RUN .         ONE                  : Run          - RUN NUMBER                  
ENG .         WHERLEY              : Engineer     - RECORDING ENGINEER          
WIT .         FITZSIMMONS          : Witness      - WITNESSED BY                
BASE.         LEDUC                : Branch       - HOME BASE OF LOGGING UNIT   
MUD .         GEL CHEM             : Mud_type     - MUD TYPE                    
MATR.         SANDSTONE            : Logunit      - NEUTRON MATRIX              
TMAX.C        28                   : BHT          - MAXIMUM RECORDED TEMPERATURE
BHTD.M        656.1                : BHTDEP       - MAXIMUM RECORDED TEMPERATURE
RMT .C        18                   : MDTP         - TEMPERATURE OF MUD          
MUDD.KG/M     1150                 : MWT          - MUD DENSITY                 
NEUT.         1                    : NEUTRON      - NEUTRON TYPE                
RESI.         0                    : RESIST       - RESISTIVITY TYPE            
RM  .OHMM     4.1                  : RM           - RESISTIVITY OF MUD          
RMC .OHMM     3.2                  : RMC          - RESISTIVITY OF MUD CAKE     
RMF .OHMM     4.9                  : RMF          - RESISTIVITY OF MUD FILTRATE 
SUFT.C        4.5                  : SUFT         - SURFACE TEMPERATURE         
~A  DEPTH     PHID     PHIN       GR      CAL     RESD
# ...
  596.000    0.227    0.355   71.064    7.282   12.139
  596.250    0.234    0.359   76.086    7.272   11.554
  596.500    0.243    0.380   81.418    7.262   10.959
  596.750    0.249    0.383   79.262    7.249   10.314
  597.000    0.247    0.376   79.061    7.235    9.983
  597.250    0.245    0.371   80.252    7.230    9.484
  597.500    0.244    0.375   81.142    7.228    9.146
  597.750    0.232    0.379   82.765    7.226    8.786
  598.000    0.240    0.379   86.142    7.205    8.425
  598.250    0.252    0.394   90.742    7.191    7.975
  598.500    0.220    0.399   89.566    7.165    7.591
  598.750    0.208    0.382   83.521    7.151    7.226
  599.000    0.196    0.378   89.459    7.142    6.994
  599.250    0.203    0.377   89.498    7.136    6.844
  599.500    0.201    0.377   86.068    7.139    6.821
  599.750    0.202    0.378   90.058    7.133    6.850
  600.000    0.208    0.375   95.873    7.140    6.853
  600.250    0.202    0.365  101.200    7.146    6.831
  600.500    0.201    0.369   90.357    7.149    6.785
  600.750    0.216    0.366   93.617    7.152    6.701
  601.000    0.195    0.361   89.278    7.162    6.642
  601.250    0.187    0.373   94.119    7.185    6.585
  601.500    0.194    0.379   88.444    7.212    6.516
  601.750    0.200    0.378   93.407    7.231    6.483
  602.000    0.198    0.381   94.542    7.241    6.427
  602.250    0.202    0.372   90.566    7.248    6.396
  602.500    0.208    0.371   93.035    7.251    6.385
  602.750    0.204    0.373   97.938    7.249    6.425
  603.000    0.205    0.371  102.842    7.239    6.452
  603.250    0.205    0.363   94.488    7.230    6.528
  603.500    0.195    0.358   91.857    7.220    6.814
  603.750    0.189    0.358   95.296    7.231    7.519
  604.000    0.179    0.354   92.172    7.246    8.235
  604.250    0.171    0.348   85.764    7.264    8.919
  604.500    0.161    0.342   81.790    7.283    9.380
  604.750    0.182    0.344   87.057    7.306    9.593
  605.000    0.199    0.359   95.672    7.333    9.653
  605.250    0.182    0.360   96.679    7.356    9.189
  605.500    0.187    0.361   84.801    7.383    8.507
  605.750    0.187    0.364   86.359    7.398    7.761
  606.000    0.185    0.367   92.296    7.404    7.186
  606.250    0.183    0.371   95.130    7.415    6.739
  606.500    0.181    0.377   96.508    7.421    6.450
  606.750    0.183    0.377   96.729    7.404    6.324
  607.000    0.185    0.364  104.243    7.362    6.291
  607.250    0.188    0.361   99.663    7.327    6.341
  607.500    0.195    0.361  100.976    7.302    6.463
  607.750    0.183    0.367   99.496    7.288    6.798
  608.000    0.174    0.356   91.936    7.291    7.334
  608.250    0.168    0.346   89.421    7.294    7.915
  608.500    0.183    0.346   83.924    7.292    8.418
  608.750    0.186    0.349   84.940    7.286    8.885
  609.000    0.169    0.339   81.995    7.277    9.327
  609.250    0.166    0.343   83.617    7.263   10.158
  609.500    0.200    0.361   85.172    7.266   11.107
  609.750    0.209    0.354   84.362    7.268   12.575
  610.000    0.183    0.338   75.279    7.279   14.133
  610.250    0.156    0.347   70.698    7.286   14.918
  610.500    0.195    0.361   77.423    7.292   15.175
  610.750    0.230    0.364   83.479    7.295   14.961
  611.000    0.196    0.345   82.792    7.293   14.533
  611.250    0.162    0.342   76.140    7.300   13.503
  611.500    0.150    0.346   71.921    7.310   12.573
  611.750    0.166    0.363   82.417    7.313   11.491
  612.000    0.208    0.360   96.803    7.311   10.817
  612.250    0.187    0.351   88.026    7.298   10.334
  612.500    0.166    0.354   77.486    7.292   10.020
  612.750    0.162    0.360   84.091    7.287    9.770
  613.000    0.182    0.374   90.453    7.297    9.614
  613.250    0.197    0.366   79.001    7.304    9.440
  613.500    0.205    0.354   86.153    7.319    9.360
  613.750    0.201    0.376   88.260    7.321    9.244
  614.000    0.203    0.371   87.568    7.324    9.131
  614.250    0.198    0.365   88.215    7.326    8.967
  614.500    0.186    0.359   90.202    7.321    8.874
  614.750    0.175    0.375   89.445    7.315    8.814
  615.000    0.169    0.368   87.903    7.318    8.769
  615.250    0.171    0.366   88.310    7.296    8.756
  615.500    0.191    0.366   85.790    7.282    8.714
  615.750    0.194    0.357   85.342    7.269    8.589
  616.000    0.198    0.364   89.394    7.259    8.516
  616.250    0.195    0.354   94.903    7.258    8.457
  616.500    0.184    0.351   88.678    7.244    8.368
  616.750    0.197    0.367   98.445    7.238    8.325
  617.000    0.212    0.364  103.717    7.237    8.299
  617.250    0.202    0.358   95.909    7.252    8.243
  617.500    0.182    0.364   89.259    7.259    8.216
  617.750    0.190    0.361   84.616    7.257    8.144
  618.000    0.191    0.358   93.408    7.251    8.074
  618.250    0.189    0.359   90.164    7.250    7.975
  618.500    0.184    0.371   88.318    7.252    7.876
  618.750    0.184    0.378   87.930    7.243    7.808
  619.000    0.184    0.364   82.496    7.246    7.768
  619.250    0.182    0.344   81.140    7.248    7.961
  619.500    0.175    0.351   88.593    7.251    8.311
  619.750    0.169    0.359   86.138    7.265    8.773
  620.000    0.168    0.357   82.227    7.276    9.345
  620.250    0.215    0.354   82.204    7.278    9.756
  620.500    0.232    0.354   83.825    7.277   10.128
  620.750    0.243    0.357   84.044    7.279   10.455
  621.000    0.255    0.360   86.999    7.286   10.755
  621.250    0.232    0.359   88.314    7.293   11.023
  621.500    0.212    0.350   76.253    7.303   11.338
  621.750    0.217    0.342   68.329    7.318   11.726
  622.000    0.222    0.341   63.261    7.321   12.309
  622.250    0.210    0.338   64.883    7.323   13.088
  622.500    0.199    0.332   65.166    7.334   13.995
  622.750    0.190    0.324   63.253    7.340   14.828
  623.000    0.161    0.322   65.972    7.347   15.796
  623.250    0.137    0.311   72.939    7.349   16.796
  623.500    0.118    0.280   65.681    7.344   17.797
  623.750    0.104    0.250   60.126    7.338   19.205
  624.000    0.071    0.216   54.693    7.321   20.385
  624.250    0.050    0.200   51.689    7.311   20.813
  624.500    0.054    0.215   53.738    7.302   20.633
  624.750    0.091    0.256   57.300    7.288   18.612
  625.000    0.086    0.273   62.507    7.270   16.983
  625.250    0.080    0.264   68.867    7.261   15.209
  625.500    0.142    0.289   64.406    7.255   13.824
  625.750    0.166    0.328   66.694    7.241   12.610
  626.000    0.126    0.330   75.790    7.244   11.761
  626.250    0.082    0.252   77.897    7.230   11.216
  626.500    0.053    0.229   65.471    7.221   10.816
  626.750    0.067    0.248   55.783    7.203   10.428
  627.000    0.084    0.291   54.786    7.206   10.130
  627.250    0.138    0.323   63.579    7.208    9.732
  627.500    0.152    0.335   68.846    7.207    9.298
  627.750    0.163    0.336   81.958    7.213    8.833
  628.000    0.165    0.336   78.528    7.212    8.455
  628.250    0.178    0.336   82.523    7.206    8.137
  628.500    0.187    0.337   88.274    7.197    7.833
  628.750    0.173    0.342   86.732    7.215    7.511
  629.000    0.123    0.347   77.772    7.226    7.336
  629.250    0.135    0.351   72.824    7.241    7.192
  629.500    0.161    0.353   76.756    7.248    7.104
  629.750    0.191    0.350   82.692    7.250    7.066
  630.000    0.175    0.345   86.624    7.257    7.059
  630.250    0.147    0.347   92.068    7.247    7.022
  630.500    0.129    0.353   93.261    7.241    7.052
  630.750    0.125    0.353   91.416    7.248    7.082
  631.000    0.133    0.342   92.305    7.246    7.098
  631.250    0.111    0.342   91.248    7.253    7.102
  631.500    0.098    0.361   91.469    7.252    7.197
  631.750    0.126    0.348   99.532    7.250    7.323
  632.000    0.151    0.341   94.282    7.249    7.449
  632.250    0.154    0.339   93.894    7.243    7.606
