~VERSION INFORMATION
 VERS.                 2.0:   CWLS LOG ASCII STANDARD -VERSION 2.0
 WRAP.                  NO:   ONE LINE PER DEPTH STEP
~WELL INFORMATION BLOCK
#MNEM.UNIT           DATA                    DESCRIPTION OF MNEMONIC
#---------    -------------------            -------------------------------
# Generated from Intellog Unique Number	CS_67_68/WELL/2188
WELL.         DOME AEC MEDLEY                : Well_name    - WELL
LOC .         00/09-11-067-02W4/0            : Location     - LOCATION
UWI .         00/09-11-067-02W4/0            : Uwi          - UNIQUE WELL ID
ENTR.         SP                             : Entered      - ENTERED BY
SRVC.         SCHLUMBERGER                   : Scn          - SERVICE COMPANY
STRT.M        310                            : top_depth    - START DEPTH
STOP.M        565                            : bot_depth    - STOP DEPTH
STEP.M        0.25                           : increment    - STEP LENGTH
 NULL. -999.2500:NULL Value
~CURVE INFORMATION BLOCK
#MNEM UNIT       ERCB CURVE CODE    CURVE DESCRIPTION
#-----------   ------------------   ----------------------------------
DEPT.M        00 001 00 00         : DEPTH        - DEPTH
ILD .OHMM     00 120 00 00         : RESD         - DEEP RESISTIVITY (DIL)
DPHI.V/V      00 890 00 00         : PHID         - DENSITY POROSITY (LIMESTONE)
GR  .API      00 310 00 00         : GR           - GAMMA RAY
CALI.MM       00 280 01 00         : CAL          - CALIPER
NPHI.V/V      00 330 00 00         : PHIN         - NEUTRON POROSITY (LIMESTONE)
~PARAMETER INFORMATION
#MNEM.UNIT           DATA             DESCRIPTION OF MNEMONIC
#---------         -----------     ------------------------------
GL  .M        619.09               : gl           - GROUND LEVEL ELEVATION
EREF.M        623                  : kb           - ELEVATION OF DEPTH REFERENCE
DATM.M        623                  : datum        - DATUM ELEVATION
TDD .M        571                  : tdd          - TOTAL DEPTH DRILLER
RUN .         ONE                  : Run          - RUN NUMBER
ENG .         BILL                 : Engineer     - RECORDING ENGINEER
WIT .         JIM                  : Witness      - WITNESSED BY
MUD .         GEL                  : Mud_type     - MUD TYPE
MATR.         LIMESTONE            : Logunit      - NEUTRON MATRIX
TMAX.C        25.5                 : BHT          - MAXIMUM RECORDED TEMPERATURE
BHTD.M        573                  : BHTDEP       - MAXIMUM RECORDED TEMPERATURE
MATR.         1                    : LOGUNIT      - NEUTRON MATRIX
RMT .C        25                   : MDTP         - TEMPERATURE OF MUD
NEUT.         1                    : NEUTRON      - NEUTRON TYPE
RESI.         0                    : RESIST       - RESISTIVITY TYPE
RMC .OHMM     0.25                 : RMC          - RESISTIVITY OF MUD CAKE
RMF .OHMM     0.25                 : RMF          - RESISTIVITY OF MUD FILTRATE
SUFT.C        15                   : SUFT         - SURFACE TEMPERATURE
~A  DEPTH     RESD     PHID       GR      CAL     PHIN
# ...
  383.000   10.166    0.256   81.003  165.387    0.355
  383.250   10.106    0.246   83.730  165.487    0.366
  383.500   10.027    0.247   84.702  165.687    0.383
  383.750    9.893    0.259   80.523  166.190    0.395
  384.000    9.743    0.253   84.705  167.503    0.377
  384.250    9.469    0.226   89.857  168.108    0.391
  384.500    8.815    0.209   93.554  168.004    0.410
  384.750    8.115    0.244   95.313  167.597    0.412
  385.000    7.626    0.289   92.831  167.190    0.404
  385.250    7.329    0.283   91.379  167.694    0.416
  385.500    7.190    0.263   87.564  168.703    0.437
  385.750    7.618    0.275   74.783  169.206    0.447
  386.000    8.224    0.299   64.668  168.901    0.452
  386.250    8.812    0.329   54.795  167.178    0.442
  386.500    9.301    0.339   50.556  165.760    0.435
  386.750    9.725    0.338   53.890  165.251    0.427
  387.000   10.056    0.331   56.194  165.148    0.412
  387.250   10.224    0.325   58.316  165.246    0.400
  387.500   10.356    0.324   63.770  165.345    0.394
  387.750   10.430    0.319   66.317  165.343    0.401
  388.000   10.466    0.306   59.231  165.442    0.407
  388.250   10.541    0.297   55.416  165.034    0.408
  388.500   10.577    0.294   55.297  164.729    0.410
  388.750   10.614    0.300   57.237  164.220    0.414
  389.000   10.551    0.311   57.481  164.218    0.417
  389.250   10.370    0.310   57.483  164.014    0.421
  389.500   10.137    0.316   57.667  163.910    0.410
  389.750    9.834    0.319   59.425  164.009    0.390
  390.000    9.469    0.290   65.001  163.804    0.376
  390.250    9.204    0.264   68.274  163.802    0.394
  390.500    8.962    0.273   67.186  163.597    0.419
  390.750    8.810    0.288   60.706  163.595    0.443
  391.000    8.611    0.298   58.041  163.289    0.452
  391.250    8.480    0.295   65.798  163.084    0.431
  391.500    8.319    0.279   71.616  163.183    0.410
  391.750    8.224    0.265   76.282  163.484    0.398
  392.000    8.190    0.273   78.405  163.583    0.409
  392.250    8.218    0.264   78.649  163.783    0.407
  392.500    8.324    0.260   75.440  163.983    0.407
  392.750    8.511    0.271   69.444  163.879    0.410
  393.000    8.701    0.273   69.446  163.675    0.413
  393.250    8.863    0.265   68.115  163.470    0.405
  393.500    8.994    0.270   65.270  163.063    0.391
  393.750    9.042    0.278   64.423  162.960    0.403
  394.000    9.005    0.282   64.425  163.058    0.408
  394.250    8.885    0.274   64.790  163.157    0.399
  394.500    8.849    0.286   64.611  162.953    0.394
  394.750    8.830    0.293   63.340  162.748    0.397
  395.000    8.843    0.300   60.676  162.644    0.409
  395.250    8.807    0.308   57.770  162.439    0.415
  395.500    8.804    0.315   56.561  162.133    0.409
  395.750    8.851    0.307   56.441  162.030    0.403
  396.000    8.948    0.304   57.049  161.926    0.396
  396.250    9.013    0.308   57.536  162.126    0.407
  396.500    9.112    0.314   57.538  162.326    0.423
  396.750    9.126    0.308   57.115  162.425    0.410
  397.000    9.157    0.298   55.724  162.524    0.415
  397.250    9.171    0.292   57.059  162.623    0.430
  397.500    9.220    0.300   57.969  162.823    0.426
  397.750    9.234    0.306   58.698  162.821    0.396
  398.000    9.266    0.306   57.428  162.818    0.387
  398.250    9.263    0.306   53.673  162.917    0.399
  398.500    9.260    0.305   49.495  163.016    0.405
  398.750    9.170    0.298   49.073  163.115    0.396
  399.000    8.997    0.300   54.527  162.910    0.399
  399.250    8.761    0.295   55.498  162.806    0.404
  399.500    8.500    0.289   59.559  162.804    0.399
  399.750    8.230    0.288   64.468  162.802    0.395
  400.000    7.985    0.280   69.257  162.901    0.386
  400.250    7.804    0.273   72.348  162.999    0.377
  400.500    7.817    0.266   75.379  163.402    0.397
  400.750    7.947    0.271   73.200  163.602    0.409
  401.000    8.201    0.290   63.691  163.701    0.424
  401.250    8.528    0.306   58.724  163.800    0.437
  401.500    8.801    0.313   56.485  163.797    0.419
  401.750    9.032    0.298   56.850  163.794    0.405
  402.000    9.217    0.283   56.731  163.894    0.401
  402.250    9.371    0.293   58.429  163.891    0.411
  402.500    9.528    0.291   59.521  163.889    0.417
  402.750    9.614    0.291   54.737  164.291    0.404
  403.000    9.629    0.292   50.377  164.491    0.390
  403.250    9.536    0.286   52.923  164.590    0.387
  403.500    9.497    0.276   54.258  164.689    0.385
  403.750    9.477    0.283   53.473  164.585    0.392
  404.000    9.689    0.297   53.535  164.583    0.400
  404.250    9.981    0.305   53.840  164.276    0.386
  404.500   10.185    0.313   51.782  164.275    0.379
  404.750   10.316    0.320   51.602  164.171    0.380
  405.000   10.391    0.320   47.182  163.865    0.389
  405.250   10.329    0.314   44.457  163.559    0.393
  405.500   10.191    0.311   43.974  163.658    0.385
  405.750   10.036    0.306   43.976  163.554    0.373
  406.000    9.865    0.295   45.493  163.248    0.374
  406.250    9.733    0.292   48.645  162.943    0.386
  406.500    9.730    0.304   50.646  162.738    0.392
  406.750    9.763    0.310   51.981  162.533    0.406
  407.000    9.797    0.312   53.012  162.430    0.403
  407.250    9.812    0.316   50.470  162.326    0.391
  407.500    9.791    0.317   46.535  162.021    0.382
  407.750    9.732    0.317   44.597  161.816    0.391
  408.000    9.693    0.330   43.327  162.016    0.399
  408.250    9.617    0.343   41.996  161.811    0.404
  408.500    9.524    0.348   41.634  161.910    0.399
  408.750    9.397    0.342   41.636  162.008    0.391
  409.000    9.272    0.334   43.637  162.006    0.382
  409.250    9.130    0.325   48.546  161.903    0.401
  409.500    9.026    0.312   52.486  162.002    0.416
  409.750    8.872    0.308   49.337  162.100    0.417
  410.000    8.802    0.319   41.585  161.996    0.405
  410.250    8.800    0.326   39.103  161.994    0.398
  410.500    8.830    0.322   44.921  161.992    0.394
  410.750    8.844    0.319   48.982  161.889    0.404
  411.000    8.890    0.320   46.015  161.987    0.421
  411.250    9.005    0.328   42.867  162.289    0.423
  411.500    9.121    0.333   44.383  162.387    0.420
  411.750    9.204    0.331   50.262  162.688    0.418
  412.000    9.184    0.321   53.535  162.787    0.415
  412.250    8.977    0.309   56.990  162.987    0.412
  412.500    8.790    0.309   58.991  162.985    0.405
  412.750    8.689    0.317   55.176  162.881    0.400
  413.000    8.541    0.314   55.602  162.677    0.399
  413.250    8.443    0.305   60.450  162.675    0.395
  413.500    8.361    0.295   63.239  162.267    0.393
  413.750    8.296    0.290   58.879  162.467    0.399
  414.000    8.356    0.302   53.731  162.364    0.408
  414.250    8.432    0.300   56.399  162.463    0.399
  414.500    8.572    0.291   60.945  162.663    0.413
  414.750    8.797    0.288   57.796  162.761    0.426
  415.000    9.062    0.303   51.982  163.164    0.419
  415.250    9.300    0.321   48.773  163.364    0.401
  415.500    9.384    0.316   53.561  163.664    0.390
  415.750    9.382    0.305   59.197  163.764    0.382
  416.000    9.136    0.301   60.411  163.964    0.406
  416.250    8.946    0.315   55.202  164.265    0.425
  416.500    8.745    0.323   50.721  164.465    0.403
  416.750    8.499    0.311   56.902  164.463    0.381
  417.000    8.138    0.287   61.993  164.460    0.394
  417.250    7.778    0.269   65.327  164.357    0.403
  417.500    7.461    0.280   70.418  164.253    0.400
  417.750    7.320    0.270   74.721  164.150    0.414
  418.000    7.209    0.263   77.813  164.451    0.411
  418.250    7.059    0.252   75.513  165.157    0.401
  418.500    7.004    0.246   75.332  165.154    0.403
  418.750    6.885    0.248   72.850  165.152    0.418
  419.000    6.742    0.268   67.218  165.150    0.437
  419.250    6.541    0.285   65.706  165.046    0.445
