~VERSION INFORMATION
 VERS.                 2.0:   CWLS LOG ASCII STANDARD -VERSION 2.0
 WRAP.                  NO:   ONE LINE PER DEPTH STEP
~WELL INFORMATION BLOCK
#MNEM.UNIT           DATA                    DESCRIPTION OF MNEMONIC
#---------    -------------------            -------------------------------
# Generated from Intellog Unique Number	CS_69_70/WELL/905
NULL.         -999.25                        : NULL_VALUE
WELL.         HUSKY OIL OPERATIONS LTD.      : Well_name    - WELL              
LOC .         00/09-35-070-06W4/0            : Location     - LOCATION          
UWI .         00/09-35-070-06W4/0            : Uwi          - UNIQUE WELL ID    
ENTR.         SP                             : Entered      - ENTERED BY        
SRVC.         SCHLUMBERGER                   : Scn          - SERVICE COMPANY   
STRT.M        310                            : top_depth    - START DEPTH       
STOP.M        560                            : bot_depth    - STOP DEPTH        
STEP.M        0.25                           : increment    - STEP LENGTH       
~CURVE INFORMATION BLOCK
#MNEM UNIT       ERCB CURVE CODE    CURVE DESCRIPTION
#-----------   ------------------   ----------------------------------
DEPT.M        00 001 00 00         : DEPTH        - DEPTH                       
ILD .OHMM     00 120 00 00         : RESD         - DEEP RESISTIVITY (DIL)      
DPHI.V/V      00 890 00 00         : PHID         - DENSITY POROSITY (LIMESTONE)
NPHI.V/V      00 330 00 00         : PHIN         - NEUTRON POROSITY (LIMESTONE)
GR  .API      00 310 00 00         : GR           - GAMMA RAY                   
~PARAMETER INFORMATION       
#MNEM.UNIT           DATA             DESCRIPTION OF MNEMONIC
#---------         -----------     ------------------------------
GL  .M        664.6                : gl           - GROUND LEVEL ELEVATION      
EREF.M        668.7                : kb           - ELEVATION OF DEPTH REFERENCE
DATM.M        664.6                : datum        - DATUM ELEVATION             
TDD .M        566                  : tdd          - TOTAL DEPTH DRILLER         
RUN .         ONE                  : Run          - RUN NUMBER                  
ENG .         BILL                 : Engineer     - RECORDING ENGINEER          
WIT .         JIM                  : Witness      - WITNESSED BY                
MUD .         GEL                  : Mud_type     - MUD TYPE                    
MATR.         LIMESTONE            : Logunit      - NEUTRON MATRIX              
TMAX.C        25                   : BHT          - MAXIMUM RECORDED TEMPERATURE
BHTD.M        566                  : BHTDEP       - MAXIMUM RECORDED TEMPERATURE
MATR.         1                    : LOGUNIT      - NEUTRON MATRIX              
RMT .C        25                   : MDTP         - TEMPERATURE OF MUD          
NEUT.         1                    : NEUTRON      - NEUTRON TYPE                
RESI.         0                    : RESIST       - RESISTIVITY TYPE            
RMC .OHMM     0.25                 : RMC          - RESISTIVITY OF MUD CAKE     
RMF .OHMM     0.25                 : RMF          - RESISTIVITY OF MUD FILTRATE 
SUFT.C        15                   : SUFT         - SURFACE TEMPERATURE         
~A  DEPTH     RESD     PHID     PHIN       GR
# ...
  484.000    8.557    0.234    0.350   88.904
  484.250    9.427    0.212    0.349   88.669
  484.500   10.759    0.201    0.349   90.369
  484.750   12.510    0.194    0.356   94.425
  485.000   14.014    0.185    0.373   97.757
  485.250   16.417    0.181    0.385   87.913
  485.500   18.425    0.217    0.395   65.558
  485.750   19.410    0.267    0.370   55.836
  486.000   17.323    0.288    0.352   52.398
  486.250   13.851    0.291    0.343   59.416
  486.500   11.474    0.268    0.339   65.588
  486.750   11.388    0.251    0.349   70.974
  487.000   14.319    0.238    0.362   72.915
  487.250   18.173    0.251    0.404   63.555
  487.500   20.702    0.287    0.427   53.953
  487.750   23.408    0.313    0.383   45.197
  488.000   25.358    0.317    0.356   46.776
  488.250   25.784    0.294    0.371   54.216
  488.500   22.419    0.294    0.382   57.306
  488.750   18.537    0.305    0.376   59.912
  489.000   15.414    0.298    0.374   65.359
  489.250   13.204    0.277    0.366   72.497
  489.500   12.209    0.246    0.362   82.054
  489.750   14.571    0.203    0.366   86.896
  490.000   18.118    0.186    0.374   73.003
  490.250   30.182    0.220    0.380   48.110
  490.500   52.480    0.275    0.374   38.025
  490.750   77.309    0.343    0.375   36.158
  491.000  113.250    0.352    0.384   37.616
  491.250  129.251    0.354    0.394   41.189
  491.500  134.395    0.350    0.397   46.092
  491.750  122.429    0.346    0.395   51.478
  492.000  107.649    0.340    0.394   57.712
  492.250   92.046    0.333    0.393   60.982
  492.500   79.886    0.329    0.393   62.197
  492.750   71.697    0.326    0.395   61.479
  493.000   67.289    0.325    0.400   59.069
  493.250   66.039    0.321    0.411   57.928
  493.500   67.526    0.319    0.423   57.996
  493.750   69.303    0.303    0.356   55.828
  494.000   66.018    0.165    0.327   53.176
  494.250   58.702    0.161    0.323   51.732
  494.500   47.112    0.243    0.326   56.394
  494.750   38.379    0.263    0.349   61.719
  495.000   29.953    0.274    0.367   64.929
  495.250   24.446    0.279    0.383   67.113
  495.500   20.747    0.282    0.396   68.389
  495.750   17.939    0.284    0.387   68.397
  496.000   15.862    0.270    0.374   73.179
  496.250   13.690    0.255    0.362   78.745
  496.500   12.264    0.233    0.351   86.428
  496.750   11.007    0.209    0.347   91.995
  497.000    9.878    0.221    0.356   92.728
  497.250    9.288    0.239    0.366   86.027
  497.500    9.099    0.252    0.372   81.320
  497.750    8.798    0.228    0.381   89.668
  498.000    8.412    0.218    0.382   99.345
  498.250    8.569    0.222    0.349  102.253
  498.500    9.129    0.223    0.326   94.464
  498.750    9.689    0.169    0.314   87.884
  499.000   10.340    0.155    0.306   84.930
  499.250   10.672    0.153    0.299   83.911
  499.500   10.811    0.151    0.293   83.796
  499.750   10.770    0.150    0.289   83.199
  500.000   10.748    0.160    0.293   82.178
  500.250   10.608    0.176    0.322   82.125
  500.500   10.567    0.191    0.335   84.431
  500.750   10.586    0.193    0.329   86.915
  501.000   10.723    0.190    0.328   86.740
  501.250   10.883    0.198    0.328   78.831
  501.500   11.004    0.233    0.323   69.108
  501.750   11.065    0.252    0.317   65.791
  502.000   11.147    0.230    0.314   70.392
  502.250   11.461    0.202    0.331   74.026
  502.500   12.232    0.211    0.347   69.620
  502.750   12.461    0.246    0.344   60.199
  503.000   13.274    0.268    0.334   57.064
  503.250   14.140    0.248    0.348   65.172
  503.500   14.896    0.230    0.358   68.924
  503.750   15.317    0.260    0.379   69.173
  504.000   16.226    0.285    0.401   65.133
  504.250   16.468    0.292    0.389   64.353
  504.500   16.314    0.277    0.369   64.361
  504.750   15.774    0.265    0.352   65.940
  505.000   13.388    0.238    0.334   68.424
  505.250   11.641    0.200    0.323   72.239
  505.500   10.703    0.183    0.313   75.752
  505.750   10.102    0.166    0.310   80.776
  506.000    9.749    0.149    0.316   86.223
  506.250    9.568    0.135    0.329   91.064
  506.500    9.532    0.135    0.337   98.384
  506.750    9.478    0.138    0.324   98.634
  507.000    9.441    0.147    0.312   92.537
  507.250    9.423    0.155    0.307   86.016
  507.500    9.439    0.156    0.321   90.556
  507.750    9.403    0.152    0.323   94.251
  508.000    9.263    0.154    0.323   96.312
  508.250    9.058    0.151    0.336   98.858
  508.500    8.840    0.144    0.351  103.036
  508.750    8.757    0.140    0.351  103.527
  509.000    8.756    0.165    0.351   93.864
  509.250    8.771    0.195    0.351   82.268
  509.500    8.869    0.211    0.349   73.695
  509.750    8.402    0.225    0.350   69.712
  510.000    8.079    0.238    0.358   65.307
  510.250    7.855    0.244    0.354   62.473
  510.500    7.638    0.246    0.352   60.063
  510.750    7.468    0.251    0.369   60.675
  511.000    7.316    0.258    0.375   63.404
  511.250    7.126    0.263    0.361   66.734
  511.500    7.073    0.264    0.360   71.274
  511.750    6.955    0.265    0.359   72.731
  512.000    6.800    0.261    0.353   73.222
  512.250    6.712    0.257    0.353   72.263
  512.500    6.501    0.256    0.359   71.061
  512.750    6.252    0.257    0.363   71.552
  513.000    5.600    0.266    0.374   68.054
  513.250    4.970    0.286    0.384   52.891
  513.500    4.553    0.323    0.381   44.377
  513.750    4.337    0.332    0.368   38.219
  514.000    4.289    0.335    0.353   36.716
  514.250    4.468    0.325    0.342   37.812
  514.500    4.698    0.305    0.330   39.752
  514.750    5.098    0.290    0.320   42.661
  515.000    5.271    0.279    0.321   43.636
  515.250    5.420    0.273    0.330   42.858
  515.500    5.625    0.272    0.332   42.805
  515.750    5.763    0.277    0.320   43.536
  516.000    6.037    0.279    0.310   46.868
  516.250    6.443    0.265    0.299   55.578
  516.500    7.058    0.189    0.274   68.035
  516.750    7.848    0.153    0.267   76.564
  517.000    8.597    0.139    0.323   80.681
  517.250    9.074    0.099    0.312   82.199
  517.500    8.806    0.063    0.312   82.508
  517.750    8.143    0.159    0.357   81.550
  518.000    7.757    0.184    0.345   80.830
  518.250    7.684    0.198    0.347   83.859
  518.500    7.755    0.185    0.359   90.636
  518.750    7.841    0.172    0.356   95.659
  519.000    8.062    0.166    0.356   96.513
  519.250    8.168    0.166    0.362   95.855
  519.500    8.289    0.163    0.363   95.077
  519.750    8.382    0.169    0.368   94.721
  520.000    8.428    0.167    0.378   94.366
  520.250    8.443    0.156    0.381   92.258
  520.500    8.489    0.156    0.368   89.546
  520.750    8.552    0.173    0.359   89.192
  521.000    8.663    0.168    0.358   89.319
  521.250    8.775    0.162    0.362   90.112
  521.500    8.742    0.171    0.363   91.086
  521.750    8.469    0.180    0.365   92.423
  522.000    8.174    0.159    0.371   93.035
  522.250    8.280    0.147    0.370   92.801
  522.500    8.419    0.142    0.359   87.187
  522.750    8.624    0.142    0.350   85.382
  523.000    8.688    0.143    0.345   88.412
  523.250    8.671    0.150    0.351   90.654
  523.500    8.542    0.157    0.363   93.683
  523.750    8.462    0.151    0.367   95.563
  524.000    8.367    0.150    0.343   97.444
  524.250    8.166    0.151    0.330  101.199
  524.500    7.721    0.157    0.354  104.712
  524.750    7.193    0.166    0.374  104.538
  525.000    6.424    0.188    0.394  100.737
  525.250    6.233    0.177    0.352   96.098
  525.500    5.925    0.167    0.339   87.183
  525.750    5.435    0.168    0.399   79.838
  526.000    5.023    0.215    0.390   74.729
  526.250    4.739    0.237    0.361   81.874
  526.500    4.581    0.255    0.373   96.208
  526.750    4.486    0.234    0.389  101.302
  527.000    4.378    0.219    0.407   98.486
  527.250    4.153    0.211    0.417   82.505
