~VERSION INFORMATION
 VERS.                 2.0:   CWLS LOG ASCII STANDARD -VERSION 2.0
 WRAP.                  NO:   ONE LINE PER DEPTH STEP
~WELL INFORMATION BLOCK
#MNEM.UNIT           DATA                    DESCRIPTION OF MNEMONIC
#---------    -------------------            -------------------------------
# Generated from Intellog Unique Number	CW_82_90/WELL/3069
WELL.         GULF LIVOCK EV                 : Well_name    - WELL
LOC .         00/08-05-086-22W4/0            : Location     - LOCATION
UWI .         00/08-05-086-22W4/0            : Uwi          - UNIQUE WELL ID
ENTR.         MAX                            : Entered      - ENTERED BY
SRVC.         SCHLUMBERGER                   : Scn          - SERVICE COMPANY
STRT.M        167.64                         : top_depth    - START DEPTH
STOP.M        371.89                         : bot_depth    - STOP DEPTH
STEP.M        0.25                           : increment    - STEP LENGTH
 NULL. -999.2500:NULL Value
~CURVE INFORMATION BLOCK
#MNEM UNIT       ERCB CURVE CODE    CURVE DESCRIPTION
#-----------   ------------------   ----------------------------------
DEPT.M        00 001 00 00         : DEPTH        - DEPTH
ILD .OHMM     00 120 00 00         : RESD         - DEEP RESISTIVITY (DIL)
NPHI.V/V      00 330 00 00         : PHIN         - NEUTRON POROSITY (SANDSTONE)
DPHI.V/V      00 890 00 00         : PHID         - DENSITY POROSITY (SANDSTONE)
CALI.MM       00 280 01 00         : CAL          - CALIPER
GR  .API      00 310 00 00         : GR           - GAMMA RAY
~PARAMETER INFORMATION
#MNEM.UNIT           DATA             DESCRIPTION OF MNEMONIC
#---------         -----------     ------------------------------
GL  .M        575.767              : gl           - GROUND LEVEL ELEVATION
EREF.M        577.291              : kb           - ELEVATION OF DEPTH REFERENCE
DATM.M        575.767              : datum        - DATUM ELEVATION
TDD .M        374.904              : tdd          - TOTAL DEPTH DRILLER
RUN .         ONE                  : Run          - RUN NUMBER
ENG .         BILL                 : Engineer     - RECORDING ENGINEER
WIT .         JIM                  : Witness      - WITNESSED BY
MUD .         GEL                  : Mud_type     - MUD TYPE
MATR.         SANDSTONE            : Logunit      - NEUTRON MATRIX
TMAX.C        21.1111              : BHT          - MAXIMUM RECORDED TEMPERATURE
BHTD.M        374.904              : BHTDEP       - MAXIMUM RECORDED TEMPERATURE
MATR.         1                    : LOGUNIT      - NEUTRON MATRIX
RMT .C        16.6667              : MDTP         - TEMPERATURE OF MUD
NEUT.         1                    : NEUTRON      - NEUTRON TYPE
RESI.         0                    : RESIST       - RESISTIVITY TYPE
RMC .OHMM     6.2                  : RMC          - RESISTIVITY OF MUD CAKE
RMF .OHMM     6.2                  : RMF          - RESISTIVITY OF MUD FILTRATE
SUFT.C        -23.3333             : SUFT         - SURFACE TEMPERATURE
~A  DEPTH     RESD     PHIN     PHID      CAL       GR
# ...
  313.640   17.475    0.430    0.175  167.047   89.341
  313.890   17.935    0.418    0.168  166.971   89.009
  314.140   17.116    0.407    0.161  166.903   86.050
  314.390   15.764    0.377    0.114  166.834   83.086
  314.640   14.126    0.379    0.115  167.746   83.046
  314.890   12.773    0.410    0.166  170.150   86.216
  315.140   11.346    0.450    0.189  172.536   93.473
  315.390   10.261    0.477    0.200  173.968  103.941
  315.640    9.277    0.497    0.195  176.371  101.848
  315.890    8.775    0.496    0.191  178.271  100.650
  316.140    8.687    0.484    0.176  179.192   98.843
  316.390    8.830    0.475    0.154  178.127   97.349
  316.640    9.564    0.465    0.128  176.576   95.849
  316.890   10.544    0.471    0.122  172.553   97.852
  317.140   11.629    0.470    0.165  172.477  103.066
  317.390   13.293    0.480    0.179  174.880  102.729
  317.640   15.896    0.460    0.160  174.812   95.391
  317.890   18.336    0.396    0.152  173.755   87.762
  318.140   20.218    0.375    0.112  171.710   81.587
  318.390   20.006    0.406    0.098  169.162   81.254
  318.640   18.927    0.458    0.147  169.094   84.712
  318.890   17.269    0.444    0.184  169.017   88.753
  319.140   15.757    0.422    0.179  168.447   88.708
  319.390   14.509    0.413    0.166  167.876   88.094
  319.640   13.727    0.403    0.153  168.805   86.292
  319.890   13.223    0.395    0.111  170.228   86.836
  320.140   13.084    0.497    0.140  170.151   90.303
  320.390   12.948    0.521    0.164  170.577   96.393
  320.640   13.048    0.505    0.173  170.509   90.515
  320.890   13.148    0.478    0.153  170.424   82.297
  321.140   13.246    0.447    0.136  170.859   77.868
  321.390   13.466    0.478    0.158  170.791   84.838
  321.640   13.818    0.463    0.173  171.208   90.636
  321.890   13.799    0.453    0.161  171.626   91.174
  322.140   13.531    0.438    0.155  171.567   89.675
  322.390   13.032    0.428    0.161  171.993   91.099
  322.640   12.667    0.433    0.174  171.916   94.848
  322.890   12.202    0.471    0.171  172.334   98.890
  323.140   11.648    0.526    0.163  172.274  102.936
  323.390   11.422    0.532    0.164  170.706  104.068
  323.640   11.201    0.501    0.167  169.650  100.525
  323.890   10.988    0.454    0.148  169.087   98.145
  324.140   10.676    0.440    0.101  169.019  102.775
  324.390   10.568    0.456    0.117  169.437  106.530
  324.640   10.649    0.460    0.142  171.354  111.446
  324.890   11.326    0.475    0.135  170.792  108.784
  325.140   12.483    0.446    0.107  172.207  104.652
  325.390   13.162    0.372    0.058  171.133   99.358
  325.640   14.381    0.359    0.029  169.590   94.930
  325.890   14.622    0.377    0.118  169.020   97.230
  326.140   14.344    0.408    0.170  168.943  105.070
  326.390   14.982    0.431    0.164  169.863  102.982
  326.640   17.278    0.432    0.162  170.784   98.558
  326.890   18.884    0.427    0.158  170.707   96.475
  327.140   21.587    0.417    0.146  170.153   94.094
  327.390   24.019    0.317    0.089  165.628   88.800
  327.640   24.643    0.276    0.041  165.057   81.166
  327.890   23.953    0.293    0.017  164.998   76.455
  328.140   20.705    0.343    0.050  163.941   77.290
  328.390   17.737    0.380    0.132  162.868   81.337
  328.640   16.932    0.393    0.163  162.791   85.383
  328.890   16.906    0.390    0.162  162.731   88.549
  329.140   18.308    0.388    0.160  162.160   89.968
  329.390   20.188    0.391    0.171  162.092   91.085
  329.640   21.863    0.391    0.155  162.033   91.347
  329.890   23.250    0.377    0.140  161.965   86.345
  330.140   24.074    0.354    0.115  161.871   81.921
  330.390   24.259    0.329    0.079  161.803   78.076
  330.640   22.130    0.330    0.103  161.735   80.371
  330.890   20.018    0.351    0.134  161.658   82.671
  331.140   18.262    0.384    0.158  161.607   85.258
  331.390   18.070    0.400    0.163  161.522   88.428
  331.640   18.542    0.399    0.166  161.957   91.594
  331.890   20.081    0.388    0.167  162.374   93.013
  332.140   22.142    0.369    0.161  162.809   91.800
  332.390   24.412    0.360    0.140  163.227   88.554
  332.640   26.204    0.329    0.109  164.650   83.255
  332.890   27.872    0.298    0.023  166.533   80.004
  333.140   27.579    0.311    0.018  166.968   81.413
  333.390   25.858    0.348    0.080  167.394   85.756
  333.640   21.755    0.337    0.095  167.335   83.381
  333.890   19.324    0.336    0.073  167.258   84.508
  334.140   17.625    0.368    0.134  167.181   89.430
  334.390   16.531    0.401    0.159  167.122   95.223
  334.640   15.494    0.448    0.145  167.045   98.977
  334.890   14.791    0.447    0.130  166.977   97.181
  335.140   13.500    0.435    0.113  166.900   93.351
  335.390   12.095    0.420    0.004  165.827   86.300
  335.640   11.241    0.406   -0.008  164.779   81.882
  335.890   10.253    0.437    0.039  167.676   89.723
  336.140    9.880    0.457    0.134  170.079  100.774
  336.390    9.428    0.476    0.166  172.474  108.615
  336.640    9.162    0.491    0.155  172.909  107.116
  336.890    8.907    0.477    0.154  172.338   99.773
  337.140    8.733    0.478    0.141  170.779   97.976
  337.390    8.722    0.495    0.131  170.216   96.467
  337.640    8.710    0.474    0.115  169.654   94.972
  337.890    8.776    0.451    0.061  169.091   95.516
  338.140    8.844    0.433    0.097  168.521   99.567
  338.390    9.238    0.460    0.157  167.464  106.532
  338.640    9.737    0.459    0.143  166.902  109.406
  338.890   10.452    0.445    0.159  166.833  111.701
  339.140   11.948    0.442    0.175  166.271   94.726
  339.390   15.218    0.443    0.193  165.709   82.129
  339.640   19.914    0.419    0.233  165.138   66.905
  339.890   26.773    0.408    0.260  164.064   51.098
  340.140   39.751    0.405    0.276  163.519   46.090
  340.390   51.550    0.396    0.262  162.948   45.466
  340.640   48.332    0.401    0.242  162.880   47.761
  340.890   29.131    0.406    0.237  162.803   51.516
  341.140   19.922    0.413    0.230  162.744   57.605
  341.390   15.595    0.454    0.202  163.144   73.327
  341.640   13.978    0.475    0.181  163.093   96.644
  341.890   12.986    0.481    0.135  164.014  104.781
  342.140   12.622    0.434    0.130  165.428   92.477
  342.390   12.716    0.400    0.114  166.834   76.075
  342.640   13.523    0.436    0.167  167.746   86.845
  342.890   14.648    0.514    0.181  167.184   98.481
  343.140   16.151    0.490    0.205  164.133   91.138
  343.390   19.665    0.480    0.234  163.571   82.049
  343.640   26.924    0.464    0.218  163.520   72.955
  343.890   43.352    0.424    0.179  162.923   62.986
  344.140   50.915    0.314    0.146  162.881   57.968
  344.390   34.501    0.287    0.102  164.287   57.646
  344.640   29.555    0.353    0.081  167.687   61.984
  344.890   26.966    0.402    0.163  171.071   73.620
  345.140   27.419    0.426    0.189  171.480   81.461
  345.390   29.169    0.444    0.211  170.926   82.583
  345.640   35.196    0.460    0.236  169.878   77.877
  345.890   42.088    0.470    0.258  171.284   80.172
  346.140   51.244    0.459    0.274  174.676   84.511
  346.390   64.683    0.455    0.275  177.071   92.638
  346.640   73.941    0.464    0.267  178.000   97.857
  346.890   76.535    0.474    0.262  179.909  103.650
  347.140   75.078    0.477    0.264  181.792   99.231
  347.390   70.367    0.480    0.269  183.215   91.310
  347.640   64.796    0.485    0.272  185.133   82.508
  347.890   58.581    0.486    0.273  187.527   73.706
  348.140   55.431    0.477    0.272  190.425   66.363
  348.390   52.432    0.459    0.267  192.334   63.112
  348.640   50.053    0.437    0.264  194.226   62.473
  348.890   47.791    0.435    0.248  195.146   61.270
  349.140   46.444    0.420    0.235  195.564   58.316
  349.390   45.551    0.419    0.229  196.007   50.088
  349.640   43.863    0.413    0.236  195.445   48.004
  349.890   40.029    0.406    0.278  194.380   47.385
