~VERSION INFORMATION
 VERS.                 2.0:   CWLS LOG ASCII STANDARD -VERSION 2.0
 WRAP.                  NO:   ONE LINE PER DEPTH STEP
~WELL INFORMATION BLOCK
#MNEM.UNIT           DATA                    DESCRIPTION OF MNEMONIC
#---------    -------------------            -------------------------------
# Generated from Intellog Unique Number	CS_73_76/WELL/2169
WELL.         CANADA CITIES SERVICE LTD      : Well_name    - WELL
LOC .         00/06-26-074-03W4/0            : Location     - LOCATION
UWI .         00/06-26-074-03W4/0            : Uwi          - UNIQUE WELL ID
ENTR.         SP                             : Entered      - ENTERED BY
SRVC.         SCHLUMBERGER                   : Scn          - SERVICE COMPANY
STRT.M        310                            : top_depth    - START DEPTH
STOP.M        555                            : bot_depth    - STOP DEPTH
STEP.M        0.25                           : increment    - STEP LENGTH
 NULL. -999.2500:NULL Value
~CURVE INFORMATION BLOCK
#MNEM UNIT       ERCB CURVE CODE    CURVE DESCRIPTION
#-----------   ------------------   ----------------------------------
DEPT.M        00 001 00 00         : DEPTH        - DEPTH
ILD .OHMM     00 120 00 00         : RESD         - DEEP RESISTIVITY (DIL)
DPHI.V/V      00 890 00 00         : PHID         - DENSITY POROSITY (LIMESTONE)
NPHI.V/V      00 330 00 00         : PHIN         - NEUTRON POROSITY (LIMESTONE)
GR  .API      00 310 00 00         : GR           - GAMMA RAY
~PARAMETER INFORMATION
#MNEM.UNIT           DATA             DESCRIPTION OF MNEMONIC
#---------         -----------     ------------------------------
GL  .M        657.2                : gl           - GROUND LEVEL ELEVATION
EREF.M        660.66               : kb           - ELEVATION OF DEPTH REFERENCE
DATM.M        657.2                : datum        - DATUM ELEVATION
TDD .M        570                  : tdd          - TOTAL DEPTH DRILLER
RUN .         ONE                  : Run          - RUN NUMBER
ENG .         BILL                 : Engineer     - RECORDING ENGINEER
WIT .         JIM                  : Witness      - WITNESSED BY
MUD .         GEL                  : Mud_type     - MUD TYPE
MATR.         LIMESTONE            : Logunit      - NEUTRON MATRIX
TMAX.C        10                   : BHT          - MAXIMUM RECORDED TEMPERATURE
BHTD.M        570                  : BHTDEP       - MAXIMUM RECORDED TEMPERATURE
MATR.         1                    : LOGUNIT      - NEUTRON MATRIX
RMT .C        25                   : MDTP         - TEMPERATURE OF MUD
NEUT.         1                    : NEUTRON      - NEUTRON TYPE
RESI.         0                    : RESIST       - RESISTIVITY TYPE
RMC .OHMM     0.25                 : RMC          - RESISTIVITY OF MUD CAKE
RMF .OHMM     0.25                 : RMF          - RESISTIVITY OF MUD FILTRATE
SUFT.C        15                   : SUFT         - SURFACE TEMPERATURE
~A  DEPTH     RESD     PHID     PHIN       GR
  310.000    2.845    0.227    0.532   90.472
  310.250    2.901    0.219    0.528   88.633
  310.500    2.958    0.217    0.528   88.617
  310.750    3.015    0.228    0.537   91.031
  311.000    3.074    0.222    0.545   91.012
  311.250    3.194    0.210    0.492   95.248
  311.500    3.317    0.225    0.500   97.658
  311.750    3.446    0.238    0.510   98.249
  312.000    3.580    0.219    0.509   98.840
  312.250    3.650    0.219    0.518   96.392
  312.500    3.721    0.188    0.521   96.986
  312.750    3.654    0.178    0.509  100.006
  313.000    3.589    0.184    0.493  102.418
  313.250    3.460    0.192    0.490  104.827
  313.500    3.274    0.190    0.496  107.240
  313.750    3.099    0.207    0.510  105.403
  314.000    3.043    0.214    0.535  101.131
  314.250    2.933    0.223    0.563   98.689
  314.500    2.935    0.220    0.555   95.636
  314.750    2.992    0.223    0.557   96.833
  315.000    3.108    0.223    0.558  101.674
  315.250    3.353    0.230    0.563   99.226
  315.500    3.418    0.226    0.534   97.999
  315.750    3.420    0.226    0.524   99.198
  316.000    3.422    0.217    0.521   99.180
  316.250    3.299    0.207    0.529   96.122
  316.500    3.180    0.217    0.532   94.288
  316.750    3.066    0.217    0.531   94.876
  317.000    2.901    0.218    0.513   96.074
  317.250    2.849    0.230    0.525   98.490
  317.500    2.851    0.229    0.535   97.254
  317.750    2.962    0.218    0.532   94.809
  318.000    3.076    0.196    0.518   93.578
  318.250    3.255    0.151    0.556   91.136
  318.500    3.713    0.116    0.569   87.477
  318.750    4.234    0.092    0.546   83.814
  319.000    5.203    0.128    0.452   81.370
  319.250    6.046    0.168    0.433   81.350
  319.500    6.519    0.208    0.446   78.298
  319.750    6.646    0.252    0.448   77.069
  320.000    6.776    0.259    0.435   79.481
  320.250    6.654    0.253    0.431   83.106
  320.500    6.416    0.259    0.418   84.305
  320.750    6.301    0.247    0.433   84.288
  321.000    6.546    0.261    0.439   84.879
  321.250    6.927    0.268    0.440   80.612
  321.500    7.471    0.287    0.428   77.558
  321.750    7.758    0.240    0.417   76.936
  322.000    8.061    0.224    0.417   80.562
  322.250    8.065    0.219    0.397   80.543
  322.500    8.225    0.200    0.389   81.743
  322.750    8.228    0.189    0.392   85.365
  323.000    7.932    0.195    0.399   87.174
  323.250    7.647    0.198    0.406   88.367
  323.500    7.510    0.200    0.416   88.954
  323.750    7.377    0.210    0.423   89.549
  324.000    7.381    0.205    0.415   90.144
  324.250    7.387    0.211    0.425   84.055
  324.500    7.391    0.235    0.441   83.432
  324.750    7.536    0.251    0.453   77.948
  325.000    7.541    0.278    0.438   74.289
  325.250    7.546    0.296    0.432   76.700
  325.500    7.553    0.289    0.450   74.860
  325.750    7.419    0.295    0.458   74.845
  326.000    7.424    0.301    0.450   77.258
  326.250    7.567    0.295    0.439   80.277
  326.500    7.572    0.290    0.435   84.508
  326.750    7.578    0.279    0.447   86.924
  327.000    7.584    0.268    0.453   88.729
  327.250    7.732    0.265    0.449   89.921
  327.500    7.736    0.237    0.454   89.909
  327.750    7.743    0.237    0.438   88.676
  328.000    7.747    0.237    0.424   88.054
  328.250    7.752    0.234    0.415   85.608
  328.500    7.614    0.246    0.410   80.126
  328.750    7.481    0.251    0.424   75.857
  329.000    7.484    0.255    0.447   74.626
  329.250    7.351    0.239    0.461   73.397
  329.500    7.219    0.242    0.470   70.951
  329.750    7.092    0.254    0.470   68.506
  330.000    7.095    0.255    0.464   71.521
  330.250    6.971    0.250    0.468   73.332
  330.500    6.846    0.223    0.472   73.314
  330.750    6.723    0.220    0.466   75.116
  331.000    6.603    0.216    0.454   75.709
  331.250    6.367    0.210    0.465   78.718
  331.500    6.252    0.209    0.481   80.530
  331.750    6.027    0.228    0.483   82.939
  332.000    5.810    0.227    0.458   84.750
  332.250    5.707    0.230    0.457   87.159
  332.500    5.604    0.237    0.456   88.360
  332.750    5.822    0.228    0.449   90.166
  333.000    5.937    0.236    0.463   89.540
  333.250    6.167    0.248    0.471   84.666
  333.500    6.404    0.271    0.467   81.612
  333.750    6.530    0.261    0.428   82.203
  334.000    6.658    0.232    0.435   85.223
  334.250    6.662    0.236    0.445   85.810
  334.500    6.669    0.243    0.456   87.010
  334.750    6.672    0.250    0.457   88.813
  335.000    6.676    0.242    0.473   93.658
  335.250    6.436    0.230    0.479   93.639
  335.500    6.203    0.233    0.474   89.374
  335.750    5.871    0.223    0.459   85.106
  336.000    5.659    0.225    0.442   82.661
  336.250    5.354    0.203    0.434   86.894
  336.500    5.161    0.161    0.433   96.594
  336.750    4.794    0.149    0.474  104.470
  337.000    4.536    0.139    0.476  108.703
  337.250    4.292    0.125    0.483  113.545
  337.500    3.986    0.168    0.486  118.386
  337.750    3.842    0.211    0.501  114.112
  338.000    3.503    0.217    0.515  112.888
  338.250    3.376    0.197    0.528  112.262
  338.500    3.254    0.213    0.535  111.639
  338.750    3.079    0.194    0.531  111.624
  339.000    2.969    0.213    0.537  112.208
  339.250    2.915    0.212    0.530  112.194
  339.500    2.973    0.224    0.534  109.750
  339.750    3.205    0.240    0.525  106.089
  340.000    3.521    0.240    0.515  103.645
  340.250    4.016    0.257    0.505  101.198
  340.500    4.666    0.279    0.494   97.540
  340.750    5.421    0.271    0.473   95.702
  341.000    5.737    0.296    0.503   93.255
  341.250    6.072    0.367    0.535   87.776
  341.500    6.309    0.343    0.558   79.865
  341.750    6.312    0.303    0.554   74.378
  342.000    6.201    0.274    0.462   70.713
  342.250    6.089    0.276    0.440   69.488
  342.500    5.981    0.280    0.435   67.643
  342.750    5.873    0.292    0.433   66.419
  343.000    5.769    0.293    0.442   65.188
  343.250    5.772    0.313    0.444   66.993
  343.500    5.779    0.313    0.445   70.620
  343.750    5.783    0.317    0.453   70.606
  344.000    5.786    0.325    0.459   73.622
  344.250    5.789    0.318    0.467   78.463
  344.500    5.794    0.302    0.468   82.089
  344.750    5.796    0.302    0.467   82.684
  345.000    5.801    0.308    0.451   79.621
  345.250    5.806    0.314    0.447   79.613
  345.500    5.809    0.311    0.438   79.595
  345.750    5.812    0.308    0.427   80.186
  346.000    5.818    0.305    0.428   79.563
  346.250    5.713    0.292    0.442   75.903
  346.500    5.719    0.283    0.444   69.813
  346.750    5.721    0.281    0.428   64.333
  347.000    5.726    0.284    0.413   66.742
  347.250    5.729    0.300    0.415   66.117
  347.500    5.626    0.313    0.416   67.314
  347.750    5.630    0.291    0.421   73.368
  348.000    5.634    0.273    0.418   76.393
  348.250    5.638    0.260    0.421   75.770
  348.500    5.642    0.259    0.431   66.034
  348.750    5.647    0.259    0.436   61.163
  349.000    5.650    0.274    0.419   64.175
  349.250    5.655    0.277    0.404   67.202
  349.500    5.658    0.265    0.412   75.076
  349.750    5.770    0.248    0.420   82.955
  350.000    5.774    0.250    0.427   87.189
  350.250    5.777    0.231    0.437   88.995
  350.500    5.780    0.209    0.429   90.799
  350.750    5.784    0.217    0.424   91.996
  351.000    5.789    0.223    0.435   90.765
  351.250    5.685    0.238    0.448   88.318
  351.500    5.584    0.231    0.448   87.696
  351.750    5.485    0.244    0.434   82.821
  352.000    5.489    0.260    0.441   76.126
  352.250    5.390    0.288    0.446   70.643
  352.500    5.393    0.312    0.454   65.770
  352.750    5.299    0.318    0.459   63.324
  353.000    5.301    0.322    0.459   69.374
  353.250    5.304    0.318    0.442   71.788
