~VERSION INFORMATION
 VERS.                 2.0:   CWLS LOG ASCII STANDARD -VERSION 2.0
 WRAP.                  NO:   ONE LINE PER DEPTH STEP
~WELL INFORMATION BLOCK
#MNEM.UNIT           DATA                    DESCRIPTION OF MNEMONIC
#---------    -------------------            -------------------------------
# Generated from Intellog Unique Number	CS_77_79/WELL/887
WELL.         MESA PORTAGE                   : Well_name    - WELL
LOC .         00/06-33-078-18W4/0            : Location     - LOCATION
UWI .         00/06-33-078-18W4/0            : Uwi          - UNIQUE WELL ID
ENTR.         JHS                            : Entered      - ENTERED BY
SRVC.         SCHLUMBERGER                   : Scn          - SERVICE COMPANY
STRT.M        213.360                        : top_depth    - START DEPTH
STOP.M        396.110                        : bot_depth    - STOP DEPTH
STEP.M        0.25                           : increment    - STEP LENGTH
 NULL. -999.2500:NULL Value
~CURVE INFORMATION BLOCK
#MNEM UNIT       ERCB CURVE CODE    CURVE DESCRIPTION
#-----------   ------------------   ----------------------------------
DEPT.M        00 001 00 00         : DEPTH        - DEPTH
RHOB.KG/M3    00 350 00 00         : DENS         - BULK DENSITY
GR  .API      00 310 00 00         : GR           - GAMMA RAY
DPHI.V/V      00 890 00 00         : PHID         - DENSITY POROSITY (SANDSTONE)
NPHI.V/V      00 330 00 00         : PHIN         - NEUTRON POROSITY (SANDSTONE)
ILD .OHMM     00 120 00 00         : RESD         - DEEP RESISTIVITY (DIL)
~PARAMETER INFORMATION
#MNEM.UNIT           DATA             DESCRIPTION OF MNEMONIC
#---------         -----------     ------------------------------
GL  .M        552.816              : gl           - GROUND LEVEL ELEVATION
EREF.M        555.955              : kb           - ELEVATION OF DEPTH REFERENCE
DATM.M        555.955              : datum        - DATUM ELEVATION
TDD .M        422.148              : tdd          - TOTAL DEPTH DRILLER
RUN .         ONE                  : Run          - RUN NUMBER
ENG .         BILL                 : Engineer     - RECORDING ENGINEER
WIT .         JIM                  : Witness      - WITNESSED BY
MUD .         GEL                  : Mud_type     - MUD TYPE
MATR.         SANDSTONE            : Logunit      - NEUTRON MATRIX
TMAX.C        21.1111              : BHT          - MAXIMUM RECORDED TEMPERATURE
BHTD.M        422.148              : BHTDEP       - MAXIMUM RECORDED TEMPERATURE
MATR.         1                    : LOGUNIT      - NEUTRON MATRIX
RMT .C        25                   : MDTP         - TEMPERATURE OF MUD
NEUT.         1                    : NEUTRON      - NEUTRON TYPE
RESI.         0                    : RESIST       - RESISTIVITY TYPE
RMC .OHMM     0.25                 : RMC          - RESISTIVITY OF MUD CAKE
RMF .OHMM     0.25                 : RMF          - RESISTIVITY OF MUD FILTRATE
SUFT.C        15                   : SUFT         - SURFACE TEMPERATURE
~A  DEPTH     DENS       GR     PHID     PHIN     RESD
  213.360    0.000   96.391    0.408    0.521    6.547
  213.610    0.000   92.554    0.369    0.521    6.494
  213.860    0.000   86.814    0.425    0.549    6.934
  214.110    0.000   80.388    0.443    0.576    7.700
  214.360    0.000   77.791    0.296    0.492    9.083
  214.610    0.000   79.064    0.299    0.442   11.457
  214.860    0.000   83.048    0.308    0.458   13.100
  215.110    0.000   89.782    0.328    0.475   13.872
  215.360    0.000   90.905    0.304    0.479   13.952
  215.610    0.000   88.505    0.322    0.486   13.087
  215.860    0.000   91.545    0.308    0.469   12.516
  216.110    0.000   92.330    0.321    0.465   11.630
  216.360    0.000   93.596    0.354    0.482   10.868
  216.610    0.000   95.175    0.346    0.467   10.565
  216.860    0.000   98.912    0.319    0.451   10.454
  217.110    0.000  102.387    0.285    0.437   10.030
  217.360    0.000  101.908    0.285    0.432    9.646
  217.610    0.000   99.877    0.286    0.440    9.213
  217.860    0.000   94.899    0.319    0.476    9.292
  218.110    0.000   69.919    0.362    0.502    9.606
  218.360    0.000   60.724    0.345    0.476   10.213
  218.610    0.000   56.692    0.310    0.468   11.174
  218.860    0.000   54.455    0.305    0.473   11.969
  219.110    0.000   53.925    0.298    0.471   13.126
  219.360    0.000   54.034    0.308    0.496   13.721
  219.610    0.000   52.757    0.332    0.479   14.925
  219.860    0.000   52.070    0.340    0.473   15.209
  220.110    0.000   53.928    0.340    0.476   15.165
  220.360    0.000   59.232    0.329    0.477   14.451
  220.610    0.000   60.964    0.341    0.474   13.151
  220.860    0.000   61.860    0.328    0.478   10.894
  221.110    0.000   62.932    0.319    0.477    9.237
  221.360    0.000   62.798    0.320    0.464    8.441
  221.610    0.000   61.756    0.319    0.462    8.327
  221.860    0.000   60.705    0.327    0.473    8.596
  222.110    0.000   59.730    0.337    0.463    8.959
  222.360    0.000   56.379    0.342    0.475   10.049
  222.610    0.000   51.694    0.331    0.459   11.852
  222.860    0.000   50.531    0.324    0.445   13.745
  223.110    0.000   49.981    0.324    0.440   15.001
  223.360    0.000   47.592    0.329    0.442   16.403
  223.610    0.000   48.414    0.340    0.446   17.253
  223.860    0.000   51.008    0.341    0.438   17.429
  224.110    0.000   52.593    0.331    0.440   17.816
  224.360    0.000   55.783    0.339    0.448   17.802
  224.610    0.000   57.128    0.359    0.447   17.535
  224.860    0.000   57.661    0.364    0.446   16.883
  225.110    0.000   57.317    0.357    0.456   16.227
  225.360    0.000   59.176    0.354    0.457   15.581
  225.610    0.000   62.048    0.363    0.458   14.456
  225.860    0.000   63.986    0.334    0.471   13.264
  226.110    0.000   66.639    0.323    0.484   11.556
  226.360    0.000   68.806    0.309    0.497    9.991
  226.610    0.000   70.012    0.313    0.507    8.603
  226.860    0.000   70.170    0.323    0.498    7.487
  227.110    0.000   72.180    0.320    0.497    6.523
  227.360    0.000   77.873    0.315    0.509    5.789
  227.610    0.000   81.523    0.332    0.532    5.150
  227.860    0.000   83.422    0.356    0.553    4.936
  228.110    0.000   82.956    0.347    0.530    5.314
  228.360    0.000   81.298    0.299    0.487    6.203
  228.610    0.000   79.690    0.306    0.475    7.611
  228.860    0.000   77.611    0.308    0.468    9.046
  229.110    0.000   77.067    0.342    0.465    9.644
  229.360    0.000   75.608    0.384    0.461    9.270
  229.610    0.000   70.804    0.437    0.478    8.718
  229.860    0.000   66.447    0.455    0.526    8.421
  230.110    0.000   67.134    0.238    0.559    8.164
  230.360    0.000   69.639    0.245    0.483    8.170
  230.610    0.000   73.575    0.280    0.457    8.206
  230.860    0.000   71.605    0.252    0.466    8.600
  231.110    0.000   63.977    0.272    0.482    9.117
  231.360    0.000   64.124    0.309    0.468    9.673
  231.610    0.000   74.757    0.317    0.461   10.117
  231.860    0.000   82.469    0.319    0.482   10.029
  232.110    0.000   86.645    0.325    0.496    9.131
  232.360    0.000   87.968    0.315    0.501    7.471
  232.610    0.000   83.564    0.300    0.512    6.110
  232.860    0.000   67.826    0.325    0.530    5.568
  233.110    0.000   57.603    0.326    0.556    5.552
  233.360    0.000   49.073    0.308    0.568    6.990
  233.610    0.000   46.951    0.338    0.531   10.474
  233.860    0.000   46.977    0.347    0.490   16.809
  234.110    0.000   46.185    0.350    0.471   23.530
  234.360    0.000   44.511    0.371    0.489   31.045
  234.610    0.000   46.114    0.364    0.502   36.749
  234.860    0.000   47.017    0.362    0.483   41.843
  235.110    0.000   46.583    0.371    0.472   45.530
  235.360    0.000   46.914    0.360    0.467   49.999
  235.610    0.000   50.033    0.353    0.468   51.109
  235.860    0.000   52.745    0.346    0.466   45.390
  236.110    0.000   52.864    0.357    0.458   35.950
  236.360    0.000   50.680    0.352    0.449   27.677
  236.610    0.000   53.656    0.346    0.447   22.973
  236.860    0.000   54.962    0.364    0.460   20.613
  237.110    0.000   54.532    0.344    0.472   19.340
  237.360    0.000   53.546    0.345    0.476   18.775
  237.610    0.000   54.967    0.362    0.478   18.637
  237.860    0.000   53.312    0.375    0.487   18.644
  238.110    0.000   54.984    0.367    0.495   18.654
  238.360    0.000   56.250    0.373    0.487   18.662
  238.610    0.000   56.190    0.361    0.481   18.709
  238.860    0.000   53.442    0.364    0.486   18.321
  239.110    0.000   50.914    0.358    0.481   18.037
  239.360    0.000   47.903    0.366    0.463   16.967
  239.610    0.000   46.779    0.366    0.445   16.380
  239.860    0.000   46.344    0.381    0.448   15.918
  240.110    0.000   43.965    0.366    0.476   15.275
  240.360    0.000   47.020    0.349    0.491   15.004
  240.610    0.000   48.568    0.359    0.479   15.031
  240.860    0.000   48.303    0.374    0.461   14.923
  241.110    0.000   48.004    0.357    0.457   14.778
  241.360    0.000   50.054    0.347    0.450   14.779
  241.610    0.000   52.117    0.351    0.451   14.769
  241.860    0.000   52.199    0.340    0.463   15.075
  242.110    0.000   50.652    0.352    0.475   14.855
  242.360    0.000   48.999    0.356    0.498   15.057
  242.610    0.000   48.026    0.357    0.490   14.818
  242.860    0.000   50.659    0.382    0.468   14.829
  243.110    0.000   53.154    0.369    0.455   14.850
  243.360    0.000   53.616    0.343    0.458   14.602
  243.610    0.000   52.160    0.339    0.467   14.460
  243.860    0.000   49.170    0.333    0.475   14.329
  244.110    0.000   48.306    0.352    0.480   14.331
  244.360    0.000   47.905    0.337    0.490   14.338
  244.610    0.000   49.372    0.328    0.486   14.346
  244.860    0.000   49.548    0.337    0.472   14.353
  245.110    0.000   49.209    0.345    0.461   14.361
  245.360    0.000   48.780    0.359    0.459   14.369
  245.610    0.000   49.136    0.375    0.472   14.368
  245.860    0.000   49.137    0.384    0.473   14.327
  246.110    0.000   48.194    0.373    0.462   14.125
  246.360    0.000   48.308    0.364    0.449   14.162
  246.610    0.000   51.500    0.357    0.456   13.865
  246.860    0.000   52.393    0.346    0.464   13.898
  247.110    0.000   52.655    0.352    0.472   13.923
  247.360    0.000   53.655    0.355    0.482   13.636
  247.610    0.000   49.978    0.343    0.489   13.847
  247.860    0.000   49.710    0.335    0.487   14.388
  248.110    0.000   51.359    0.319    0.470   15.003
  248.360    0.000   51.600    0.277    0.437   16.829
  248.610    0.000   51.596    0.221    0.397   17.488
  248.860    0.000   54.309    0.160    0.311   17.739
  249.110    0.000   55.129    0.178    0.362   17.294
  249.360    0.000   53.534    0.360    0.447   16.091
  249.610    0.000   52.083    0.339    0.489   15.167
