~VERSION INFORMATION
 VERS.                 2.0:   CWLS LOG ASCII STANDARD -VERSION 2.0
 WRAP.                  NO:   ONE LINE PER DEPTH STEP
~WELL INFORMATION BLOCK
#MNEM.UNIT           DATA                    DESCRIPTION OF MNEMONIC
#---------    -------------------            -------------------------------
# Generated from Intellog Unique Number	CS_77_79/WELL/853
WELL.         CANADIAN OCCIDENTAL            : Well_name    - WELL
LOC .         00/05-06-077-02W4/0            : Location     - LOCATION
UWI .         00/05-06-077-02W4/0            : Uwi          - UNIQUE WELL ID
ENTR.         SP                             : Entered      - ENTERED BY
SRVC.         SCHLUMBERGER                   : Scn          - SERVICE COMPANY
STRT.M        243.84                         : top_depth    - START DEPTH
STOP.M        527.09                         : bot_depth    - STOP DEPTH
STEP.M        0.25                           : increment    - STEP LENGTH
 NULL. -999.2500:NULL Value
~CURVE INFORMATION BLOCK
#MNEM UNIT       ERCB CURVE CODE    CURVE DESCRIPTION
#-----------   ------------------   ----------------------------------
DEPT.M        00 001 00 00         : DEPTH        - DEPTH
GR  .API      00 310 00 00         : GR           - GAMMA RAY
DPHI.V/V      00 890 00 00         : PHID         - DENSITY POROSITY (SANDSTONE)
NPHI.V/V      00 330 00 00         : PHIN         - NEUTRON POROSITY (SANDSTONE)
ILD .OHMM     00 120 00 00         : RESD         - DEEP RESISTIVITY (DIL)
~PARAMETER INFORMATION
#MNEM.UNIT           DATA             DESCRIPTION OF MNEMONIC
#---------         -----------     ------------------------------
GL  .M        612.648              : gl           - GROUND LEVEL ELEVATION
EREF.M        615.696              : kb           - ELEVATION OF DEPTH REFERENCE
DATM.M        612.648              : datum        - DATUM ELEVATION
TDD .M        536.448              : tdd          - TOTAL DEPTH DRILLER
RUN .         ONE                  : Run          - RUN NUMBER
ENG .         BILL                 : Engineer     - RECORDING ENGINEER
WIT .         JIM                  : Witness      - WITNESSED BY
MUD .         GEL                  : Mud_type     - MUD TYPE
MATR.         SANDSTONE            : Logunit      - NEUTRON MATRIX
TMAX.C        23.8889              : BHT          - MAXIMUM RECORDED TEMPERATURE
BHTD.M        536.448              : BHTDEP       - MAXIMUM RECORDED TEMPERATURE
MATR.         1                    : LOGUNIT      - NEUTRON MATRIX
RMT .C        25                   : MDTP         - TEMPERATURE OF MUD
NEUT.         1                    : NEUTRON      - NEUTRON TYPE
RESI.         0                    : RESIST       - RESISTIVITY TYPE
RMC .OHMM     0.25                 : RMC          - RESISTIVITY OF MUD CAKE
RMF .OHMM     0.25                 : RMF          - RESISTIVITY OF MUD FILTRATE
SUFT.C        15                   : SUFT         - SURFACE TEMPERATURE
~A  DEPTH       GR     PHID     PHIN     RESD
# ...
  417.840   42.063    0.243    0.337    2.671
  418.090   42.821    0.263    0.342    2.620
  418.340   43.402    0.268    0.346    2.627
  418.590   43.393    0.273    0.348    2.717
  418.840   43.384    0.269    0.350    2.755
  419.090   46.790    0.272    0.355    3.079
  419.340   52.892    0.273    0.351    3.707
  419.590   78.695    0.248    0.353    4.159
  419.840   93.765    0.222    0.375    4.619
  420.090  114.224    0.192    0.403    5.077
  420.340  125.060    0.160    0.422    5.317
  420.590  125.318    0.164    0.451    5.307
  420.840  123.303    0.173    0.459    5.313
  421.090  118.042    0.177    0.432    5.318
  421.340  107.705    0.172    0.404    5.091
  421.590   99.697    0.166    0.385    5.040
  421.840   93.791    0.165    0.376    4.701
  422.090   91.812    0.179    0.396    4.441
  422.340   88.800    0.203    0.408    3.936
  422.590   79.922    0.198    0.400    3.851
  422.840   76.510    0.232    0.387    3.696
  423.090   71.740    0.230    0.395    3.712
  423.340   68.650    0.225    0.396    3.714
  423.590   71.087    0.214    0.380    3.688
  423.840   72.633    0.203    0.365    3.651
  424.090   68.522    0.215    0.367    3.597
  424.340   66.055    0.222    0.373    3.432
  424.590   63.752    0.246    0.367    3.344
  424.840   68.603    0.245    0.367    3.229
  425.090   70.180    0.239    0.380    3.103
  425.340   70.982    0.239    0.398    3.062
  425.590   71.078    0.230    0.411    3.060
  425.840   69.570    0.231    0.420    3.053
  426.090   69.583    0.236    0.412    3.011
  426.340   70.883    0.263    0.414    2.950
  426.590   69.838    0.261    0.436    2.955
  426.840   71.365    0.249    0.444    2.904
  427.090   66.679    0.255    0.431    2.892
  427.340   68.653    0.250    0.416    2.862
  427.590   69.370    0.242    0.422    2.921
  427.840   64.558    0.256    0.404    2.933
  428.090   67.272    0.254    0.420    2.976
  428.340   72.030    0.237    0.434    2.924
  428.590   73.669    0.241    0.445    2.869
  428.840   76.788    0.270    0.439    2.831
  429.090   78.802    0.261    0.445    2.748
  429.340   77.250    0.261    0.415    2.669
  429.590   61.385    0.270    0.389    2.558
  429.840   49.521    0.272    0.378    2.442
  430.090   45.328    0.276    0.370    2.401
  430.340   46.760    0.284    0.362    2.437
  430.590   48.902    0.291    0.357    2.529
  430.840   51.289    0.278    0.366    2.640
  431.090   51.427    0.274    0.379    2.726
  431.340   54.581    0.276    0.383    2.730
  431.590   56.008    0.266    0.375    2.696
  431.840   56.107    0.250    0.380    2.570
  432.090   55.376    0.237    0.390    2.465
  432.340   53.902    0.258    0.397    2.427
  432.590   51.749    0.254    0.402    2.420
  432.840   48.876    0.266    0.409    2.472
  433.090   50.031    0.260    0.404    2.505
  433.340   51.439    0.259    0.391    2.601
  433.590   53.154    0.262    0.378    2.769
  433.840   58.050    0.260    0.374    2.901
  434.090   62.685    0.249    0.387    3.037
  434.340   68.573    0.229    0.403    3.148
  434.590   72.261    0.232    0.417    3.151
  434.840   79.206    0.220    0.438    3.157
  435.090   75.152    0.222    0.430    3.109
  435.340   69.499    0.240    0.411    3.021
  435.590   69.277    0.253    0.376    2.942
  435.840   68.887    0.234    0.393    2.813
  436.090   66.068    0.249    0.406    2.697
  436.340   63.167    0.268    0.396    2.590
  436.590   61.304    0.280    0.382    2.478
  436.840   58.512    0.278    0.387    2.384
  437.090   48.325    0.281    0.389    2.286
  437.340   45.634    0.313    0.382    2.198
  437.590   47.815    0.293    0.384    2.160
  437.840   49.536    0.284    0.376    2.213
  438.090   48.915    0.296    0.373    2.191
  438.340   47.655    0.279    0.379    2.177
  438.590   47.120    0.269    0.385    2.131
  438.840   47.848    0.278    0.397    2.271
  439.090   46.985    0.297    0.396    2.261
  439.340   45.217    0.298    0.385    2.257
  439.590   46.993    0.291    0.387    2.307
  439.840   50.270    0.284    0.394    2.352
  440.090   51.785    0.290    0.405    2.424
  440.340   49.943    0.300    0.399    2.484
  440.590   46.488    0.301    0.396    2.579
  440.840   53.114    0.291    0.402    2.686
  441.090   56.029    0.280    0.402    2.851
  441.340   55.273    0.266    0.396    2.937
  441.590   52.187    0.304    0.390    3.027
  441.840   55.340    0.281    0.388    3.116
  442.090   62.595    0.227    0.388    3.161
  442.340   61.092    0.237    0.382    3.267
  442.590   60.687    0.241    0.365    3.299
  442.840   62.885    0.261    0.363    3.243
  443.090   64.968    0.271    0.379    2.918
  443.340   63.675    0.255    0.389    2.337
  443.590   58.383    0.262    0.397    2.265
  443.840   49.407    0.265    0.392    2.196
  444.090   43.028    0.262    0.384    2.064
  444.340   40.076    0.272    0.374    2.047
  444.590   38.124    0.288    0.361    1.990
  444.840   42.454    0.284    0.353    1.962
  445.090   47.679    0.278    0.355    1.981
  445.340   52.110    0.269    0.370    2.009
  445.590   57.336    0.279    0.381    2.115
  445.840   54.142    0.284    0.388    2.166
  446.090   48.816    0.292    0.374    2.076
  446.340   44.810    0.278    0.364    2.055
  446.590   44.198    0.275    0.355    2.057
  446.840   44.109    0.286    0.355    2.121
  447.090   44.717    0.276    0.362    2.277
  447.340   45.520    0.267    0.343    2.339
  447.590   46.331    0.250    0.332    2.500
  447.840   50.331    0.243    0.320    2.556
  448.090   52.215    0.260    0.336    2.606
  448.340   54.122    0.249    0.355    2.570
  448.590   55.424    0.256    0.370    2.449
  448.840   57.422    0.264    0.384    2.386
  449.090   58.936    0.260    0.379    2.279
  449.340   56.083    0.267    0.392    2.241
  449.590   47.613    0.284    0.377    2.146
  449.840   43.341    0.283    0.342    2.107
  450.090   41.084    0.272    0.346    2.102
  450.340   40.062    0.274    0.340    2.075
  450.590   39.138    0.278    0.348    2.055
  450.840   37.415    0.286    0.356    2.045
  451.090   37.031    0.299    0.368    2.012
  451.340   37.250    0.306    0.373    2.015
  451.590   39.036    0.298    0.360    1.973
  451.840   40.002    0.281    0.351    1.979
  452.090   40.570    0.284    0.348    1.991
  452.340   38.121    0.280    0.346    2.056
  452.590   37.402    0.281    0.344    2.061
  452.840   38.523    0.278    0.347    2.018
  453.090   38.258    0.284    0.347    2.024
  453.340   38.593    0.274    0.347    2.025
  453.590   39.505    0.272    0.348    2.020
  453.840   38.968    0.275    0.348    1.993
  454.090   36.289    0.286    0.354    1.996
  454.340   36.088    0.299    0.338    2.004
  454.590   37.130    0.279    0.322    2.038
  454.840   37.240    0.287    0.315    2.039
  455.090   35.114    0.299    0.338    2.041
  455.340   33.607    0.303    0.359    2.043
  455.590   33.499    0.306    0.365    2.042
  455.840   34.148    0.293    0.370    2.086
  456.090   34.756    0.301    0.368    2.121
  456.340   34.754    0.311    0.375    2.238
  456.590   34.172    0.316    0.360    2.331
  456.840   33.894    0.330    0.383    2.453
  457.090   34.311    0.335    0.379    2.520
  457.340   36.394    0.302    0.334    2.524
  457.590   38.629    0.260    0.339    2.392
  457.840   41.746    0.257    0.342    2.158
  458.090   47.121    0.265    0.355    1.973
  458.340   43.285    0.286    0.376    1.906
  458.590   38.852    0.318    0.376    1.889
  458.840   38.952    0.317    0.383    1.888
  459.090   38.918    0.328    0.402    1.942
  459.340   38.933    0.322    0.403    2.002
  459.590   38.649    0.311    0.370    2.107
  459.840   39.777    0.278    0.348    2.180
  460.090   42.381    0.255    0.336    2.277
  460.340   43.834    0.245    0.326    2.374
  460.590   42.018    0.241    0.314    2.426
  460.840   40.570    0.228    0.306    2.502
  461.090   43.528    0.217    0.320    2.558
