~VERSION INFORMATION
 VERS.                 2.0:   CWLS LOG ASCII STANDARD -VERSION 2.0
 WRAP.                  NO:   ONE LINE PER DEPTH STEP
~WELL INFORMATION BLOCK
#MNEM.UNIT           DATA                    DESCRIPTION OF MNEMONIC
#---------    -------------------            -------------------------------
# Generated from Intellog Unique Number	CN_94_101/WELL/3368
WELL.         SHELL CANADA LTD.              : Well_name    - WELL
LOC .         00/08-07-095-15W4/0            : Location     - LOCATION
UWI .         00/08-07-095-15W400            : Uwi          - UNIQUE WELL ID
ENTR.         JOETTE                         : Entered      - ENTERED BY
SRVC.         SCHLUMBERGER                   : Scn          - SERVICE COMPANY
DATE.         07/24/92                       : Date         - LOG DATE
STRT.F        300                            : top_depth    - START DEPTH
STOP.F        1049.67                        : bot_depth    - STOP DEPTH
STEP.F        0.82                           : increment    - STEP LENGTH
 NULL. -999.2500:NULL Value
~CURVE INFORMATION BLOCK
#MNEM UNIT       ERCB CURVE CODE    CURVE DESCRIPTION
#-----------   ------------------   ----------------------------------
DEPT.F        00 001 00 00         : DEPTH        - DEPTH
ILD .OHMM     00 120 00 00         : RESD         - DEEP RESISTIVITY (DIL)
GR  .API      00 310 00 00         : GR           - GAMMA RAY
DPHI.V/V      00 890 00 00         : PHID         - DENSITY POROSITY (SANDSTONE)
NPHI.V/V      00 330 00 00         : PHIN         - NEUTRON POROSITY (SANDSTONE)
~PARAMETER INFORMATION
#MNEM.UNIT           DATA             DESCRIPTION OF MNEMONIC
#---------         -----------     ------------------------------
GL  .F        1870.5               : gl           - GROUND LEVEL ELEVATION
EREF.F        1880.7               : kb           - ELEVATION OF DEPTH REFERENCE
DATM.F        1880.7               : datum        - DATUM ELEVATION
TDD .F        1063                 : tdd          - TOTAL DEPTH DRILLER
RUN .         ONE                  : Run          - RUN NUMBER
ENG .         JO                   : Engineer     - RECORDING ENGINEER
WIT .         TIM                  : Witness      - WITNESSED BY
MUD .         GEL                  : Mud_type     - MUD TYPE
MATR.         SANDSTONE            : Logunit      - NEUTRON MATRIX
TMAX.F        55                   : BHT          - MAXIMUM RECORDED TEMPERATURE
BHTD.F        1063                 : BHTDEP       - MAXIMUM RECORDED TEMPERATURE
RMT .F        50                   : MDTP         - TEMPERATURE OF MUD
MUDD.LB/G     9.6                  : MWT          - MUD DENSITY
NEUT.         1                    : NEUTRON      - NEUTRON TYPE
RESI.         0                    : RESIST       - RESISTIVITY TYPE
RM  .OHMM     1.5                  : RM           - RESISTIVITY OF MUD
RMC .OHMM     1.5                  : RMC          - RESISTIVITY OF MUD CAKE
RMF .OHMM     1.5                  : RMF          - RESISTIVITY OF MUD FILTRATE
SUFT.F        39.2                 : SUFT         - SURFACE TEMPERATURE
~A  DEPTH     RESD       GR     PHID     PHIN
  300.000   10.942  112.306    0.391    0.000
  300.820   11.151  106.873    0.397    0.000
  301.640   10.762  100.822    0.402    0.000
  302.461   13.127   94.782    0.397    0.000
  303.281   21.740   91.165    0.408    0.000
  304.101   25.579   88.154    0.386    0.000
  304.921   25.141   80.287    0.317    0.000
  305.741   23.413   69.386    0.300    0.000
  306.562   24.729   64.560    0.288    0.000
  307.382   29.628   63.365    0.293    0.000
  308.202   31.861   58.533    0.333    0.000
  309.022   32.463   45.811    0.373    0.000
  309.843   31.913   40.979    0.394    0.000
  310.663   31.930   37.361    0.403    0.000
  311.483   31.965   37.999    0.398    0.000
  312.303   30.302   38.023    0.400    0.000
  313.123   28.219   36.233    0.402    0.000
  313.944   27.241   32.615    0.397    0.000
  314.764   28.260   30.812    0.394    0.000
  315.584   29.848   29.022    0.390    0.000
  316.404   30.412   28.439    0.376    0.000
  317.224   32.132   27.863    0.372    0.000
  318.045   34.548   26.661    0.365    0.000
  318.865   36.490   24.864    0.367    0.000
  319.685   36.516   29.144    0.371    0.000
  320.505   35.251   32.816    0.368    0.000
  321.325   34.648   34.668    0.359    0.000
  322.146   35.956   34.073    0.348    0.000
  322.966   37.983   31.062    0.343    0.000
  323.786   38.687   28.058    0.334    0.000
  324.606   40.861   28.082    0.329    0.000
  325.427   40.162   33.569    0.336    0.000
  326.247   38.778   35.415    0.334    0.000
  327.067   38.806   36.653    0.325    0.000
  327.887   38.834   36.077    0.327    0.000
  328.707   38.176   35.500    0.332    0.000
  329.528   39.602   35.518    0.332    0.000
  330.348   41.821   35.549    0.331    0.000
  331.168   42.611   34.966    0.339    0.000
  331.988   40.409   31.949    0.340    0.000
  332.808   38.320   32.581    0.350    0.000
  333.629   36.334   40.496    0.368    0.000
  334.449   35.081   59.349    0.382    0.000
  335.269   34.475   63.617    0.376    0.000
  336.089   31.532   70.931    0.382    0.000
  336.909   28.841   71.562    0.388    0.000
  337.730   27.842   68.564    0.393    0.000
  338.550   27.365   66.148    0.387    0.000
  339.370   28.904   58.281    0.379    0.000
  340.190   32.221   47.987    0.371    0.000
  341.010   36.577   46.797    0.366    0.000
  341.831   37.951   49.857    0.355    0.000
  342.651   37.288   55.344    0.335    0.000
  343.471   34.105   56.594    0.344    0.000
  344.291   30.649   53.578    0.354    0.000
  345.112   32.959   47.532    0.365    0.000
  345.932   31.823   45.736    0.364    0.000
  346.752   29.630   46.367    0.343    0.000
  347.572   29.118   48.825    0.333    0.000
  348.392   31.318   50.064    0.338    0.000
  349.213   31.910   47.666    0.325    0.000
  350.033   30.804   45.864    0.328    0.000
  350.853   24.399   62.277    0.331    0.000
  351.673   20.397   63.515    0.312    0.000
  352.493   20.782   65.360    0.319    0.000
  353.314   19.354   73.889    0.311    0.000
  354.134   12.353   89.695    0.341    0.000
  354.954    9.962   93.367    0.382    0.000
  355.774    9.114   92.791    0.395    0.000
  356.594    9.626   91.595    0.400    0.000
  357.415   10.729   89.191    0.397    0.000
  358.235   12.857   83.146    0.379    0.000
  359.055   12.864   74.672    0.363    0.000
  359.875   12.643   64.378    0.358    0.000
  360.696   12.206   69.258    0.308    0.000
  361.516   14.621   69.889    0.288    0.000
  362.336   17.206   68.706    0.284    0.000
  363.156   16.023   67.516    0.291    0.000
  363.976   16.035   65.113    0.289    0.000
  364.797   18.869   62.102    0.285    0.000
  365.617   20.288   58.484    0.315    0.000
  366.437   21.817   55.474    0.358    0.000
  367.257   18.907   59.140    0.325    0.000
  368.077   17.610   63.413    0.305    0.000
  368.898   20.720   63.438    0.298    0.000
  369.718   22.686   62.861    0.309    0.000
  370.538   22.301   71.384    0.330    0.000
  371.358   23.131   73.836    0.342    0.000
  372.178   23.572   69.004    0.324    0.000
  372.999   24.901   58.710    0.324    0.000
  373.819   23.185   49.629    0.343    0.000
  374.639   20.457   49.654    0.348    0.000
  375.459   17.728   58.188    0.350    0.000
  376.280   15.363   63.669    0.309    0.000
  377.100   13.801   68.550    0.286    0.000
  377.920   12.178   73.430    0.276    0.000
  378.740   11.140   75.894    0.279    0.000
  379.560   10.189   78.347    0.294    0.000
  380.381    9.321   85.042    0.307    0.000
  381.201    8.681   85.066    0.303    0.000
  382.021    8.082   89.340    0.292    0.000
  382.841    8.088   91.804    0.292    0.000
  383.661    9.689   91.829    0.330    0.000
  384.482    9.874   91.859    0.335    0.000
  385.302    8.710   92.478    0.316    0.000
  386.122    7.415   96.144    0.313    0.000
  386.942    7.420   99.811    0.315    0.000
  387.762    8.575  104.096    0.325    0.000
  388.583    7.703  109.577    0.324    0.000
  389.403    5.381  114.464    0.328    0.000
  390.223    5.193  112.060    0.336    0.000
  391.043    5.485  108.443    0.330    0.000
  391.864    7.453  105.432    0.328    0.000
  392.684    6.230  104.855    0.337    0.000
  393.504    4.273  104.273    0.350    0.000
  394.324    3.840  102.470    0.349    0.000
  395.144    6.358   98.853    0.341    0.000
  395.965    9.118   98.877    0.336    0.000
  396.785   10.538   99.508    0.329    0.000
  397.605    8.653   96.498    0.318    0.000
  398.425    6.978   81.954    0.296    0.000
  399.245    6.157   77.730    0.278    0.000
  400.066    6.622   78.980    0.269    0.000
  400.886    7.381   82.040    0.299    0.000
  401.706    9.165   83.278    0.321    0.000
  402.526   12.015   86.337    0.330    0.000
  403.346   18.184   91.825    0.332    0.000
  404.167   21.395   94.890    0.328    0.000
  404.987   30.144   91.873    0.347    0.000
  405.807   27.566   75.509    0.344    0.000
  406.627   26.611   67.035    0.337    0.000
  407.448   20.702   62.811    0.355    0.000
  408.268   14.458   49.481    0.363    0.000
  409.088   12.988   44.043    0.359    0.000
  409.908   22.299   42.246    0.365    0.000
  410.728   26.236   44.091    0.369    0.000
  411.549   25.787   48.365    0.334    0.000
  412.369   25.346   60.541    0.327    0.000
  413.189   25.829   62.993    0.329    0.000
  414.009   26.317   67.267    0.351    0.000
  414.829   26.331   66.071    0.362    0.000
  415.650   25.885   61.846    0.368    0.000
  416.470   25.446   63.085    0.389    0.000
  417.290   25.006   65.549    0.396    0.000
  418.110   22.872   63.747    0.391    0.000
  418.930   20.547   59.528    0.387    0.000
  419.751   19.134   58.339    0.386    0.000
  420.571   20.950   57.756    0.387    0.000
  421.391   18.155   55.959    0.387    0.000
  422.211   14.907   57.198    0.385    0.000
  423.031   12.688   60.263    0.385    0.000
  423.852   10.800   57.246    0.387    0.000
  424.672   11.827   53.641    0.382    0.000
  425.492   13.423   53.653    0.371    0.000
  426.312   10.632   53.684    0.374    0.000
  427.133    7.837   53.101    0.380    0.000
  427.953    7.985   59.189    0.361    0.000
  428.773   14.469   79.250    0.343    0.000
  429.593   19.311   95.056    0.337    0.000
  430.413   15.020   95.087    0.343    0.000
  431.234   11.071   82.978    0.358    0.000
  432.054    9.423   73.885    0.372    0.000
  432.874    9.601   71.487    0.372    0.000
  433.694    8.472   69.084    0.367    0.000
  434.514    8.032   64.252    0.350    0.000
  435.335   10.342   75.809    0.349    0.000
  436.155   10.730   82.511    0.353    0.000
  436.975    9.814   80.720    0.348    0.000
  437.795    8.978   79.531    0.328    0.000
  438.615    8.664   83.810    0.310    0.000
  439.436    8.215   87.470    0.292    0.000
  440.256   10.963   89.922    0.280    0.000
  441.076   17.202   86.912    0.286    0.000
  441.896   17.845   77.224    0.302    0.000
