~VERSION INFORMATION
 VERS.                 2.0:   CWLS LOG ASCII STANDARD -VERSION 2.0
 WRAP.                  NO:   ONE LINE PER DEPTH STEP
~WELL INFORMATION BLOCK
#MNEM.UNIT           DATA                    DESCRIPTION OF MNEMONIC
#---------    -------------------            -------------------------------
# Generated from Intellog Unique Number	CS_69_70/WELL/829
NULL.         -999.25                        : NULL_VALUE
WELL.         HB CCS PITLOCHRIE              : Well_name    - WELL              
LOC .         00/07-16-070-12W4/0            : Location     - LOCATION          
UWI .         00/07-16-070-12W4/0            : Uwi          - UNIQUE WELL ID    
ENTR.         SP                             : Entered      - ENTERED BY        
SRVC.         SCHLUMBERGER                   : Scn          - SERVICE COMPANY   
STRT.M        286.512                        : top_depth    - START DEPTH       
STOP.M        496.012                        : bot_depth    - STOP DEPTH        
STEP.M        0.25                           : increment    - STEP LENGTH       
~CURVE INFORMATION BLOCK
#MNEM UNIT       ERCB CURVE CODE    CURVE DESCRIPTION
#-----------   ------------------   ----------------------------------
DEPT.M        00 001 00 00         : DEPTH        - DEPTH                       
GR  .API      00 310 00 00         : GR           - GAMMA RAY                   
DPHI.V/V      00 890 00 00         : PHID         - DENSITY POROSITY (SANDSTONE)
NPHI.V/V      00 330 00 00         : PHIN         - NEUTRON POROSITY (SANDSTONE)
ILD .OHMM     00 120 00 00         : RESD         - DEEP RESISTIVITY (DIL)      
~PARAMETER INFORMATION       
#MNEM.UNIT           DATA             DESCRIPTION OF MNEMONIC
#---------         -----------     ------------------------------
GL  .M        604.388              : gl           - GROUND LEVEL ELEVATION      
EREF.M        607.436              : kb           - ELEVATION OF DEPTH REFERENCE
DATM.M        604.388              : datum        - DATUM ELEVATION             
TDD .M        499.872              : tdd          - TOTAL DEPTH DRILLER         
RUN .         ONE                  : Run          - RUN NUMBER                  
ENG .         BILL                 : Engineer     - RECORDING ENGINEER          
WIT .         JIM                  : Witness      - WITNESSED BY                
MUD .         GEL                  : Mud_type     - MUD TYPE                    
MATR.         SANDSTONE            : Logunit      - NEUTRON MATRIX              
TMAX.C        26.1111              : BHT          - MAXIMUM RECORDED TEMPERATURE
BHTD.M        499.872              : BHTDEP       - MAXIMUM RECORDED TEMPERATURE
MATR.         1                    : LOGUNIT      - NEUTRON MATRIX              
RMT .C        25                   : MDTP         - TEMPERATURE OF MUD          
NEUT.         1                    : NEUTRON      - NEUTRON TYPE                
RESI.         0                    : RESIST       - RESISTIVITY TYPE            
RMC .OHMM     0.25                 : RMC          - RESISTIVITY OF MUD CAKE     
RMF .OHMM     0.25                 : RMF          - RESISTIVITY OF MUD FILTRATE 
SUFT.C        15                   : SUFT         - SURFACE TEMPERATURE         
~A  DEPTH       GR     PHID     PHIN     RESD
# ...
  417.012   98.103    0.341    0.609    2.811
  417.262   94.616    0.333    0.622    2.971
  417.512   89.764    0.328    0.605    3.199
  417.762   88.632    0.325    0.570    3.563
  418.012   89.355    0.346    0.554    3.987
  418.262   89.337    0.342    0.546    4.087
  418.512   88.252    0.320    0.539    4.669
  418.762   84.931    0.298    0.529    5.295
  419.012   81.290    0.279    0.522    5.951
  419.262   77.535    0.240    0.519    6.471
  419.512   72.621    0.203    0.499    6.389
  419.762   76.729    0.180    0.439    6.017
  420.012   82.143    0.090    0.346    5.550
  420.262   84.837    0.077    0.406    5.069
  420.512   81.021    0.140    0.464    4.658
  420.762   81.111    0.217    0.495    4.483
  421.012   84.370    0.266    0.504    4.614
  421.262   86.561    0.258    0.499    4.903
  421.512   85.111    0.232    0.502    5.162
  421.762   84.016    0.214    0.504    5.224
  422.012   84.053    0.197    0.506    5.106
  422.262   85.551    0.210    0.515    4.997
  422.512   88.227    0.229    0.501    4.897
  422.762   88.904    0.247    0.481    4.982
  423.012   86.043    0.259    0.474    5.197
  423.262   85.106    0.247    0.489    5.674
  423.512   83.197    0.214    0.496    6.146
  423.762   79.788    0.205    0.493    6.450
  424.012   79.090    0.202    0.440    6.473
  424.262   83.359    0.179    0.435    6.251
  424.512   88.348    0.127    0.462    5.980
  424.762   91.126    0.158    0.484    5.733
  425.012   93.315    0.209    0.487    5.495
  425.262   95.514    0.196    0.486    5.370
  425.512   96.326    0.223    0.489    5.328
  425.762   96.342    0.222    0.499    5.319
  426.012   95.680    0.228    0.498    5.301
  426.262   94.588    0.257    0.489    5.246
  426.512   94.767    0.248    0.484    5.158
  426.762   95.997    0.229    0.481    5.018
  427.012   97.690    0.212    0.483    4.980
  427.262   98.671    0.226    0.489    5.190
  427.512   99.056    0.231    0.484    5.329
  427.762   97.948    0.224    0.493    5.576
  428.012   95.714    0.243    0.498    5.854
  428.262   93.275    0.234    0.501    6.009
  428.512   91.051    0.221    0.496    5.885
  428.762   91.745    0.218    0.481    5.731
  429.012   94.914    0.213    0.465    5.555
  429.262   96.705    0.212    0.460    5.420
  429.512   98.169    0.190    0.488    5.456
  429.762   98.878    0.256    0.504    5.623
  430.012   98.651    0.270    0.521    5.835
  430.262   97.055    0.285    0.510    5.980
  430.512   97.398    0.264    0.474    6.036
  430.762   98.715    0.245    0.458    6.091
  431.012   99.861    0.239    0.460    6.147
  431.262   99.803    0.240    0.466    6.266
  431.512   98.385    0.236    0.462    6.355
  431.762   97.371    0.224    0.467    6.180
  432.012   96.318    0.259    0.478    5.370
  432.262   96.279    0.290    0.497    4.586
  432.512   96.227    0.324    0.530    3.372
  432.762   95.139    0.365    0.553    2.474
  433.012   93.998    0.358    0.579    2.157
  433.262   94.157    0.292    0.603    2.136
  433.512   94.046    0.311    0.615    2.339
  433.762   92.512    0.314    0.603    2.841
  434.012   86.031    0.297    0.585    3.479
  434.262   81.050    0.288    0.523    4.810
  434.512   72.415    0.255    0.432    7.034
  434.762   60.119    0.170    0.364    7.282
  435.012   60.572    0.066    0.268    6.991
  435.262   73.597    0.021    0.268    6.221
  435.512   83.383    0.020    0.296    5.161
  435.762   88.299    0.130    0.370    4.548
  436.012   91.219    0.184    0.501    4.112
  436.262   91.112    0.262    0.506    3.986
  436.512   90.585    0.287    0.508    4.232
  436.762   89.445    0.288    0.515    4.584
  437.012   87.788    0.282    0.530    4.950
  437.262   84.629    0.257    0.539    5.143
  437.512   82.822    0.238    0.491    5.221
  437.762   86.646    0.229    0.462    5.257
  438.012   88.289    0.205    0.437    5.238
  438.262   86.571    0.174    0.453    5.128
  438.512   85.246    0.207    0.470    4.853
  438.762   86.424    0.237    0.452    4.352
  439.012   89.054    0.203    0.451    4.151
  439.262   91.817    0.230    0.461    4.242
  439.512   94.207    0.251    0.480    4.428
  439.762   95.709    0.262    0.504    4.676
  440.012   95.607    0.282    0.515    4.795
  440.262   94.640    0.296    0.501    4.700
  440.512   94.612    0.303    0.489    4.305
  440.762   95.100    0.245    0.482    3.867
  441.012   98.007    0.266    0.486    3.430
  441.262  102.035    0.248    0.491    3.083
  441.512  104.950    0.237    0.505    2.925
  441.762  106.598    0.239    0.520    2.799
  442.012  107.763    0.251    0.538    2.736
  442.262  106.991    0.259    0.560    2.721
  442.512  108.827    0.262    0.567    2.770
  442.762  110.415    0.272    0.567    2.860
  443.012  110.390    0.260    0.571    2.909
  443.262  109.132    0.257    0.583    3.012
  443.512  107.773    0.268    0.576    3.079
  443.762  106.512    0.265    0.560    3.048
  444.012  105.724    0.252    0.541    2.786
  444.262  107.068    0.241    0.530    2.649
  444.512  109.621    0.229    0.524    2.714
  444.762  111.180    0.242    0.543    3.062
  445.012  106.728    0.280    0.578    3.817
  445.262  102.151    0.268    0.577    4.673
  445.512   97.732    0.273    0.560    5.769
  445.762   91.246    0.258    0.490    6.728
  446.012   83.069    0.270    0.405    7.657
  446.262   77.391    0.263    0.403    8.458
  446.512   74.077    0.247    0.388    9.009
  446.762   71.264    0.228    0.375    9.156
  447.012   72.795    0.206    0.370    9.110
  447.262   74.609    0.230    0.384    8.836
  447.512   77.347    0.266    0.397    8.476
  447.762   79.143    0.271    0.414    8.054
  448.012   81.212    0.280    0.424    7.309
  448.262   82.364    0.263    0.425    6.944
  448.512   82.898    0.261    0.423    6.771
  448.762   82.259    0.252    0.419    6.897
  449.012   78.889    0.240    0.412    7.108
  449.262   74.040    0.249    0.401    7.440
  449.512   70.667    0.268    0.390    7.761
  449.762   69.653    0.291    0.387    8.095
  450.012   69.041    0.280    0.391    8.384
  450.262   68.275    0.271    0.391    8.438
  450.512   68.171    0.266    0.406    8.346
  450.762   67.770    0.258    0.420    8.408
  451.012   67.477    0.249    0.434    8.889
  451.262   66.872    0.241    0.438    9.450
  451.512   66.043    0.237    0.424   10.116
  451.762   63.539    0.222    0.417   10.542
  452.012   62.074    0.198    0.391   10.624
  452.262   61.795    0.172    0.368   10.147
  452.512   63.991    0.135    0.350    9.043
  452.762   66.146    0.095    0.372    7.456
  453.012   70.051    0.141    0.338    6.467
  453.262   74.806    0.173    0.346    5.845
  453.512   78.431    0.184    0.367    5.609
  453.762   81.096    0.196    0.394    5.543
  454.012   82.455    0.210    0.417    5.494
  454.262   85.559    0.235    0.432    5.447
  454.512   88.463    0.259    0.441    5.455
  454.762   91.710    0.299    0.449    5.267
  455.012   93.846    0.287    0.450    5.173
  455.262   96.022    0.266    0.453    4.935
  455.512   97.706    0.252    0.447    4.843
  455.762   99.778    0.244    0.437    4.816
  456.012  101.797    0.233    0.429    4.781
  456.262  103.439    0.224    0.414    4.798
  456.512  105.726    0.221    0.440    4.859
  456.762  107.802    0.239    0.460    4.990
  457.012  109.001    0.232    0.440    5.113
  457.262  111.595    0.220    0.442    5.308
  457.512  113.981    0.206    0.450    5.506
  457.762  112.115    0.203    0.450    5.623
  458.012  107.230    0.215    0.438    5.756
  458.262   97.994    0.203    0.431    5.372
  458.512   91.551    0.164    0.439    4.966
  458.762   88.426    0.191    0.423    4.775
  459.012   87.621    0.214    0.402    4.764
  459.262   90.254    0.233    0.391    4.857
  459.512   91.951    0.251    0.399    5.040
  459.762   94.606    0.256    0.402    5.304
  460.012   94.686    0.243    0.399    5.580
  460.262   88.113    0.231    0.396    5.807
