~VERSION INFORMATION
 VERS.                 2.0:   CWLS LOG ASCII STANDARD -VERSION 2.0
 WRAP.                  NO:   ONE LINE PER DEPTH STEP
~WELL INFORMATION BLOCK
#MNEM.UNIT           DATA                    DESCRIPTION OF MNEMONIC
#---------    -------------------            -------------------------------
# Generated from Intellog Unique Number	CW_79_81/WELL/2456
WELL.         GULF WABASCA                   : Well_name    - WELL
LOC .         00/06-34-081-21W4/0            : Location     - LOCATION
UWI .         00/06-34-081-21W4/0            : Uwi          - UNIQUE WELL ID
ENTR.         MAX                            : Entered      - ENTERED BY
SRVC.         SCHLUMBERGER                   : Scn          - SERVICE COMPANY
STRT.M        204.216                        : top_depth    - START DEPTH
STOP.M        441.716                        : bot_depth    - STOP DEPTH
STEP.M        0.25                           : increment    - STEP LENGTH
 NULL. -999.2500:NULL Value
~CURVE INFORMATION BLOCK
#MNEM UNIT       ERCB CURVE CODE    CURVE DESCRIPTION
#-----------   ------------------   ----------------------------------
DEPT.M        00 001 00 00         : DEPTH        - DEPTH
ILD .OHMM     00 120 00 00         : RESD         - DEEP RESISTIVITY (DIL)
NPHI.V/V      00 330 00 00         : PHIN         - NEUTRON POROSITY (SANDSTONE)
DPHI.V/V      00 890 00 00         : PHID         - DENSITY POROSITY (SANDSTONE)
GR  .API      00 310 00 00         : GR           - GAMMA RAY
CALI.MM       00 280 01 00         : CAL          - CALIPER
~PARAMETER INFORMATION
#MNEM.UNIT           DATA             DESCRIPTION OF MNEMONIC
#---------         -----------     ------------------------------
GL  .M        627.492              : gl           - GROUND LEVEL ELEVATION
EREF.M        630.997              : kb           - ELEVATION OF DEPTH REFERENCE
DATM.M        627.492              : datum        - DATUM ELEVATION
TDD .M        440.436              : tdd          - TOTAL DEPTH DRILLER
RUN .         ONE                  : Run          - RUN NUMBER
ENG .         BILL                 : Engineer     - RECORDING ENGINEER
WIT .         JIM                  : Witness      - WITNESSED BY
MUD .         GEL                  : Mud_type     - MUD TYPE
MATR.         SANDSTONE            : Logunit      - NEUTRON MATRIX
TMAX.C        23.8889              : BHT          - MAXIMUM RECORDED TEMPERATURE
BHTD.M        440.436              : BHTDEP       - MAXIMUM RECORDED TEMPERATURE
MATR.         1                    : LOGUNIT      - NEUTRON MATRIX
RMT .C        16.6667              : MDTP         - TEMPERATURE OF MUD
NEUT.         1                    : NEUTRON      - NEUTRON TYPE
RESI.         0                    : RESIST       - RESISTIVITY TYPE
RMC .OHMM     5.1                  : RMC          - RESISTIVITY OF MUD CAKE
RMF .OHMM     5.24                 : RMF          - RESISTIVITY OF MUD FILTRATE
SUFT.C        -20.5556             : SUFT         - SURFACE TEMPERATURE
~A  DEPTH     RESD     PHIN     PHID       GR      CAL
# ...
  277.216   50.751    0.496    0.389   65.304  158.967
  277.466   48.233    0.497    0.388   66.132  158.083
  277.716   45.035    0.494    0.388   66.428  157.334
  277.966   34.236    0.498    0.390   66.717  156.599
  278.216   29.142    0.490    0.390   67.010  155.858
  278.466   25.618    0.478    0.391   67.183  155.532
  278.716   22.990    0.472    0.392   66.930  155.724
  278.966   21.394    0.487    0.385   65.734  156.401
  279.216   20.751    0.486    0.387   65.542  157.334
  279.466   20.450    0.485    0.387   65.831  156.599
  279.716   20.042    0.482    0.384   65.937  156.180
  279.966   19.533    0.476    0.384   65.987  156.062
  280.216   19.005    0.470    0.384   66.218  156.138
  280.466   18.389    0.471    0.381   66.939  156.230
  280.716   17.433    0.482    0.383   66.752  156.309
  280.966   16.428    0.501    0.384   65.355  156.005
  281.216   16.558    0.501    0.381   64.141  156.290
  281.466   16.873    0.496    0.379   64.550  157.182
  281.716   17.155    0.494    0.376   66.401  158.584
  281.966   18.025    0.496    0.369   67.652  160.392
  282.216   18.452    0.490    0.378   66.446  160.893
  282.466   18.455    0.477    0.381   66.970  161.375
  282.716   18.357    0.478    0.382   67.857  161.565
  282.966   18.158    0.480    0.381   68.266  161.049
  283.216   17.930    0.480    0.377   68.196  159.816
  283.466   17.774    0.486    0.374   68.498  157.934
  283.716   17.641    0.492    0.369   68.561  156.340
  283.966   17.386    0.485    0.374   65.252  156.416
  284.216   17.134    0.474    0.379   63.919  155.282
  284.466   17.012    0.467    0.384   63.962  153.541
  284.716   17.015    0.466    0.385   64.663  151.798
  284.966   16.994    0.473    0.378   65.153  150.847
  285.216   16.867    0.477    0.381   64.955  151.798
  285.466   16.500    0.475    0.386   65.005  153.091
  285.716   16.051    0.469    0.380   64.703  153.769
  285.966   15.821    0.472    0.376   63.917  153.845
  286.216   15.825    0.482    0.378   63.004  153.629
  286.466   15.804    0.486    0.387   63.069  153.743
  286.716   15.687    0.484    0.392   64.368  153.805
  286.966   15.575    0.482    0.389   66.095  153.889
  287.216   15.549    0.485    0.389   67.096  153.973
  287.466   15.552    0.490    0.388   67.021  154.066
  287.716   15.555    0.493    0.384   65.994  154.159
  287.966   15.607    0.497    0.373   64.721  154.074
  288.216   15.853    0.512    0.378   65.266  153.308
  288.466   15.856    0.499    0.393   64.363  152.995
  288.716   15.684    0.492    0.397   63.093  152.372
  288.966   15.515    0.495    0.396   62.659  152.046
  289.216   15.404    0.503    0.395   63.604  152.023
  289.466   15.271    0.496    0.389   66.124  151.720
  289.716   15.158    0.480    0.380   67.668  151.808
  289.966   15.049    0.456    0.375   67.239  151.892
  290.216   14.692    0.456    0.371   66.450  151.660
  290.466   14.321    0.468    0.373   66.141  151.533
  290.716   14.089    0.482    0.381   66.607  151.417
  290.966   14.071    0.485    0.387   67.916  150.800
  291.216   13.967    0.471    0.386   69.471  151.311
  291.466   13.662    0.472    0.372   69.520  151.387
  291.716   13.515    0.472    0.373   69.387  151.463
  291.966   13.419    0.472    0.378   70.754  151.142
  292.216   13.323    0.476    0.380   73.323  150.622
  292.466   13.207    0.492    0.374   75.368  150.715
  292.716   13.109    0.488    0.382   78.160  150.803
  292.966   13.112    0.484    0.383   83.240  150.896
  293.216   13.115    0.486    0.380   86.524  150.970
  293.466   13.117    0.493    0.372   88.014  150.843
  293.716   13.095    0.500    0.365   87.527  150.524
  293.966   13.002    0.501    0.367   84.558  150.145
  294.216   13.005    0.493    0.378   83.862  149.810
  294.466   13.105    0.494    0.383   85.588  150.283
  294.716   13.132    0.498    0.383   85.152  150.465
  294.966   13.183    0.499    0.378   81.604  150.756
  295.216   13.259    0.498    0.371   76.023  151.149
  295.466   13.323    0.502    0.372   71.078  151.243
  295.716   13.639    0.510    0.370   68.884  151.331
  295.966   14.678    0.513    0.400   68.694  151.001
  296.216   15.550    0.509    0.400   69.223  150.989
  296.466   15.969    0.501    0.390   68.677  151.073
  296.716   15.792    0.491    0.379   66.991  151.151
  296.966   14.949    0.477    0.372   66.343  151.252
  297.216   14.171    0.464    0.379   68.890  151.331
  297.466   13.658    0.478    0.385   70.138  151.415
  297.716   13.462    0.482    0.386   71.209  151.500
  297.966   13.465    0.477    0.382   71.738  151.381
  298.216   13.568    0.470    0.373   71.783  151.058
  298.466   13.672    0.484    0.371   71.838  150.750
  298.716   13.675    0.498    0.386   71.890  150.855
  298.966   13.780    0.492    0.392   71.456  150.923
  299.216   14.116    0.493    0.391   71.568  151.009
  299.466   14.437    0.497    0.383   72.219  151.089
  299.716   14.575    0.497    0.374   72.447  151.062
  299.966   14.358    0.483    0.366   69.893  150.765
  300.216   13.820    0.469    0.360   67.704  150.844
  300.466   13.220    0.467    0.358   67.989  150.920
  300.716   12.720    0.479    0.361   69.901  151.003
  300.966   12.354    0.482    0.368   71.748  151.083
  301.216   11.993    0.475    0.377   73.048  151.161
  301.466   11.214    0.474    0.383   74.844  151.263
  301.716   10.392    0.477    0.375   76.388  151.351
  301.966    9.574    0.469    0.368   79.791  151.858
  302.216    8.673    0.477    0.361   83.733  152.029
  302.466    8.162    0.482    0.354   87.496  152.308
  302.716    8.030    0.479    0.344   90.720  152.703
  302.966    8.092    0.474    0.329   93.116  152.974
  303.216    8.413    0.479    0.315   91.671  153.907
  303.466    8.924    0.484    0.302   88.127  154.803
  303.716    9.518    0.490    0.310   83.690  155.692
  303.966   10.175    0.484    0.331   80.261  155.971
  304.216   10.805    0.473    0.352   78.204  155.445
  304.466   11.216    0.475    0.353   75.999  154.174
  304.716   11.219    0.474    0.355   74.310  153.400
  304.966   11.221    0.462    0.353   74.115  153.484
  305.216   11.286    0.454    0.349   73.924  153.562
  305.466   11.372    0.450    0.342   73.972  154.052
  305.716   11.459    0.449    0.336   75.215  154.750
  305.966   11.547    0.457    0.337   78.849  154.760
  306.216   11.549    0.469    0.344   76.406  154.435
  306.466   11.552    0.479    0.350   74.060  154.502
  306.716   11.618    0.482    0.354   72.074  154.887
  306.966   11.707    0.483    0.357   70.801  155.174
  307.216   11.818    0.486    0.358   69.945  155.056
  307.466   12.016    0.495    0.364   68.469  154.264
  307.716   12.111    0.507    0.370   68.022  153.938
  307.966   12.025    0.506    0.369   68.316  154.411
  308.216   12.005    0.496    0.365   68.603  154.301
  308.466   12.052    0.487    0.362   68.408  153.976
  308.716   12.232    0.483    0.363   67.977  153.739
  308.966   12.888    0.489    0.361   68.430  153.934
  309.216   13.931    0.497    0.357   69.225  154.445
  309.466   15.211    0.495    0.350   69.749  154.935
  309.716   16.266    0.474    0.329   68.660  154.804
  309.966   17.016    0.439    0.293   67.994  154.280
  310.216   17.241    0.400    0.253   68.045  153.564
  310.466   16.332    0.373    0.239   67.577  152.760
  310.716   15.020    0.367    0.252   68.633  152.416
  310.966   14.154    0.396    0.280   69.401  152.492
  311.216   13.494    0.452    0.350   69.271  152.575
  311.466   13.010    0.492    0.388   70.162  153.272
  311.716   12.610    0.503    0.384   72.251  154.579
  311.966   12.082    0.496    0.388   74.132  155.981
  312.216   11.719    0.490    0.386   74.933  156.483
  312.466   11.549    0.486    0.380   73.061  156.559
  312.716   11.382    0.486    0.378   71.373  156.641
  312.966   11.259    0.490    0.375   70.340  156.726
  313.216   11.158    0.495    0.373   70.023  156.808
  313.466   10.963    0.498    0.374   70.533  156.821
