~VERSION INFORMATION
 VERS.                 2.0:   CWLS LOG ASCII STANDARD -VERSION 2.0
 WRAP.                  NO:   ONE LINE PER DEPTH STEP
~WELL INFORMATION BLOCK
#MNEM.UNIT           DATA                    DESCRIPTION OF MNEMONIC
#---------    -------------------            -------------------------------
# Generated from Intellog Unique Number	CS_77_79/WELL/906
WELL.         SUNCOR ET AL PORTAGE           : Well_name    - WELL
LOC .         00/07-23-078-17W4/0            : Location     - LOCATION
UWI .         00/07-23-078-17W4/0            : Uwi          - UNIQUE WELL ID
ENTR.         JHS                            : Entered      - ENTERED BY
SRVC.         SCHLUMBERGER                   : Scn          - SERVICE COMPANY
STRT.M        165                            : top_depth    - START DEPTH
STOP.M        347                            : bot_depth    - STOP DEPTH
STEP.M        0.25                           : increment    - STEP LENGTH
 NULL. -999.2500:NULL Value
~CURVE INFORMATION BLOCK
#MNEM UNIT       ERCB CURVE CODE    CURVE DESCRIPTION
#-----------   ------------------   ----------------------------------
DEPT.M        00 001 00 00         : DEPTH        - DEPTH
DPHI.V/V      00 890 00 00         : PHID         - DENSITY POROSITY (LIMESTONE)
NPHI.V/V      00 330 00 00         : PHIN         - NEUTRON POROSITY (LIMESTONE)
GR  .API      00 310 00 00         : GR           - GAMMA RAY
ILD .OHMM     00 120 00 00         : RESD         - DEEP RESISTIVITY (DIL)
~PARAMETER INFORMATION
#MNEM.UNIT           DATA             DESCRIPTION OF MNEMONIC
#---------         -----------     ------------------------------
GL  .M        559.6                : gl           - GROUND LEVEL ELEVATION
EREF.M        562.9                : kb           - ELEVATION OF DEPTH REFERENCE
DATM.M        562.9                : datum        - DATUM ELEVATION
TDD .M        348                  : tdd          - TOTAL DEPTH DRILLER
RUN .         ONE                  : Run          - RUN NUMBER
ENG .         BILL                 : Engineer     - RECORDING ENGINEER
WIT .         JIM                  : Witness      - WITNESSED BY
MUD .         GEL                  : Mud_type     - MUD TYPE
MATR.         LIMESTONE            : Logunit      - NEUTRON MATRIX
TMAX.C        26                   : BHT          - MAXIMUM RECORDED TEMPERATURE
BHTD.M        348                  : BHTDEP       - MAXIMUM RECORDED TEMPERATURE
MATR.         1                    : LOGUNIT      - NEUTRON MATRIX
RMT .C        25                   : MDTP         - TEMPERATURE OF MUD
NEUT.         1                    : NEUTRON      - NEUTRON TYPE
RESI.         0                    : RESIST       - RESISTIVITY TYPE
RMC .OHMM     0.25                 : RMC          - RESISTIVITY OF MUD CAKE
RMF .OHMM     0.25                 : RMF          - RESISTIVITY OF MUD FILTRATE
SUFT.C        15                   : SUFT         - SURFACE TEMPERATURE
~A  DEPTH     PHID     PHIN       GR     RESD
# ...
  252.000    0.304    0.365   53.874   14.212
  252.250    0.288    0.382   61.225   13.700
  252.500    0.271    0.388   67.965   13.456
  252.750    0.276    0.377   71.628   13.468
  253.000    0.317    0.367   68.525   13.476
  253.250    0.329    0.367   66.049   13.492
  253.500    0.329    0.390   64.796   13.501
  253.750    0.321    0.400   63.544   14.040
  254.000    0.315    0.378   62.900   14.046
  254.250    0.314    0.366   61.650   14.057
  254.500    0.319    0.366   63.469   14.337
  254.750    0.325    0.381   67.749   14.353
  255.000    0.331    0.380   70.803   14.368
  255.250    0.335    0.375   68.933   14.380
  255.500    0.331    0.376   65.223   14.121
  255.750    0.324    0.383   62.740   14.134
  256.000    0.322    0.388   66.402   14.148
  256.250    0.324    0.397   68.225   13.894
  256.500    0.322    0.398   66.357   14.174
  256.750    0.317    0.392   67.561   14.183
  257.000    0.313    0.386   68.770   14.197
  257.250    0.313    0.392   67.513   14.478
  257.500    0.312    0.401   63.185   14.492
  257.750    0.298    0.401   61.931   14.505
  258.000    0.280    0.391   63.754   14.245
  258.250    0.270    0.393   66.192   13.727
  258.500    0.258    0.404   71.087   12.500
  258.750    0.232    0.400   77.825   11.599
  259.000    0.224    0.390   90.089   10.762
  259.250    0.251    0.395   97.447    9.086
  259.500    0.277    0.427  100.497    8.117
  259.750    0.309    0.436  105.387    7.253
  260.000    0.320    0.404  112.125    6.989
  260.250    0.296    0.399  114.560    7.128
  260.500    0.228    0.382  112.081    7.843
  260.750    0.186    0.350  101.605    8.794
  261.000    0.172    0.331   94.819    9.676
  261.250    0.184    0.336   91.725   10.251
  261.500    0.219    0.365   99.077   10.259
  261.750    0.234    0.385  110.118    9.704
  262.000    0.232    0.369  105.176    9.003
  262.250    0.225    0.365  100.848    8.513
  262.500    0.215    0.375  103.896    7.899
  262.750    0.210    0.392  107.564    7.470
  263.000    0.212    0.431  108.155    6.931
  263.250    0.210    0.441  105.674    6.311
  263.500    0.208    0.452   99.504    5.429
  263.750    0.211    0.443   99.480    4.944
  264.000    0.216    0.417  104.988    4.855
  264.250    0.223    0.381  109.268    4.953
  264.500    0.228    0.375  100.022    5.347
  264.750    0.233    0.388   95.699    5.772
  265.000    0.237    0.401   99.975    6.350
  265.250    0.239    0.422  105.486    6.857
  265.500    0.245    0.446  104.845    7.126
  265.750    0.248    0.431  107.898    7.410
  266.000    0.246    0.405  112.176    7.417
  266.250    0.256    0.394  109.080    7.423
  266.500    0.261    0.388  101.062    7.428
  266.750    0.263    0.389   99.199    7.576
  267.000    0.263    0.403   94.258    7.440
  267.250    0.259    0.433   97.922    7.173
  267.500    0.263    0.423  106.504    7.043
  267.750    0.272    0.408  113.854    6.786
  268.000    0.274    0.402  116.287    6.794
  268.250    0.265    0.406  110.736    6.929
  268.500    0.249    0.398  102.106    7.624
  268.750    0.228    0.390   98.391    8.075
  269.000    0.209    0.388   92.837    9.405
  269.250    0.183    0.387   84.209   10.347
  269.500    0.160    0.380   78.650   11.385
  269.750    0.167    0.381   76.172   12.058
  270.000    0.244    0.379   74.920   12.301
  270.250    0.270    0.376   76.124   11.201
  270.500    0.289    0.375   77.947    9.634
  270.750    0.293    0.383   82.837    7.683
  271.000    0.285    0.415   90.191    4.883
  271.250    0.276    0.464  103.691    2.718
  271.500    0.281    0.504  110.427    2.128
  271.750    0.284    0.529  114.702    1.901
  272.000    0.280    0.534  117.143    1.867
  272.250    0.281    0.518  120.807    2.054
  272.500    0.285    0.494  123.855    2.303
  272.750    0.291    0.455  126.290    2.785
  273.000    0.284    0.420  120.737    3.565
  273.250    0.268    0.397  104.114    4.231
  273.500    0.261    0.388   98.560    5.021
  273.750    0.253    0.382  101.608    5.525
  274.000    0.236    0.388  105.273    5.852
  274.250    0.205    0.397  108.326    6.199
  274.500    0.196    0.399  109.523    6.444
  274.750    0.209    0.404  107.662    6.573
  275.000    0.224    0.408  108.251    6.456
  275.250    0.231    0.414  111.915    6.340
  275.500    0.234    0.427  113.124    6.110
  275.750    0.234    0.426  110.022    5.888
  276.000    0.236    0.407  108.771    5.465
  276.250    0.239    0.401  109.978    5.167
  276.500    0.244    0.418  113.027    4.796
  276.750    0.240    0.442  116.694    4.622
  277.000    0.238    0.437  116.670    4.713
  277.250    0.235    0.421  113.575    4.900
  277.500    0.232    0.407  114.158    5.289
  277.750    0.228    0.404  111.683    5.932
  278.000    0.229    0.400  103.050    6.524
  278.250    0.233    0.382  102.412    7.599
  278.500    0.245    0.365  107.305    8.048
  278.750    0.258    0.342  111.590   10.500
  279.000    0.233    0.307  113.404   12.226
  279.250    0.117    0.223   98.633   15.648
  279.500    0.079    0.165   77.712   20.803
  279.750    0.048    0.134   66.622   28.183
  280.000    0.045    0.122   64.755   34.742
  280.250    0.076    0.115   63.495   33.477
  280.500    0.117    0.117   62.249   27.731
  280.750    0.156    0.148   59.769   18.303
  281.000    0.220    0.211   65.271   13.792
  281.250    0.276    0.287   72.625   11.865
  281.500    0.277    0.362   78.133   11.222
  281.750    0.265    0.366   84.871   11.663
  282.000    0.245    0.353   85.464   12.355
  282.250    0.198    0.328   87.287   13.593
  282.500    0.168    0.302   87.879   14.956
  282.750    0.147    0.252   76.787   14.970
  283.000    0.150    0.241   60.783   13.890
  283.250    0.204    0.245   61.375   11.950
  283.500    0.270    0.306   76.103   10.678
  283.750    0.274    0.375   90.833   10.290
  284.000    0.275    0.378   89.580    9.919
  284.250    0.276    0.379   90.168    9.924
  284.500    0.283    0.400   96.904    9.747
  284.750    0.290    0.400   99.958    9.943
  285.000    0.297    0.387   93.167   10.140
  285.250    0.290    0.374   88.846   10.347
  285.500    0.283    0.363   91.896   10.754
  285.750    0.272    0.353   96.172   11.392
  286.000    0.259    0.347   93.692   11.843
  286.250    0.248    0.360   93.049   12.078
  286.500    0.236    0.384   95.487   12.319
  286.750    0.222    0.399   97.301   12.330
  287.000    0.214    0.382   95.443   11.882
  287.250    0.222    0.361   89.267   11.450
  287.500    0.248    0.360   92.314   10.830
  287.750    0.262    0.378   95.371   10.240
  288.000    0.268    0.383   98.423    9.323
  288.250    0.256    0.376   96.552    8.489
  288.500    0.240    0.375   96.531    8.028
  288.750    0.228    0.377  103.266    7.886
  289.000    0.213    0.387  110.007    7.893
  289.250    0.210    0.392  113.055    8.051
  289.500    0.219    0.384  112.419    8.211
  289.750    0.232    0.382  114.240    8.374
  290.000    0.240    0.392  112.369    8.705
  290.250    0.245    0.404  114.191    8.714
  290.500    0.238    0.390  112.933    8.722
  290.750    0.231    0.380  110.457    8.565
  291.000    0.227    0.373  105.511    8.414
  291.250    0.226    0.377  104.867    8.264
  291.500    0.228    0.384  107.928    8.113
  291.750    0.223    0.393  114.664    7.970
  292.000    0.215    0.395  114.027    8.129
  292.250    0.204    0.377  107.856    8.135
  292.500    0.194    0.364  104.758    8.299
  292.750    0.194    0.362  110.879    8.308
  293.000    0.201    0.366  114.545    8.313
  293.250    0.201    0.370  119.439    8.319
  293.500    0.206    0.377  121.875    8.172
  293.750    0.216    0.372  118.161    7.874
  294.000    0.229    0.365  111.377    7.589
  294.250    0.234    0.368  103.979    7.314
  294.500    0.242    0.391  106.416    7.319
  294.750    0.254    0.396  113.767    7.466
  295.000    0.259    0.390  118.658    7.910
  295.250    0.259    0.376  116.793    8.705
