~VERSION INFORMATION
 VERS.                 2.0:   CWLS LOG ASCII STANDARD -VERSION 2.0
 WRAP.                  NO:   ONE LINE PER DEPTH STEP
~WELL INFORMATION BLOCK
#MNEM.UNIT           DATA                    DESCRIPTION OF MNEMONIC
#---------    -------------------            -------------------------------
# Generated from Intellog Unique Number	CS_77_79/WELL/852
WELL.         CWWE LEISMER                   : Well_name    - WELL
LOC .         00/05-04-078-05W4/0            : Location     - LOCATION
UWI .         00/05-04-078-05W4/0            : Uwi          - UNIQUE WELL ID
ENTR.         JHS                            : Entered      - ENTERED BY
SRVC.         SCHLUMBERGER                   : Scn          - SERVICE COMPANY
STRT.M        165                            : top_depth    - START DEPTH
STOP.M        420                            : bot_depth    - STOP DEPTH
STEP.M        0.25                           : increment    - STEP LENGTH
 NULL. -999.2500:NULL Value
~CURVE INFORMATION BLOCK
#MNEM UNIT       ERCB CURVE CODE    CURVE DESCRIPTION
#-----------   ------------------   ----------------------------------
DEPT.M        00 001 00 00         : DEPTH        - DEPTH
DPHI.V/V      00 890 00 00         : PHID         - DENSITY POROSITY (LIMESTONE)
NPHI.V/V      00 330 00 00         : PHIN         - NEUTRON POROSITY (LIMESTONE)
GR  .API      00 310 00 00         : GR           - GAMMA RAY
ILD .OHMM     00 120 00 00         : RESD         - DEEP RESISTIVITY (DIL)
RHOB.KG/M3    00 350 00 00         : DENS         - BULK DENSITY
~PARAMETER INFORMATION
#MNEM.UNIT           DATA             DESCRIPTION OF MNEMONIC
#---------         -----------     ------------------------------
GL  .M        585.9                : gl           - GROUND LEVEL ELEVATION
EREF.M        589.8                : kb           - ELEVATION OF DEPTH REFERENCE
DATM.M        589.8                : datum        - DATUM ELEVATION
TDD .M        430                  : tdd          - TOTAL DEPTH DRILLER
RUN .         ONE                  : Run          - RUN NUMBER
ENG .         BILL                 : Engineer     - RECORDING ENGINEER
WIT .         JIM                  : Witness      - WITNESSED BY
MUD .         GEL                  : Mud_type     - MUD TYPE
MATR.         LIMESTONE            : Logunit      - NEUTRON MATRIX
TMAX.C        19                   : BHT          - MAXIMUM RECORDED TEMPERATURE
BHTD.M        430                  : BHTDEP       - MAXIMUM RECORDED TEMPERATURE
MATR.         1                    : LOGUNIT      - NEUTRON MATRIX
RMT .C        25                   : MDTP         - TEMPERATURE OF MUD
NEUT.         1                    : NEUTRON      - NEUTRON TYPE
RESI.         0                    : RESIST       - RESISTIVITY TYPE
RMC .OHMM     0.25                 : RMC          - RESISTIVITY OF MUD CAKE
RMF .OHMM     0.25                 : RMF          - RESISTIVITY OF MUD FILTRATE
SUFT.C        15                   : SUFT         - SURFACE TEMPERATURE
~A  DEPTH     PHID     PHIN       GR     RESD     DENS
  165.000    1.283    0.552  100.822    2.632    0.000
  165.250    0.273    0.547  100.237    2.583    0.000
  165.500    0.278    0.549  101.486    2.583    0.000
  165.750    0.296    0.555  100.891    2.583    0.000
  166.000    0.297    0.555   95.998    2.583    0.000
  166.250    0.295    0.570   93.567    2.583    0.000
  166.500    0.295    0.594   97.280    2.632    0.000
  166.750    0.300    0.605   99.143    2.632    0.000
  167.000    0.301    0.588   99.789    2.632    0.000
  167.250    0.290    0.541  101.039    2.683    0.000
  167.500    0.274    0.530  105.979    2.632    0.000
  167.750    0.270    0.538  108.462    2.632    0.000
  168.000    0.277    0.559  105.413    2.632    0.000
  168.250    0.281    0.580  102.367    2.632    0.000
  168.500    0.276    0.607  101.769    2.632    0.000
  168.750    0.271    0.594  103.027    2.683    0.000
  169.000    0.268    0.583  104.279    2.683    0.000
  169.250    0.268    0.604  102.454    2.734    0.000
  169.500    0.269    0.579   96.336    2.786    0.000
  169.750    0.264    0.545   95.127    2.840    0.000
  170.000    0.256    0.531  100.067    2.894    0.000
  170.250    0.249    0.536  105.626    2.894    0.000
  170.500    0.246    0.548  106.882    2.894    0.000
  170.750    0.257    0.557  101.372    2.950    0.000
  171.000    0.267    0.568   95.869    2.950    0.000
  171.250    0.263    0.591  100.803    2.950    0.000
  171.500    0.262    0.594  108.819    3.006    0.000
  171.750    0.260    0.557  105.772    3.006    0.000
  172.000    0.251    0.537  101.494    3.006    0.000
  172.250    0.241    0.542  105.817    3.064    0.000
  172.500    0.238    0.539  113.837    3.182    0.000
  172.750    0.247    0.511  115.700    3.243    0.000
  173.000    0.256    0.502  114.494    3.369    0.000
  173.250    0.245    0.536  112.060    3.566    0.000
  173.500    0.235    0.551  104.710    3.634    0.000
  173.750    0.242    0.510  104.120    3.704    0.000
  174.000    0.241    0.491  102.917    3.775    0.000
  174.250    0.231    0.509   99.868    3.775    0.000
  174.500    0.217    0.529   98.654    3.847    0.000
  174.750    0.210    0.515  106.670    3.921    0.000
  175.000    0.213    0.516  103.009    4.151    0.000
  175.250    0.224    0.524   95.652    4.564    0.000
  175.500    0.253    0.485   71.084    5.414    0.000
  175.750    0.386    0.442   45.904    7.913    0.000
  176.000    0.437    0.402   33.633   12.014    0.000
  176.250    0.467    0.382   29.354   16.905    0.000
  176.500    0.333    0.360   31.230   21.229    0.000
  176.750    0.220    0.344   33.712   23.789    0.000
  177.000    0.187    0.358   33.729   21.229    0.000
  177.250    0.301    0.375   36.214   13.462    0.000
  177.500    0.362    0.366   52.836   10.519    0.000
  177.750    0.360    0.372   65.154    8.537    0.000
  178.000    0.313    0.413   81.159    6.545    0.000
  178.250    0.270    0.482   98.396    5.114    0.000
  178.500    0.241    0.493  102.111    4.478    0.000
  178.750    0.226    0.482  103.978    4.311    0.000
  179.000    0.221    0.481  100.314    4.394    0.000
  179.250    0.222    0.473   86.816    5.212    0.000
  179.500    0.237    0.447   73.927    7.335    0.000
  179.750    0.275    0.416   62.270   10.721    0.000
  180.000    0.290    0.399   56.145   13.462    0.000
  180.250    0.294    0.389   62.316   15.970    0.000
  180.500    0.302    0.392   57.422   18.944    0.000
  180.750    0.307    0.394   54.372   20.438    0.000
  181.000    0.289    0.380   71.611   20.830    0.000
  181.250    0.266    0.370   80.241   20.438    0.000
  181.500    0.245    0.372   77.808   19.677    0.000
  181.750    0.259    0.363   67.994   18.588    0.000
  182.000    0.281    0.359   56.339   17.559    0.000
  182.250    0.293    0.369   53.286   15.970    0.000
  182.500    0.293    0.382   71.754   15.086    0.000
  182.750    0.275    0.396   85.302   13.720    0.000
  183.000    0.254    0.402   92.704   12.717    0.000
  183.250    0.249    0.408   92.112   12.717    0.000
  183.500    0.262    0.431   90.292   13.209    0.000
  183.750    0.266    0.451   86.013   13.983    0.000
  184.000    0.266    0.409   82.348   15.375    0.000
  184.250    0.257    0.378   86.061   15.970    0.000
  184.500    0.245    0.368   85.469   16.276    0.000
  184.750    0.246    0.377   79.967   16.905    0.000
  185.000    0.257    0.382   79.985   17.229    0.000
  185.250    0.256    0.387   78.165   17.559    0.000
  185.500    0.179    0.395   75.116   17.559    0.000
  185.750    0.152    0.414   76.981   17.559    0.000
  186.000    0.155    0.418   84.388   17.559    0.000
  186.250    0.226    0.401   89.947   17.229    0.000
  186.500    0.285    0.398   93.044   16.587    0.000
  186.750    0.284    0.405   96.751   15.970    0.000
  187.000    0.244    0.414  104.766   15.086    0.000
  187.250    0.212    0.411  111.550   13.720    0.000
  187.500    0.193    0.410  117.725   12.961    0.000
  187.750    0.197    0.421  120.205   12.961    0.000
  188.000    0.217    0.414  116.539   13.209    0.000
  188.250    0.233    0.394  102.427   13.983    0.000
  188.500    0.239    0.386   93.843   14.802    0.000
  188.750    0.254    0.392   85.258   15.970    0.000
  189.000    0.298    0.448   71.146   17.229    0.000
  189.250    0.346    0.460   70.555   18.238    0.000
  189.500    0.338    0.459   79.185   19.307    0.000
  189.750    0.327    0.437   84.125   19.307    0.000
  190.000    0.327    0.424   87.838   18.588    0.000
  190.250    0.324    0.430   84.790   17.229    0.000
  190.500    0.318    0.435   86.657   15.669    0.000
  190.750    0.307    0.434   95.287   13.720    0.000
  191.000    0.268    0.422   99.614   12.014    0.000
  191.250    0.238    0.434  100.870   10.321    0.000
  191.500    0.227    0.441  103.967    9.211    0.000
  191.750    0.220    0.445  107.068    8.377    0.000
  192.000    0.221    0.440  105.856    7.913    0.000
  192.250    0.226    0.447  104.041    7.335    0.000
  192.500    0.232    0.447  105.910    7.335    0.000
  192.750    0.238    0.437  107.160    7.335    0.000
  193.000    0.232    0.438  104.727    7.913    0.000
  193.250    0.229    0.435   97.984    8.537    0.000
  193.500    0.249    0.427   78.950   10.321    0.000
  193.750    0.332    0.422   54.998   13.462    0.000
  194.000    0.343    0.420   47.033   16.276    0.000
  194.250    0.343    0.410   48.899   18.944    0.000
  194.500    0.333    0.395   56.916   21.229    0.000
  194.750    0.324    0.370   61.871   22.050    0.000
  195.000    0.311    0.348   63.727   21.635    0.000
  195.250    0.314    0.361   69.901   20.830    0.000
  195.500    0.324    0.391   75.455   19.677    0.000
  195.750    0.323    0.423   80.395   17.559    0.000
  196.000    0.309    0.429   92.100   15.086    0.000
  196.250    0.277    0.399  108.108   13.720    0.000
  196.500    0.230    0.403  114.894   11.566    0.000
  196.750    0.180    0.429  114.919   10.127    0.000
  197.000    0.158    0.455   98.341    9.567    0.000
  197.250    0.247    0.469   71.317    9.211    0.000
  197.500    0.287    0.431   59.661    9.211    0.000
  197.750    0.314    0.415   68.292    9.211    0.000
  198.000    0.284    0.415   91.060    9.211    0.000
  198.250    0.236    0.437   97.850    9.567    0.000
  198.500    0.238    0.462   75.740   10.127    0.000
  198.750    0.288    0.448   62.238   11.349    0.000
  199.000    0.332    0.426   48.124   13.209    0.000
  199.250    0.348    0.411   53.067   15.375    0.000
  199.500    0.343    0.403   62.931   18.238    0.000
  199.750    0.336    0.389   66.643   20.830    0.000
  200.000    0.322    0.383   69.124   21.229    0.000
  200.250    0.318    0.392   72.843   18.944    0.000
  200.500    0.308    0.389   76.550   15.669    0.000
  200.750    0.288    0.375   86.405   12.961    0.000
  201.000    0.250    0.365  103.643   11.788    0.000
  201.250    0.218    0.361  100.596   10.721    0.000
