~VERSION INFORMATION
 VERS.                 2.0:   CWLS LOG ASCII STANDARD -VERSION 2.0
 WRAP.                  NO:   ONE LINE PER DEPTH STEP
~WELL INFORMATION BLOCK
#MNEM.UNIT           DATA                    DESCRIPTION OF MNEMONIC
#---------    -------------------            -------------------------------
# Generated from Intellog Unique Number	CS_73_76/WELL/784
WELL.         ANR PRODUCTION COMPANY         : Well_name    - WELL
LOC .         00/09-17-073-18W4/0            : Location     - LOCATION
UWI .         00/09-17-073-18W4/0            : Uwi          - UNIQUE WELL ID
ENTR.         SP                             : Entered      - ENTERED BY
SRVC.         SCHLUMBERGER                   : Scn          - SERVICE COMPANY
STRT.M        225                            : top_depth    - START DEPTH
STOP.M        480                            : bot_depth    - STOP DEPTH
STEP.M        0.25                           : increment    - STEP LENGTH
 NULL. -999.2500:NULL Value
~CURVE INFORMATION BLOCK
#MNEM UNIT       ERCB CURVE CODE    CURVE DESCRIPTION
#-----------   ------------------   ----------------------------------
DEPT.M        00 001 00 00         : DEPTH        - DEPTH
ILD .OHMM     00 120 00 00         : RESD         - DEEP RESISTIVITY (DIL)
DPHI.V/V      00 890 00 00         : PHID         - DENSITY POROSITY (LIMESTONE)
NPHI.V/V      00 330 00 00         : PHIN         - NEUTRON POROSITY (LIMESTONE)
GR  .API      00 310 00 00         : GR           - GAMMA RAY
~PARAMETER INFORMATION
#MNEM.UNIT           DATA             DESCRIPTION OF MNEMONIC
#---------         -----------     ------------------------------
GL  .M        595.3                : gl           - GROUND LEVEL ELEVATION
EREF.M        599.2                : kb           - ELEVATION OF DEPTH REFERENCE
DATM.M        595.3                : datum        - DATUM ELEVATION
TDD .M        485                  : tdd          - TOTAL DEPTH DRILLER
RUN .         ONE                  : Run          - RUN NUMBER
ENG .         BILL                 : Engineer     - RECORDING ENGINEER
WIT .         JIM                  : Witness      - WITNESSED BY
MUD .         GEL                  : Mud_type     - MUD TYPE
MATR.         LIMESTONE            : Logunit      - NEUTRON MATRIX
TMAX.C        18                   : BHT          - MAXIMUM RECORDED TEMPERATURE
BHTD.M        485                  : BHTDEP       - MAXIMUM RECORDED TEMPERATURE
MATR.         1                    : LOGUNIT      - NEUTRON MATRIX
RMT .C        25                   : MDTP         - TEMPERATURE OF MUD
NEUT.         1                    : NEUTRON      - NEUTRON TYPE
RESI.         0                    : RESIST       - RESISTIVITY TYPE
RMC .OHMM     0.25                 : RMC          - RESISTIVITY OF MUD CAKE
RMF .OHMM     0.25                 : RMF          - RESISTIVITY OF MUD FILTRATE
SUFT.C        15                   : SUFT         - SURFACE TEMPERATURE
~A  DEPTH     RESD     PHID     PHIN       GR
  225.000    3.495    0.163    0.367   72.854
  225.250    3.495    0.175    0.375   72.851
  225.500    3.497    0.196    0.365   75.294
  225.750    3.701    0.179    0.347   76.516
  226.000    3.844    0.163    0.326   78.961
  226.250    3.918    0.153    0.317   78.344
  226.500    4.068    0.164    0.316   77.115
  226.750    4.146    0.181    0.322   75.886
  227.000    4.227    0.191    0.348   76.494
  227.250    4.151    0.184    0.347   76.492
  227.500    4.075    0.186    0.343   77.099
  227.750    3.856    0.189    0.337   77.708
  228.000    3.716    0.178    0.333   77.703
  228.250    3.582    0.176    0.337   77.700
  228.500    3.517    0.183    0.356   79.531
  228.750    3.390    0.192    0.363   80.140
  229.000    3.391    0.194    0.366   81.971
  229.250    3.330    0.200    0.376   83.193
  229.500    3.332    0.193    0.387   84.412
  229.750    3.461    0.182    0.365   85.022
  230.000    3.594    0.183    0.349   83.182
  230.250    3.874    0.190    0.364   81.953
  230.500    4.500    0.192    0.358   79.500
  230.750    5.426    0.194    0.339   76.435
  231.000    7.740    0.213    0.298   69.696
  231.250   11.678    0.226    0.278   60.508
  231.500   14.893    0.240    0.266   48.260
  231.750   16.357    0.247    0.260   32.338
  232.000   16.989    0.258    0.256   21.314
  232.250   16.684    0.262    0.270   15.187
  232.500   16.691    0.204    0.262   16.407
  232.750   16.697    0.182    0.256   18.238
  233.000   16.705    0.170    0.254   18.848
  233.250   17.028    0.186    0.254   19.456
  233.500   17.040    0.215    0.261   16.391
  233.750   17.048    0.233    0.275   12.714
  234.000   17.055    0.252    0.284   10.873
  234.250   17.383    0.274    0.293   12.706
  234.500   17.396    0.284    0.286   14.538
  234.750   17.405    0.284    0.280   15.145
  235.000   17.740    0.273    0.255   15.143
  235.250   17.747    0.267    0.251   15.139
  235.500   17.756    0.251    0.257   13.909
  235.750   17.764    0.249    0.272   12.069
  236.000   17.770    0.259    0.278   11.453
  236.250   17.780    0.273    0.276   11.449
  236.500   18.124    0.279    0.272   11.444
  236.750   18.130    0.273    0.271   11.439
  237.000   18.138    0.268    0.273   11.435
  237.250   18.149    0.259    0.275   10.819
  237.500   18.162    0.251    0.275   10.203
  237.750   18.172    0.258    0.271    9.587
  238.000   18.180    0.264    0.269   10.808
  238.250   17.852    0.269    0.265   12.028
  238.500   17.857    0.255    0.262   13.248
  238.750   17.865    0.250    0.260   12.633
  239.000   17.876    0.253    0.258   12.015
  239.250   17.886    0.253    0.255   12.622
  239.500   17.559    0.249    0.265   13.230
  239.750   17.568    0.248    0.274   13.227
  240.000   17.574    0.248    0.276   12.611
  240.250   17.919    0.259    0.271   11.995
  240.500   17.924    0.266    0.266   11.992
  240.750   17.930    0.269    0.259   11.985
  241.000   17.609    0.254    0.258   11.982
  241.250   17.292    0.242    0.260   11.979
  241.500   16.667    0.241    0.260   12.587
  241.750   15.766    0.247    0.255   13.194
  242.000   15.193    0.265    0.253   13.803
  242.250   13.591    0.276    0.250   14.412
  242.500   12.156    0.285    0.287   16.244
  242.750   10.872    0.284    0.287   18.078
  243.000    9.368    0.290    0.290   21.747
  243.250    8.380    0.223    0.304   31.537
  243.500    8.541    0.217    0.309   40.105
  243.750    9.209    0.212    0.303   45.612
  244.000    9.563    0.231    0.299   47.444
  244.250   10.119    0.256    0.295   38.868
  244.500    9.753    0.271    0.290   35.192
  244.750    9.226    0.235    0.288   29.065
  245.000    7.659    0.195    0.287   31.510
  245.250    6.724    0.181    0.293   38.852
  245.500    6.014    0.168    0.303   44.970
  245.750    5.280    0.158    0.319   51.088
  246.000    4.812    0.167    0.335   54.758
  246.250    4.552    0.189    0.346   59.652
  246.500    4.469    0.199    0.325   65.159
  246.750    4.729    0.204    0.318   67.603
  247.000    5.294    0.200    0.312   64.537
  247.250    5.497    0.190    0.313   57.798
  247.500    5.926    0.182    0.313   53.509
  247.750    6.270    0.180    0.306   47.995
  248.000    6.511    0.215    0.314   44.929
  248.250    6.514    0.226    0.315   42.477
  248.500    6.398    0.214    0.308   38.187
  248.750    6.282    0.211    0.303   42.468
  249.000    5.942    0.227    0.298   44.913
  249.250    5.518    0.233    0.323   43.685
  249.500    5.029    0.235    0.335   42.457
  249.750    4.846    0.216    0.346   44.289
  250.000    4.584    0.213    0.342   46.734
  250.250    4.336    0.204    0.335   49.791
  250.500    4.339    0.200    0.353   52.848
  250.750    4.422    0.191    0.342   57.129
  251.000    4.679    0.191    0.331   58.962
  251.250    5.045    0.199    0.323   57.122
  251.500    5.239    0.202    0.329   51.607
  251.750    5.441    0.201    0.322   46.706
  252.000    5.444    0.203    0.318   42.416
  252.250    5.346    0.218    0.313   40.575
  252.500    5.057    0.220    0.316   42.407
  252.750    4.873    0.221    0.323   44.239
  253.000    4.443    0.213    0.333   46.072
  253.250    4.282    0.202    0.336   47.294
  253.500    4.283    0.179    0.350   49.125
  253.750    4.129    0.170    0.336   50.347
  254.000    4.130    0.176    0.321   53.402
  254.250    4.055    0.187    0.322   55.236
  254.500    3.983    0.189    0.332   50.946
  254.750    3.767    0.187    0.345   52.166
  255.000    3.308    0.180    0.355   56.447
  255.250    3.014    0.176    0.350   61.340
  255.500    2.959    0.185    0.363   63.175
  255.750    2.748    0.196    0.376   68.680
  256.000    2.649    0.203    0.387   71.125
  256.250    2.650    0.196    0.388   72.958
  256.500    2.701    0.186    0.384   73.565
  256.750    2.753    0.189    0.384   74.174
  257.000    2.968    0.198    0.384   74.171
  257.250    3.200    0.193    0.388   69.880
  257.500    3.386    0.182    0.365   66.201
  257.750    3.789    0.172    0.333   64.975
  258.000    4.484    0.187    0.317   60.073
  258.250    4.925    0.206    0.308   53.946
  258.500    5.512    0.218    0.296   49.656
  258.750    5.618    0.233    0.308   45.979
  259.000    5.834    0.241    0.317   43.526
  259.250    5.729    0.230    0.315   42.298
  259.500    5.319    0.222    0.318   43.517
  259.750    4.671    0.217    0.331   45.961
  260.000    4.418    0.210    0.359   47.796
  260.250    4.026    0.195    0.359   53.301
  260.500    3.669    0.207    0.342   55.135
  260.750    3.407    0.202    0.335   58.803
  261.000    3.283    0.194    0.329   61.248
  261.250    3.225    0.189    0.345   64.305
  261.500    3.226    0.192    0.359   66.137
  261.750    3.168    0.201    0.377   66.134
  262.000    3.169    0.198    0.389   65.516
  262.250    3.171    0.193    0.375   64.902
  262.500    3.172    0.195    0.364   64.897
  262.750    3.116    0.203    0.350   65.505
  263.000    3.116    0.204    0.360   66.114
  263.250    3.004    0.196    0.370   66.720
  263.500    2.895    0.198    0.376   67.330
  263.750    2.791    0.203    0.386   67.938
  264.000    2.792    0.207    0.367   67.934
  264.250    2.741    0.212    0.353   66.705
  264.500    2.692    0.212    0.345   66.702
  264.750    2.693    0.213    0.369   67.309
  265.000    2.695    0.212    0.377   67.305
  265.250    2.695    0.206    0.366   66.689
  265.500    2.697    0.201    0.360   65.460
  265.750    2.698    0.196    0.354   65.455
  266.000    2.700    0.211    0.361   65.453
  266.250    2.701    0.221    0.377   66.671
  266.500    2.702    0.213    0.393   67.281
  266.750    2.703    0.220    0.393   67.887
  267.000    2.705    0.222    0.387   68.497
  267.250    2.656    0.211    0.385   68.494
  267.500    2.608    0.205    0.380   66.041
  267.750    2.514    0.209    0.370   64.812
  268.000    2.468    0.225    0.371   65.420
  268.250    2.379    0.223    0.385   64.804
