~VERSION INFORMATION
 VERS.                 2.0:   CWLS LOG ASCII STANDARD -VERSION 2.0
 WRAP.                  NO:   ONE LINE PER DEPTH STEP
~WELL INFORMATION BLOCK
#MNEM.UNIT           DATA                    DESCRIPTION OF MNEMONIC
#---------    -------------------            -------------------------------
# Generated from Intellog Unique Number	CS_77_79/WELL/840
WELL.         DOME COWPAR                    : Well_name    - WELL
LOC .         00/02-17-079-03W4/0            : Location     - LOCATION
UWI .         00/02-17-079-03W4/0            : Uwi          - UNIQUE WELL ID
ENTR.         JHS                            : Entered      - ENTERED BY
SRVC.         SCHLUMBERGER                   : Scn          - SERVICE COMPANY
STRT.M        140                            : top_depth    - START DEPTH
STOP.M        400                            : bot_depth    - STOP DEPTH
STEP.M        0.25                           : increment    - STEP LENGTH
 NULL. -999.2500:NULL Value
~CURVE INFORMATION BLOCK
#MNEM UNIT       ERCB CURVE CODE    CURVE DESCRIPTION
#-----------   ------------------   ----------------------------------
DEPT.M        00 001 00 00         : DEPTH        - DEPTH
DPHI.V/V      00 890 00 00         : PHID         - DENSITY POROSITY (LIMESTONE)
NPHI.V/V      00 330 00 00         : PHIN         - NEUTRON POROSITY (LIMESTONE)
GR  .API      00 310 00 00         : GR           - GAMMA RAY
ILD .OHMM     00 120 00 00         : RESD         - DEEP RESISTIVITY (DIL)
RHOB.KG/M3    00 350 00 00         : DENS         - BULK DENSITY
~PARAMETER INFORMATION
#MNEM.UNIT           DATA             DESCRIPTION OF MNEMONIC
#---------         -----------     ------------------------------
GL  .M        549.2                : gl           - GROUND LEVEL ELEVATION
EREF.M        553.1                : kb           - ELEVATION OF DEPTH REFERENCE
DATM.M        553.1                : datum        - DATUM ELEVATION
TDD .M        402                  : tdd          - TOTAL DEPTH DRILLER
RUN .         ONE                  : Run          - RUN NUMBER
ENG .         BILL                 : Engineer     - RECORDING ENGINEER
WIT .         JIM                  : Witness      - WITNESSED BY
MUD .         GEL                  : Mud_type     - MUD TYPE
MATR.         LIMESTONE            : Logunit      - NEUTRON MATRIX
TMAX.C        24.4                 : BHT          - MAXIMUM RECORDED TEMPERATURE
BHTD.M        402                  : BHTDEP       - MAXIMUM RECORDED TEMPERATURE
MATR.         1                    : LOGUNIT      - NEUTRON MATRIX
RMT .C        25                   : MDTP         - TEMPERATURE OF MUD
NEUT.         1                    : NEUTRON      - NEUTRON TYPE
RESI.         0                    : RESIST       - RESISTIVITY TYPE
RMC .OHMM     0.25                 : RMC          - RESISTIVITY OF MUD CAKE
RMF .OHMM     0.25                 : RMF          - RESISTIVITY OF MUD FILTRATE
SUFT.C        15                   : SUFT         - SURFACE TEMPERATURE
~A  DEPTH     PHID     PHIN       GR     RESD     DENS
  140.000    0.246    0.552  102.023    2.991    0.000
  140.250    0.276    0.571   98.984    3.047    0.000
  140.500    0.266    0.559   98.375    3.047    0.000
  140.750    0.246    0.553   98.981    3.048    0.000
  141.000    0.253    0.552   97.764    3.105    0.000
  141.250    0.258    0.564   97.155    3.105    0.000
  141.500    0.261    0.582   98.368    3.105    0.000
  141.750    0.273    0.598   98.973    3.105    0.000
  142.000    0.263    0.610   97.149    3.106    0.000
  142.250    0.252    0.606   97.147    3.106    0.000
  142.500    0.249    0.594   97.753    3.049    0.000
  142.750    0.260    0.600  100.180    3.049    0.000
  143.000    0.266    0.598  102.607    3.049    0.000
  143.250    0.260    0.578  100.784    3.049    0.000
  143.500    0.267    0.560   98.353    2.993    0.000
  143.750    0.259    0.565   97.743    2.994    0.000
  144.000    0.271    0.586   98.349    2.939    0.000
  144.250    0.276    0.590   98.954    2.885    0.000
  144.500    0.287    0.587   98.345    2.832    0.000
  144.750    0.292    0.588   97.129    2.780    0.000
  145.000    0.293    0.589   95.912    2.729    0.000
  145.250    0.306    0.590   94.088    2.679    0.000
  145.500    0.305    0.589   95.301    2.679    0.000
  145.750    0.278    0.577   96.514    2.679    0.000
  146.000    0.293    0.564   97.119    2.679    0.000
  146.250    0.299    0.557   95.903    2.730    0.000
  146.500    0.299    0.560   94.686    2.730    0.000
  146.750    0.290    0.595   94.685    2.730    0.000
  147.000    0.277    0.604   95.290    2.730    0.000
  147.250    0.281    0.577   92.859    2.680    0.000
  147.500    0.275    0.586   91.642    2.680    0.000
  147.750    0.270    0.594   94.070    2.680    0.000
  148.000    0.278    0.604   96.496    2.681    0.000
  148.250    0.272    0.601   95.888    2.731    0.000
  148.500    0.259    0.601   94.671    2.782    0.000
  148.750    0.267    0.595   92.847    2.835    0.000
  149.000    0.255    0.581   91.023    2.888    0.000
  149.250    0.248    0.574   92.844    2.888    0.000
  149.500    0.254    0.581   95.270    2.835    0.000
  149.750    0.242    0.563   95.269    2.835    0.000
  150.000    0.258    0.572   95.267    2.783    0.000
  150.250    0.275    0.548   95.265    2.783    0.000
  150.500    0.242    0.537   96.478    2.732    0.000
  150.750    0.228    0.545  101.942    2.784    0.000
  151.000    0.232    0.560  104.369    2.784    0.000
  151.250    0.253    0.570  101.938    2.836    0.000
  151.500    0.241    0.586   98.899    2.890    0.000
  151.750    0.242    0.574   98.897    2.999    0.000
  152.000    0.223    0.555   97.681    3.171    0.000
  152.250    0.229    0.546   95.858    3.291    0.000
  152.500    0.242    0.545  103.143    3.416    0.000
  152.750    0.254    0.557  103.141    3.480    0.000
  153.000    0.245    0.560  100.103    3.417    0.000
  153.250    0.226    0.571   97.064    3.417    0.000
  153.500    0.222    0.564   97.062    3.354    0.000
  153.750    0.230    0.549   98.275    3.292    0.000
  154.000    0.251    0.542  100.095    3.232    0.000
  154.250    0.230    0.541  100.701    3.232    0.000
  154.500    0.219    0.546   98.876    3.232    0.000
  154.750    0.235    0.543   97.053    3.293    0.000
  155.000    0.226    0.540   95.229    3.355    0.000
  155.250    0.225    0.541   94.013    3.548    0.000
  155.500    0.203    0.537   89.760    3.751    0.000
  155.750    0.188    0.512   81.256    4.193    0.000
  156.000    0.194    0.444   73.967    4.517    0.000
  156.250    0.190    0.416   75.180    4.957    0.000
  156.500    0.229    0.427   85.501    5.050    0.000
  156.750    0.248    0.477   88.536    4.689    0.000
  157.000    0.251    0.493   84.283    4.273    0.000
  157.250    0.242    0.501   80.637    4.435    0.000
  157.500    0.253    0.525   74.563    4.958    0.000
  157.750    0.265    0.455   67.881    6.082    0.000
  158.000    0.237    0.445   69.701    6.431    0.000
  158.250    0.208    0.459   78.808    6.927    0.000
  158.500    0.210    0.479   84.879    7.057    0.000
  158.750    0.220    0.477   87.913    6.675    0.000
  159.000    0.239    0.461   89.126    6.314    0.000
  159.250    0.251    0.470   91.553    6.084    0.000
  159.500    0.233    0.477   92.766    6.199    0.000
  159.750    0.223    0.485   90.335    6.677    0.000
  160.000    0.228    0.501   84.867    7.192    0.000
  160.250    0.240    0.460   81.829    7.892    0.000
  160.500    0.270    0.444   79.398    8.345    0.000
  160.750    0.274    0.447   80.611    8.661    0.000
  161.000    0.248    0.460   84.253    9.158    0.000
  161.250    0.251    0.468   83.644    9.505    0.000
  161.500    0.237    0.467   78.176    9.865    0.000
  161.750    0.235    0.429   76.960   10.239    0.000
  162.000    0.228    0.418   77.565   10.627    0.000
  162.250    0.223    0.403   74.527   11.030    0.000
  162.500    0.230    0.404   69.059   11.663    0.000
  162.750    0.242    0.413   65.414   12.562    0.000
  163.000    0.264    0.424   62.982   14.575    0.000
  163.250    0.286    0.437   59.945   15.700    0.000
  163.500    0.300    0.441   51.441   18.216    0.000
  163.750    0.314    0.413   45.973   19.621    0.000
  164.000    0.316    0.400   44.150   20.365    0.000
  164.250    0.322    0.395   43.541   20.748    0.000
  164.500    0.312    0.392   41.109   20.750    0.000
  164.750    0.312    0.394   38.678   20.750    0.000
  165.000    0.323    0.400   39.284   20.751    0.000
  165.250    0.316    0.401   41.104   20.753    0.000
  165.500    0.303    0.406   44.138   20.754    0.000
  165.750    0.294    0.413   47.173   19.999    0.000
  166.000    0.273    0.395   50.207   20.000    0.000
  166.250    0.251    0.394   50.205   19.633    0.000
  166.500    0.248    0.404   48.382   19.634    0.000
  166.750    0.254    0.397   45.343   19.635    0.000
  167.000    0.257    0.386   43.520   20.004    0.000
  167.250    0.270    0.396   42.303   20.380    0.000
  167.500    0.297    0.409   41.694   20.763    0.000
  167.750    0.293    0.391   37.441   21.550    0.000
  168.000    0.302    0.392   33.796   21.955    0.000
  168.250    0.305    0.401   31.364   22.788    0.000
  168.500    0.319    0.394   30.755   23.216    0.000
  168.750    0.316    0.394   31.968   22.790    0.000
  169.000    0.305    0.395   30.751   22.792    0.000
  169.250    0.300    0.389   30.142   22.374    0.000
  169.500    0.304    0.392   32.570   21.963    0.000
  169.750    0.310    0.381   32.568   21.560    0.000
  170.000    0.310    0.379   30.137   21.561    0.000
  170.250    0.302    0.385   29.528   21.563    0.000
  170.500    0.314    0.384   31.347   21.564    0.000
  170.750    0.323    0.383   31.953   21.565    0.000
  171.000    0.321    0.385   31.344   21.169    0.000
  171.250    0.316    0.390   31.949   20.024    0.000
  171.500    0.315    0.394   38.020   17.584    0.000
  171.750    0.314    0.391   47.735   16.026    0.000
  172.000    0.297    0.388   70.809   14.073    0.000
  172.250    0.257    0.407   92.062   11.055    0.000
  172.500    0.196    0.460   95.097    9.355    0.000
  172.750    0.183    0.482   92.665    8.848    0.000
  173.000    0.180    0.490   92.056    8.064    0.000
  173.250    0.175    0.486   93.269    7.628    0.000
  173.500    0.173    0.496   95.697    7.350    0.000
  173.750    0.215    0.512   99.338    7.215    0.000
  174.000    0.241    0.501   99.336    7.083    0.000
  174.250    0.244    0.484   97.512    6.953    0.000
  174.500    0.235    0.496   97.511    7.352    0.000
  174.750    0.223    0.510   94.473    8.068    0.000
  175.000    0.235    0.507   85.361    8.373    0.000
  175.250    0.252    0.495   79.894    9.536    0.000
  175.500    0.284    0.484   72.605   11.917    0.000
  175.750    0.305    0.460   64.101   13.572    0.000
  176.000    0.288    0.442   65.313   14.619    0.000
  176.250    0.299    0.437   70.777   15.458    0.000
