~VERSION INFORMATION
 VERS.                 2.0:   CWLS LOG ASCII STANDARD -VERSION 2.0
 WRAP.                  NO:   ONE LINE PER DEPTH STEP
~WELL INFORMATION BLOCK
#MNEM.UNIT           DATA                    DESCRIPTION OF MNEMONIC
#---------    -------------------            -------------------------------
# Generated from Intellog Unique Number	CS_71_72/WELL/623
WELL.         BVI ET AL CHARRON              : Well_name    - WELL
LOC .         00/03-07-071-15W4/0            : Location     - LOCATION
UWI .         00/03-07-071-15W4/0            : Uwi          - UNIQUE WELL ID
ENTR.         SP                             : Entered      - ENTERED BY
SRVC.         SCHLUMBERGER                   : Scn          - SERVICE COMPANY
STRT.M        310                            : top_depth    - START DEPTH
STOP.M        500                            : bot_depth    - STOP DEPTH
STEP.M        0.25                           : increment    - STEP LENGTH
 NULL. -999.2500:NULL Value
~CURVE INFORMATION BLOCK
#MNEM UNIT       ERCB CURVE CODE    CURVE DESCRIPTION
#-----------   ------------------   ----------------------------------
DEPT.M        00 001 00 00         : DEPTH        - DEPTH
ILD .OHMM     00 120 00 00         : RESD         - DEEP RESISTIVITY (DIL)
DPHI.V/V      00 890 00 00         : PHID         - DENSITY POROSITY (LIMESTONE)
NPHI.V/V      00 330 00 00         : PHIN         - NEUTRON POROSITY (LIMESTONE)
GR  .API      00 310 00 00         : GR           - GAMMA RAY
~PARAMETER INFORMATION
#MNEM.UNIT           DATA             DESCRIPTION OF MNEMONIC
#---------         -----------     ------------------------------
GL  .M        599.2                : gl           - GROUND LEVEL ELEVATION
EREF.M        602.85               : kb           - ELEVATION OF DEPTH REFERENCE
DATM.M        599.2                : datum        - DATUM ELEVATION
TDD .M        503                  : tdd          - TOTAL DEPTH DRILLER
RUN .         ONE                  : Run          - RUN NUMBER
ENG .         BILL                 : Engineer     - RECORDING ENGINEER
WIT .         JIM                  : Witness      - WITNESSED BY
MUD .         GEL                  : Mud_type     - MUD TYPE
MATR.         LIMESTONE            : Logunit      - NEUTRON MATRIX
TMAX.C        19                   : BHT          - MAXIMUM RECORDED TEMPERATURE
BHTD.M        503                  : BHTDEP       - MAXIMUM RECORDED TEMPERATURE
MATR.         1                    : LOGUNIT      - NEUTRON MATRIX
RMT .C        25                   : MDTP         - TEMPERATURE OF MUD
NEUT.         1                    : NEUTRON      - NEUTRON TYPE
RESI.         0                    : RESIST       - RESISTIVITY TYPE
RMC .OHMM     0.25                 : RMC          - RESISTIVITY OF MUD CAKE
RMF .OHMM     0.25                 : RMF          - RESISTIVITY OF MUD FILTRATE
SUFT.C        15                   : SUFT         - SURFACE TEMPERATURE
~A  DEPTH     RESD     PHID     PHIN       GR
  310.000    4.080    0.190    0.444  107.644
  310.250    4.111    0.188    0.449  103.444
  310.500    4.150    0.190    0.451  103.028
  310.750    4.181    0.182    0.461  109.987
  311.000    4.127    0.193    0.469  111.156
  311.250    4.096    0.185    0.471  107.754
  311.500    4.042    0.180    0.477  105.692
  311.750    3.982    0.198    0.492  103.813
  312.000    3.908    0.214    0.475  106.200
  312.250    3.849    0.229    0.467  109.745
  312.500    3.842    0.206    0.479  110.490
  312.750    3.828    0.225    0.475  107.573
  313.000    3.930    0.215    0.467  106.607
  313.250    4.028    0.194    0.463  111.555
  313.500    4.246    0.171    0.443  109.920
  313.750    4.544    0.159    0.419  104.140
  314.000    4.709    0.182    0.414   98.056
  314.250    4.683    0.194    0.428   96.055
  314.500    4.501    0.199    0.442  101.368
  314.750    4.303    0.194    0.454  104.791
  315.000    4.175    0.180    0.460  104.741
  315.250    4.121    0.193    0.465  103.593
  315.500    4.121    0.198    0.474  105.738
  315.750    4.121    0.205    0.483  106.784
  316.000    4.113    0.210    0.437  105.759
  316.250    4.121    0.216    0.400   98.150
  316.500    5.284    0.260    0.344   87.921
  316.750    6.354    0.350    0.282   82.020
  317.000    7.074    0.393    0.216   75.386
  317.250    7.401    0.399    0.198   66.619
  317.500    7.277    0.351    0.280   66.630
  317.750    6.549    0.299    0.323   73.407
  318.000    6.051    0.247    0.349   79.084
  318.250    5.666    0.237    0.370   84.154
  318.500    5.752    0.272    0.389   85.383
  318.750    6.513    0.301    0.328   75.703
  319.000    7.075    0.319    0.306   71.631
  319.250    7.981    0.292    0.303   69.690
  319.500    8.819    0.282    0.285   63.728
  319.750   10.023    0.306    0.264   55.510
  320.000   11.457    0.337    0.231   47.718
  320.250   12.899    0.364    0.211   43.645
  320.500   12.973    0.273    0.231   43.168
  320.750   11.372    0.257    0.251   47.262
  321.000    9.141    0.288    0.278   55.320
  321.250    7.998    0.284    0.308   61.059
  321.500    6.893    0.272    0.334   67.225
  321.750    6.020    0.295    0.341   71.989
  322.000    6.478    0.309    0.318   73.585
  322.250    6.998    0.310    0.313   68.719
  322.500    7.322    0.350    0.292   64.707
  322.750    7.145    0.381    0.258   62.827
  323.000    6.455    0.367    0.283   74.479
  323.250    5.701    0.231    0.408   89.545
  323.500    5.121    0.178    0.434   95.408
  323.750    4.652    0.200    0.449   99.807
  324.000    4.331    0.209    0.462  104.938
  324.250    4.101    0.194    0.475  108.482
  324.500    3.950    0.195    0.489  108.066
  324.750    3.790    0.219    0.461  105.456
  325.000    3.762    0.232    0.438  103.638
  325.250    4.048    0.228    0.469  105.232
  325.500    4.133    0.225    0.494  105.669
  325.750    4.149    0.226    0.518   99.463
  326.000    4.125    0.210    0.474   95.207
  326.250    4.072    0.201    0.481   99.789
  326.500    4.056    0.188    0.489  105.469
  326.750    4.056    0.177    0.471  108.648
  327.000    4.026    0.170    0.464  111.158
  327.250    3.856    0.186    0.446  111.411
  327.500    3.610    0.206    0.437  111.361
  327.750    3.329    0.198    0.445  110.702
  328.000    3.135    0.201    0.492  102.239
  328.250    3.071    0.243    0.520   80.795
  328.500    3.106    0.316    0.418   60.936
  328.750    3.213    0.299    0.368   52.840
  329.000    3.471    0.230    0.334   59.737
  329.250    3.604    0.172    0.405   98.513
  329.500    3.721    0.160    0.470  110.409
  329.750    3.879    0.193    0.501  115.356
  330.000    4.020    0.206    0.524  115.856
  330.250    4.112    0.230    0.470  114.950
  330.500    4.198    0.247    0.429  115.327
  330.750    4.206    0.230    0.413  116.313
  331.000    4.214    0.239    0.400  116.383
  331.250    4.167    0.256    0.390  102.376
  331.500    3.998    0.265    0.384   86.173
  331.750    3.916    0.267    0.392   80.576
  332.000    3.865    0.270    0.397   86.072
  332.250    3.931    0.275    0.403   91.023
  332.500    4.199    0.273    0.406   93.652
  332.750    4.443    0.267    0.396   97.379
  333.000    4.872    0.261    0.395  102.147
  333.250    5.031    0.245    0.391  104.227
  333.500    5.088    0.229    0.374   99.666
  333.750    5.156    0.216    0.401  104.553
  334.000    5.156    0.212    0.420  107.551
  334.250    5.127    0.212    0.431  107.500
  334.500    5.089    0.213    0.420  107.085
  334.750    5.013    0.219    0.415  110.509
  335.000    5.004    0.218    0.416  113.200
  335.250    4.957    0.213    0.436  115.953
  335.500    4.976    0.213    0.433  116.633
  335.750    4.976    0.218    0.428  113.962
  336.000    4.920    0.253    0.440  107.877
  336.250    4.865    0.277    0.451  105.146
  336.500    4.810    0.259    0.415  108.813
  336.750    4.838    0.214    0.393  110.469
  337.000    5.033    0.195    0.396  110.419
  337.250    5.356    0.204    0.399  115.000
  337.500    5.478    0.209    0.394  119.644
  337.750    5.447    0.189    0.393  122.701
  338.000    5.266    0.172    0.390  114.728
  338.250    4.848    0.166    0.406  110.411
  338.500    4.202    0.174    0.434  108.957
  338.750    3.875    0.171    0.462  115.552
  339.000    3.718    0.209    0.490  120.559
  339.250    3.697    0.220    0.495  111.732
  339.500    3.670    0.214    0.478   99.492
  339.750    3.670    0.228    0.476   92.737
  340.000    3.684    0.254    0.472   87.505
  340.250    3.670    0.279    0.453   83.797
  340.500    3.663    0.293    0.430   85.576
  340.750    3.649    0.288    0.418   90.279
  341.000    3.649    0.285    0.416   93.764
  341.250    3.636    0.289    0.410   96.275
  341.500    3.691    0.282    0.417   93.907
  341.750    3.783    0.285    0.434   88.069
  342.000    3.958    0.289    0.430   86.495
  342.250    3.973    0.283    0.424   86.258
  342.500    3.833    0.283    0.432   88.219
  342.750    3.589    0.294    0.437   88.658
  343.000    3.335    0.313    0.430   85.132
  343.250    3.230    0.328    0.435   81.607
  343.500    3.158    0.306    0.453   78.512
  343.750    3.059    0.295    0.450   76.693
  344.000    3.024    0.285    0.446   75.727
  344.250    3.013    0.292    0.442   76.468
  344.500    3.013    0.300    0.436   78.125
  344.750    3.065    0.305    0.430   76.856
  345.000    3.117    0.310    0.431   73.575
  345.250    3.147    0.314    0.436   71.634
  345.500    3.219    0.309    0.432   70.670
  345.750    3.268    0.317    0.436   70.438
  346.000    3.299    0.315    0.443   73.556
  346.250    3.451    0.299    0.444   78.503
  346.500    3.543    0.279    0.439   84.122
  346.750    3.577    0.262    0.430   89.069
  347.000    3.666    0.249    0.425   93.590
  347.250    3.728    0.247    0.440   96.769
  347.500    3.785    0.243    0.451   95.805
  347.750    3.814    0.238    0.458   93.501
  348.000    3.814    0.235    0.447   92.961
  348.250    3.778    0.230    0.458   93.032
  348.500    3.715    0.238    0.461   89.081
  348.750    3.612    0.265    0.434   83.727
  349.000    3.551    0.284    0.419   81.909
  349.250    3.465    0.283    0.440   83.931
  349.500    3.420    0.288    0.455   84.308
  349.750    3.382    0.309    0.466   83.588
  350.000    3.382    0.310    0.454   86.829
  350.250    3.382    0.305    0.448   90.557
  350.500    3.427    0.294    0.442   95.872
  350.750    3.518    0.283    0.443   99.597
  351.000    3.619    0.272    0.464  101.621
  351.250    3.667    0.263    0.466   97.609
  351.500    3.744    0.252    0.457   95.669
  351.750    3.808    0.235    0.461   95.312
  352.000    3.815    0.216    0.454   99.467
  352.250    3.844    0.229    0.443  102.648
  352.500    3.859    0.255    0.440  102.658
  352.750    3.845    0.267    0.432   95.720
  353.000    3.845    0.270    0.441   87.380
  353.250    3.947    0.277    0.457   81.052
