~VERSION INFORMATION
 VERS.                 2.0:   CWLS LOG ASCII STANDARD -VERSION 2.0
 WRAP.                  NO:   ONE LINE PER DEPTH STEP
~WELL INFORMATION BLOCK
#MNEM.UNIT           DATA                    DESCRIPTION OF MNEMONIC
#---------    -------------------            -------------------------------
# Generated from Intellog Unique Number	CX_WELLS/WELL/3092
WELL.         CHEVRON CON-SUP ALGAR          : Well_name    - WELL
LOC .         00/06-32-082-16W4/0            : Location     - LOCATION
UWI .         00/06-32-082-16W400            : Uwi          - UNIQUE WELL ID
ENTR.         TIM                            : Entered      - ENTERED BY
SRVC.         SCHLUMBERGER                   : Scn          - SERVICE COMPANY
STRT.F        350                            : top_depth    - START DEPTH
STOP.F        914.304                        : bot_depth    - STOP DEPTH
STEP.F        0.82                           : increment    - STEP LENGTH
 NULL. -999.2500:NULL Value
~CURVE INFORMATION BLOCK
#MNEM UNIT       ERCB CURVE CODE    CURVE DESCRIPTION
#-----------   ------------------   ----------------------------------
DEPT.F        00 001 00 00         : DEPTH        - DEPTH
GR  .API      00 310 00 00         : GR           - GAMMA RAY
NPHI.V/V      00 330 00 00         : PHIN         - NEUTRON POROSITY (SANDSTONE)
DPHI.V/V      00 890 00 00         : PHID         - DENSITY POROSITY (SANDSTONE)
ILD .OHMM     00 120 00 00         : RESD         - DEEP RESISTIVITY (OTHER)
~PARAMETER INFORMATION
#MNEM.UNIT           DATA             DESCRIPTION OF MNEMONIC
#---------         -----------     ------------------------------
GL  .F        1760.9               : gl           - GROUND LEVEL ELEVATION
EREF.F        1771.5               : kb           - ELEVATION OF DEPTH REFERENCE
DATM.F        1771.5               : datum        - DATUM ELEVATION
TDD .F        925                  : tdd          - TOTAL DEPTH DRILLER
RUN .         ONE                  : Run          - RUN NUMBER
ENG .         BILL                 : Engineer     - RECORDING ENGINEER
WIT .         JIM                  : Witness      - WITNESSED BY
MUD .         GEL                  : Mud_type     - MUD TYPE
MATR.         SANDSTONE            : Logunit      - NEUTRON MATRIX
TMAX.F        71.6                 : BHT          - MAXIMUM RECORDED TEMPERATURE
BHTD.F        925                  : BHTDEP       - MAXIMUM RECORDED TEMPERATURE
MATR.         1                    : LOGUNIT      - NEUTRON MATRIX
RMT .F        77                   : MDTP         - TEMPERATURE OF MUD
NEUT.         1                    : NEUTRON      - NEUTRON TYPE
RESI.         3.07                 : RESIST       - RESISTIVITY TYPE
RMC .OHMM     3.07                 : RMC          - RESISTIVITY OF MUD CAKE
RMF .OHMM     3.07                 : RMF          - RESISTIVITY OF MUD FILTRATE
SUFT.F        32                   : SUFT         - SURFACE TEMPERATURE
~A  DEPTH       GR     PHIN     PHID     RESD
  350.000   83.459    0.533    0.247    9.363
  350.820   84.814    0.537    0.249    9.415
  351.640   86.213    0.539    0.252    9.305
  352.461   86.390    0.541    0.260    9.518
  353.281   81.861    0.542    0.260    9.736
  354.101   74.932    0.534    0.258   10.187
  354.921   67.416    0.516    0.254   10.420
  355.741   62.253    0.499    0.253   10.887
  356.562   59.489    0.495    0.253   11.151
  357.382   62.020    0.502    0.258   11.422
  358.202   64.008    0.512    0.262   11.469
  359.022   66.583    0.510    0.281   11.563
  359.843   68.526    0.505    0.298   11.611
  360.663   66.983    0.502    0.315   11.281
  361.483   65.895    0.506    0.318   11.105
  362.303   65.573    0.516    0.307   10.577
  363.123   68.194    0.523    0.300   10.046
  363.944   68.826    0.512    0.308    9.721
  364.764   72.624    0.498    0.315    8.922
  365.584   75.111    0.494    0.313    8.320
  366.404   78.319    0.506    0.303    7.496
  367.224   80.262    0.512    0.292    6.990
  368.045   79.852    0.521    0.294    6.526
  368.865   78.219    0.528    0.300    6.324
  369.685   71.969    0.537    0.305    6.242
  370.505   63.775    0.547    0.307    6.643
  371.325   61.599    0.550    0.313    7.455
  372.146   65.396    0.512    0.316   11.295
  372.966   69.648    0.494    0.318   13.704
  373.786   74.578    0.491    0.313   13.780
  374.606   80.141    0.486    0.307   12.630
  375.427   82.672    0.477    0.300   11.349
  376.247   82.939    0.477    0.277    9.827
  377.067   83.027    0.503    0.270    8.680
  377.887   83.249    0.524    0.250    9.056
  378.707   83.427    0.530    0.233    9.819
  379.528   83.016    0.535    0.257   10.846
  380.348   80.885    0.537    0.291   11.963
  381.168   78.620    0.508    0.293   12.971
  381.988   74.678    0.485    0.281   13.806
  382.808   71.281    0.475    0.280   14.122
  383.629   66.751    0.464    0.304   14.485
  384.449   63.398    0.454    0.312   14.564
  385.269   65.341    0.483    0.326   14.664
  386.089   68.505    0.494    0.322   14.704
  386.909   72.891    0.505    0.310   14.805
  387.730   75.422    0.509    0.309   14.866
  388.550   75.511    0.505    0.312   14.694
  389.370   78.720    0.499    0.318   14.503
  390.190   78.309    0.501    0.320   14.316
  391.010   78.442    0.502    0.323   14.130
  391.831   79.886    0.501    0.322   13.440
  392.651   81.784    0.503    0.318   12.784
  393.471   83.816    0.506    0.314   12.176
  394.291   84.494    0.512    0.306   11.765
  395.112   84.760    0.508    0.297   11.206
  395.932   86.115    0.477    0.290   10.463
  396.752   86.836    0.466    0.281    9.952
  397.572   88.235    0.459    0.273    9.630
  398.392   89.590    0.462    0.264    8.992
  399.213   90.400    0.466    0.255    8.396
  400.033   91.755    0.467    0.245    7.839
  400.853   93.154    0.472    0.232    7.320
  401.673   93.831    0.480    0.223    6.825
  402.493   97.040    0.492    0.234    6.045
  403.314   98.395    0.502    0.229    5.841
  404.134   99.705    0.521    0.204    5.454
  404.954  102.325    0.531    0.189    5.285
  405.774  104.268    0.539    0.201    5.216
  406.594  105.667    0.545    0.202    5.148
  407.415  107.066    0.541    0.208    4.820
  408.235  107.155    0.542    0.215    4.664
  409.055  108.509    0.546    0.205    4.430
  409.875  109.320    0.559    0.194    4.142
  410.696  109.498    0.583    0.192    4.078
  411.516  109.176    0.591    0.214    4.030
  412.336  107.499    0.587    0.246    4.205
  413.156  104.690    0.560    0.276    4.638
  413.976   98.395    0.533    0.278    6.899
  414.797   93.277    0.502    0.280    8.055
  415.617   94.631    0.487    0.283    8.885
  416.437  100.149    0.478    0.281    9.101
  417.257  104.446    0.483    0.275    8.657
  418.077  105.845    0.503    0.266    8.399
  418.898  105.390    0.514    0.261    8.279
  419.718  105.024    0.522    0.250    8.347
  420.538  103.480    0.524    0.241    8.562
  421.358  102.437    0.516    0.240    8.745
  422.178  100.894    0.508    0.263    9.469
  422.999   99.805    0.505    0.270   10.655
  423.819   96.453    0.503    0.286   12.196
  424.639   91.334    0.501    0.310   14.526
  425.459   89.791    0.472    0.330   16.344
  426.280   89.291    0.455    0.333   17.697
  427.100   87.704    0.439    0.337   19.162
  427.920   81.997    0.441    0.343   21.560
  428.740   72.082    0.431    0.360   25.174
  429.560   55.739    0.412    0.377   27.767
  430.381   49.988    0.339    0.394   31.200
  431.201   50.798    0.321    0.408   32.554
  432.021   53.330    0.352    0.412   20.227
  432.841   56.450    0.363    0.410   16.854
  433.661   59.614    0.382    0.406   11.472
  434.482   62.146    0.417    0.389    9.764
  435.302   64.089    0.449    0.371   10.573
  436.122   61.324    0.479    0.344   11.253
  436.942   54.984    0.509    0.316   12.185
  437.762   51.632    0.506    0.300   13.458
  438.583   50.632    0.501    0.311   14.286
  439.403   51.443    0.496    0.321   14.926
  440.223   52.164    0.492    0.331   15.289
  441.043   52.342    0.488    0.316   15.373
  441.864   50.799    0.488    0.307   15.767
  442.684   49.256    0.499    0.306   16.128
  443.504   49.389    0.504    0.313   16.520
  444.324   49.567    0.497    0.323   16.944
  445.144   49.878    0.493    0.332   17.037
  445.965   50.011    0.485    0.342   17.131
  446.785   50.100    0.479    0.343   17.248
  447.605   49.733    0.485    0.343   17.001
  448.425   49.278    0.497    0.345   16.496
  449.245   48.867    0.501    0.347   16.260
  450.066   50.222    0.496    0.351   15.203
  450.886   51.621    0.495    0.351   14.710
  451.706   51.887    0.496    0.350   14.254
  452.526   52.021    0.498    0.346   14.332
  453.346   52.831    0.500    0.338   14.954
  454.167   53.553    0.496    0.324   15.359
  454.987   56.762    0.488    0.306   14.039
  455.807   58.072    0.473    0.282   11.950
  456.627   59.970    0.440    0.266   10.737
  457.448   63.768    0.441    0.235    9.310
  458.268   66.888    0.469    0.243    8.533
  459.088   69.463    0.473    0.268    7.811
  459.908   71.362    0.476    0.298    7.047
  460.728   73.394    0.501    0.310    6.937
  461.549   74.704    0.508    0.302    6.847
  462.369   76.647    0.519    0.292    6.904
  463.189   79.267    0.514    0.275    7.071
  464.009   78.268    0.509    0.279    7.233
  464.829   79.034    0.513    0.274    7.699
  465.650   79.800    0.524    0.268    8.033
  466.470   81.155    0.532    0.278    8.393
  467.290   82.643    0.525    0.285    8.758
  468.110   82.731    0.519    0.296    8.958
  468.930   82.321    0.519    0.303    9.726
  469.751   80.145    0.519    0.310   10.134
  470.571   77.969    0.512    0.321   10.988
  471.391   76.337    0.508    0.339   11.466
  472.211   77.736    0.505    0.333   11.332
  473.031   79.678    0.495    0.312   10.794
  473.852   80.989    0.486    0.307   10.625
  474.672   80.034    0.490    0.303   10.683
  475.492   74.871    0.500    0.298   11.355
  476.312   69.708    0.499    0.296   13.015
  477.133   61.059    0.489    0.296   14.624
  477.953   53.543    0.478    0.296   16.477
  478.773   48.969    0.470    0.299   16.877
  479.593   47.381    0.467    0.306   16.947
  480.413   46.426    0.472    0.329   16.420
  481.234   46.015    0.478    0.348   16.208
  482.054   45.061    0.483    0.357   16.319
  482.874   44.561    0.489    0.357   16.453
  483.694   45.416    0.492    0.356   16.521
  484.514   46.138    0.494    0.357   16.285
  485.335   46.904    0.492    0.359   16.118
  486.155   48.303    0.492    0.363   16.162
  486.975   49.113    0.493    0.367   16.251
  487.795   49.246    0.492    0.369   16.362
  488.615   48.836    0.492    0.371   16.475
  489.436   48.381    0.490    0.372   16.852
  490.256   48.014    0.491    0.375   16.991
  491.076   48.281    0.493    0.375   17.037
  491.896   48.414    0.501    0.371   17.131
