~VERSION INFORMATION
 VERS.                 2.0:   CWLS LOG ASCII STANDARD -VERSION 2.0
 WRAP.                  NO:   ONE LINE PER DEPTH STEP
~WELL INFORMATION BLOCK
#MNEM.UNIT           DATA                    DESCRIPTION OF MNEMONIC
#---------    -------------------            -------------------------------
# Generated from Intellog Unique Number	CS_73_76/WELL/772
WELL.         BOW VALLEY INDUSTRIES LTD      : Well_name    - WELL
LOC .         00/07-27-073-18W4/0            : Location     - LOCATION
UWI .         00/07-27-073-18W4/0            : Uwi          - UNIQUE WELL ID
ENTR.         SP                             : Entered      - ENTERED BY
SRVC.         SCHLUMBERGER                   : Scn          - SERVICE COMPANY
STRT.M        204.216                        : top_depth    - START DEPTH
STOP.M        444.716                        : bot_depth    - STOP DEPTH
STEP.M        0.25                           : increment    - STEP LENGTH
 NULL. -999.2500:NULL Value
~CURVE INFORMATION BLOCK
#MNEM UNIT       ERCB CURVE CODE    CURVE DESCRIPTION
#-----------   ------------------   ----------------------------------
DEPT.M        00 001 00 00         : DEPTH        - DEPTH
GR  .API      00 310 00 00         : GR           - GAMMA RAY
DPHI.V/V      00 890 00 00         : PHID         - DENSITY POROSITY (SANDSTONE)
NPHI.V/V      00 330 00 00         : PHIN         - NEUTRON POROSITY (SANDSTONE)
ILD .OHMM     00 120 00 00         : RESD         - DEEP RESISTIVITY (DIL)
~PARAMETER INFORMATION
#MNEM.UNIT           DATA             DESCRIPTION OF MNEMONIC
#---------         -----------     ------------------------------
GL  .M        582.168              : gl           - GROUND LEVEL ELEVATION
EREF.M        585.216              : kb           - ELEVATION OF DEPTH REFERENCE
DATM.M        582.168              : datum        - DATUM ELEVATION
TDD .M        443.789              : tdd          - TOTAL DEPTH DRILLER
RUN .         ONE                  : Run          - RUN NUMBER
ENG .         BILL                 : Engineer     - RECORDING ENGINEER
WIT .         JIM                  : Witness      - WITNESSED BY
MUD .         GEL                  : Mud_type     - MUD TYPE
MATR.         SANDSTONE            : Logunit      - NEUTRON MATRIX
TMAX.C        22.2222              : BHT          - MAXIMUM RECORDED TEMPERATURE
BHTD.M        443.179              : BHTDEP       - MAXIMUM RECORDED TEMPERATURE
MATR.         1                    : LOGUNIT      - NEUTRON MATRIX
RMT .C        25                   : MDTP         - TEMPERATURE OF MUD
NEUT.         1                    : NEUTRON      - NEUTRON TYPE
RESI.         0                    : RESIST       - RESISTIVITY TYPE
RMC .OHMM     0.25                 : RMC          - RESISTIVITY OF MUD CAKE
RMF .OHMM     0.25                 : RMF          - RESISTIVITY OF MUD FILTRATE
SUFT.C        15                   : SUFT         - SURFACE TEMPERATURE
~A  DEPTH       GR     PHID     PHIN     RESD
  204.216   87.197    0.206    0.505    3.572
  204.466   87.349    0.210    0.494    3.691
  204.716   86.748    0.206    0.499    3.713
  204.966   84.922    0.210    0.506    3.981
  205.216   80.156    0.204    0.484    4.246
  205.466   79.317    0.205    0.464    4.422
  205.716   80.448    0.206    0.452    4.561
  205.966   80.227    0.212    0.444    4.525
  206.216   79.978    0.207    0.442    4.381
  206.466   80.504    0.204    0.454    4.241
  206.716   81.399    0.210    0.465    4.206
  206.966   82.385    0.201    0.457    4.071
  207.216   83.380    0.206    0.464    3.941
  207.466   84.307    0.210    0.473    3.910
  207.716   83.025    0.209    0.466    3.782
  207.966   81.413    0.200    0.473    3.790
  208.216   79.659    0.203    0.478    3.706
  208.466   76.633    0.196    0.481    3.709
  208.716   70.799    0.201    0.490    3.820
  208.966   63.371    0.207    0.503    3.933
  209.216   58.056    0.202    0.495    4.975
  209.466   51.474    0.207    0.451    7.428
  209.716   44.880    0.219    0.414   11.385
  209.966   34.925    0.230    0.377   15.074
  210.216   22.701    0.259    0.346   17.572
  210.466   18.978    0.263    0.323   17.895
  210.716   17.363    0.269    0.311   17.692
  210.966   16.545    0.263    0.306   17.068
  211.216   15.977    0.272    0.313   16.316
  211.466   15.616    0.253    0.319   15.801
  211.716   15.382    0.239    0.324   15.708
  211.966   14.857    0.246    0.320   15.703
  212.216   14.106    0.253    0.327   15.710
  212.466   14.201    0.271    0.333   15.727
  212.716   14.733    0.279    0.335   16.269
  212.966   15.587    0.286    0.324   16.421
  213.216   17.254    0.276    0.314   16.610
  213.466   17.781    0.276    0.311   16.845
  213.716   18.634    0.302    0.316   16.923
  213.966   19.639    0.315    0.330   16.933
  214.216   19.674    0.323    0.339   16.943
  214.466   18.740    0.315    0.346   17.006
  214.716   17.268    0.323    0.359   17.261
  214.966   16.231    0.329    0.366   17.228
  215.216   16.015    0.318    0.370   17.624
  215.466   16.007    0.321    0.356   17.299
  215.716   16.011    0.281    0.351   17.150
  215.966   16.012    0.249    0.342   16.599
  216.216   16.068    0.268    0.340   16.065
  216.466   15.178    0.268    0.346   15.919
  216.716   14.190    0.279    0.339   15.723
  216.966   14.158    0.287    0.327   15.719
  217.216   15.014    0.287    0.320   15.704
  217.466   15.995    0.277    0.327   16.010
  217.716   16.638    0.279    0.339   16.010
  217.966   17.405    0.282    0.345   15.983
  218.216   18.443    0.287    0.351   15.454
  218.466   18.776    0.280    0.346   15.300
  218.716   19.071    0.270    0.344   15.157
  218.966   19.606    0.287    0.348   15.159
  219.216   19.704    0.296    0.350   15.270
  219.466   19.725    0.297    0.348   15.438
  219.716   19.598    0.291    0.359   15.443
  219.966   21.054    0.283    0.373   15.440
  220.216   20.964    0.275    0.386   15.446
  220.466   19.579    0.270    0.385   14.824
  220.716   20.481    0.278    0.369   13.445
  220.966   22.070    0.291    0.358   11.514
  221.216   22.771    0.275    0.362   10.493
  221.466   23.506    0.293    0.356    9.551
  221.716   25.416    0.310    0.349    8.555
  221.966   30.402    0.281    0.344    8.040
  222.216   34.666    0.255    0.358    7.568
  222.466   38.001    0.241    0.380    7.238
  222.716   42.602    0.231    0.394    6.982
  222.966   43.588    0.233    0.381    6.908
  223.216   45.989    0.231    0.375    6.783
  223.466   48.075    0.221    0.385    6.618
  223.716   48.448    0.214    0.390    6.413
  223.966   48.860    0.211    0.400    6.149
  224.216   49.358    0.215    0.415    5.652
  224.466   51.936    0.219    0.430    5.068
  224.716   54.799    0.215    0.426    4.530
  224.966   58.403    0.210    0.419    4.044
  225.216   62.403    0.201    0.425    3.625
  225.466   64.775    0.197    0.432    3.564
  225.716   66.853    0.206    0.441    3.889
  225.966   68.189    0.207    0.452    4.404
  226.216   63.951    0.212    0.459    5.019
  226.466   53.388    0.218    0.460    5.523
  226.716   46.908    0.207    0.430    5.907
  226.966   43.340    0.195    0.400    5.841
  227.216   46.931    0.208    0.393    5.644
  227.466   51.771    0.218    0.401    5.311
  227.716   54.136    0.227    0.412    4.895
  227.966   54.643    0.228    0.423    4.513
  228.216   53.645    0.224    0.431    4.272
  228.466   53.396    0.222    0.438    3.932
  228.716   53.297    0.244    0.447    3.688
  228.966   55.172    0.256    0.452    3.549
  229.216   56.480    0.250    0.446    3.738
  229.466   57.857    0.243    0.463    4.091
  229.716   56.202    0.252    0.478    4.324
  229.966   55.241    0.237    0.493    4.578
  230.216   52.551    0.242    0.486    4.853
  230.466   48.102    0.236    0.460    5.054
  230.716   45.060    0.227    0.420    5.038
  230.966   44.842    0.220    0.401    4.852
  231.216   46.202    0.220    0.417    4.556
  231.466   47.754    0.225    0.432    4.416
  231.716   48.578    0.233    0.439    4.480
  231.966   49.288    0.244    0.452    4.672
  232.216   51.452    0.255    0.456    4.540
  232.466   53.195    0.244    0.456    4.199
  232.716   52.830    0.244    0.461    3.805
  232.966   52.055    0.253    0.446    3.691
  233.216   54.793    0.235    0.428    3.890
  233.466   57.641    0.228    0.433    3.877
  233.716   59.620    0.240    0.451    3.883
  233.966   56.732    0.248    0.462    3.786
  234.216   54.873    0.246    0.487    3.440
  234.466   54.436    0.248    0.472    3.094
  234.716   58.054    0.261    0.458    2.917
  234.966   62.005    0.252    0.510    2.678
  235.216   67.058    0.257    0.533    2.636
  235.466   70.005    0.238    0.543    2.522
  235.716   72.766    0.222    0.540    2.490
  235.966   73.018    0.206    0.530    2.481
  236.216   72.406    0.186    0.532    2.431
  236.466   72.655    0.164    0.527    2.426
  236.716   74.311    0.184    0.517    2.480
  236.966   74.307    0.219    0.527    2.511
  237.216   71.385    0.215    0.537    2.701
  237.466   68.383    0.211    0.543    2.843
  237.716   66.553    0.205    0.539    3.018
  237.966   61.809    0.224    0.518    3.305
  238.216   57.627    0.234    0.501    3.626
  238.466   53.273    0.249    0.478    4.042
  238.716   48.947    0.236    0.446    4.543
  238.966   49.267    0.239    0.433    4.773
  239.216   47.869    0.299    0.445    4.968
  239.466   46.043    0.277    0.456    4.782
  239.716   47.875    0.256    0.412    4.201
  239.966   52.633    0.265    0.398    3.917
  240.216   55.918    0.252    0.413    3.586
  240.466   61.051    0.230    0.426    3.370
  240.716   64.484    0.219    0.449    3.288
  240.966   67.831    0.231    0.462    3.219
  241.216   69.327    0.211    0.478    3.179
  241.466   69.429    0.207    0.492    3.080
  241.716   68.750    0.199    0.485    2.987
  241.966   67.096    0.200    0.488    2.902
  242.216   67.181    0.199    0.496    2.751
  242.466   67.602    0.204    0.507    2.675
  242.716   67.735    0.214    0.522    2.542
  242.966   66.264    0.220    0.531    2.478
  243.216   66.407    0.238    0.547    2.440
  243.466   66.883    0.232    0.555    2.361
  243.716   69.628    0.228    0.558    2.341
  243.966   70.599    0.235    0.548    2.263
  244.216   70.936    0.239    0.553    2.241
  244.466   71.285    0.242    0.557    2.219
  244.716   70.865    0.243    0.551    2.186
  244.966   69.821    0.246    0.543    2.181
  245.216   69.476    0.248    0.553    2.179
  245.466   71.989    0.247    0.568    2.365
  245.716   73.359    0.246    0.579    2.311
  245.966   73.161    0.244    0.581    2.347
  246.216   72.844    0.242    0.567    2.372
  246.466   71.790    0.236    0.576    2.381
  246.716   70.790    0.228    0.586    2.348
  246.966   69.801    0.223    0.568    2.281
  247.216   68.835    0.229    0.561    2.212
  247.466   69.349    0.233    0.534    2.175
