~VERSION INFORMATION
 VERS.                 2.0:   CWLS LOG ASCII STANDARD -VERSION 2.0
 WRAP.                  NO:   ONE LINE PER DEPTH STEP
~WELL INFORMATION BLOCK
#MNEM.UNIT           DATA                    DESCRIPTION OF MNEMONIC
#---------    -------------------            -------------------------------
# Generated from Intellog Unique Number	CS_73_76/WELL/2390
WELL.         07-24-076-07W4                 : Well_name    - WELL
LOC .         00/07-24-076-07W4/0            : Location     - LOCATION
UWI .         00/07-24-076-07W4/0            : Uwi          - UNIQUE WELL ID
ENTR.         SP                             : Entered      - ENTERED BY
SRVC.         SCHLUMBERGER                   : Scn          - SERVICE COMPANY
STRT.M        150                            : top_depth    - START DEPTH
STOP.M        375                            : bot_depth    - STOP DEPTH
STEP.M        0.25                           : increment    - STEP LENGTH
 NULL. -999.2500:NULL Value
~CURVE INFORMATION BLOCK
#MNEM UNIT       ERCB CURVE CODE    CURVE DESCRIPTION
#-----------   ------------------   ----------------------------------
DEPT.M        00 001 00 00         : DEPTH        - DEPTH
ILD .OHMM     00 120 00 00         : RESD         - DEEP RESISTIVITY (DIL)
GR  .API      00 310 00 00         : GR           - GAMMA RAY
DPHI.V/V      00 890 00 00         : PHID         - DENSITY POROSITY (LIMESTONE)
NPHI.V/V      00 330 00 00         : PHIN         - NEUTRON POROSITY (LIMESTONE)
~PARAMETER INFORMATION
#MNEM.UNIT           DATA             DESCRIPTION OF MNEMONIC
#---------         -----------     ------------------------------
GL  .M        572.32               : gl           - GROUND LEVEL ELEVATION
EREF.M        575.82               : kb           - ELEVATION OF DEPTH REFERENCE
DATM.M        572.32               : datum        - DATUM ELEVATION
TDD .M        377                  : tdd          - TOTAL DEPTH DRILLER
RUN .         ONE                  : Run          - RUN NUMBER
ENG .         BILL                 : Engineer     - RECORDING ENGINEER
WIT .         JIM                  : Witness      - WITNESSED BY
MUD .         GEL                  : Mud_type     - MUD TYPE
MATR.         LIMESTONE            : Logunit      - NEUTRON MATRIX
TMAX.C        23                   : BHT          - MAXIMUM RECORDED TEMPERATURE
BHTD.M        377                  : BHTDEP       - MAXIMUM RECORDED TEMPERATURE
MATR.         1                    : LOGUNIT      - NEUTRON MATRIX
RMT .C        25                   : MDTP         - TEMPERATURE OF MUD
NEUT.         1                    : NEUTRON      - NEUTRON TYPE
RESI.         0                    : RESIST       - RESISTIVITY TYPE
RMC .OHMM     0.25                 : RMC          - RESISTIVITY OF MUD CAKE
RMF .OHMM     0.25                 : RMF          - RESISTIVITY OF MUD FILTRATE
SUFT.C        15                   : SUFT         - SURFACE TEMPERATURE
~A  DEPTH     RESD       GR     PHID     PHIN
# ...
  237.000    6.224  110.504    0.228    0.380
  237.250    5.996  113.551    0.212    0.347
  237.500    5.886  112.940    0.219    0.371
  237.750    5.566  110.500    0.205    0.424
  238.000    5.463  109.888    0.216    0.449
  238.250    5.264  109.278    0.225    0.476
  238.500    5.167  108.057    0.210    0.544
  238.750    5.168  108.055    0.228    0.459
  239.000    5.265  111.102    0.226    0.435
  239.250    5.466  112.321    0.238    0.402
  239.500    6.115  115.978    0.234    0.357
  239.750    6.590  119.635    0.233    0.372
  240.000    7.235  118.414    0.245    0.412
  240.250    7.944  110.486    0.245    0.457
  240.500    8.247  103.168    0.225    0.371
  240.750    7.799   94.020    0.227    0.353
  241.000    7.513   94.019    0.225    0.360
  241.250    6.844   91.579    0.240    0.341
  241.500    6.120   90.358    0.258    0.382
  241.750    5.896   98.283    0.248    0.421
  242.000    5.788  100.111    0.231    0.452
  242.250    5.788  105.597    0.233    0.414
  242.500    6.722  108.645    0.243    0.374
  242.750    7.661  110.473    0.229    0.415
  243.000    9.585   98.276    0.239    0.468
  243.250   10.723   89.129    0.258    0.506
  243.500   11.341   83.640    0.283    0.474
  243.750   10.927   78.151    0.304    0.447
  244.000   10.333   75.710    0.303    0.453
  244.250    9.771   75.709    0.308    0.486
  244.500    8.901   76.317    0.306    0.474
  244.750    8.262   76.926    0.316    0.463
  245.000    7.387   73.876    0.314    0.446
  245.250    6.729   74.484    0.306    0.364
  245.500    6.246   77.531    0.260    0.308
  245.750    6.017   82.408    0.247    0.295
  246.000    6.018   86.065    0.239    0.345
  246.250    5.907   91.552    0.261    0.361
  246.500    6.019   93.379    0.279    0.377
  246.750    6.249   93.988    0.249    0.402
  247.000    6.367   92.157    0.254    0.427
  247.250    6.610   93.985    0.268    0.452
  247.500    6.862   96.423    0.275    0.392
  247.750    7.395   98.251    0.268    0.408
  248.000    7.822   99.469    0.253    0.443
  248.250    8.430   96.419    0.260    0.471
  248.500    8.751   90.320    0.261    0.441
  248.750    9.085   83.612    0.257    0.416
  249.000    9.432   81.171    0.264    0.399
  249.250    9.433   81.779    0.270    0.376
  249.500    9.434   82.388    0.273    0.383
  249.750    9.260   85.435    0.268    0.415
  250.000    9.435   86.044    0.266    0.437
  250.250    9.437   82.384    0.262    0.409
  250.500    9.437   81.163    0.262    0.398
  250.750    9.616   82.990    0.261    0.393
  251.000    9.798   84.209    0.259    0.391
  251.250   10.172   86.037    0.253    0.408
  251.500   10.560   84.816    0.240    0.422
  251.750   10.760   82.986    0.255    0.405
  252.000   10.562   79.325    0.272    0.381
  252.250    9.804   78.715    0.287    0.364
  252.500    9.270   82.981    0.303    0.338
  252.750    8.767   93.956    0.246    0.382
  253.000    8.605   97.613    0.252    0.406
  253.250    8.606   94.563    0.263    0.376
  253.500    8.607   91.512    0.257    0.375
  253.750    8.608   91.511    0.240    0.405
  254.000    8.609   94.558    0.240    0.421
  254.250    8.610   95.776    0.251    0.403
  254.500    8.610   92.727    0.250    0.383
  254.750    8.452   92.725    0.240    0.367
  255.000    8.297   93.334    0.233    0.348
  255.250    8.144   92.113    0.241    0.356
  255.500    7.994   91.502    0.243    0.409
  255.750    7.847   92.110    0.239    0.422
  256.000    7.703   95.767    0.237    0.409
  256.250    7.284   96.376    0.237    0.427
  256.500    7.018   90.886    0.244    0.433
  256.750    6.761   88.446    0.238    0.441
  257.000    6.394   96.371    0.217    0.439
  257.250    6.276  100.029    0.215    0.509
  257.500    5.935  101.247    0.226    0.544
  257.750    5.718  102.465    0.221    0.519
  258.000    5.209  102.464    0.211    0.497
  258.250    4.657  102.462    0.196    0.453
  258.500    4.164  101.851    0.221    0.405
  258.750    3.793   99.411    0.239    0.393
  259.000    3.207   95.141    0.241    0.450
  259.250    3.033   99.408    0.244    0.460
  259.500    3.033  109.773    0.237    0.443
  259.750    3.149  103.674    0.252    0.464
  260.000    3.330   98.794    0.268    0.470
  260.250    3.657  100.012    0.267    0.456
  260.500    4.015  100.620    0.266    0.393
  260.750    4.662  100.619    0.243    0.409
  261.000    6.169  100.618    0.230    0.430
  261.250    7.865   96.958    0.240    0.478
  261.500   10.215   88.421    0.246    0.588
  261.750   14.297   79.273    0.120    0.315
  262.000   17.233   64.028    0.000    0.195
  262.250   16.604   52.441    0.036    0.129
  262.500   16.918   64.635    0.207    0.206
  262.750   18.232   77.438    0.389    0.224
  263.000   19.648   76.217    0.422    0.216
  263.250   21.573   73.777    0.417    0.183
  263.500   22.818   73.775    0.379    0.184
  263.750   24.589   73.165    0.368    0.192
  264.000   27.507   79.260    0.368    0.194
  264.250   31.351   84.747    0.365    0.178
  264.500   33.786   92.063    0.386    0.162
  264.750   35.735   98.159    0.411    0.159
  265.000   37.098   93.280    0.395    0.196
  265.250   37.102   78.644    0.368    0.174
  265.500   37.106   71.936    0.393    0.147
  265.750   35.088   68.276    0.382    0.135
  266.000   30.794   66.445    0.383    0.131
  266.250   27.532   67.053    0.415    0.128
  266.500   21.602   67.662    0.447    0.145
  266.750   19.314   66.441    0.421    0.162
  267.000   16.950   65.220    0.384    0.170
  267.250   15.155   62.780    0.343    0.201
  267.500   14.331   60.949    0.376    0.262
  267.750   13.808   57.899    0.351    0.414
  268.000   13.809   56.678    0.337    0.427
  268.250   13.810   55.457    0.300    0.414
  268.500   13.556   54.236    0.313    0.383
  268.750   13.061   53.626    0.308    0.350
  269.000   12.583   52.405    0.300    0.356
  269.250   11.899   52.403    0.307    0.390
  269.500   11.252   53.621    0.327    0.403
  269.750   11.046   57.279    0.343    0.410
  270.000   11.255   60.326    0.333    0.396
  270.250   11.905   61.544    0.317    0.393
  270.500   12.358   60.323    0.319    0.384
  270.750   13.072   57.273    0.332    0.390
  271.000   13.570   54.223    0.335    0.393
  271.250   13.828   51.783    0.319    0.378
  271.500   13.829   48.733    0.313    0.359
  271.750   13.077   45.683    0.308    0.337
  272.000   12.599   46.900    0.301    0.343
  272.250   12.139   49.948    0.311    0.391
  272.500   12.140   51.776    0.315    0.426
  272.750   11.917   52.993    0.318    0.453
  273.000   11.918   53.602    0.323    0.415
  273.250   11.699   53.601    0.313    0.324
  273.500   11.700   49.331    0.274    0.184
  273.750   11.701   52.988    0.173    0.223
  274.000   11.702   56.036    0.214    0.306
  274.250   11.924   57.254    0.336    0.378
  274.500   12.379   57.252    0.343    0.426
  274.750   12.851   57.252    0.318    0.443
  275.000   13.593   56.640    0.297    0.434
  275.250   13.595   53.590    0.297    0.407
  275.500   13.596   54.808    0.307    0.406
  275.750   13.346   56.636    0.300    0.400
  276.000   12.858   52.976    0.297    0.393
  276.250   12.159   52.975    0.297    0.380
  276.500   12.160   54.803    0.297    0.361
  276.750   12.390   57.240    0.300    0.356
  277.000   13.353   54.191    0.300    0.363
  277.250   13.862   53.579    0.297    0.360
  277.500   14.124   54.797    0.299    0.356
  277.750   13.110   56.016    0.300    0.368
  278.000   12.397   52.965    0.294    0.355
  278.250   11.085   54.794    0.289    0.344
  278.500   10.679   59.670    0.310    0.357
  278.750   10.483   60.888    0.332    0.371
  279.000   10.484   61.497    0.330    0.379
  279.250   10.682   54.178    0.338    0.368
  279.500   10.885   51.738    0.408    0.396
  279.750   11.300   51.127    0.435    0.422
  280.000   11.301   52.955    0.468    0.438
  280.250   11.516   49.905    0.481    0.481
