~VERSION INFORMATION
 VERS.                 2.0:   CWLS LOG ASCII STANDARD -VERSION 2.0
 WRAP.                  NO:   ONE LINE PER DEPTH STEP
~WELL INFORMATION BLOCK
#MNEM.UNIT           DATA                    DESCRIPTION OF MNEMONIC
#---------    -------------------            -------------------------------
# Generated from Intellog Unique Number	CS_71_72/WELL/768
WELL.         SULPETRO BRENDA IPIATIK        : Well_name    - WELL
LOC .         00/06-09-072-09W4/0            : Location     - LOCATION
UWI .         00/06-09-072-09W4/0            : Uwi          - UNIQUE WELL ID
ENTR.         SP                             : Entered      - ENTERED BY
SRVC.         SCHLUMBERGER                   : Scn          - SERVICE COMPANY
STRT.M        315                            : top_depth    - START DEPTH
STOP.M        510                            : bot_depth    - STOP DEPTH
STEP.M        0.25                           : increment    - STEP LENGTH
 NULL. -999.2500:NULL Value
~CURVE INFORMATION BLOCK
#MNEM UNIT       ERCB CURVE CODE    CURVE DESCRIPTION
#-----------   ------------------   ----------------------------------
DEPT.M        00 001 00 00         : DEPTH        - DEPTH
ILD .OHMM     00 120 00 00         : RESD         - DEEP RESISTIVITY (DIL)
DPHI.V/V      00 890 00 00         : PHID         - DENSITY POROSITY (LIMESTONE)
NPHI.V/V      00 330 00 00         : PHIN         - NEUTRON POROSITY (LIMESTONE)
GR  .API      00 310 00 00         : GR           - GAMMA RAY
~PARAMETER INFORMATION
#MNEM.UNIT           DATA             DESCRIPTION OF MNEMONIC
#---------         -----------     ------------------------------
GL  .M        678.34               : gl           - GROUND LEVEL ELEVATION
EREF.M        681.39               : kb           - ELEVATION OF DEPTH REFERENCE
DATM.M        678.34               : datum        - DATUM ELEVATION
TDD .M        519                  : tdd          - TOTAL DEPTH DRILLER
RUN .         ONE                  : Run          - RUN NUMBER
ENG .         BILL                 : Engineer     - RECORDING ENGINEER
WIT .         JIM                  : Witness      - WITNESSED BY
MUD .         GEL                  : Mud_type     - MUD TYPE
MATR.         LIMESTONE            : Logunit      - NEUTRON MATRIX
TMAX.C        28                   : BHT          - MAXIMUM RECORDED TEMPERATURE
BHTD.M        519                  : BHTDEP       - MAXIMUM RECORDED TEMPERATURE
MATR.         1                    : LOGUNIT      - NEUTRON MATRIX
RMT .C        25                   : MDTP         - TEMPERATURE OF MUD
NEUT.         1                    : NEUTRON      - NEUTRON TYPE
RESI.         0                    : RESIST       - RESISTIVITY TYPE
RMC .OHMM     0.25                 : RMC          - RESISTIVITY OF MUD CAKE
RMF .OHMM     0.25                 : RMF          - RESISTIVITY OF MUD FILTRATE
SUFT.C        15                   : SUFT         - SURFACE TEMPERATURE
~A  DEPTH     RESD     PHID     PHIN       GR
# ...
  358.500    8.619    0.242    0.415  108.167
  358.750    8.777    0.240    0.415  106.956
  359.000    8.934    0.234    0.400  103.317
  359.250    8.928    0.231    0.387   97.855
  359.500    9.093    0.226    0.379   91.787
  359.750    9.089    0.215    0.395   89.361
  360.000    9.255    0.212    0.419   85.721
  360.250    9.599    0.225    0.438   84.510
  360.500    9.592    0.234    0.463   88.158
  360.750    9.587    0.232    0.481   91.198
  361.000    9.581    0.224    0.472   91.809
  361.250    9.398    0.221    0.466   89.384
  361.500    9.044    0.228    0.448   88.781
  361.750    8.542    0.232    0.438   93.038
  362.000    8.225    0.231    0.426   94.862
  362.250    7.207    0.218    0.427   95.472
  362.500    6.315    0.216    0.439   94.262
  362.750    5.745    0.218    0.432   97.302
  363.000    5.531    0.205    0.425  105.809
  363.250    5.737    0.202    0.418  110.670
  363.500    6.065    0.199    0.420  110.674
  363.750    6.413    0.210    0.422  100.354
  364.000    7.447    0.227    0.414   91.856
  364.250    8.976    0.241    0.398   87.002
  364.500    9.855    0.240    0.389   87.613
  364.750   11.443    0.241    0.383   89.438
  365.000   12.562    0.253    0.390   88.229
  365.250   14.316    0.270    0.423   85.196
  365.500   15.423    0.286    0.445   82.162
  365.750   16.304    0.302    0.436   77.308
  366.000   16.601    0.309    0.427   79.742
  366.250   16.585    0.311    0.432   81.567
  366.500   16.892    0.313    0.449   83.392
  366.750   16.570    0.316    0.469   81.575
  367.000   15.944    0.320    0.456   76.113
  367.250   15.641    0.314    0.449   69.437
  367.500   14.496    0.298    0.432   73.085
  367.750   14.222    0.295    0.424   78.554
  368.000   13.687    0.291    0.413   81.594
  368.250   13.934    0.287    0.410   83.420
  368.500   13.928    0.282    0.415   84.031
  368.750   14.448    0.279    0.422   81.606
  369.000   14.442    0.285    0.431   79.181
  369.250   14.978    0.289    0.428   80.399
  369.500   14.972    0.297    0.427   84.656
  369.750   14.685    0.306    0.433   86.481
  370.000   14.402    0.298    0.444   89.520
  370.250   14.394    0.290    0.457   90.738
  370.500   16.400    0.275    0.504   85.886
  370.750   18.343    0.269    0.532   82.851
  371.000   20.904    0.279    0.513   77.389
  371.250   23.825    0.285    0.465   73.749
  371.500   27.154    0.190    0.378   67.075
  371.750   32.131    0.134    0.237   62.826
  372.000   38.013    0.081    0.162   55.542
  372.250   40.195    0.036    0.129   51.295
  372.500   40.926   -0.014    0.104   53.121
  372.750   37.942   -0.020    0.096   54.949
  373.000   27.044   -0.019    0.110   57.380
  373.250   22.828    0.001    0.152   61.635
  373.500   19.266    0.051    0.234   67.714
  373.750   17.858    0.239    0.351   69.538
  374.000   17.848    0.277    0.392   71.365
  374.250   17.503    0.290    0.394   71.368
  374.500   17.495    0.287    0.400   73.800
  374.750   17.479    0.283    0.410   79.877
  375.000   17.799    0.299    0.408   78.059
  375.250   18.465    0.304    0.405   59.239
  375.500   18.456    0.307    0.424   56.812
  375.750   18.786    0.298    0.455   54.993
  376.000   18.776    0.305    0.463   62.285
  376.250   18.767    0.308    0.440   67.755
  376.500   17.729    0.302    0.413   68.975
  376.750   15.829    0.296    0.427   70.192
  377.000   14.401    0.287    0.433   71.410
  377.250   13.606    0.285    0.409   73.844
  377.500   13.341    0.278    0.391   75.062
  377.750   13.840    0.276    0.395   75.067
  378.000   14.096    0.286    0.405   73.855
  378.250   14.905    0.294    0.417   73.253
  378.500   15.756    0.300    0.423   73.862
  378.750   16.657    0.302    0.408   74.475
  379.000   15.152    0.303    0.397   72.049
  379.250   13.277    0.305    0.381   69.624
  379.500   12.311    0.297    0.360   71.450
  379.750   11.200    0.284    0.354   76.920
  380.000   11.404    0.272    0.378   78.137
  380.250   12.514    0.260    0.411   73.889
  380.500   13.486    0.286    0.433   65.392
  380.750   16.260    0.307    0.455   59.324
  381.000   18.529    0.324    0.456   57.505
  381.250   19.590    0.326    0.467   55.081
  381.500   20.706    0.325    0.428   55.084
  381.750   21.087    0.322    0.406   56.910
  382.000   21.075    0.316    0.398   58.128
  382.250   21.459    0.317    0.411   58.132
  382.500   21.446    0.317    0.418   56.314
  382.750   21.431    0.316    0.402   55.710
  383.000   21.013    0.315    0.390   56.321
  383.250   21.004    0.314    0.376   58.147
  383.500   20.991    0.314    0.371   60.582
  383.750   20.583    0.316    0.375   61.798
  384.000   20.573    0.317    0.388   63.626
  384.250   20.168    0.322    0.407   65.451
  384.500   19.783    0.325    0.424   66.062
  384.750   19.769    0.327    0.446   66.674
  385.000   19.757    0.331    0.439   66.676
  385.250   19.379    0.332    0.430   64.858
  385.500   19.367    0.335    0.428   62.433
  385.750   18.992    0.330    0.434   58.794
  386.000   18.626    0.328    0.447   57.582
  386.250   18.618    0.325    0.439   55.764
  386.500   17.912    0.321    0.443   61.842
  386.750   17.241    0.314    0.435   65.489
  387.000   17.227    0.312    0.424   68.529
  387.250   17.879    0.315    0.434   69.140
  387.500   17.872    0.327    0.439   67.322
  387.750   17.859    0.332    0.456   60.646
  388.000   17.509    0.331    0.439   62.473
  388.250   17.503    0.326    0.426   66.728
  388.500   17.490    0.323    0.410   68.552
  388.750   17.477    0.323    0.402   66.734
  389.000   17.469    0.321    0.407   64.917
  389.250   17.450    0.317    0.424   61.278
  389.500   17.772    0.311    0.430   60.066
  389.750   18.099    0.296    0.454   58.249
  390.000   18.089    0.274    0.478   57.038
  390.250   18.069    0.246    0.415   58.256
  390.500   18.064    0.224    0.382   59.476
  390.750   17.384    0.262    0.343   60.086
  391.000   17.047    0.287    0.358   58.268
  391.250   17.041    0.314    0.382   55.842
  391.500   17.026    0.310    0.410   61.922
  391.750   17.017    0.304    0.404   63.748
  392.000   16.689    0.304    0.400   63.142
  392.250   16.678    0.310    0.389   61.324
  392.500   16.663    0.318    0.414   58.898
  392.750   16.652    0.323    0.411   63.761
  393.000   16.956    0.326    0.422   66.800
  393.250   16.946    0.324    0.422   68.019
  393.500   16.938    0.320    0.411   67.415
  393.750   16.923    0.317    0.398   65.599
  394.000   16.915    0.311    0.400   64.994
  394.250   16.900    0.307    0.421   62.569
  394.500   16.892    0.300    0.438   60.145
  394.750   16.562    0.299    0.424   59.541
  395.000   16.555    0.295    0.393   59.544
  395.250   16.545    0.301    0.386   60.762
  395.500   16.533    0.308    0.386   65.019
  395.750   16.521    0.313    0.410   67.452
  396.000   16.506    0.307    0.408   67.454
  396.250   16.499    0.304    0.393   67.459
  396.500   16.485    0.304    0.397   66.249
  396.750   16.478    0.306    0.420   65.037
  397.000   16.467    0.308    0.431   62.612
  397.250   16.451    0.306    0.422   60.794
  397.500   16.444    0.302    0.426   62.620
  397.750   16.433    0.297    0.448   63.232
  398.000   16.423    0.295    0.463   62.628
  398.250   16.410    0.294    0.447   62.024
  398.500   16.091    0.294    0.435   62.636
  398.750   16.084    0.299    0.433   63.247
  399.000   15.771    0.300    0.420   65.680
  399.250   15.764    0.301    0.408   66.898
  399.500   15.455    0.301    0.395   69.332
  399.750   15.450    0.299    0.411   69.335
  400.000   15.436    0.296    0.423   68.731
  400.250   15.427    0.292    0.439   68.736
  400.500   15.132    0.290    0.431   69.954
  400.750   15.120    0.288    0.425   69.958
  401.000   14.828    0.290    0.421   68.748
  401.250   14.822    0.294    0.407   68.751
  401.500   14.811    0.295    0.389   69.969
  401.750   14.522    0.295    0.376   72.403
