~VERSION INFORMATION
 VERS.                 2.0:   CWLS LOG ASCII STANDARD -VERSION 2.0
 WRAP.                  NO:   ONE LINE PER DEPTH STEP
~WELL INFORMATION BLOCK
#MNEM.UNIT           DATA                    DESCRIPTION OF MNEMONIC
#---------    -------------------            -------------------------------
# Generated from Intellog Unique Number	CS_69_70/WELL/804
WELL.         HUSKEY OIL OPERATIONS          : Well_name    - WELL
LOC .         00/06-22-069-05W4/0            : Location     - LOCATION
UWI .         00/06-22-069-05W4/0            : Uwi          - UNIQUE WELL ID
ENTR.         SP                             : Entered      - ENTERED BY
SRVC.         SCHLUMBERGER                   : Scn          - SERVICE COMPANY
STRT.M        300                            : top_depth    - START DEPTH
STOP.M        580                            : bot_depth    - STOP DEPTH
STEP.M        0.25                           : increment    - STEP LENGTH
 NULL. -999.2500:NULL Value
~CURVE INFORMATION BLOCK
#MNEM UNIT       ERCB CURVE CODE    CURVE DESCRIPTION
#-----------   ------------------   ----------------------------------
DEPT.M        00 001 00 00         : DEPTH        - DEPTH
ILD .OHMM     00 120 00 00         : RESD         - DEEP RESISTIVITY (DIL)
DPHI.V/V      00 890 00 00         : PHID         - DENSITY POROSITY (LIMESTONE)
NPHI.V/V      00 330 00 00         : PHIN         - NEUTRON POROSITY (LIMESTONE)
GR  .API      00 310 00 00         : GR           - GAMMA RAY
~PARAMETER INFORMATION
#MNEM.UNIT           DATA             DESCRIPTION OF MNEMONIC
#---------         -----------     ------------------------------
GL  .M        670.1                : gl           - GROUND LEVEL ELEVATION
EREF.M        673.8                : kb           - ELEVATION OF DEPTH REFERENCE
DATM.M        670.1                : datum        - DATUM ELEVATION
TDD .M        585                  : tdd          - TOTAL DEPTH DRILLER
RUN .         ONE                  : Run          - RUN NUMBER
ENG .         BILL                 : Engineer     - RECORDING ENGINEER
WIT .         JIM                  : Witness      - WITNESSED BY
MUD .         GEL                  : Mud_type     - MUD TYPE
MATR.         LIMESTONE            : Logunit      - NEUTRON MATRIX
TMAX.C        21                   : BHT          - MAXIMUM RECORDED TEMPERATURE
BHTD.M        585                  : BHTDEP       - MAXIMUM RECORDED TEMPERATURE
MATR.         1                    : LOGUNIT      - NEUTRON MATRIX
RMT .C        25                   : MDTP         - TEMPERATURE OF MUD
NEUT.         1                    : NEUTRON      - NEUTRON TYPE
RESI.         0                    : RESIST       - RESISTIVITY TYPE
RMC .OHMM     0.25                 : RMC          - RESISTIVITY OF MUD CAKE
RMF .OHMM     0.25                 : RMF          - RESISTIVITY OF MUD FILTRATE
SUFT.C        15                   : SUFT         - SURFACE TEMPERATURE
~A  DEPTH     RESD     PHID     PHIN       GR
# ...
  517.500   12.471    0.245    0.353   86.331
  517.750   11.104    0.241    0.351   97.766
  518.000   10.149    0.234    0.366  104.906
  518.250    9.668    0.222    0.386  100.917
  518.500    9.834    0.233    0.402   93.118
  518.750    9.855    0.243    0.396   84.775
  519.000    9.655    0.254    0.383   75.463
  519.250    9.266    0.265    0.374   68.935
  519.500    8.744    0.275    0.371   62.889
  519.750    7.859    0.292    0.370   54.666
  520.000    7.500    0.306    0.370   47.895
  520.250    7.198    0.312    0.369   42.939
  520.500    6.947    0.319    0.374   39.616
  520.750    6.769    0.326    0.365   37.260
  521.000    6.657    0.321    0.352   37.505
  521.250    6.546    0.315    0.342   37.871
  521.500    6.438    0.313    0.333   36.242
  521.750    6.355    0.313    0.331   35.882
  522.000    6.238    0.317    0.352   40.180
  522.250    6.192    0.324    0.368   45.868
  522.500    6.159    0.311    0.384   44.843
  522.750    6.137    0.301    0.383   39.826
  523.000    6.103    0.296    0.369   37.047
  523.250    6.037    0.293    0.361   35.961
  523.500    5.992    0.290    0.362   36.207
  523.750    5.915    0.293    0.363   36.028
  524.000    5.763    0.311    0.356   33.915
  524.250    5.593    0.329    0.368   30.168
  524.500    5.480    0.332    0.356   27.268
  524.750    5.596    0.322    0.343   32.352
  525.000    5.716    0.282    0.334   37.125
  525.250    6.127    0.281    0.328   41.318
  525.500    6.120    0.285    0.324   37.156
  525.750    6.000    0.271    0.317   43.167
  526.000    5.805    0.264    0.315   38.886
  526.250    5.586    0.284    0.403   32.545
  526.500    5.268    0.324    0.431   28.863
  526.750    5.229    0.322    0.400   36.449
  527.000    5.060    0.306    0.389   35.196
  527.250    4.932    0.319    0.379   29.638
  527.500    4.738    0.341    0.374   23.722
  527.750    4.618    0.357    0.360   21.798
  528.000    4.527    0.359    0.358   24.599
  528.250    4.496    0.346    0.357   24.676
  528.500    4.466    0.337    0.351   22.333
  528.750    4.435    0.334    0.358   20.652
  529.000    4.397    0.348    0.369   21.455
  529.250    4.368    0.350    0.380   24.317
  529.500    4.370    0.349    0.388   21.729
  529.750    4.406    0.357    0.377   18.416
  530.000    4.402    0.363    0.373   16.617
  530.250    4.380    0.365    0.386   16.572
  530.500    4.358    0.366    0.399   17.375
  530.750    4.313    0.358    0.392   22.112
  531.000    4.292    0.350    0.370   25.763
  531.250    4.286    0.347    0.355   25.839
  531.500    4.314    0.351    0.361   33.062
  531.750    4.349    0.355    0.395   44.948
  532.000    4.376    0.334    0.370   50.838
  532.250    4.388    0.320    0.363   36.988
  532.500    4.366    0.333    0.383   29.916
  532.750    4.281    0.356    0.397   22.002
  533.000    4.212    0.363    0.380   18.384
  533.250    4.129    0.365    0.370   19.189
  533.500    4.093    0.353    0.359   20.111
  533.750    4.028    0.345    0.365   22.371
  534.000    3.986    0.335    0.381   25.047
  534.250    3.937    0.340    0.393   27.849
  534.500    3.902    0.350    0.402   26.715
  534.750    3.905    0.356    0.389   22.372
  535.000    3.937    0.344    0.372   19.724
  535.250    3.970    0.334    0.367   19.197
  535.500    4.025    0.325    0.368   20.179
  535.750    4.058    0.324    0.369   22.921
  536.000    4.091    0.336    0.373   25.482
  536.250    4.140    0.339    0.382   29.190
  536.500    4.166    0.336    0.390   31.628
  536.750    4.201    0.332    0.397   25.892
  537.000    4.211    0.328    0.380   21.850
  537.250    4.424    0.331    0.366   23.743
  537.500    4.683    0.323    0.361   32.784
  537.750    4.974    0.306    0.328   37.705
  538.000    5.365    0.281    0.303   42.625
  538.250    5.851    0.243    0.291   47.366
  538.500    6.298    0.215    0.302   51.500
  538.750    6.567    0.214    0.319   54.968
  539.000    6.771    0.224    0.326   56.983
  539.250    6.865    0.234    0.334   60.148
  539.500    6.844    0.243    0.348   63.010
  539.750    6.926    0.254    0.358   65.327
  540.000    7.276    0.209    0.343   75.034
  540.250    7.673    0.176    0.334   81.530
  540.500    8.076    0.164    0.334   83.423
  540.750    8.485    0.177    0.342   75.082
  541.000    8.682    0.172    0.348   71.646
  541.250    8.416    0.185    0.345   75.962
  541.500    7.860    0.202    0.335   75.494
  541.750    7.311    0.210    0.341   65.578
  542.000    6.802    0.229    0.353   58.932
  542.250    6.545    0.264    0.359   52.590
  542.500    6.332    0.260    0.364   60.178
  542.750    6.127    0.236    0.343   65.642
  543.000    5.851    0.215    0.327   65.054
  543.250    5.515    0.252    0.347   54.413
  543.500    5.140    0.279    0.371   46.978
  543.750    4.810    0.305    0.389   39.605
  544.000    4.551    0.322    0.378   35.322
  544.250    4.386    0.317    0.367   36.491
  544.500    4.268    0.315    0.382   35.782
  544.750    4.138    0.315    0.396   34.888
  545.000    4.063    0.327    0.392   38.112
  545.250    3.998    0.328    0.375   41.583
  545.500    3.949    0.331    0.365   42.202
  545.750    3.966    0.339    0.353   38.342
  546.000    3.976    0.343    0.347   34.906
  546.250    4.024    0.335    0.366   32.077
  546.500    4.126    0.329    0.376   30.337
  546.750    4.239    0.333    0.380   29.021
  547.000    4.378    0.306    0.360   40.784
  547.250    4.481    0.273    0.345   50.734
  547.500    4.475    0.282    0.351   57.834
  547.750    4.371    0.301    0.380   45.921
  548.000    4.367    0.318    0.402   39.336
  548.250    4.452    0.330    0.391   34.023
  548.500    4.590    0.289    0.375   37.431
  548.750    4.804    0.238    0.362   50.951
  549.000    5.076    0.220    0.368   60.596
  549.250    5.272    0.233    0.387   65.395
  549.500    5.477    0.247    0.402   63.779
  549.750    5.615    0.259    0.386   61.431
  550.000    5.598    0.257    0.366   67.382
  550.250    5.397    0.252    0.353   71.637
  550.500    5.087    0.253    0.353   73.471
  550.750    4.858    0.271    0.375   63.254
  551.000    4.639    0.287    0.396   49.159
  551.250    4.677    0.302    0.380   37.183
  551.500    4.904    0.318    0.357   41.864
  551.750    5.320    0.254    0.347   54.294
  552.000    5.525    0.211    0.351   63.514
  552.250    5.686    0.216    0.372   70.192
  552.500    5.212    0.246    0.380   62.822
  552.750    4.679    0.275    0.373   50.907
  553.000    4.329    0.304    0.365   40.991
  553.250    4.057    0.323    0.358   32.649
  553.500    3.875    0.334    0.353   24.672
  553.750    3.756    0.338    0.350   24.688
  554.000    3.752    0.334    0.348   23.738
  554.250    3.811    0.333    0.348   23.751
  554.500    3.871    0.332    0.356   29.641
  554.750    3.947    0.319    0.373   36.199
  555.000    4.178    0.298    0.377   42.936
  555.250    4.463    0.280    0.357   51.915
  555.500    4.777    0.260    0.353   61.560
  555.750    5.085    0.242    0.357   67.753
  556.000    5.332    0.241    0.376   71.040
  556.250    5.396    0.256    0.391   67.120
  556.500    5.299    0.270    0.396   60.233
  556.750    4.976    0.282    0.384   54.919
  557.000    4.595    0.292    0.377   51.544
  557.250    4.340    0.287    0.375   48.593
  557.500    4.246    0.273    0.379   43.827
  557.750    4.140    0.284    0.376   37.967
  558.000    4.050    0.307    0.368   31.987
  558.250    3.926    0.323    0.355   25.281
  558.500    3.778    0.325    0.347   25.782
  558.750    3.795    0.311    0.340   28.827
  559.000    3.994    0.299    0.349   33.024
  559.250    4.072    0.300    0.362   37.096
  559.500    4.022    0.313    0.369   39.230
  559.750    3.791    0.328    0.364   32.888
  560.000    3.593    0.335    0.359   27.151
  560.250    3.503    0.347    0.355   22.321
  560.500    3.415    0.356    0.369   21.248
  560.750    3.360    0.361    0.373   24.837
