~VERSION INFORMATION
 VERS.                 2.0:   CWLS LOG ASCII STANDARD -VERSION 2.0
 WRAP.                  NO:   ONE LINE PER DEPTH STEP
~WELL INFORMATION BLOCK
#MNEM.UNIT           DATA                    DESCRIPTION OF MNEMONIC
#---------    -------------------            -------------------------------
# Generated from Intellog Unique Number	CW_76_78/WELL/199
WELL.         SULPETRO MARTEN HILLS 04-29    : Well_name    - WELL
LOC .         00/04-29-076-23W4/0            : Location     - LOCATION
UWI .         00/04-29-076-23W4/0            : Uwi          - UNIQUE WELL ID
ENTR.         JAYE                           : Entered      - ENTERED BY
SRVC.         SCHLUMBERGER                   : Scn          - SERVICE COMPANY
DATE.         4 MAR 84                       : Date         - LOG DATE
STRT.M        640                            : top_depth    - START DEPTH
STOP.M        891                            : bot_depth    - STOP DEPTH
STEP.M        0.25                           : increment    - STEP LENGTH
 NULL. -999.2500:NULL Value
~CURVE INFORMATION BLOCK
#MNEM UNIT       ERCB CURVE CODE    CURVE DESCRIPTION
#-----------   ------------------   ----------------------------------
DEPT.M        00 001 00 00         : DEPTH        - DEPTH
ILD .OHMM     00 120 00 00         : RESD         - DEEP RESISTIVITY (DIL)
NPHI.V/V      00 330 00 00         : PHIN         - NEUTRON POROSITY (SANDSTONE)
DPHI.V/V      00 890 00 00         : PHID         - DENSITY POROSITY (SANDSTONE)
GR  .API      00 310 00 00         : GR           - GAMMA RAY
CALI.MM       00 280 01 00         : CAL          - CALIPER
~PARAMETER INFORMATION
#MNEM.UNIT           DATA             DESCRIPTION OF MNEMONIC
#---------         -----------     ------------------------------
GL  .M        935.93               : gl           - GROUND LEVEL ELEVATION
EREF.M        939.4                : kb           - ELEVATION OF DEPTH REFERENCE
DATM.M        935.93               : datum        - DATUM ELEVATION
TDD .M        896                  : tdd          - TOTAL DEPTH DRILLER
RUN .         ONE                  : Run          - RUN NUMBER
MUD .         GEL CHEM             : Mud_type     - MUD TYPE
MATR.         SANDSTONE            : Logunit      - NEUTRON MATRIX
TMAX.C        24                   : BHT          - MAXIMUM RECORDED TEMPERATURE
BHTD.M        891                  : BHTDEP       - MAXIMUM RECORDED TEMPERATURE
RMT .C        14                   : MDTP         - TEMPERATURE OF MUD
MUDD.KG/M     1170                 : MWT          - MUD DENSITY
NEUT.         1                    : NEUTRON      - NEUTRON TYPE
RESI.         0                    : RESIST       - RESISTIVITY TYPE
RM  .OHMM     1.374                : RM           - RESISTIVITY OF MUD
RMC .OHMM     0                    : RMC          - RESISTIVITY OF MUD CAKE
RMF .OHMM     1.642                : RMF          - RESISTIVITY OF MUD FILTRATE
SUFT.C        0                    : SUFT         - SURFACE TEMPERATURE
~A  DEPTH     RESD     PHIN     PHID       GR      CAL
# ...
  859.000   12.046    0.276    0.074   63.449  150.668
  859.250    9.700    0.299    0.101   78.976  151.202
  859.500    8.274    0.318    0.145   78.736  147.479
  859.750    7.228    0.327    0.177   79.306  146.041
  860.000    6.518    0.346    0.197   80.001  145.120
  860.250    5.944    0.365    0.220   79.137  144.929
  860.500    5.583    0.397    0.265   84.817  145.256
  860.750    5.352    0.447    0.280   93.800  147.245
  861.000    5.206    0.494    0.301   97.175  149.856
  861.250    5.028    0.464    0.298   85.281  149.871
  861.500    4.794    0.423    0.277   75.943  138.564
  861.750    4.578    0.411    0.285   66.728  143.462
  862.000    4.413    0.398    0.299   60.007  149.397
  862.250    4.239    0.385    0.304   64.068  150.557
  862.500    4.102    0.378    0.300   72.988  149.949
  862.750    4.134    0.386    0.246   80.974  149.858
  863.000    4.276    0.373    0.226   88.150  150.602
  863.250    4.556    0.395    0.219  103.178  154.044
  863.500    4.899    0.436    0.292  108.858  161.018
  863.750    5.107    0.538    0.385   97.650  161.345
  864.000    5.195    0.616    0.402   89.433  157.413
  864.250    5.092    0.489    0.272   93.368  154.418
  864.500    4.810    0.446    0.257   95.496  153.187
  864.750    4.611    0.418    0.278   82.481  150.917
  865.000    4.444    0.374    0.267   72.456  147.919
  865.250    4.405    0.375    0.256   76.828  149.181
  865.500    4.574    0.384    0.243   84.440  152.520
  865.750    4.900    0.382    0.223   89.372  154.092
  866.000    5.252    0.380    0.213   95.177  153.382
  866.250    5.754    0.513    0.276   99.674  152.878
  866.500    6.245    0.581    0.342  104.045  153.204
  866.750    6.248    0.422    0.300  106.983  154.881
  867.000    5.520    0.396    0.265   94.217  154.898
  867.250    4.717    0.376    0.250   77.836  153.043
  867.500    4.253    0.366    0.262   63.761  151.294
  867.750    3.950    0.364    0.271   57.850  150.893
  868.000    3.684    0.367    0.282   53.559  151.219
  868.250    3.390    0.380    0.289   55.313  151.338
  868.500    3.160    0.370    0.281   58.812  151.352
  868.750    3.098    0.352    0.278   61.002  151.579
  869.000    3.071    0.346    0.279   62.134  151.799
  869.250    3.101    0.369    0.292   63.826  151.920
  869.500    3.142    0.377    0.295   65.953  151.831
  869.750    3.197    0.369    0.279   68.580  151.326
  870.000    3.307    0.365    0.265   71.207  150.406
  870.250    3.543    0.375    0.238   69.159  149.798
  870.500    3.882    0.384    0.201   76.833  149.607
  870.750    4.430    0.388    0.188   85.879  149.725
  871.000    4.783    0.386    0.179   92.182  151.090
  871.250    5.279    0.400    0.165   99.982  154.636
  871.500    5.481    0.437    0.149  104.353  157.457
  871.750    5.129    0.417    0.153   98.691  158.510
  872.000    4.310    0.403    0.233   75.704  154.371
  872.250    3.731    0.396    0.275   53.465  150.959
  872.500    3.254    0.383    0.308   41.010  149.106
  872.750    3.062    0.370    0.303   49.059  148.393
  873.000    3.293    0.374    0.255   63.963  147.683
  873.250    3.588    0.377    0.235   76.061  147.904
  873.500    3.623    0.393    0.229   88.410  151.139
  873.750    3.297    0.400    0.283   71.406  151.985
  874.000    2.951    0.392    0.322   54.215  150.650
  874.250    2.686    0.393    0.327   42.072  149.733
  874.500    2.373    0.385    0.308   36.286  149.539
  874.750    2.275    0.375    0.290   40.719  149.657
  875.000    2.451    0.389    0.282   48.955  149.361
  875.250    2.870    0.399    0.272   56.567  148.026
  875.500    3.277    0.394    0.260   61.313  147.212
  875.750    3.873    0.362    0.249   68.301  146.914
  876.000    4.528    0.349    0.230   94.360  147.345
  876.250    5.092    0.380    0.190  106.334  151.723
  876.500    5.286    0.423    0.175  117.250  153.921
  876.750    5.289    0.401    0.176  116.636  153.726
  877.000    4.778    0.401    0.232   93.026  152.497
  877.250    4.364    0.422    0.266   60.940  150.953
  877.500    3.744    0.395    0.290   38.390  148.580
  877.750    3.054    0.393    0.295   32.042  148.595
  878.000    2.800    0.385    0.287   30.805  149.649
  878.250    2.729    0.354    0.269   31.936  151.222
  878.500    2.807    0.360    0.266   31.509  140.019
  878.750    2.992    0.349    0.257   30.085  134.114
  879.000    3.284    0.330    0.201   39.135  139.634
  879.250    3.672    0.319    0.174   41.320  144.220
  879.500    3.957    0.311    0.164   58.280  143.612
  879.750    4.247    0.307    0.305   87.206  143.627
  880.000    4.696    0.469    0.365  122.800  144.890
  880.250    5.330    0.614    0.445  160.637  147.501
  880.500    5.927    0.636    0.345  178.968  150.011
  880.750    6.603    0.538    0.313  214.312  151.686
  881.000    7.343    0.491    0.223  180.295  153.156
  881.250    8.135    0.453    0.162  158.741  153.586
  881.500    8.604    0.442    0.133  150.649  153.705
  881.750    8.592    0.442    0.100  149.910  153.928
  882.000    8.206    0.448    0.110  150.046  154.360
  882.250    7.779    0.449    0.117  150.677  154.479
  882.500    7.513    0.459    0.101  152.057  153.975
  882.750    7.516    0.472    0.105  153.935  153.055
  883.000    7.689    0.463    0.109  157.434  152.966
  883.250    7.880    0.448    0.110  162.678  153.812
  883.500    8.121    0.467    0.106  176.586  154.762
  883.750    8.400    0.478    0.077  181.268  155.609
  884.000    8.624    0.448    0.065  183.832  155.624
  884.250    8.937    0.434    0.086  184.714  154.808
  884.500    9.259    0.420    0.110  184.910  153.577
  884.750    9.474    0.412    0.116  186.042  152.451
  885.000    9.585    0.410    0.102  187.112  152.258
  885.250    9.552    0.407    0.093  187.681  153.832
  885.500    9.108    0.379    0.107  188.188  154.262
  885.750    8.032    0.375    0.111  188.572  154.069
  886.000    6.129    0.384    0.087  189.327  153.670
  886.250    4.836    0.395    0.061  189.898  152.749
  886.500    3.901    0.406    0.052  190.031  148.402
  886.750    3.421    0.420    0.079  186.676  143.432
  887.000    3.079    0.202    0.105  179.954  141.681
  887.250    3.167    0.176    0.090  168.061  143.150
  887.500    3.425    0.178    0.132  172.120  141.919
  887.750    3.760    0.183    0.155  178.985  109.528
  888.000    4.006    0.188    0.178  183.979  100.403
  888.250    3.978    0.190    0.226  188.601  102.184
  888.500    3.900    0.190    0.201  190.853  108.016
  888.750    3.787    0.190    0.172  190.986  113.329
  889.000    3.782    0.190    0.152  185.636  114.487
  889.250    3.777    0.190    0.131  183.340  114.294
  889.500    3.702    0.190    0.102  183.785  114.309
  889.750    3.655    0.189    0.109  184.792  114.325
  890.000    3.643    0.189    0.111  185.736  114.963
  890.250    3.638    0.188    0.107  186.618  115.499
  890.500    3.647    0.188    0.116  187.125  115.722
  890.750    3.669    0.187    0.112  187.197  116.151
  891.000    3.718    0.187    0.105  185.586  116.583
