~VERSION INFORMATION
 VERS.                 2.0:   CWLS LOG ASCII STANDARD -VERSION 2.0
 WRAP.                  NO:   ONE LINE PER DEPTH STEP
~WELL INFORMATION BLOCK
#MNEM.UNIT           DATA                    DESCRIPTION OF MNEMONIC
#---------    -------------------            -------------------------------
# Generated from Intellog Unique Number	CS_69_70/WELL/829
NULL.         -999.25                        : NULL_VALUE
WELL.         HB CCS PITLOCHRIE              : Well_name    - WELL              
LOC .         00/07-16-070-12W4/0            : Location     - LOCATION          
UWI .         00/07-16-070-12W4/0            : Uwi          - UNIQUE WELL ID    
ENTR.         SP                             : Entered      - ENTERED BY        
SRVC.         SCHLUMBERGER                   : Scn          - SERVICE COMPANY   
STRT.M        286.512                        : top_depth    - START DEPTH       
STOP.M        496.012                        : bot_depth    - STOP DEPTH        
STEP.M        0.25                           : increment    - STEP LENGTH       
~CURVE INFORMATION BLOCK
#MNEM UNIT       ERCB CURVE CODE    CURVE DESCRIPTION
#-----------   ------------------   ----------------------------------
DEPT.M        00 001 00 00         : DEPTH        - DEPTH                       
GR  .API      00 310 00 00         : GR           - GAMMA RAY                   
DPHI.V/V      00 890 00 00         : PHID         - DENSITY POROSITY (SANDSTONE)
NPHI.V/V      00 330 00 00         : PHIN         - NEUTRON POROSITY (SANDSTONE)
ILD .OHMM     00 120 00 00         : RESD         - DEEP RESISTIVITY (DIL)      
~PARAMETER INFORMATION       
#MNEM.UNIT           DATA             DESCRIPTION OF MNEMONIC
#---------         -----------     ------------------------------
GL  .M        604.388              : gl           - GROUND LEVEL ELEVATION      
EREF.M        607.436              : kb           - ELEVATION OF DEPTH REFERENCE
DATM.M        604.388              : datum        - DATUM ELEVATION             
TDD .M        499.872              : tdd          - TOTAL DEPTH DRILLER         
RUN .         ONE                  : Run          - RUN NUMBER                  
ENG .         BILL                 : Engineer     - RECORDING ENGINEER          
WIT .         JIM                  : Witness      - WITNESSED BY                
MUD .         GEL                  : Mud_type     - MUD TYPE                    
MATR.         SANDSTONE            : Logunit      - NEUTRON MATRIX              
TMAX.C        26.1111              : BHT          - MAXIMUM RECORDED TEMPERATURE
BHTD.M        499.872              : BHTDEP       - MAXIMUM RECORDED TEMPERATURE
MATR.         1                    : LOGUNIT      - NEUTRON MATRIX              
RMT .C        25                   : MDTP         - TEMPERATURE OF MUD          
NEUT.         1                    : NEUTRON      - NEUTRON TYPE                
RESI.         0                    : RESIST       - RESISTIVITY TYPE            
RMC .OHMM     0.25                 : RMC          - RESISTIVITY OF MUD CAKE     
RMF .OHMM     0.25                 : RMF          - RESISTIVITY OF MUD FILTRATE 
SUFT.C        15                   : SUFT         - SURFACE TEMPERATURE         
~A  DEPTH       GR     PHID     PHIN     RESD
# ...
  460.512   82.483    0.220    0.400    5.921
  460.762   77.050    0.211    0.395    5.699
  461.012   74.602    0.197    0.384    5.495
  461.262   79.463    0.223    0.367    5.428
  461.512   84.148    0.233    0.359    5.515
  461.762   88.002    0.224    0.370    5.835
  462.012   90.035    0.219    0.375    6.184
  462.262   89.033    0.209    0.383    6.426
  462.512   87.881    0.211    0.396    6.379
  462.762   81.785    0.214    0.412    6.163
  463.012   75.728    0.217    0.409    5.902
  463.262   73.300    0.237    0.403    5.742
  463.512   69.499    0.268    0.406    5.675
  463.762   66.415    0.298    0.409    5.845
  464.012   64.715    0.319    0.436    6.092
  464.262   63.958    0.316    0.444    6.447
  464.512   64.359    0.281    0.453    6.635
  464.762   66.630    0.267    0.437    6.557
  465.012   70.144    0.272    0.422    6.340
  465.262   74.591    0.277    0.411    5.476
  465.512   81.217    0.257    0.403    4.752
  465.762   86.719    0.256    0.405    4.376
  466.012   93.055    0.249    0.411    4.189
  466.262   99.824    0.236    0.424    4.075
  466.512  106.178    0.215    0.456    4.034
  466.762  113.291    0.168    0.555    4.000
  467.012  119.612    0.168    0.584    4.047
  467.262  120.861    0.163    0.605    4.099
  467.512  119.631    0.148    0.542    4.208
  467.762  119.941    0.132    0.522    4.411
  468.012  120.862    0.090    0.516    4.522
  468.262  109.581    0.173    0.506    4.763
  468.512   90.256    0.209    0.487    4.844
  468.762   83.451    0.238    0.448    4.814
  469.012   81.067    0.261    0.392    4.692
  469.262   80.230    0.276    0.369    3.882
  469.512   78.416    0.302    0.378    3.179
  469.762   74.480    0.299    0.398    2.751
  470.012   71.754    0.283    0.407    2.550
  470.262   68.304    0.279    0.413    2.477
  470.512   69.293    0.294    0.421    2.488
  470.762   71.862    0.319    0.428    2.673
  471.012   74.413    0.298    0.430    2.808
  471.262   77.109    0.286    0.426    3.119
  471.512   79.099    0.277    0.419    3.361
  471.762   80.405    0.270    0.421    3.632
  472.012   80.062    0.273    0.426    3.800
  472.262   83.220    0.270    0.422    3.930
  472.512   87.414    0.261    0.420    4.138
  472.762   91.818    0.253    0.421    4.450
  473.012   95.450    0.240    0.414    4.657
  473.262   99.259    0.214    0.405    4.869
  473.512  103.209    0.196    0.404    4.993
  473.762  105.491    0.197    0.403    5.103
  474.012  106.871    0.202    0.405    5.144
  474.262  106.222    0.193    0.414    5.113
  474.512  100.776    0.181    0.431    4.913
  474.762   88.058    0.179    0.450    4.667
  475.012   78.088    0.212    0.438    4.388
  475.262   72.602    0.256    0.414    4.421
  475.512   77.810    0.273    0.391    4.506
  475.762   82.901    0.241    0.381    4.713
  476.012   86.350    0.214    0.370    4.769
  476.262   81.805    0.187    0.370    4.515
  476.512   69.228    0.188    0.383    4.054
  476.762   68.524    0.209    0.370    3.688
  477.012   74.326    0.199    0.376    3.728
  477.262   80.321    0.195    0.392    4.089
  477.512   85.938    0.240    0.393    4.331
  477.762   89.257    0.213    0.387    3.931
  478.012   94.615    0.173    0.383    3.191
  478.262   64.726    0.164    0.408    2.813
  478.512   52.597    0.216    0.431    2.580
  478.762   43.350    0.247    0.452    2.380
  479.012   36.372    0.294    0.407    2.537
  479.262   45.729    0.288    0.384    2.865
  479.512   62.608    0.284    0.374    3.214
  479.762   81.946    0.259    0.361    3.325
  480.012   95.810    0.245    0.381    3.163
  480.262   92.593    0.226    0.464    2.750
  480.512   76.626    0.203    0.484    2.434
  480.762   58.684    0.267    0.484    2.177
  481.012   48.764    0.303    0.450    2.003
  481.262   49.275    0.314    0.408    1.856
  481.512   52.005    0.304    0.397    1.909
  481.762   57.196    0.295    0.393    2.237
  482.012   65.535    0.295    0.392    2.725
  482.262   75.340    0.283    0.385    3.320
  482.512   82.229    0.257    0.369    3.792
  482.762   85.764    0.227    0.366    3.956
  483.012   87.531    0.224    0.414    3.891
  483.262   78.544    0.206    0.457    3.669
  483.512   59.704    0.206    0.468    3.306
  483.762   51.997    0.260    0.434    2.972
  484.012   47.304    0.303    0.437    2.636
  484.262   52.193    0.322    0.436    2.425
  484.512   60.108    0.341    0.432    2.317
  484.762   69.984    0.333    0.423    2.227
  485.012   86.711    0.319    0.407    2.249
  485.262  104.067    0.302    0.393    2.464
  485.512  116.648    0.247    0.398    2.757
  485.762  123.084    0.193    0.439    3.331
  486.012  121.929    0.160    0.474    3.580
  486.262  121.103    0.132    0.513    4.201
  486.512  111.444    0.140    0.504    4.675
  486.762   97.371    0.149    0.489    5.153
  487.012   89.733    0.117    0.415    5.669
  487.262   84.420    0.098    0.390    6.179
  487.512   83.535    0.067    0.369    6.516
  487.762   85.858    0.074    0.369    6.861
  488.012   86.749    0.079    0.377    7.210
  488.262   84.585    0.085    0.379    7.841
  488.512   82.947    0.098    0.384    8.386
  488.762   80.499    0.105    0.350    9.061
  489.012   77.568    0.100    0.328    9.776
  489.262   74.010    0.102    0.316   10.467
  489.512   70.260    0.100    0.312   11.105
  489.762   67.269    0.094    0.310   11.744
  490.012   64.536    0.087    0.301   12.762
  490.262   61.595    0.075    0.289   13.445
  490.512   58.511    0.061    0.279   14.070
  490.762   57.213    0.053    0.274   14.806
  491.012   58.329    0.054    0.285   15.428
  491.262   54.784    0.051    0.296   15.258
  491.512   49.100    0.065    0.288   13.647
  491.762   48.740    0.056    0.215   13.845
  492.012   52.754    0.057    0.234   16.092
  492.262   53.742    0.059    0.255   17.892
  492.512   44.194    0.061    0.269   20.946
  492.762   44.077    0.045    0.167   21.323
  493.012   44.590    0.033    0.184   17.883
  493.262   51.576    0.039    0.213   14.012
  493.512   63.456    0.096    0.247   11.614
  493.762   65.658    0.121    0.339   10.546
  494.012   63.905    0.129    0.341    9.760
  494.262   73.623    0.089    0.312    9.192
  494.512   86.915    0.086    0.308    8.908
  494.762   92.352    0.102    0.345    8.845
  495.012   91.776    0.112    0.371    8.767
  495.262   91.463    0.066    0.387   10.407
  495.512   90.991    0.051    0.324   12.774
  495.762   89.995    0.062    0.309   16.447
  496.012   90.797    0.075    0.237   19.593
