~VERSION INFORMATION
 VERS.                 2.0:   CWLS LOG ASCII STANDARD -VERSION 2.0
 WRAP.                  NO:   ONE LINE PER DEPTH STEP
~WELL INFORMATION BLOCK
#MNEM.UNIT           DATA                    DESCRIPTION OF MNEMONIC
#---------    -------------------            -------------------------------
# Generated from Intellog Unique Number	CX_WELLS/WELL/3232
WELL.         CHEVRON ALGAR                  : Well_name    - WELL
LOC .         00/06-14-083-16W4/0            : Location     - LOCATION
UWI .         00/06-14-083-16W400            : Uwi          - UNIQUE WELL ID
ENTR.         T                              : Entered      - ENTERED BY
SRVC.         SCHLUMBERGER                   : Scn          - SERVICE COMPANY
STRT.F        350                            : top_depth    - START DEPTH
STOP.F        879.856                        : bot_depth    - STOP DEPTH
STEP.F        0.82                           : increment    - STEP LENGTH
 NULL. -999.2500:NULL Value
~CURVE INFORMATION BLOCK
#MNEM UNIT       ERCB CURVE CODE    CURVE DESCRIPTION
#-----------   ------------------   ----------------------------------
DEPT.F        00 001 00 00         : DEPTH        - DEPTH
GR  .API      00 310 00 00         : GR           - GAMMA RAY
NPHI.V/V      00 330 00 00         : PHIN         - NEUTRON POROSITY (SANDSTONE)
DPHI.V/V      00 890 00 00         : PHID         - DENSITY POROSITY (SANDSTONE)
ILD .OHMM     00 120 00 00         : RESD         - DEEP RESISTIVITY (DIL)
~PARAMETER INFORMATION
#MNEM.UNIT           DATA             DESCRIPTION OF MNEMONIC
#---------         -----------     ------------------------------
GL  .F        1713.5               : gl           - GROUND LEVEL ELEVATION
EREF.F        1731                 : kb           - ELEVATION OF DEPTH REFERENCE
DATM.F        1731                 : datum        - DATUM ELEVATION
TDD .F        883                  : tdd          - TOTAL DEPTH DRILLER
RUN .         ONE                  : Run          - RUN NUMBER
ENG .         BILL                 : Engineer     - RECORDING ENGINEER
WIT .         JIM                  : Witness      - WITNESSED BY
MUD .         GEL                  : Mud_type     - MUD TYPE
MATR.         SANDSTONE            : Logunit      - NEUTRON MATRIX
TMAX.F        85                   : BHT          - MAXIMUM RECORDED TEMPERATURE
BHTD.F        883                  : BHTDEP       - MAXIMUM RECORDED TEMPERATURE
MATR.         1                    : LOGUNIT      - NEUTRON MATRIX
RMT .F        77                   : MDTP         - TEMPERATURE OF MUD
NEUT.         1                    : NEUTRON      - NEUTRON TYPE
RESI.         3.55                 : RESIST       - RESISTIVITY TYPE
RMC .OHMM     3.55                 : RMC          - RESISTIVITY OF MUD CAKE
RMF .OHMM     3.55                 : RMF          - RESISTIVITY OF MUD FILTRATE
SUFT.F        32                   : SUFT         - SURFACE TEMPERATURE
~A  DEPTH       GR     PHIN     PHID     RESD
# ...
  492.717   48.791    0.474    0.392   22.649
  493.537   52.440    0.473    0.400   21.475
  494.357   54.270    0.473    0.383   19.288
  495.177   54.333    0.483    0.351   18.276
  495.997   54.396    0.504    0.336   16.120
  496.818   54.434    0.511    0.322   13.706
  497.638   55.692    0.519    0.309   12.085
  498.458   56.938    0.526    0.302   10.278
  499.278   59.976    0.524    0.290   10.294
  500.098   63.027    0.520    0.295   10.304
  500.919   60.687    0.515    0.299   10.320
  501.739   58.347    0.510    0.304   10.911
  502.559   56.605    0.509    0.306   12.637
  503.379   56.058    0.504    0.313   18.533
  504.199   51.937    0.501    0.319   19.242
  505.020   49.597    0.496    0.324   18.244
  505.840   51.441    0.491    0.331   16.681
  506.660   53.881    0.488    0.326   15.816
  507.480   55.152    0.489    0.317   14.996
  508.301   53.410    0.492    0.317   15.570
  509.121   52.875    0.493    0.323   16.462
  509.941   52.900    0.495    0.328   15.337
  510.761   54.744    0.496    0.330   10.484
  511.581   57.807    0.503    0.335    8.602
  512.402   60.846    0.504    0.327    8.925
  513.222   65.079    0.508    0.320    9.440
  514.042   68.728    0.512    0.308   10.736
  514.862   66.986    0.519    0.305   11.986
  515.682   65.231    0.531    0.312   14.132
  516.503   61.695    0.520    0.320   15.784
  517.323   58.770    0.505    0.323   16.693
  518.143   57.028    0.495    0.323   17.327
  518.963   55.896    0.490    0.325   18.325
  519.783   54.166    0.481    0.330   19.375
  520.604   53.593    0.482    0.334   20.117
  521.424   53.071    0.484    0.339   21.276
  522.244   53.109    0.486    0.348   22.495
  523.064   51.964    0.489    0.351   25.116
  523.885   49.039    0.493    0.346   26.077
  524.705   46.699    0.492    0.332   24.733
  525.525   46.177    0.469    0.293   23.042
  526.345   49.203    0.379    0.257   22.642
  527.165   51.034    0.392    0.254   22.684
  527.986   51.109    0.458    0.276   22.705
  528.806   51.147    0.482    0.300   22.733
  529.626   50.015    0.503    0.347   22.768
  530.446   48.858    0.510    0.350   23.221
  531.266   48.946    0.508    0.350   23.243
  532.087   48.984    0.500    0.349   23.279
  532.907   49.619    0.493    0.345   23.315
  533.727   50.280    0.487    0.342   22.910
  534.547   50.330    0.481    0.345   22.539
  535.367   50.380    0.476    0.352   21.762
  536.188   50.431    0.470    0.360   19.898
  537.008   51.091    0.467    0.361   18.187
  537.828   52.960    0.469    0.357   17.260
  538.648   54.193    0.470    0.354   17.588
  539.469   54.231    0.473    0.349   17.932
  540.289   51.903    0.480    0.349   18.965
  541.109   49.563    0.484    0.350   19.337
  541.929   49.016    0.486    0.347   19.361
  542.749   49.066    0.483    0.346   18.032
  543.570   49.727    0.466    0.345   17.410
  544.390   50.985    0.467    0.345   16.810
  545.210   51.036    0.474    0.345   15.939
  546.030   51.099    0.479    0.344   13.556
  546.850   51.124    0.483    0.344   12.399
  547.671   51.187    0.507    0.343   13.109
  548.491   51.835    0.513    0.343   14.632
  549.311   52.483    0.511    0.339   14.395
  550.131   53.131    0.485    0.342   12.921
  550.951   53.791    0.471    0.346   11.393
  551.772   55.037    0.465    0.350   10.417
  552.592   65.259    0.477    0.354    9.877
  553.412   71.286    0.489    0.359    9.036
  554.232   76.740    0.530    0.365    8.570
  555.052   79.180    0.526    0.362    8.421
  555.873   81.621    0.520    0.314    8.283
  556.693   83.465    0.515    0.292    8.144
  557.513   84.112    0.514    0.274    8.009
  558.333   84.163    0.517    0.263    7.875
  559.154   81.823    0.524    0.269    7.743
  559.974   80.081    0.528    0.292    7.615
  560.794   80.156    0.515    0.316    7.625
  561.614   77.803    0.517    0.344    7.362
  562.434   70.683    0.526    0.387    7.110
  563.255   68.953    0.511    0.419    6.991
  564.075   69.016    0.522    0.419    6.997
  564.895   69.079    0.533    0.418    6.519
  565.715   69.104    0.534    0.406    6.408
  566.535   69.154    0.538    0.364    6.187
  567.356   70.413    0.542    0.350    6.195
  568.176   69.878    0.545    0.344    6.672
  568.996   69.331    0.551    0.344    7.449
  569.816   67.588    0.554    0.354    8.474
  570.636   65.261    0.522    0.357    9.124
  571.457   64.104    0.514    0.340   10.007
  572.277   61.776    0.501    0.332   10.200
  573.097   60.644    0.498    0.311   10.590
  573.917   60.682    0.496    0.299   10.606
  574.738   60.732    0.497    0.289   10.623
  575.558   60.783    0.501    0.286   10.445
  576.378   60.833    0.496    0.312   10.454
  577.198   60.286    0.494    0.324   10.659
  578.018   58.569    0.493    0.328   10.871
  578.839   58.009    0.493    0.337   10.692
  579.659   56.279    0.494    0.340   10.513
  580.479   55.719    0.495    0.342   10.339
  581.299   54.600    0.498    0.339   10.169
  582.119   54.040    0.504    0.331    9.995
  582.940   54.078    0.507    0.337    9.828
  583.760   54.153    0.507    0.341    9.666
  584.580   54.789    0.507    0.339    9.675
  585.400   56.047    0.508    0.341    9.515
  586.220   57.903    0.509    0.348    9.361
  587.041   59.161    0.514    0.352    9.370
  587.861   60.381    0.517    0.337    9.379
  588.681   61.652    0.521    0.321    9.221
  589.501   62.288    0.517    0.331    9.239
  590.322   62.338    0.507    0.338    9.247
  591.142   62.401    0.496    0.332    9.264
  591.962   63.062    0.499    0.328    9.276
  592.782   63.709    0.505    0.331    9.287
  593.602   64.968    0.513    0.334    9.131
  594.423   64.993    0.516    0.337    9.140
  595.243   64.458    0.520    0.341    9.154
  596.063   64.509    0.522    0.343    9.006
  596.883   63.962    0.522    0.341    8.852
  597.703   63.427    0.521    0.338    8.706
  598.524   63.490    0.520    0.334    8.560
  599.344   64.723    0.525    0.326    8.265
  600.164   66.566    0.532    0.315    7.980
  600.984   67.214    0.526    0.312    7.433
  601.804   64.912    0.521    0.311    6.920
  602.625   63.742    0.519    0.306    6.443
  603.445   64.390    0.514    0.304    6.221
  604.265   68.038    0.511    0.300    5.901
  605.085   70.479    0.510    0.295    5.800
  605.906   74.128    0.509    0.289    5.702
  606.726   76.594    0.503    0.291    5.607
  607.546   77.217    0.498    0.293    5.619
  608.366   77.877    0.501    0.293    5.624
  609.186   77.940    0.516    0.283    5.732
  610.007   78.003    0.530    0.273    6.402
  610.827   77.444    0.541    0.272    7.020
  611.647   75.116    0.554    0.277    7.840
  612.467   73.349    0.560    0.287    8.441
  613.287   69.826    0.560    0.297    9.094
  614.108   68.109    0.543    0.305    9.615
  614.928   68.134    0.522    0.301    9.986
  615.748   68.807    0.503    0.295    9.815
  616.568   69.455    0.496    0.295    9.303
  617.388   70.091    0.491    0.300    9.156
  618.209   72.556    0.493    0.296    9.329
  619.029   72.582    0.496    0.294   10.610
  619.849   73.255    0.499    0.302   12.973
  620.669   72.110    0.495    0.308   15.861
  621.490   69.160    0.471    0.305   20.859
  622.310   65.625    0.445    0.301   25.044
  623.130   60.907    0.425    0.275   22.088
  623.950   57.969    0.371    0.127   17.151
  624.770   56.227    0.218    0.057   12.611
  625.591   56.277    0.176    0.030    9.971
  626.411   58.731    0.185    0.037    8.634
  627.231   61.171    0.273    0.061    8.186
  628.051   65.418    0.315    0.100    8.354
  628.871   69.054    0.341    0.151    8.362
  629.692   71.495    0.376    0.184    8.523
  630.512   71.545    0.452    0.254    8.536
  631.332   71.010    0.495    0.287    8.549
  632.152   71.048    0.523    0.286    8.406
  632.972   71.124    0.520    0.283    8.414
  633.793   71.759    0.516    0.283    8.278
  634.613   72.407    0.506    0.284    8.285
