~VERSION INFORMATION
 VERS.                 2.0:   CWLS LOG ASCII STANDARD -VERSION 2.0
 WRAP.                  NO:   ONE LINE PER DEPTH STEP
~WELL INFORMATION BLOCK
#MNEM.UNIT           DATA                    DESCRIPTION OF MNEMONIC
#---------    -------------------            -------------------------------
# Generated from Intellog Unique Number	CS_69_70/WELL/805
WELL.         HUSKY OIL OPERATIONS           : Well_name    - WELL
LOC .         00/06-22-069-06W4/0            : Location     - LOCATION
UWI .         00/06-22-069-06W4/0            : Uwi          - UNIQUE WELL ID
ENTR.         SP                             : Entered      - ENTERED BY
SRVC.         SCHLUMBERGER                   : Scn          - SERVICE COMPANY
STRT.M        350                            : top_depth    - START DEPTH
STOP.M        585                            : bot_depth    - STOP DEPTH
STEP.M        0.25                           : increment    - STEP LENGTH
 NULL. -999.2500:NULL Value
~CURVE INFORMATION BLOCK
#MNEM UNIT       ERCB CURVE CODE    CURVE DESCRIPTION
#-----------   ------------------   ----------------------------------
DEPT.M        00 001 00 00         : DEPTH        - DEPTH
ILD .OHMM     00 120 00 00         : RESD         - DEEP RESISTIVITY (DIL)
DPHI.V/V      00 890 00 00         : PHID         - DENSITY POROSITY (LIMESTONE)
NPHI.V/V      00 330 00 00         : PHIN         - NEUTRON POROSITY (LIMESTONE)
GR  .API      00 310 00 00         : GR           - GAMMA RAY
~PARAMETER INFORMATION
#MNEM.UNIT           DATA             DESCRIPTION OF MNEMONIC
#---------         -----------     ------------------------------
GL  .M        710.5                : gl           - GROUND LEVEL ELEVATION
EREF.M        714.2                : kb           - ELEVATION OF DEPTH REFERENCE
DATM.M        710.5                : datum        - DATUM ELEVATION
TDD .M        591                  : tdd          - TOTAL DEPTH DRILLER
RUN .         ONE                  : Run          - RUN NUMBER
ENG .         BILL                 : Engineer     - RECORDING ENGINEER
WIT .         JIM                  : Witness      - WITNESSED BY
MUD .         GEL                  : Mud_type     - MUD TYPE
MATR.         LIMESTONE            : Logunit      - NEUTRON MATRIX
TMAX.C        27                   : BHT          - MAXIMUM RECORDED TEMPERATURE
BHTD.M        591                  : BHTDEP       - MAXIMUM RECORDED TEMPERATURE
MATR.         1                    : LOGUNIT      - NEUTRON MATRIX
RMT .C        25                   : MDTP         - TEMPERATURE OF MUD
NEUT.         1                    : NEUTRON      - NEUTRON TYPE
RESI.         0                    : RESIST       - RESISTIVITY TYPE
RMC .OHMM     0.25                 : RMC          - RESISTIVITY OF MUD CAKE
RMF .OHMM     0.25                 : RMF          - RESISTIVITY OF MUD FILTRATE
SUFT.C        15                   : SUFT         - SURFACE TEMPERATURE
~A  DEPTH     RESD     PHID     PHIN       GR
# ...
  437.000    4.659    0.325    0.455   53.701
  437.250    4.702    0.341    0.461   52.001
  437.500    4.701    0.356    0.457   50.977
  437.750    4.674    0.367    0.438   50.995
  438.000    4.621    0.367    0.427   51.441
  438.250    4.526    0.362    0.427   50.357
  438.500    4.425    0.361    0.433   51.536
  438.750    4.318    0.364    0.435   54.310
  439.000    4.190    0.342    0.452   56.288
  439.250    4.073    0.317    0.465   57.651
  439.500    3.997    0.298    0.447   57.914
  439.750    3.945    0.290    0.449   55.297
  440.000    3.922    0.309    0.456   57.276
  440.250    3.900    0.332    0.466   61.762
  440.500    3.870    0.346    0.483   66.189
  440.750    3.840    0.337    0.486   68.292
  441.000    3.840    0.336    0.474   64.999
  441.250    3.861    0.340    0.468   62.812
  441.500    3.882    0.348    0.464   63.320
  441.750    3.882    0.341    0.471   67.382
  442.000    3.802    0.316    0.480   70.459
  442.250    3.607    0.318    0.486   72.925
  442.500    3.423    0.328    0.500   71.656
  442.750    3.315    0.342    0.496   71.123
  443.000    3.241    0.357    0.480   70.711
  443.250    3.198    0.358    0.470   62.949
  443.500    3.156    0.349    0.449   63.886
  443.750    3.173    0.344    0.448   69.231
  444.000    3.215    0.335    0.474   75.373
  444.250    3.239    0.322    0.500   81.639
  444.500    3.244    0.305    0.519   86.067
  444.750    3.220    0.292    0.485   88.474
  445.000    3.171    0.291    0.465   92.286
  445.250    3.089    0.284    0.473   96.408
  445.500    2.964    0.271    0.494   99.242
  445.750    2.770    0.263    0.510   98.831
  446.000    2.648    0.261    0.507   98.482
  446.250    2.498    0.273    0.501  101.440
  446.500    2.406    0.277    0.498  103.416
  446.750    2.283    0.279    0.506  103.309
  447.000    2.198    0.278    0.506   98.917
  447.250    1.946    0.271    0.496   98.689
  447.500    1.778    0.268    0.500  103.545
  447.750    1.795    0.272    0.517  108.525
  448.000    1.829    0.274    0.525  110.439
  448.250    1.891    0.277    0.518  108.925
  448.500    1.956    0.279    0.520  107.228
  448.750    2.022    0.285    0.537  105.776
  449.000    2.092    0.285    0.539  104.750
  449.250    2.187    0.283    0.534  104.278
  449.500    2.254    0.286    0.549  106.683
  449.750    2.313    0.288    0.554  110.010
  450.000    2.326    0.287    0.540  112.599
  450.250    2.300    0.275    0.553  109.124
  450.500    2.223    0.270    0.563  104.548
  450.750    2.161    0.279    0.570  102.789
  451.000    2.202    0.285    0.578  104.644
  451.250    2.422    0.281    0.582  105.947
  451.500    2.690    0.278    0.595  104.126
  451.750    3.044    0.279    0.566  103.530
  452.000    3.444    0.284    0.564  104.284
  452.250    3.919    0.287    0.571  103.994
  452.500    4.384    0.292    0.569  101.564
  452.750    4.896    0.297    0.565  100.108
  453.000    5.376    0.296    0.557   94.554
  453.250    5.602    0.302    0.540   90.772
  453.500    5.385    0.298    0.521   86.930
  453.750    5.167    0.285    0.493   84.988
  454.000    4.967    0.276    0.483   83.412
  454.250    4.801    0.270    0.488   83.858
  454.500    4.685    0.266    0.485   86.019
  454.750    4.580    0.260    0.479   87.199
  455.000    4.436    0.255    0.475   86.913
  455.250    4.272    0.253    0.474   86.927
  455.500    4.076    0.252    0.471   88.846
  455.750    3.919    0.253    0.475   90.024
  456.000    3.753    0.253    0.483   90.715
  456.250    3.594    0.253    0.478   89.018
  456.500    3.468    0.254    0.473   87.994
  456.750    3.309    0.256    0.487   90.462
  457.000    3.187    0.258    0.502   94.339
  457.250    3.104    0.263    0.490   97.357
  457.500    3.103    0.258    0.478   99.210
  457.750    3.162    0.257    0.472  100.268
  458.000    3.209    0.263    0.491   99.796
  458.250    3.281    0.268    0.503  100.794
  458.500    3.349    0.260    0.485   98.789
  458.750    3.393    0.253    0.493   95.561
  459.000    3.342    0.250    0.507   95.026
  459.250    3.177    0.259    0.517   94.984
  459.500    3.071    0.270    0.506   93.039
  459.750    3.111    0.286    0.488   86.135
  460.000    3.242    0.290    0.462   81.435
  460.250    3.390    0.277    0.440   79.493
  460.500    3.566    0.279    0.439   86.064
  460.750    3.702    0.271    0.455   96.983
  461.000    3.871    0.248    0.469  100.554
  461.250    4.003    0.243    0.481  101.550
  461.500    4.048    0.258    0.505  100.281
  461.750    4.048    0.273    0.545   94.908
  462.000    4.162    0.287    0.563   89.046
  462.250    4.494    0.299    0.537   86.063
  462.500    4.871    0.313    0.506   85.773
  462.750    5.460    0.303    0.480   86.830
  463.000    6.143    0.297    0.457   88.565
  463.250    6.595    0.292    0.464   90.111
  463.500    6.681    0.288    0.473   91.293
  463.750    6.327    0.284    0.478   85.614
  464.000    5.969    0.282    0.486   73.932
  464.250    5.663    0.267    0.500   66.538
  464.500    5.244    0.261    0.497   61.164
  464.750    4.947    0.251    0.455   54.444
  465.000    4.598    0.142    0.265   48.949
  465.250    4.250    0.067    0.237   53.560
  465.500    3.920    0.125    0.315   59.029
  465.750    3.762    0.251    0.375   62.354
  466.000    3.616    0.265    0.318   61.574
  466.250    3.548    0.165    0.233   55.711
  466.500    3.568    0.034    0.327   59.771
  466.750    3.703    0.108    0.419   67.628
  467.000    3.780    0.195    0.484   73.831
  467.250    3.866    0.318    0.473   73.850
  467.500    3.960    0.357    0.465   69.395
  467.750    3.960    0.350    0.465   66.962
  468.000    3.959    0.346    0.454   65.754
  468.250    3.959    0.349    0.444   72.938
  468.500    4.048    0.349    0.446   83.490
  468.750    4.396    0.333    0.460   90.795
  469.000    4.702    0.304    0.450   85.791
  469.250    4.963    0.280    0.442   78.091
  469.500    5.076    0.260    0.436   73.329
  469.750    4.907    0.310    0.447   76.838
  470.000    4.612    0.331    0.457   76.978
  470.250    4.262    0.336    0.452   74.485
  470.500    3.917    0.337    0.430   72.419
  470.750    3.634    0.342    0.403   71.026
  471.000    3.613    0.330    0.388   72.453
  471.250    3.653    0.324    0.393   73.634
  471.500    3.694    0.324    0.405   75.672
  471.750    3.749    0.340    0.416   79.856
  472.000    3.820    0.346    0.414   83.302
  472.250    3.892    0.342    0.434   86.688
  472.500    3.972    0.343    0.453   88.052
  472.750    3.994    0.351    0.480   81.578
  473.000    3.948    0.358    0.471   75.103
  473.250    3.926    0.360    0.464   71.198
  473.500    3.860    0.360    0.460   75.320
  473.750    3.739    0.353    0.453   79.441
  474.000    3.534    0.338    0.447   81.296
  474.250    3.353    0.327    0.444   78.556
  474.500    3.122    0.317    0.442   76.858
  474.750    2.858    0.306    0.440   79.939
  475.000    2.488    0.297    0.438   82.651
  475.250    2.278    0.285    0.445   81.994
  475.500    2.133    0.283    0.454   79.439
  475.750    2.066    0.281    0.465   81.845
  476.000    2.039    0.281    0.489   84.618
  476.250    2.023    0.288    0.525   87.514
  476.500    2.019    0.296    0.537   89.614
  476.750    2.034    0.300    0.543   89.325
  477.000    2.053    0.300    0.546   88.362
  477.250    2.064    0.303    0.545   91.872
  477.500    2.076    0.307    0.576   95.318
  477.750    2.095    0.311    0.578   97.723
  478.000    2.110    0.309    0.561   98.844
  478.250    2.142    0.304    0.547   97.942
  478.500    2.274    0.302    0.550   96.002
  478.750    2.401    0.303    0.557   94.977
  479.000    2.582    0.314    0.564   93.278
  479.250    2.889    0.329    0.558   91.701
  479.500    3.172    0.332    0.528   93.130
  479.750    3.484    0.316    0.514   94.553
  480.000    3.832    0.304    0.522   95.368
  480.250    4.069    0.300    0.543   94.592
