~VERSION INFORMATION
 VERS.                 2.0:   CWLS LOG ASCII STANDARD -VERSION 2.0
 WRAP.                  NO:   ONE LINE PER DEPTH STEP
~WELL INFORMATION BLOCK
#MNEM.UNIT           DATA                    DESCRIPTION OF MNEMONIC
#---------    -------------------            -------------------------------
# Generated from Intellog Unique Number	CW_79_81/WELL/2462
WELL.         07-32-081-20W4                 : Well_name    - WELL
LOC .         00/07-32-081-20W4/0            : Location     - LOCATION
UWI .         00/07-32-081-20W4/0            : Uwi          - UNIQUE WELL ID
ENTR.         MAX                            : Entered      - ENTERED BY
SRVC.         COMPUTALOG                     : Scn          - SERVICE COMPANY
STRT.M        152.4                          : top_depth    - START DEPTH
STOP.M        383.90                         : bot_depth    - STOP DEPTH
STEP.M        0.25                           : increment    - STEP LENGTH
 NULL. -999.2500:NULL Value
~CURVE INFORMATION BLOCK
#MNEM UNIT       ERCB CURVE CODE    CURVE DESCRIPTION
#-----------   ------------------   ----------------------------------
DEPT.M        00 001 00 00         : DEPTH        - DEPTH
ILD .OHMM     00 120 00 00         : RESD         - DEEP RESISTIVITY (DIL)
NPHI.V/V      00 330 00 00         : PHIN         - NEUTRON POROSITY (SANDSTONE)
DPHI.V/V      00 890 00 00         : PHID         - DENSITY POROSITY (SANDSTONE)
GR  .API      00 310 00 00         : GR           - GAMMA RAY
CALI.MM       00 280 01 00         : CAL          - CALIPER
~PARAMETER INFORMATION
#MNEM.UNIT           DATA             DESCRIPTION OF MNEMONIC
#---------         -----------     ------------------------------
GL  .M        586.77               : gl           - GROUND LEVEL ELEVATION
EREF.M        590.123              : kb           - ELEVATION OF DEPTH REFERENCE
DATM.M        586.77               : datum        - DATUM ELEVATION
TDD .M        399.288              : tdd          - TOTAL DEPTH DRILLER
RUN .         ONE                  : Run          - RUN NUMBER
ENG .         BILL                 : Engineer     - RECORDING ENGINEER
WIT .         JIM                  : Witness      - WITNESSED BY
MUD .         GEL                  : Mud_type     - MUD TYPE
MATR.         SANDSTONE            : Logunit      - NEUTRON MATRIX
TMAX.C        16.6667              : BHT          - MAXIMUM RECORDED TEMPERATURE
BHTD.M        399.288              : BHTDEP       - MAXIMUM RECORDED TEMPERATURE
MATR.         1                    : LOGUNIT      - NEUTRON MATRIX
RMT .C        7.77778              : MDTP         - TEMPERATURE OF MUD
NEUT.         1                    : NEUTRON      - NEUTRON TYPE
RESI.         0                    : RESIST       - RESISTIVITY TYPE
RMC .OHMM     3.9                  : RMC          - RESISTIVITY OF MUD CAKE
RMF .OHMM     4.15                 : RMF          - RESISTIVITY OF MUD FILTRATE
SUFT.C        -20.5556             : SUFT         - SURFACE TEMPERATURE
~A  DEPTH     RESD     PHIN     PHID       GR      CAL
  152.400    2.970    0.549    0.270  162.122  174.023
  152.650    3.066    0.546    0.270  166.967  173.970
  152.900    3.154    0.533    0.272  166.515  174.228
  153.150    3.216    0.526    0.271  161.813  174.782
  153.400    3.239    0.528    0.265  155.650  175.433
  153.650    3.237    0.530    0.258  153.706  175.860
  153.900    3.236    0.540    0.255  154.656  176.229
  154.150    3.235    0.533    0.256  157.671  176.574
  154.400    3.234    0.525    0.258  157.179  176.635
  154.650    3.263    0.522    0.261  157.389  176.795
  154.900    3.347    0.522    0.262  159.996  177.049
  155.150    3.546    0.523    0.261  164.854  177.077
  155.400    3.776    0.522    0.261  168.238  177.450
  155.650    4.200    0.521    0.259  165.643  177.800
  155.900    4.758    0.519    0.256  159.891  178.452
  156.150    5.476    0.510    0.250  153.552  179.398
  156.400    6.441    0.489    0.243  145.751  180.638
  156.650    7.912    0.446    0.235  132.160  182.188
  156.900    8.927    0.433    0.236  123.363  181.641
  157.150   11.242    0.423    0.240  106.041  178.710
  157.400   12.661    0.406    0.246   93.262  175.713
  157.650   14.109    0.356    0.261   79.791  172.899
  157.900   15.874    0.284    0.279   65.970  170.683
  158.150   17.319    0.232    0.288   55.365  168.800
  158.400   18.807    0.240    0.304   60.944  167.514
  158.650   18.586    0.258    0.324   63.958  164.704
  158.900   17.509    0.256    0.337   69.606  162.189
  159.150   12.678    0.282    0.339   77.064  160.363
  159.400    9.112    0.343    0.336   83.177  159.328
  159.650    8.711    0.412    0.334   81.812  158.715
  159.900    8.873    0.430    0.324   78.620  157.842
  160.150    9.576    0.390    0.306   80.463  157.412
  160.400   10.311    0.350    0.299   75.646  157.267
  160.650   11.486    0.304    0.294   68.372  157.225
  160.900   13.880    0.248    0.289   59.636  157.287
  161.150   19.911    0.189    0.293   46.775  158.041
  161.400   19.456    0.272    0.320   44.557  160.063
  161.650   17.598    0.352    0.332   50.845  167.540
  161.900   15.855    0.380    0.332   55.380  171.753
  162.150   14.427    0.383    0.330   59.681  171.513
  162.400   12.920    0.376    0.330   65.150  168.105
  162.650   10.745    0.378    0.328   74.481  165.036
  162.900   10.069    0.411    0.323   81.520  163.759
  163.150    7.824    0.432    0.319   91.786  163.317
  163.400    6.632    0.447    0.325  102.053  163.475
  163.650    5.607    0.470    0.326  115.241  164.027
  163.900    4.640    0.502    0.318  129.656  165.071
  164.150    3.739    0.524    0.312  138.102  167.086
  164.400    3.418    0.510    0.309  133.692  167.450
  164.650    3.448    0.511    0.307  134.602  167.808
  164.900    3.592    0.515    0.305  130.250  167.565
  165.150    3.835    0.508    0.307  123.793  166.335
  165.400    4.170    0.487    0.313  117.982  164.414
  165.650    4.628    0.461    0.321  113.148  162.690
  165.900    4.857    0.440    0.320  103.133  162.242
  166.150    4.949    0.437    0.317  103.111  163.384
  166.400    4.877    0.455    0.315  104.314  164.531
  166.650    4.717    0.459    0.312  107.796  165.085
  166.900    4.503    0.442    0.308  114.202  165.042
  167.150    4.170    0.433    0.301  124.830  164.823
  167.400    3.911    0.452    0.293  130.163  163.958
  167.650    3.591    0.473    0.284  139.023  163.120
  167.900    3.247    0.497    0.280  143.676  164.657
  168.150    2.954    0.524    0.277  148.212  167.385
  168.400    2.732    0.549    0.273  152.922  170.116
  168.650    2.556    0.562    0.269  154.490  171.740
  168.900    2.458    0.551    0.264  155.438  172.108
  169.150    2.394    0.532    0.269  153.070  171.666
  169.400    2.424    0.510    0.271  152.112  170.636
  169.650    2.337    0.509    0.271  151.856  169.606
  169.900    2.209    0.524    0.270  150.721  169.067
  170.150    2.371    0.516    0.268  144.933  169.405
  170.400    2.568    0.507    0.267  138.330  169.365
  170.650    2.929    0.492    0.275  130.587  168.927
  170.900    3.441    0.479    0.273  123.021  167.889
  171.150    4.091    0.457    0.271  112.005  166.263
  171.400    4.890    0.416    0.269   97.949  164.148
  171.650    6.164    0.342    0.260   84.902  161.557
  171.900    7.133    0.346    0.260   82.925  160.688
  172.150    7.863    0.364    0.272   82.430  159.454
  172.400    8.670    0.373    0.302   81.588  158.820
  172.650    9.434    0.383    0.324   79.811  158.582
  172.900    9.973    0.392    0.328   77.622  158.539
  173.150   10.097    0.390    0.324   76.659  158.497
  173.400    9.822    0.396    0.324   75.167  158.939
  173.650    9.327    0.417    0.319   81.961  159.308
  173.900    8.466    0.417    0.309   86.111  159.644
  174.150    7.617    0.416    0.305   90.063  160.592
  174.400    6.991    0.418    0.306   94.597  161.938
  174.650    6.650    0.420    0.295  100.181  162.688
  174.900    6.610    0.401    0.291   98.104  162.625
  175.150    6.608    0.403    0.286   96.614  162.998
  175.400    6.677    0.408    0.283   98.053  162.747
  175.650    6.755    0.414    0.278   98.382  161.915
  175.900    6.801    0.417    0.274   97.481  161.080
  176.150    6.799    0.413    0.270   98.854  161.429
  176.400    6.368    0.418    0.264  101.752  164.352
  176.650    5.736    0.433    0.266  108.058  169.253
  176.900    5.307    0.462    0.265  113.331  171.986
  177.150    4.898    0.487    0.269  117.047  173.131
  177.400    4.572    0.504    0.276  119.891  173.186
  177.650    4.392    0.524    0.276  125.787  173.693
  177.900    4.133    0.516    0.269  129.658  174.439
  178.150    3.878    0.509    0.264  131.036  174.827
  178.400    3.747    0.502    0.264  126.977  175.783
  178.650    3.668    0.494    0.263  127.302  176.330
  178.900    3.636    0.492    0.260  132.361  176.381
  179.150    3.710    0.511    0.257  131.330  176.808
  179.400    3.774    0.517    0.259  122.780  177.177
  179.650    3.773    0.518    0.267  117.372  177.143
  179.900    3.724    0.514    0.271  118.986  177.100
  180.150    3.595    0.515    0.272  122.002  176.662
  180.400    3.380    0.517    0.273  123.788  175.830
  180.650    3.031    0.507    0.276  124.988  174.818
  180.900    2.711    0.496    0.280  126.420  173.949
  181.150    2.519    0.504    0.286  128.269  173.515
  181.400    2.378    0.516    0.288  130.992  173.075
  181.650    2.251    0.533    0.284  134.591  173.627
  181.900    2.135    0.545    0.279  138.365  175.072
  182.150    2.020    0.534    0.280  141.051  175.960
  182.400    1.922    0.526    0.280  141.759  174.670
  182.650    1.826    0.541    0.297  142.196  173.844
  182.900    1.779    0.541    0.301  143.692  174.794
  183.150    1.730    0.534    0.298  146.592  176.138
  183.400    1.675    0.528    0.295  149.375  177.084
  183.650    1.642    0.534    0.297  148.984  177.426
  183.900    1.641    0.564    0.305  150.660  177.386
  184.150    1.640    0.567    0.302  150.165  177.327
  184.400    1.639    0.566    0.299  148.624  177.294
  184.650    1.668    0.564    0.294  147.314  177.456
  184.900    1.730    0.560    0.289  146.995  177.806
  185.150    1.797    0.551    0.285  148.047  178.234
  185.400    1.829    0.543    0.280  148.754  178.602
  185.650    1.859    0.532    0.289  148.963  178.952
  185.900    1.889    0.514    0.291  146.540  179.011
  186.150    1.904    0.514    0.286  144.291  178.971
  186.400    1.903    0.528    0.280  143.213  179.027
  186.650    1.907    0.528    0.277  142.242  179.367
  186.900    1.939    0.528    0.270  140.993  179.323
  187.150    1.938    0.541    0.274  139.802  178.894
  187.400    1.960    0.548    0.276  139.136  177.264
  187.650    1.990    0.556    0.274  142.970  176.425
  187.900    2.012    0.566    0.271  150.194  176.681
  188.150    2.017    0.571    0.264  154.704  176.799
  188.400    2.049    0.574    0.262  155.165  177.580
  188.650    2.079    0.570    0.267  149.295  177.538
