~VERSION INFORMATION
 VERS.                 2.0:   CWLS LOG ASCII STANDARD -VERSION 2.0
 WRAP.                  NO:   ONE LINE PER DEPTH STEP
~WELL INFORMATION BLOCK
#MNEM.UNIT           DATA                    DESCRIPTION OF MNEMONIC
#---------    -------------------            -------------------------------
# Generated from Intellog Unique Number	CS_73_76/WELL/2170
WELL.         BOW VALLEY EXPLORATION         : Well_name    - WELL
LOC .         00/06-32-074-16W4/0            : Location     - LOCATION
UWI .         00/06-32-074-16W4/0            : Uwi          - UNIQUE WELL ID
ENTR.         SP                             : Entered      - ENTERED BY
SRVC.         SCHLUMBERGER                   : Scn          - SERVICE COMPANY
STRT.M        305                            : top_depth    - START DEPTH
STOP.M        495                            : bot_depth    - STOP DEPTH
STEP.M        0.25                           : increment    - STEP LENGTH
 NULL. -999.2500:NULL Value
~CURVE INFORMATION BLOCK
#MNEM UNIT       ERCB CURVE CODE    CURVE DESCRIPTION
#-----------   ------------------   ----------------------------------
DEPT.M        00 001 00 00         : DEPTH        - DEPTH
ILD .OHMM     00 120 00 00         : RESD         - DEEP RESISTIVITY (DIL)
DPHI.V/V      00 890 00 00         : PHID         - DENSITY POROSITY (LIMESTONE)
NPHI.V/V      00 330 00 00         : PHIN         - NEUTRON POROSITY (LIMESTONE)
GR  .API      00 310 00 00         : GR           - GAMMA RAY
~PARAMETER INFORMATION
#MNEM.UNIT           DATA             DESCRIPTION OF MNEMONIC
#---------         -----------     ------------------------------
GL  .M        659.83               : gl           - GROUND LEVEL ELEVATION
EREF.M        662.86               : kb           - ELEVATION OF DEPTH REFERENCE
DATM.M        659.83               : datum        - DATUM ELEVATION
TDD .M        497                  : tdd          - TOTAL DEPTH DRILLER
RUN .         ONE                  : Run          - RUN NUMBER
ENG .         BILL                 : Engineer     - RECORDING ENGINEER
WIT .         JIM                  : Witness      - WITNESSED BY
MUD .         GEL                  : Mud_type     - MUD TYPE
MATR.         LIMESTONE            : Logunit      - NEUTRON MATRIX
TMAX.C        20                   : BHT          - MAXIMUM RECORDED TEMPERATURE
BHTD.M        497                  : BHTDEP       - MAXIMUM RECORDED TEMPERATURE
MATR.         1                    : LOGUNIT      - NEUTRON MATRIX
RMT .C        25                   : MDTP         - TEMPERATURE OF MUD
NEUT.         1                    : NEUTRON      - NEUTRON TYPE
RESI.         0                    : RESIST       - RESISTIVITY TYPE
RMC .OHMM     0.25                 : RMC          - RESISTIVITY OF MUD CAKE
RMF .OHMM     0.25                 : RMF          - RESISTIVITY OF MUD FILTRATE
SUFT.C        15                   : SUFT         - SURFACE TEMPERATURE
~A  DEPTH     RESD     PHID     PHIN       GR
  305.000    2.821    0.212    0.518  106.624
  305.250    2.927    0.225    0.527  107.224
  305.500    2.926    0.236    0.523  106.618
  305.750    2.926    0.232    0.525  106.015
  306.000    3.035    0.208    0.519  103.000
  306.250    3.208    0.185    0.504  101.190
  306.500    3.328    0.195    0.507  100.586
  306.750    3.390    0.203    0.525  111.427
  307.000    3.453    0.182    0.467  110.219
  307.250    3.517    0.200    0.471  107.204
  307.500    3.581    0.208    0.479  106.600
  307.750    3.581    0.213    0.469  107.200
  308.000    3.580    0.218    0.469  108.403
  308.250    3.514    0.214    0.469  105.388
  308.500    3.449    0.205    0.466  103.579
  308.750    3.385    0.196    0.459  105.384
  309.000    3.261    0.196    0.455  114.417
  309.250    3.201    0.205    0.468  115.017
  309.500    3.141    0.218    0.494  113.206
  309.750    3.083    0.226    0.500  113.204
  310.000    3.082    0.212    0.485  113.804
  310.250    3.139    0.200    0.478  113.801
  310.500    3.197    0.194    0.472  113.196
  310.750    3.256    0.200    0.468  113.195
  311.000    3.317    0.207    0.488  110.182
  311.250    3.441    0.199    0.502  106.565
  311.500    3.377    0.189    0.496  108.369
  311.750    3.315    0.191    0.480  104.753
  312.000    3.314    0.199    0.451  105.353
  312.250    3.635    0.225    0.470  104.748
  312.500    3.987    0.253    0.500   98.120
  312.750    5.461    0.270    0.430   87.274
  313.000    9.342    0.293    0.466   77.031
  313.250   11.882    0.461    0.524   66.185
  313.500   13.524    0.600    0.569   52.328
  313.750   14.561    0.615    0.603   40.880
  314.000   15.391    0.594    0.508   45.094
  314.250   17.517    0.322    0.334   63.164
  314.500   19.936    0.300    0.323   67.377
  314.750   21.866    0.366    0.349   61.953
  315.000   23.544    0.387    0.372   58.337
  315.250   23.980    0.404    0.210   56.528
  315.500   20.293    0.407    0.245   56.526
  315.750   18.156    0.387    0.254   57.126
  316.000   15.084    0.373    0.282   60.738
  316.250   13.496    0.378    0.323   67.361
  316.500   11.006    0.367    0.356   69.769
  316.750    9.846    0.314    0.386   72.176
  317.000    9.487    0.297    0.433   74.583
  317.250    9.141    0.300    0.421   77.593
  317.500    8.644    0.291    0.413   78.192
  317.750    8.484    0.310    0.410   76.383
  318.000    8.483    0.323    0.413   86.018
  318.250    8.480    0.305    0.404   90.234
  318.500    8.479    0.287    0.397  102.279
  318.750    8.477    0.271    0.409  105.891
  319.000    8.476    0.256    0.416  108.901
  319.250    8.633    0.265    0.423  109.501
  319.500    8.631    0.275    0.424  103.474
  319.750    8.955    0.288    0.412   98.653
  320.000    8.953    0.294    0.420   96.241
  320.250    9.119    0.282    0.408   98.046
  320.500    9.117    0.267    0.413  101.055
  320.750    9.285    0.256    0.415  104.668
  321.000    9.284    0.248    0.409  101.652
  321.250    9.282    0.246    0.403  101.048
  321.500    9.454    0.279    0.415  101.046
  321.750    9.629    0.288    0.408   94.417
  322.000   10.176    0.222    0.397   90.198
  322.250   10.755    0.142    0.380   84.171
  322.500   11.160    0.088    0.354   78.145
  322.750   11.158    0.071    0.332   75.131
  323.000   10.358    0.127    0.343   71.514
  323.250    9.979    0.177    0.355   75.126
  323.500    9.614    0.204    0.367   81.750
  323.750    9.976    0.223    0.378   87.771
  324.000    9.974    0.206    0.368   89.576
  324.250    9.973    0.200    0.363   91.381
  324.500   10.540    0.217    0.362   90.174
  324.750   11.140    0.226    0.368   86.558
  325.000   11.774    0.234    0.350   88.362
  325.250   11.993    0.245    0.343   90.166
  325.500   12.214    0.228    0.360   88.358
  325.750   12.673    0.244    0.371   79.921
  326.000   12.437    0.258    0.376   76.305
  326.250   12.435    0.264    0.389   73.290
  326.500   12.432    0.287    0.397   70.276
  326.750   12.662    0.282    0.400   66.057
  327.000   13.382    0.286    0.394   59.428
  327.250   13.631    0.308    0.405   54.607
  327.500   14.407    0.304    0.414   54.604
  327.750   15.226    0.315    0.391   53.999
  328.000   15.798    0.313    0.379   49.780
  328.250   16.091    0.314    0.385   46.766
  328.500   16.389    0.321    0.399   47.968
  328.750   16.690    0.303    0.391   50.375
  329.000   16.381    0.305    0.387   49.771
  329.250   15.783    0.315    0.405   48.564
  329.500   14.120    0.310    0.393   46.754
  329.750   12.870    0.297    0.370   50.366
  330.000   10.302    0.263    0.372   75.062
  330.250    9.218    0.191    0.411   90.722
  330.500    7.111    0.145    0.452  119.033
  330.750    4.909    0.108    0.498  126.861
  331.000    4.311    0.134    0.529  129.269
  331.250    3.717    0.166    0.522  128.664
  331.500    3.516    0.148    0.499  126.854
  331.750    3.264    0.124    0.483  123.839
  332.000    3.263    0.170    0.494  134.681
  332.250    3.646    0.208    0.474  130.462
  332.500    4.469    0.209    0.446  121.423
  332.750    5.086    0.218    0.433  117.204
  333.000    6.120    0.231    0.417  120.816
  333.250    6.966    0.229    0.410  123.826
  333.500    8.227    0.215    0.413  121.413
  333.750    8.696    0.222    0.419  123.218
  334.000    8.535    0.212    0.423  124.421
  334.250    7.923    0.196    0.427  124.419
  334.500    7.634    0.226    0.440  118.392
  334.750    7.220    0.217    0.446  115.980
  335.000    6.703    0.106    0.459  113.568
  335.250    6.579    0.014    0.473  111.156
  335.500    6.578    0.185    0.400  107.540
  335.750    6.951    0.220    0.399  110.549
  336.000    7.081    0.244    0.401  109.342
  336.250    7.766    0.262    0.408  102.712
  336.500    8.208    0.279    0.424   99.699
  336.750    8.676    0.290    0.439   94.274
  337.000    8.836    0.292    0.424   93.068
  337.250    8.999    0.284    0.422   96.077
  337.500    8.511    0.262    0.422   98.484
  337.750    7.902    0.263    0.415   98.482
  338.000    7.613    0.246    0.415  108.118
  338.250    7.200    0.240    0.429  116.549
  338.500    6.937    0.228    0.438  119.559
  338.750    6.809    0.229    0.427  117.147
  339.000    6.439    0.226    0.430  121.963
  339.250    6.320    0.232    0.421  122.563
  339.500    6.319    0.237    0.416  123.163
  339.750    6.678    0.246    0.424  118.944
  340.000    6.929    0.273    0.429  109.304
  340.250    7.189    0.300    0.419   99.663
  340.500    7.322    0.274    0.411   83.396
  340.750    7.883    0.266    0.419   75.563
  341.000    7.882    0.278    0.427   76.764
  341.250    8.178    0.294    0.432   77.365
  341.500    8.026    0.276    0.409   79.773
  341.750    8.024    0.285    0.387   85.191
  342.000    7.875    0.291    0.383   85.189
  342.250    7.874    0.295    0.405   79.162
  342.500    8.020    0.290    0.427   76.149
  342.750    8.168    0.294    0.444   70.122
  343.000    8.319    0.311    0.441   67.710
  343.250    8.473    0.318    0.434   67.708
  343.500    8.472    0.320    0.440   69.513
  343.750    8.629    0.322    0.446   68.908
  344.000    8.952    0.303    0.439   69.508
  344.250    9.288    0.145    0.382   67.698
  344.500    9.287    0.127    0.307   65.889
  344.750    7.434    0.209    0.320   70.103
  345.000    6.775    0.247    0.355   76.727
  345.250    6.175    0.247    0.410   81.544
  345.500    5.628    0.271    0.453   86.361
  345.750    5.323    0.276    0.478   88.166
  346.000    5.224    0.301    0.461   86.356
  346.250    5.420    0.288    0.446   83.944
  346.500    5.729    0.294    0.441   80.327
  346.750    6.055    0.276    0.451   86.951
  347.000    6.054    0.268    0.466   94.177
  347.250    6.053    0.266    0.463  100.199
  347.500    6.165    0.266    0.446  102.607
  347.750    6.515    0.271    0.441   97.182
  348.000    6.760    0.265    0.429   93.565
  348.250    6.885    0.260    0.422   92.359
