~VERSION INFORMATION
 VERS.                 2.0:   CWLS LOG ASCII STANDARD -VERSION 2.0
 WRAP.                  NO:   ONE LINE PER DEPTH STEP
~WELL INFORMATION BLOCK
#MNEM.UNIT           DATA                    DESCRIPTION OF MNEMONIC
#---------    -------------------            -------------------------------
# Generated from Intellog Unique Number	CS_69_70/WELL/855
WELL.         ET AL HEART LAKE               : Well_name    - WELL
LOC .         00/09-09-069-09W4/0            : Location     - LOCATION
UWI .         00/09-09-069-09W4/0            : Uwi          - UNIQUE WELL ID
ENTR.         SP                             : Entered      - ENTERED BY
SRVC.         SCHLUMBERGER                   : Scn          - SERVICE COMPANY
STRT.M        400                            : top_depth    - START DEPTH
STOP.M        635                            : bot_depth    - STOP DEPTH
STEP.M        0.25                           : increment    - STEP LENGTH
 NULL. -999.2500:NULL Value
~CURVE INFORMATION BLOCK
#MNEM UNIT       ERCB CURVE CODE    CURVE DESCRIPTION
#-----------   ------------------   ----------------------------------
DEPT.M        00 001 00 00         : DEPTH        - DEPTH
ILD .OHMM     00 120 00 00         : RESD         - DEEP RESISTIVITY (DIL)
DPHI.V/V      00 890 00 00         : PHID         - DENSITY POROSITY (LIMESTONE)
NPHI.V/V      00 330 00 00         : PHIN         - NEUTRON POROSITY (LIMESTONE)
GR  .API      00 310 00 00         : GR           - GAMMA RAY
~PARAMETER INFORMATION
#MNEM.UNIT           DATA             DESCRIPTION OF MNEMONIC
#---------         -----------     ------------------------------
GL  .M        743.29               : gl           - GROUND LEVEL ELEVATION
EREF.M        746.5                : kb           - ELEVATION OF DEPTH REFERENCE
DATM.M        743.29               : datum        - DATUM ELEVATION
TDD .M        640                  : tdd          - TOTAL DEPTH DRILLER
RUN .         ONE                  : Run          - RUN NUMBER
ENG .         BILL                 : Engineer     - RECORDING ENGINEER
WIT .         JIM                  : Witness      - WITNESSED BY
MUD .         GEL                  : Mud_type     - MUD TYPE
MATR.         LIMESTONE            : Logunit      - NEUTRON MATRIX
TMAX.C        23.3                 : BHT          - MAXIMUM RECORDED TEMPERATURE
BHTD.M        640                  : BHTDEP       - MAXIMUM RECORDED TEMPERATURE
MATR.         1                    : LOGUNIT      - NEUTRON MATRIX
RMT .C        25                   : MDTP         - TEMPERATURE OF MUD
NEUT.         1                    : NEUTRON      - NEUTRON TYPE
RESI.         0                    : RESIST       - RESISTIVITY TYPE
RMC .OHMM     0.25                 : RMC          - RESISTIVITY OF MUD CAKE
RMF .OHMM     0.25                 : RMF          - RESISTIVITY OF MUD FILTRATE
SUFT.C        15                   : SUFT         - SURFACE TEMPERATURE
~A  DEPTH     RESD     PHID     PHIN       GR
# ...
  574.000    2.459    0.222    0.544  113.945
  574.250    2.824    0.224    0.484   98.117
  574.500    3.328    0.227    0.403   84.836
  574.750    3.922    0.180    0.352   81.863
  575.000    4.495    0.132    0.376   88.529
  575.250    4.870    0.126    0.409   92.286
  575.500    5.268    0.168    0.427   96.588
  575.750    5.708    0.194    0.431   85.308
  576.000    6.105    0.173    0.406   76.210
  576.250    6.481    0.170    0.379   75.541
  576.500    6.665    0.218    0.377   75.841
  576.750    6.880    0.246    0.376   76.020
  577.000    7.022    0.247    0.376   75.593
  577.250    7.075    0.240    0.378   75.045
  577.500    6.957    0.193    0.344   71.889
  577.750    6.591    0.055    0.309   67.763
  578.000    5.859    0.132    0.342   67.518
  578.250    5.438    0.219    0.367   75.094
  578.500    4.870    0.225    0.383   84.247
  578.750    4.298    0.215    0.378   91.216
  579.000    4.041    0.208    0.412  100.248
  579.250    3.907    0.227    0.449  106.914
  579.500    4.346    0.243    0.452  102.484
  579.750    4.870    0.254    0.425  100.724
  580.000    5.708    0.263    0.421   98.781
  580.250    6.615    0.263    0.418   96.596
  580.500    7.249    0.265    0.413   98.897
  580.750    7.413    0.267    0.404  100.410
  581.000    7.385    0.228    0.398  103.318
  581.250    7.036    0.209    0.388  111.015
  581.500    6.128    0.225    0.376  119.925
  581.750    5.199    0.244    0.441   88.879
  582.000    4.266    0.258    0.421   72.142
  582.250    3.736    0.268    0.377   65.167
  582.500    3.397    0.279    0.358   72.379
  582.750    3.378    0.288    0.353   78.682
  583.000    3.640    0.287    0.351   83.954
  583.250    3.944    0.281    0.353   94.380
  583.500    4.306    0.275    0.380  103.654
  583.750    4.520    0.271    0.386  108.380
  584.000    4.674    0.281    0.375  107.529
  584.250    4.754    0.288    0.380  108.193
  584.500    4.503    0.282    0.372  113.465
  584.750    4.445    0.259    0.368  119.586
  585.000    4.461    0.249    0.416  123.585
  585.250    4.495    0.244    0.439  124.794
  585.500    4.554    0.242    0.451  125.640
  585.750    4.666    0.239    0.400  121.394
  586.000    4.798    0.263    0.346   88.408
  586.250    4.971    0.265    0.278   55.544
  586.500    5.219    0.177    0.228   47.780
  586.750    5.550    0.146    0.287   64.511
  587.000    5.848    0.119    0.319   79.909
  587.250    6.185    0.228    0.347   76.389
  587.500    6.349    0.268    0.365   72.203
  587.750    6.197    0.246    0.345   66.804
  588.000    5.783    0.232    0.322   68.499
  588.250    5.644    0.211    0.309   75.893
  588.500    5.519    0.199    0.322   84.076
  588.750    5.489    0.192    0.334   89.530
  589.000    5.613    0.199    0.323   87.708
  589.250    5.676    0.201    0.316   82.794
  589.500    5.762    0.195    0.312   90.188
  589.750    5.826    0.199    0.329   98.674
  590.000    5.826    0.198    0.341  105.037
  590.250    5.826    0.187    0.352  109.824
  590.500    5.550    0.190    0.362  114.126
  590.750    5.708    0.189    0.368  119.156
  591.000    6.151    0.174    0.348  123.700
  591.250    6.529    0.164    0.330  104.902
  591.500    7.009    0.194    0.319   81.617
  591.750    7.358    0.229    0.329   76.885
  592.000    7.455    0.270    0.345   73.063
  592.250    7.009    0.276    0.338   70.029
  592.500    6.082    0.275    0.330   66.085
  592.750    4.934    0.276    0.333   63.111
  593.000    4.164    0.283    0.337   58.319
  593.250    3.599    0.292    0.342   65.167
  593.500    3.533    0.278    0.350   74.016
  593.750    3.579    0.265    0.359   82.441
  594.000    3.702    0.262    0.363   89.532
  594.250    3.878    0.255    0.370   99.170
  594.500    3.981    0.231    0.389  116.750
  594.750    4.094    0.199    0.421  131.965
  595.000    4.140    0.130    0.452  140.390
  595.250    4.179    0.141    0.471  140.266
  595.500    4.234    0.125    0.463  130.744
  595.750    4.314    0.094    0.450  125.891
  596.000    4.461    0.063    0.449  129.829
  596.250    4.537    0.090    0.473  128.311
  596.500    4.520    0.121    0.495  118.001
  596.750    4.234    0.202    0.449  101.446
  597.000    3.681    0.239    0.400   86.528
  597.250    3.230    0.267    0.348   75.673
  597.500    2.861    0.288    0.376   69.183
  597.750    2.596    0.311    0.394   66.391
  598.000    2.635    0.314    0.399   70.086
  598.250    2.771    0.321    0.391   73.054
  598.500    2.964    0.303    0.381   72.749
  598.750    3.100    0.283    0.385   75.777
  599.000    3.303    0.268    0.387   77.533
  599.250    3.559    0.268    0.396   80.077
  599.500    3.764    0.254    0.394   82.681
  599.750    4.041    0.234    0.374   86.074
  600.000    4.314    0.233    0.361   90.800
  600.250    4.683    0.219    0.355   93.525
  600.500    5.027    0.192    0.355   97.828
  600.750    5.367    0.172    0.352  107.101
  601.000    5.644    0.160    0.346  116.193
  601.250    5.816    0.156    0.345  122.375
  601.500    5.892    0.158    0.345  119.522
  601.750    5.870    0.172    0.337  113.820
  602.000    5.697    0.184    0.349  112.665
  602.250    5.499    0.187    0.366  119.029
  602.500    5.367    0.185    0.387  124.968
  602.750    5.307    0.198    0.398  124.844
  603.000    5.307    0.217    0.391  109.684
  603.250    5.499    0.227    0.374   88.096
  603.500    5.958    0.228    0.354   78.635
  603.750    6.481    0.150    0.340   75.965
  604.000    6.867    0.166    0.345   74.507
  604.250    6.880    0.253    0.370   70.503
  604.500    6.361    0.287    0.375   75.108
  604.750    5.925    0.238    0.348   82.805
  605.000    5.550    0.206    0.334   88.683
  605.250    5.367    0.173    0.333   94.744
  605.500    5.161    0.161    0.326   92.134
  605.750    5.009    0.177    0.333   93.647
  606.000    4.934    0.186    0.341   96.797
  606.250    4.852    0.186    0.338   95.339
  606.500    4.798    0.194    0.328   91.880
  606.750    4.709    0.201    0.325   92.120
  607.000    4.648    0.195    0.324   96.786
  607.250    4.554    0.176    0.338  101.330
  607.500    4.395    0.186    0.358   93.446
  607.750    4.242    0.218    0.363   77.982
  608.000    4.049    0.244    0.347   63.367
  608.250    3.821    0.245    0.335   60.879
  608.500    3.606    0.228    0.328   61.846
  608.750    3.416    0.236    0.329   58.084
  609.000    3.242    0.240    0.325   54.565
  609.250    3.088    0.260    0.323   53.471
  609.500    3.026    0.275    0.332   58.925
  609.750    2.986    0.269    0.334   72.139
  610.000    2.953    0.256    0.334   80.928
  610.250    2.926    0.263    0.332   65.465
  610.500    2.882    0.274    0.332   56.064
  610.750    2.834    0.274    0.338   59.638
  611.000    2.797    0.269    0.345   63.152
  611.250    2.761    0.264    0.343   65.878
  611.500    2.746    0.265    0.341   62.116
  611.750    2.797    0.284    0.351   56.354
  612.000    2.920    0.293    0.337   51.137
  612.250    2.986    0.257    0.315   62.169
  612.500    3.083    0.225    0.305   74.777
  612.750    3.088    0.221    0.332   78.412
  613.000    2.959    0.273    0.349   57.431
  613.250    2.751    0.286    0.356   48.758
  613.500    2.464    0.301    0.346   38.812
  613.750    2.382    0.316    0.343   35.292
  614.000    2.400    0.321    0.352   39.655
  614.250    2.450    0.316    0.358   45.897
  614.500    2.492    0.302    0.350   52.867
  614.750    2.506    0.280    0.344   55.532
  615.000    2.496    0.266    0.342   56.742
  615.250    2.450    0.268    0.346   55.890
  615.500    2.365    0.300    0.354   51.947
  615.750    2.287    0.311    0.347   53.824
  616.000    2.215    0.301    0.348   50.243
  616.250    2.182    0.308    0.359   43.632
  616.500    2.174    0.320    0.373   45.206
  616.750    2.228    0.328    0.374   48.234
  617.000    2.299    0.327    0.368   50.960
  617.250    2.365    0.317    0.373   57.930
