~VERSION INFORMATION
 VERS.                 2.0:   CWLS LOG ASCII STANDARD -VERSION 2.0
 WRAP.                  NO:   ONE LINE PER DEPTH STEP
~WELL INFORMATION BLOCK
#MNEM.UNIT           DATA                    DESCRIPTION OF MNEMONIC
#---------    -------------------            -------------------------------
# Generated from Intellog Unique Number	CX_WELLS/WELL/2849
WELL.         CMME THORNBURY                 : Well_name    - WELL
LOC .         00/09-14-081-14W4/0            : Location     - LOCATION
UWI .         00/09-14-081-14W400            : Uwi          - UNIQUE WELL ID
ENTR.         T                              : Entered      - ENTERED BY
SRVC.         SCHLUMBERGER                   : Scn          - SERVICE COMPANY
STRT.M        215                            : top_depth    - START DEPTH
STOP.M        425                            : bot_depth    - STOP DEPTH
STEP.M        0.25                           : increment    - STEP LENGTH
 NULL. -999.2500:NULL Value
~CURVE INFORMATION BLOCK
#MNEM UNIT       ERCB CURVE CODE    CURVE DESCRIPTION
#-----------   ------------------   ----------------------------------
DEPT.M        00 001 00 00         : DEPTH        - DEPTH
GR  .API      00 310 00 00         : GR           - GAMMA RAY
NPHI.V/V      00 330 00 00         : PHIN         - NEUTRON POROSITY (SANDSTONE)
DPHI.V/V      00 890 00 00         : PHID         - DENSITY POROSITY (SANDSTONE)
ILD .OHMM     00 120 00 00         : RESD         - DEEP RESISTIVITY (OTHER)
~PARAMETER INFORMATION
#MNEM.UNIT           DATA             DESCRIPTION OF MNEMONIC
#---------         -----------     ------------------------------
GL  .M        643.4                : gl           - GROUND LEVEL ELEVATION
EREF.M        647.8                : kb           - ELEVATION OF DEPTH REFERENCE
DATM.M        647.8                : datum        - DATUM ELEVATION
TDD .M        432                  : tdd          - TOTAL DEPTH DRILLER
RUN .         ONE                  : Run          - RUN NUMBER
ENG .         BILL                 : Engineer     - RECORDING ENGINEER
WIT .         JIM                  : Witness      - WITNESSED BY
MUD .         GEL                  : Mud_type     - MUD TYPE
MATR.         SANDSTONE            : Logunit      - NEUTRON MATRIX
TMAX.C        20                   : BHT          - MAXIMUM RECORDED TEMPERATURE
BHTD.M        432                  : BHTDEP       - MAXIMUM RECORDED TEMPERATURE
MATR.         1                    : LOGUNIT      - NEUTRON MATRIX
RMT .C        17                   : MDTP         - TEMPERATURE OF MUD
NEUT.         1                    : NEUTRON      - NEUTRON TYPE
RESI.         8.6                  : RESIST       - RESISTIVITY TYPE
RMC .OHMM     7.8                  : RMC          - RESISTIVITY OF MUD CAKE
RMF .OHMM     7.8                  : RMF          - RESISTIVITY OF MUD FILTRATE
SUFT.C        4                    : SUFT         - SURFACE TEMPERATURE
~A  DEPTH       GR     PHIN     PHID     RESD
# ...
  345.500   88.069    0.469    0.245    4.607
  345.750   86.258    0.464    0.251    4.973
  346.000   85.056    0.457    0.255    5.266
  346.250   84.457    0.450    0.261    5.577
  346.500   83.861    0.456    0.262    6.255
  346.750   84.488    0.461    0.263    6.498
  347.000   85.109    0.461    0.263    6.623
  347.250   86.339    0.451    0.262    6.622
  347.500   89.406    0.445    0.261    6.621
  347.750   91.246    0.450    0.253    6.620
  348.000   94.313    0.458    0.235    6.494
  348.250   97.379    0.467    0.230    6.250
  348.500   98.610    0.466    0.231    5.678
  348.750  100.457    0.463    0.228    5.361
  349.000  101.077    0.463    0.227    5.061
  349.250  101.701    0.463    0.223    5.061
  349.500  100.496    0.463    0.222    5.462
  349.750   99.907    0.461    0.226    5.675
  350.000   99.918    0.456    0.231    6.010
  350.250   99.928    0.445    0.232    6.487
  350.500  100.559    0.432    0.217    7.138
  350.750  100.574    0.418    0.207    8.006
  351.000   99.978    0.407    0.208    8.317
  351.250   98.776    0.402    0.208    8.808
  351.500   98.173    0.402    0.209    8.977
  351.750   96.968    0.404    0.212    8.976
  352.000   95.156    0.409    0.216    8.313
  352.250   94.557    0.416    0.221    7.849
  352.500   93.362    0.426    0.223    7.269
  352.750   93.369    0.433    0.226    7.131
  353.000   93.383    0.439    0.227    6.604
  353.250   93.401    0.444    0.227    6.235
  353.500   94.025    0.448    0.227    6.000
  353.750   94.649    0.449    0.227    5.774
  354.000   94.659    0.451    0.227    5.773
  354.250   94.674    0.449    0.228    5.998
  354.500   94.078    0.444    0.224    6.474
  354.750   89.827    0.438    0.218    6.856
  355.000   86.179    0.431    0.190    7.690
  355.250   81.314    0.399    0.203    8.144
  355.500   81.938    0.395    0.229    8.624
  355.750   86.831    0.419    0.247    8.623
  356.000   86.845    0.430    0.268    8.459
  356.250   82.594    0.440    0.273    7.985
  356.500   83.828    0.470    0.272    7.684
  356.750   86.281    0.465    0.270    7.395
  357.000   91.177    0.454    0.265    7.116
  357.250   93.627    0.454    0.255    6.981
  357.500   94.258    0.457    0.250    6.980
  357.750   93.049    0.458    0.247    6.979
  358.000   91.840    0.452    0.244    6.978
  358.250   91.245    0.443    0.244    6.977
  358.500   90.043    0.432    0.246    6.844
  358.750   89.447    0.422    0.250    6.843
  359.000   88.245    0.417    0.256    6.713
  359.250   87.043    0.424    0.268    6.585
  359.500   87.050    0.452    0.271    6.584
  359.750   87.072    0.450    0.265    6.583
  360.000   87.689    0.441    0.260    6.582
  360.250   86.483    0.429    0.258    6.582
  360.500   84.668    0.421    0.253    6.581
  360.750   82.852    0.424    0.250    6.580
  361.000   81.650    0.434    0.250    6.579
  361.250   81.665    0.440    0.255    6.579
  361.500   81.679    0.423    0.259    6.578
  361.750   81.083    0.414    0.261    6.577
  362.000   80.487    0.419    0.263    6.576
  362.250   79.282    0.419    0.263    6.703
  362.500   77.467    0.429    0.263    6.831
  362.750   72.606    0.440    0.257    7.374
  363.000   67.741    0.393    0.245    7.960
  363.250   65.923    0.255    0.134    8.592
  363.500   67.770    0.265    0.110    9.099
  363.750   71.446    0.296    0.164    9.636
  364.000   72.673    0.371    0.267    9.097
  364.250   74.520    0.431    0.270    8.755
  364.500   75.144    0.450    0.270    8.425
  364.750   75.768    0.447    0.269    8.107
  365.000   76.396    0.441    0.264    7.953
  365.250   75.803    0.427    0.187    8.105
  365.500   75.811    0.399    0.195    8.261
  365.750   76.438    0.405    0.259    8.103
  366.000   78.282    0.432    0.276    7.798
  366.250   80.125    0.442    0.282    7.504
  366.500   81.972    0.451    0.290    7.084
  366.750   83.206    0.456    0.286    6.818
  367.000   83.827    0.457    0.284    6.688
  367.250   82.621    0.456    0.281    6.560
  367.500   80.200    0.465    0.278    6.435
  367.750   78.994    0.464    0.275    6.312
  368.000   82.054    0.457    0.265    5.959
  368.250   87.560    0.445    0.256    5.735
  368.500   92.449    0.450    0.255    5.111
  368.750   96.122    0.467    0.255    4.919
  369.000  100.409    0.503    0.253    4.385
  369.250  102.256    0.537    0.246    4.061
  369.500  103.490    0.533    0.240    3.690
  369.750  104.723    0.492    0.232    3.551
  370.000  101.685    0.441    0.208    3.760
  370.250   88.893    0.442    0.190    4.218
  370.500   82.812    0.447    0.172    4.731
  370.750   79.777    0.441    0.196    5.408
  371.000   77.349    0.431    0.224    5.838
  371.250   74.927    0.422    0.257    6.065
  371.500   76.767    0.422    0.258    6.301
  371.750   82.270    0.432    0.252    6.300
  372.000   87.173    0.460    0.243    6.299
  372.250   87.790    0.472    0.234    6.299
  372.500   83.539    0.482    0.228    6.298
  372.750   80.507    0.408    0.196    6.297
  373.000   82.351    0.378    0.163    6.296
  373.250   84.188    0.409    0.153    6.296
  373.500   87.254    0.426    0.203    6.295
  373.750   89.708    0.446    0.214    6.294
  374.000   90.942    0.464    0.221    6.293
  374.250   91.562    0.474    0.221    6.293
  374.500   90.974    0.458    0.221    6.292
  374.750   89.764    0.443    0.221    6.413
  375.000   88.559    0.438    0.219    6.536
  375.250   87.963    0.436    0.218    6.535
  375.500   88.591    0.434    0.214    6.661
  375.750   89.821    0.432    0.210    6.660
  376.000   94.111    0.428    0.204    6.659
  376.250   96.561    0.423    0.207    6.659
  376.500   97.189    0.422    0.215    6.658
  376.750   97.203    0.422    0.224    6.531
  377.000   96.607    0.422    0.218    6.406
  377.250   96.011    0.425    0.213    6.284
  377.500   95.412    0.428    0.207    6.047
  377.750   93.604    0.434    0.209    5.709
  378.000   93.001    0.438    0.217    5.089
  378.250   91.193    0.448    0.243    4.536
  378.500   90.590    0.468    0.250    3.674
  378.750   88.165    0.504    0.259    2.810
  379.000   83.301    0.518    0.268    2.276
  379.250   80.266    0.562    0.273    1.809
  379.500   76.628    0.518    0.270    2.149
  379.750   76.032    0.445    0.263    3.337
  380.000   76.047    0.417    0.244    4.280
  380.250   76.064    0.413    0.228    4.893
  380.500   76.071    0.407    0.226    5.488
  380.750   75.483    0.400    0.226    6.038
  381.000   75.493    0.396    0.220    6.518
  381.250   76.117    0.403    0.209    6.771
  381.500   78.571    0.430    0.209    6.516
  381.750   82.850    0.435    0.230    6.152
  382.000   90.189    0.460    0.243    5.380
  382.250   90.200    0.465    0.240    4.442
  382.500   90.824    0.475    0.233    3.668
  382.750   90.838    0.481    0.226    3.269
  383.000   90.242    0.470    0.219    3.269
  383.250   89.040    0.459    0.214    3.396
  383.500   88.441    0.439    0.209    3.528
  383.750   87.236    0.449    0.211    3.736
  384.000   85.427    0.456    0.219    4.190
  384.250   85.434    0.473    0.226    4.523
  384.500   89.108    0.494    0.231    4.523
  384.750   98.273    0.484    0.231    4.109
  385.000  103.169    0.475    0.231    3.955
  385.250  103.793    0.481    0.229    3.734
  385.500  103.803    0.491    0.220    3.525
  385.750  103.211    0.496    0.206    3.203
  386.000  102.006    0.486    0.185    3.082
  386.250  103.243    0.482    0.205    2.966
  386.500  104.473    0.490    0.216    3.023
  386.750  105.704    0.496    0.232    3.390
  387.000  106.331    0.500    0.242    3.390
  387.250  100.857    0.485    0.240    3.262
  387.500   93.553    0.475    0.231    3.262
  387.750   89.299    0.464    0.220    3.262
  388.000   83.215    0.430    0.217    3.521
  388.250   77.744    0.420    0.225    4.602
  388.500   74.706    0.409    0.236    5.790
  388.750   74.110    0.396    0.246    7.425
