~VERSION INFORMATION
 VERS.                 2.0:   CWLS LOG ASCII STANDARD -VERSION 2.0
 WRAP.                  NO:   ONE LINE PER DEPTH STEP
~WELL INFORMATION BLOCK
#MNEM.UNIT           DATA                    DESCRIPTION OF MNEMONIC
#---------    -------------------            -------------------------------
# Generated from Intellog Unique Number	CN_91_93/WELL/3007
WELL.         05-25-093-20W4                 : Well_name    - WELL
LOC .         00/05-25-093-20W4/0            : Location     - LOCATION
UWI .         00/05-25-093-20W4/0            : Uwi          - UNIQUE WELL ID
ENTR.         JOETTE                         : Entered      - ENTERED BY
SRVC.         SCHLUMBERGER                   : Scn          - SERVICE COMPANY
DATE.         04/09/92                       : Date         - LOG DATE
STRT.F        350                            : top_depth    - START DEPTH
STOP.F        850.328                        : bot_depth    - STOP DEPTH
STEP.F        0.82                           : increment    - STEP LENGTH
 NULL. -999.2500:NULL Value
~CURVE INFORMATION BLOCK
#MNEM UNIT       ERCB CURVE CODE    CURVE DESCRIPTION
#-----------   ------------------   ----------------------------------
DEPT.F        00 001 00 00         : DEPTH        - DEPTH
CALI.IN       00 280 01 00         : CAL          - CALIPER
GR  .API      00 310 00 00         : GR           - GAMMA RAY
NPHI.V/V      00 330 00 00         : PHIN         - NEUTRON POROSITY (SANDSTONE)
DPHI.V/V      00 890 00 00         : PHID         - DENSITY POROSITY (SANDSTONE)
ILD .OHMM     00 120 00 00         : RESD         - DEEP RESISTIVITY (DIL)
~PARAMETER INFORMATION
#MNEM.UNIT           DATA             DESCRIPTION OF MNEMONIC
#---------         -----------     ------------------------------
GL  .M        534.01               : gl           - GROUND LEVEL ELEVATION
EREF.M        535.534              : kb           - ELEVATION OF DEPTH REFERENCE
DATM.M        535.534              : datum        - DATUM ELEVATION
TDD .M        261.518              : tdd          - TOTAL DEPTH DRILLER
RUN .         ONE                  : Run          - RUN NUMBER
ENG .         BILL                 : Engineer     - RECORDING ENGINEER
WIT .         JIM                  : Witness      - WITNESSED BY
MUD .         GEL                  : Mud_type     - MUD TYPE
MATR.         SANDSTONE            : Logunit      - NEUTRON MATRIX
TMAX.F        84                   : BHT          - MAXIMUM RECORDED TEMPERATURE
BHTD.F        858                  : BHTDEP       - MAXIMUM RECORDED TEMPERATURE
RMT .F        98                   : MDTP         - TEMPERATURE OF MUD
MUDD.LB/G     9.5                  : MWT          - MUD DENSITY
NEUT.         1                    : NEUTRON      - NEUTRON TYPE
RESI.         0                    : RESIST       - RESISTIVITY TYPE
RM  .OHMM     1.4                  : RM           - RESISTIVITY OF MUD
RMC .OHMM     1.4                  : RMC          - RESISTIVITY OF MUD CAKE
RMF .OHMM     1.4                  : RMF          - RESISTIVITY OF MUD FILTRATE
SUFT.F        -4                   : SUFT         - SURFACE TEMPERATURE
~A  DEPTH      CAL       GR     PHIN     PHID     RESD
# ...
  589.501    6.867   79.206    0.598    0.204    2.385
  590.322    7.047   81.899    0.615    0.217    1.950
  591.142    6.641   81.967    0.620    0.219    1.741
  591.962    6.528   83.498    0.627    0.209    1.660
  592.782    6.786   87.353    0.628    0.207    1.655
  593.602    6.888   86.244    0.629    0.202    1.802
  594.423    6.872   84.558    0.635    0.202    2.366
  595.243    7.286   85.212    0.620    0.184    2.940
  596.063    7.310   81.464    0.617    0.186    3.862
  596.883    7.276   75.670    0.633    0.188    4.905
  597.703    7.221   64.612    0.636    0.174    6.655
  598.524    6.893   60.880    0.632    0.234    9.541
  599.344    6.488   62.111    0.616    0.250   11.101
  600.164    6.570   64.219    0.607    0.248    8.973
  600.984    6.555   62.818    0.603    0.237    8.752
  601.804    6.403   63.464    0.607    0.230    8.826
  602.625    6.096   67.918    0.614    0.228    8.145
  603.445    6.236   68.872    0.598    0.233    4.479
  604.265    6.513   72.434    0.588    0.270    3.869
  605.085    6.517   78.935    0.561    0.277    3.608
  605.906    6.424   81.043    0.545    0.261    3.154
  606.726    6.642   74.972    0.526    0.268    3.472
  607.546    6.979   73.871    0.494    0.272    4.221
  608.366    6.865   74.209    0.480    0.257    6.117
  609.186    6.850   72.823    0.483    0.250    8.677
  610.007    7.050   69.068    0.493    0.252   12.303
  610.827    6.839   60.065    0.495    0.265   14.633
  611.647    6.453   52.809    0.479    0.279   15.585
  612.467    6.574   53.455    0.473    0.247   11.928
  613.287    6.695   57.617    0.463    0.210    9.333
  614.108    6.641   66.457    0.456    0.189    5.857
  614.928    6.665   84.954    0.454    0.196    4.533
  615.748    6.591   85.316    0.478    0.220    4.090
  616.568    6.498   86.831    0.489    0.259    4.356
  617.388    6.619   89.539    0.504    0.264    4.640
  618.209    6.409   91.347    0.519    0.266    4.525
  619.029    6.706   89.953    0.529    0.279    4.042
  619.849    6.865   87.091    0.534    0.277    3.530
  620.669    6.792   85.097    0.518    0.271    3.150
  621.490    6.718   84.597    0.486    0.242    3.041
  622.310    6.723   86.112    0.299    0.171    3.131
  623.130    6.746   87.635    0.286    0.097    3.227
  623.950    6.711   87.696    0.334    0.104    3.290
  624.770    6.403   85.718    0.404    0.127    3.315
  625.591    6.349   82.555    0.447    0.196    2.994
  626.411    6.548   83.786    0.480    0.224    2.700
  627.231    6.709   88.233    0.521    0.232    2.693
  628.051    6.752   94.734    0.520    0.234    2.900
  628.871    6.775   98.604    0.496    0.217    3.158
  629.692    6.740   98.380    0.484    0.230    3.554
  630.512    6.374   95.510    0.469    0.245    4.179
  631.332    6.379   89.138    0.455    0.251    4.650
  632.152    6.499   84.513    0.449    0.261    5.008
  632.972    6.640   89.553    0.474    0.236    5.162
  633.793    6.703   96.347    0.489    0.239    4.925
  634.613    6.590   92.907    0.534    0.239    4.696
  635.433    6.652   89.451    0.559    0.228    4.736
  636.253    6.696   86.004    0.572    0.231    4.932
  637.073    6.524   86.365    0.569    0.241    5.370
  637.894    6.431   86.426    0.539    0.248    6.178
  638.714    6.436   84.440    0.510    0.265    7.265
  639.534    6.498   80.408    0.493    0.287    6.926
  640.354    6.522   81.046    0.497    0.292    5.605
  641.175    6.506   79.361    0.493    0.282    4.241
  641.995    6.511   75.320    0.483    0.244    3.830
  642.815    6.574   75.089    0.476    0.217    3.497
  643.635    6.714   83.345    0.495    0.188    3.263
  644.455    6.855   92.778    0.512    0.170    3.146
  645.276    7.035   90.800    0.531    0.187    3.102
  646.096    6.883   91.453    0.525    0.214    3.127
  646.916    6.964   92.392    0.508    0.231    3.117
  647.736    7.086   91.560    0.508    0.275    3.107
  648.556    6.974   90.452    0.502    0.299    3.383
  649.377    6.880   90.528    0.488    0.271    3.808
  650.197    6.748   88.535    0.500    0.249    4.430
  651.017    6.479   85.672    0.546    0.290    4.928
  651.837    6.541   83.686    0.575    0.314    5.135
  652.657    6.741   75.553    0.605    0.297    5.007
  653.478    6.609   75.906    0.625    0.282    4.675
  654.298    6.398   89.140    0.635    0.266    4.361
  655.118    6.343   91.256    0.630    0.257    4.347
  655.938    6.445   90.432    0.618    0.248    4.427
  656.759    6.566   90.216    0.597    0.240    4.465
  657.579    6.629   89.685    0.573    0.233    4.453
  658.399    6.615   88.284    0.549    0.227    4.293
  659.219    6.618   88.060    0.536    0.220    4.051
  660.039    6.603   88.698    0.527    0.214    3.862
  660.860    6.589   90.237    0.525    0.207    3.854
  661.680    6.552   92.045    0.518    0.214    3.926
  662.500    6.440   94.452    0.521    0.219    4.045
  663.320    6.444   94.221    0.532    0.202    4.079
  664.140    6.566   94.290    0.558    0.177    3.975
  664.961    6.687   89.080    0.545    0.167    3.670
  665.781    6.827   90.019    0.506    0.172    3.204
  666.601    6.929   91.842    0.459    0.149    3.025
  667.421    6.953   94.827    0.417    0.155    3.185
  668.241    6.917   97.812    0.444    0.209    3.356
  669.062    6.902   99.350    0.458    0.228    3.575
  669.882    6.946   97.357    0.501    0.224    3.723
  670.702    6.951   92.732    0.522    0.219    3.326
  671.522    6.876   88.122    0.538    0.215    3.350
  672.343    6.783   87.591    0.536    0.213    3.416
  673.163    6.709   90.884    0.524    0.213    3.085
  673.983    6.576   85.089    0.517    0.219    2.413
  674.803    6.425   75.786    0.525    0.217    1.583
  675.623    6.273   71.761    0.522    0.193    1.322
  676.444    6.218   84.980    0.481    0.152    1.221
  677.264    6.339   94.698    0.405    0.092    1.285
  678.084    6.616   96.521    0.375    0.055    1.512
  678.904    6.777   94.535    0.374    0.074    2.053
  679.724    6.782   91.680    0.397    0.097    2.786
  680.545    6.766   87.648    0.499    0.133    3.576
  681.365    6.790   83.015    0.502    0.205    3.769
  682.185    6.833   71.381    0.486    0.264    3.798
  683.005    6.857   64.717    0.489    0.251    3.392
  683.825    6.861   69.456    0.488    0.246    2.996
  684.646    6.864   87.076    0.487    0.240    2.645
  685.466    6.869   91.231    0.488    0.230    2.522
  686.286    6.971   91.592    0.467    0.217    2.537
  687.106    6.994   90.775    0.437    0.210    2.590
  687.927    6.960   90.852    0.413    0.207    2.821
  688.747    6.964   92.067    0.448    0.206    3.282
  689.567    6.968   94.190    0.476    0.212    3.654
  690.387    6.972   95.413    0.502    0.245    4.203
  691.207    6.976   93.435    0.518    0.268    5.573
  692.028    6.981   88.811    0.539    0.262    6.074
  692.848    6.927   86.248    0.557    0.285    7.062
  693.668    6.774   84.847    0.552    0.280    5.774
  694.488    6.448   78.468    0.538    0.284    5.449
  695.308    6.491   65.071    0.525    0.264    5.030
  696.129    6.534   70.695    0.540    0.252    3.979
  696.949    6.362   80.405    0.579    0.265    3.591
  697.769    6.230   89.538    0.597    0.264    3.579
  698.589    6.624   93.416    0.615    0.251    3.571
  699.409    6.785   94.946    0.622    0.257    3.560
  700.230    6.760   91.200    0.391    0.184   10.751
  701.050    6.721   90.328    0.383    0.175   10.749
  701.870    6.760   92.095    0.380    0.186   11.144
  702.690    6.526   92.102    0.383    0.185   11.243
  703.510    6.077   93.870    0.387    0.175   11.240
  704.331    6.234   94.463    0.400    0.183   11.239
  705.151    6.469   92.417    0.396    0.181   11.338
  705.971    6.782   88.612    0.395    0.177   11.971
  706.791    6.881   84.513    0.396    0.160   13.105
  707.612    6.881   80.709    0.374    0.129   14.477
  708.432    6.804   76.318    0.317    0.098   16.141
