~VERSION INFORMATION
 VERS.                 2.0:   CWLS LOG ASCII STANDARD -VERSION 2.0
 WRAP.                  NO:   ONE LINE PER DEPTH STEP
~WELL INFORMATION BLOCK
#MNEM.UNIT           DATA                    DESCRIPTION OF MNEMONIC
#---------    -------------------            -------------------------------
# Generated from Intellog Unique Number	CX_WELLS/WELL/3261
WELL.         PARA ET AL GRAMOR              : Well_name    - WELL
LOC .         00/06-23-083-18W4/0            : Location     - LOCATION
UWI .         00/06-23-083-18W400            : Uwi          - UNIQUE WELL ID
ENTR.         T                              : Entered      - ENTERED BY
SRVC.         SCHLUMBERGER                   : Scn          - SERVICE COMPANY
DATE.         03/04/92                       : Date         - LOG DATE
STRT.M        100                            : top_depth    - START DEPTH
STOP.M        295                            : bot_depth    - STOP DEPTH
STEP.M        0.25                           : increment    - STEP LENGTH
 NULL. -999.2500:NULL Value
~CURVE INFORMATION BLOCK
#MNEM UNIT       ERCB CURVE CODE    CURVE DESCRIPTION
#-----------   ------------------   ----------------------------------
DEPT.M        00 001 00 00         : DEPTH        - DEPTH
GR  .API      00 310 00 00         : GR           - GAMMA RAY
NPHI.V/V      00 330 00 00         : PHIN         - NEUTRON POROSITY (SANDSTONE)
DPHI.V/V      00 890 00 00         : PHID         - DENSITY POROSITY (SANDSTONE)
ILD .OHMM     00 120 00 00         : RESD         - DEEP RESISTIVITY (DIL)
~PARAMETER INFORMATION
#MNEM.UNIT           DATA             DESCRIPTION OF MNEMONIC
#---------         -----------     ------------------------------
GL  .M        551.9                : gl           - GROUND LEVEL ELEVATION
EREF.M        554.9                : kb           - ELEVATION OF DEPTH REFERENCE
DATM.M        554.9                : datum        - DATUM ELEVATION
TDD .M        293                  : tdd          - TOTAL DEPTH DRILLER
RUN .         ONE                  : Run          - RUN NUMBER
ENG .         JO                   : Engineer     - RECORDING ENGINEER
WIT .         TIM                  : Witness      - WITNESSED BY
MUD .         GEL                  : Mud_type     - MUD TYPE
MATR.         SANDSTONE            : Logunit      - NEUTRON MATRIX
TMAX.C        23                   : BHT          - MAXIMUM RECORDED TEMPERATURE
BHTD.M        293                  : BHTDEP       - MAXIMUM RECORDED TEMPERATURE
RMT .C        18                   : MDTP         - TEMPERATURE OF MUD
MUDD.KG/M     1                    : MWT          - MUD DENSITY
NEUT.         1                    : NEUTRON      - NEUTRON TYPE
RESI.         0                    : RESIST       - RESISTIVITY TYPE
RM  .OHMM     2.2                  : RM           - RESISTIVITY OF MUD
RMC .OHMM     1.9                  : RMC          - RESISTIVITY OF MUD CAKE
RMF .OHMM     1.9                  : RMF          - RESISTIVITY OF MUD FILTRATE
SUFT.C        4                    : SUFT         - SURFACE TEMPERATURE
~A  DEPTH       GR     PHIN     PHID     RESD
# ...
  143.500  127.145    0.454    0.215    4.492
  143.750  128.423    0.456    0.210    4.585
  144.000  130.993    0.460    0.219    4.958
  144.250  129.170    0.464    0.231    5.255
  144.500  125.471    0.444    0.263    6.015
  144.750  120.507    0.380    0.274    7.720
  145.000  109.912    0.343    0.266    8.507
  145.250  107.464    0.336    0.262    8.686
  145.500  110.646    0.343    0.260    8.536
  145.750  116.343    0.354    0.262    8.222
  146.000  120.790    0.416    0.258    7.631
  146.250  122.720    0.416    0.252    7.216
  146.500  123.413    0.419    0.238    7.652
  146.750  122.189    0.429    0.235    9.271
  147.000  108.480    0.437    0.241   11.023
  147.250  106.644    0.441    0.272   13.108
  147.500   94.200    0.347    0.307   15.892
  147.750   90.487    0.325    0.332   17.851
  148.000   78.669    0.294    0.360   19.287
  148.250   76.207    0.247    0.388   20.459
  148.500   71.869    0.245    0.414   19.712
  148.750   70.059    0.267    0.409   15.110
  149.000   70.100    0.294    0.391   12.033
  149.250   69.542    0.300    0.373   11.164
  149.500   69.596    0.328    0.364   11.394
  149.750   72.152    0.335    0.344   12.091
  150.000   74.082    0.360    0.338   12.103
  150.250   73.524    0.402    0.336   12.353
  150.500   73.564    0.413    0.337   12.608
  150.750   74.244    0.383    0.340   12.630
  151.000   75.562    0.374    0.342   12.639
  151.250   76.242    0.391    0.341   12.900
  151.500   76.282    0.400    0.339   12.673
  151.750   76.975    0.387    0.341   12.228
  152.000   77.029    0.372    0.342   12.472
  152.250   75.819    0.364    0.345   12.979
  152.500   71.507    0.368    0.347   13.498
  152.750   68.420    0.364    0.348   13.787
  153.000   67.222    0.370    0.348   13.801
  153.250   67.902    0.377    0.348   13.554
  153.500   68.608    0.389    0.346   13.316
  153.750   68.635    0.397    0.345   12.839
  154.000   68.077    0.394    0.341   12.370
  154.250   68.117    0.395    0.340   12.153
  154.500   69.449    0.399    0.336   11.940
  154.750   70.102    0.395    0.332   11.734
  155.000   72.671    0.394    0.330   11.524
  155.250   73.351    0.391    0.339   11.543
  155.500   72.779    0.386    0.349   11.559
  155.750   71.582    0.388    0.358   11.798
  156.000   71.623    0.398    0.360   12.042
  156.250   71.690    0.408    0.359   12.058
  156.500   72.356    0.383    0.350   12.083
  156.750   71.784    0.388    0.345   12.100
  157.000   70.600    0.386    0.351   12.112
  157.250   70.015    0.386    0.352   12.129
  157.500   69.444    0.386    0.347   12.145
  157.750   68.246    0.384    0.341   11.932
  158.000   68.314    0.375    0.348   11.722
  158.250   69.619    0.369    0.358   11.299
  158.500   72.175    0.377    0.355   10.894
  158.750   74.731    0.376    0.344   10.699
  159.000   77.301    0.373    0.334   10.117
  159.250   75.478    0.368    0.330    9.939
  159.500   73.655    0.378    0.327   10.344
  159.750   73.070    0.388    0.331   10.550
  160.000   73.124    0.385    0.340   10.776
  160.250   73.178    0.377    0.348   10.791
  160.500   73.232    0.365    0.347   10.805
  160.750   74.537    0.380    0.339   10.816
  161.000   73.965    0.400    0.335   11.040
  161.250   68.389    0.405    0.328   11.268
  161.500   66.566    0.397    0.325   11.723
  161.750   66.008    0.386    0.325   12.200
  162.000   66.062    0.382    0.325   12.447
  162.250   65.490    0.373    0.325   12.713
  162.500   64.905    0.359    0.327   12.972
  162.750   63.708    0.361    0.332   12.994
  163.000   63.136    0.366    0.340   13.012
  163.250   62.564    0.366    0.338   13.025
  163.500   62.632    0.362    0.334   12.801
  163.750   62.672    0.366    0.342   12.818
  164.000   63.352    0.361    0.348   12.355
  164.250   65.296    0.363    0.353   12.372
  164.500   67.240    0.369    0.357   12.154
  164.750   67.892    0.365    0.359   11.945
  165.000   69.197    0.362    0.357   11.953
  165.250   69.251    0.355    0.353   11.747
  165.500   69.958    0.350    0.351   11.545
  165.750   70.624    0.361    0.350   11.553
  166.000   70.677    0.370    0.347   11.357
  166.250   70.718    0.372    0.345   11.154
  166.500   70.772    0.372    0.343   11.165
  166.750   70.214    0.374    0.342   10.977
  167.000   70.254    0.373    0.341   10.988
  167.250   69.723    0.371    0.340   11.003
  167.500   69.763    0.366    0.344   10.810
  167.750   69.804    0.349    0.349   10.828
  168.000   71.761    0.346    0.357   10.839
  168.250   72.414    0.350    0.355   10.660
  168.500   73.746    0.356    0.353   10.671
  168.750   73.773    0.373    0.350   10.682
  169.000   73.826    0.387    0.351   10.899
  169.250   73.894    0.399    0.347   11.132
  169.500   74.560    0.399    0.350   11.354
  169.750   74.627    0.382    0.346   12.271
  170.000   75.293    0.376    0.334   14.050
  170.250   75.347    0.377    0.323   18.734
  170.500   74.775    0.381    0.299   23.159
  170.750   70.450    0.378    0.158   21.885
  171.000   61.121    0.283    0.086   20.311
  171.250   56.157    0.117    0.034   18.131
  171.500   57.462    0.119    0.029   16.191
  171.750   64.410    0.154    0.108   14.468
  172.000   70.720    0.239    0.214   13.936
  172.250   74.527    0.324    0.292   12.938
  172.500   73.330    0.388    0.338   12.706
  172.750   72.758    0.412    0.343   12.247
  173.000   72.187    0.413    0.336   12.259
  173.250   71.003    0.414    0.345   12.044
  173.500   70.431    0.414    0.353   11.836
  173.750   71.111    0.412    0.358   11.633
  174.000   71.165    0.407    0.357   11.644
  174.250   71.232    0.402    0.355   11.444
  174.500   70.633    0.384    0.351   11.235
  174.750   70.062    0.374    0.350   11.258
  175.000   69.490    0.371    0.350   11.060
  175.250   70.196    0.379    0.350   11.075
  175.500   70.849    0.398    0.350   10.877
  175.750   71.542    0.398    0.350   10.892
  176.000   72.235    0.391    0.351   10.907
  176.250   72.275    0.389    0.351   10.719
  176.500   71.717    0.392    0.348   10.734
  176.750   70.520    0.388    0.347   10.545
  177.000   71.213    0.401    0.345   10.556
  177.250   71.240    0.413    0.344   10.581
  177.500   70.668    0.407    0.344   10.585
  177.750   69.471    0.398    0.342   10.599
  178.000   68.274    0.389    0.342   10.617
  178.250   68.354    0.380    0.342   10.632
  178.500   69.034    0.385    0.342   10.646
  178.750   69.700    0.405    0.342   10.661
  179.000   71.005    0.410    0.342   10.675
  179.250   71.684    0.414    0.340   10.903
  179.500   72.364    0.415    0.339   11.125
  179.750   72.418    0.409    0.339   11.797
  180.000   73.097    0.405    0.336   12.269
  180.250   73.151    0.393    0.334   14.047
  180.500   73.817    0.393    0.329   16.077
  180.750   74.537    0.402    0.326   19.116
  181.000   75.189    0.373    0.318   20.278
  181.250   74.604    0.327    0.297   18.813
  181.500   56.517    0.237    0.240   17.790
  181.750   51.553    0.155    0.027   16.823
  182.000   42.849    0.236    0.048   16.521
  182.250   42.291    0.327    0.098   15.924
  182.500   42.957    0.363    0.133   15.645
  182.750   44.262    0.390    0.331   15.968
  183.000   45.580    0.395    0.338   15.990
  183.250   46.273    0.384    0.338   16.326
  183.500   46.939    0.380    0.339   16.348
  183.750   47.632    0.383    0.339   16.365
  184.000   47.672    0.398    0.340   16.088
  184.250   46.489    0.399    0.338   16.099
  184.500   45.278    0.389    0.337   15.816
  184.750   44.706    0.369    0.334   15.844
  185.000   44.760    0.366    0.332   15.565
  185.250   45.440    0.368    0.332   15.597
  185.500   46.758    0.373    0.337   15.613
  185.750   47.424    0.376    0.340   15.629
  186.000   46.227    0.378    0.345   15.656
  186.250   45.655    0.379    0.346   15.672
  186.500   45.084    0.380    0.343   15.699
  186.750   44.512    0.382    0.342   15.715
