~VERSION INFORMATION
 VERS.                 2.0:   CWLS LOG ASCII STANDARD -VERSION 2.0
 WRAP.                  NO:   ONE LINE PER DEPTH STEP
~WELL INFORMATION BLOCK
#MNEM.UNIT           DATA                    DESCRIPTION OF MNEMONIC
#---------    -------------------            -------------------------------
# Generated from Intellog Unique Number	CS_77_79/WELL/840
WELL.         DOME COWPAR                    : Well_name    - WELL
LOC .         00/02-17-079-03W4/0            : Location     - LOCATION
UWI .         00/02-17-079-03W4/0            : Uwi          - UNIQUE WELL ID
ENTR.         JHS                            : Entered      - ENTERED BY
SRVC.         SCHLUMBERGER                   : Scn          - SERVICE COMPANY
STRT.M        140                            : top_depth    - START DEPTH
STOP.M        400                            : bot_depth    - STOP DEPTH
STEP.M        0.25                           : increment    - STEP LENGTH
 NULL. -999.2500:NULL Value
~CURVE INFORMATION BLOCK
#MNEM UNIT       ERCB CURVE CODE    CURVE DESCRIPTION
#-----------   ------------------   ----------------------------------
DEPT.M        00 001 00 00         : DEPTH        - DEPTH
DPHI.V/V      00 890 00 00         : PHID         - DENSITY POROSITY (LIMESTONE)
NPHI.V/V      00 330 00 00         : PHIN         - NEUTRON POROSITY (LIMESTONE)
GR  .API      00 310 00 00         : GR           - GAMMA RAY
ILD .OHMM     00 120 00 00         : RESD         - DEEP RESISTIVITY (DIL)
RHOB.KG/M3    00 350 00 00         : DENS         - BULK DENSITY
~PARAMETER INFORMATION
#MNEM.UNIT           DATA             DESCRIPTION OF MNEMONIC
#---------         -----------     ------------------------------
GL  .M        549.2                : gl           - GROUND LEVEL ELEVATION
EREF.M        553.1                : kb           - ELEVATION OF DEPTH REFERENCE
DATM.M        553.1                : datum        - DATUM ELEVATION
TDD .M        402                  : tdd          - TOTAL DEPTH DRILLER
RUN .         ONE                  : Run          - RUN NUMBER
ENG .         BILL                 : Engineer     - RECORDING ENGINEER
WIT .         JIM                  : Witness      - WITNESSED BY
MUD .         GEL                  : Mud_type     - MUD TYPE
MATR.         LIMESTONE            : Logunit      - NEUTRON MATRIX
TMAX.C        24.4                 : BHT          - MAXIMUM RECORDED TEMPERATURE
BHTD.M        402                  : BHTDEP       - MAXIMUM RECORDED TEMPERATURE
MATR.         1                    : LOGUNIT      - NEUTRON MATRIX
RMT .C        25                   : MDTP         - TEMPERATURE OF MUD
NEUT.         1                    : NEUTRON      - NEUTRON TYPE
RESI.         0                    : RESIST       - RESISTIVITY TYPE
RMC .OHMM     0.25                 : RMC          - RESISTIVITY OF MUD CAKE
RMF .OHMM     0.25                 : RMF          - RESISTIVITY OF MUD FILTRATE
SUFT.C        15                   : SUFT         - SURFACE TEMPERATURE
~A  DEPTH     PHID     PHIN       GR     RESD     DENS
# ...
  322.500    0.278    0.374   58.734    2.098 2233.820
  322.750    0.295    0.387   56.342    2.138 2204.820
  323.000    0.289    0.396   58.191    2.179 2215.310
  323.250    0.267    0.392   61.866    2.140 2252.810
  323.500    0.275    0.381   62.504    2.024 2240.470
  323.750    0.271    0.377   64.970    1.915 2246.800
  324.000    0.277    0.384   67.427    1.880 2236.520
  324.250    0.272    0.395   66.851    1.916 2244.950
  324.500    0.276    0.390   63.243    1.917 2238.840
  324.750    0.269    0.391   63.276    2.028 2249.310
  325.000    0.264    0.392   66.950    2.146 2257.720
  325.250    0.264    0.385   66.980    2.186 2257.860
  325.500    0.275    0.377   69.446    2.147 2239.250
  325.750    0.259    0.369   68.867    2.070 2266.360
  326.000    0.252    0.382   64.650    1.995 2278.950
  326.250    0.285    0.399   59.211    1.922 2222.960
  326.500    0.299    0.395   51.348    1.818 2198.150
  326.750    0.307    0.396   44.702    1.689 2185.810
  327.000    0.319    0.409   40.489    1.597 2165.150
  327.250    0.312    0.401   42.942    1.568 2175.640
  327.500    0.305    0.387   43.586    1.599 2188.200
  327.750    0.301    0.379   44.224    1.629 2194.550
  328.000    0.292    0.375   50.327    1.692 2211.280
  328.250    0.281    0.383   50.965    1.692 2230.060
  328.500    0.276    0.396   46.746    1.662 2238.470
  328.750    0.310    0.389   41.313    1.632 2180.440
  329.000    0.299    0.393   46.203    1.573 2199.240
  329.250    0.299    0.395   42.593    1.544 2199.350
  329.500    0.305    0.388   37.154    1.574 2189.070
  329.750    0.309    0.387   34.757    1.574 2180.880
  330.000    0.313    0.387   36.006    1.605 2174.770
  330.250    0.304    0.382   34.218    1.605 2189.390
  330.500    0.295    0.378   31.821    1.606 2206.120
  330.750    0.313    0.377   28.812    1.577 2175.070
  331.000    0.316    0.371   28.237    1.548 2168.960
  331.250    0.302    0.369   29.484    1.549 2193.980
  331.500    0.291    0.366   33.160    1.521 2212.800
  331.750    0.305    0.377   38.047    1.521 2187.970
  332.000    0.304    0.395   44.153    1.551 2190.150
  332.250    0.288    0.395   44.791    1.551 2217.260
  332.500    0.305    0.385   43.611    1.581 2188.300
  332.750    0.326    0.388   44.255    1.581 2153.110
  333.000    0.310    0.402   46.109    1.612 2180.210
  333.250    0.296    0.412   47.347    1.674 2203.170
  333.500    0.293    0.406   50.419    1.738 2209.500
  333.750    0.311    0.407   52.272    1.738 2178.460
  334.000    0.301    0.420   50.489    1.675 2195.190
  334.250    0.302    0.433   43.833    1.645 2193.210
  334.500    0.302    0.407   35.363    1.585 2193.320
  334.750    0.309    0.405   31.152    1.528 2180.970
  335.000    0.312    0.409   34.214    1.500 2176.950
  335.250    0.308    0.403   39.707    1.501 2183.260
  335.500    0.296    0.391   43.998    1.559 2204.140
  335.750    0.297    0.392   46.453    1.559 2202.180
  336.000    0.311    0.389   50.734    1.649 2177.360
  336.250    0.326    0.404   58.053    1.811 2152.550
  336.500    0.323    0.419   61.129    1.952 2156.830
  336.750    0.291    0.395   66.623    2.183 2212.990
  337.000    0.236    0.385   67.263    2.582 2306.560
  337.250    0.229    0.390   64.256    2.889 2319.130
  337.500    0.205    0.399   67.932    3.113 2358.710
  337.750    0.225    0.406   67.354    3.173 2325.580
  338.000    0.210    0.412   70.423    3.175 2350.640
  338.250    0.197    0.414   77.743    3.296 2373.580
  338.500    0.180    0.403   82.636    3.552 2402.750
  338.750    0.158    0.392   83.887    3.900 2440.240
  339.000    0.150    0.382   83.306    4.363 2452.820
  339.250    0.160    0.381   86.380    4.529 2436.310
  339.500    0.185    0.397   87.010    4.531 2392.810
  339.750    0.170    0.409   85.827    4.287 2419.920
  340.000    0.155    0.420   84.039    4.132 2444.950
  340.250    0.160    0.410   81.035    3.909 2436.760
  340.500    0.176    0.400   76.817    3.767 2409.850
  340.750    0.194    0.397   78.063    3.839 2378.830
  341.000    0.188    0.412   81.130    3.987 2389.310
  341.250    0.173    0.405   82.383    4.217 2414.340
  341.500    0.168    0.421   80.587    4.461 2422.750
  341.750    0.184    0.405   77.591    4.632 2395.890
  342.000    0.184    0.399   77.612    4.721 2395.980
  342.250    0.179    0.399   83.109    4.812 2404.390
  342.500    0.175    0.403   89.214    4.903 2410.730
  342.750    0.177    0.402   92.285    4.997 2406.680
  343.000    0.160    0.401   86.245    4.999 2435.870
  343.250    0.161    0.401   85.070    4.909 2433.890
  343.500    0.171    0.395   85.099    4.820 2417.390
  343.750    0.166    0.408   82.704    4.733 2425.800
  344.000    0.187    0.449   79.695    4.314 2390.610
  344.250    0.218    0.454   76.076    3.516 2336.720
  344.500    0.227    0.432   69.426    2.761 2322.290
  344.750    0.240    0.410   63.386    2.380 2299.560
  345.000    0.259    0.404   58.563    2.169 2266.440
  345.250    0.258    0.432   60.418    1.977 2268.630
  345.500    0.268    0.438   59.231    1.704 2252.110
  345.750    0.279    0.423   57.447    1.705 2233.540
  346.000    0.265    0.407   60.508    1.643 2256.500
  346.250    0.251    0.407   62.971    1.613 2281.520
  346.500    0.271    0.404   61.186    1.739 2246.320
  346.750    0.261    0.399   60.604    1.981 2263.070
  347.000    0.235    0.401   65.499    2.344 2308.830
  347.250    0.199    0.430   77.672    2.773 2369.180
  347.500    0.190    0.435   88.031    2.933 2385.920
  347.750    0.209    0.418   81.386    2.989 2352.780
  348.000    0.205    0.403   78.388    2.828 2359.130
  348.250    0.199    0.409   79.626    2.675 2369.610
  348.500    0.192    0.426   84.516    2.676 2382.180
  348.750    0.206    0.420   85.153    2.884 2357.370
  349.000    0.204    0.409   87.007    3.051 2361.640
  349.250    0.195    0.399   90.076    3.228 2376.300
  349.500    0.187    0.411   89.505    3.229 2390.950
  349.750    0.176    0.449   93.173    3.170 2409.750
  350.000    0.169    0.469   96.856    3.113 2420.250
  350.250    0.178    0.469   95.062    3.057 2405.800
  350.500    0.196    0.458   91.454    3.116 2374.760
  350.750    0.203    0.443   90.873    3.296 2362.390
  351.000    0.174    0.436   92.730    3.359 2412.350
  351.250    0.180    0.452   90.941    3.487 2402.100
  351.500    0.198    0.444   88.546    3.424 2371.020
  351.750    0.187    0.426   87.966    3.121 2389.850
  352.000    0.186    0.439   86.178    2.845 2392.030
  352.250    0.214    0.432   83.780    2.793 2344.350
  352.500    0.236    0.414   79.559    2.794 2307.070
  352.750    0.253    0.403   73.516    2.796 2278.100
  353.000    0.225    0.404   69.296    2.644 2325.990
  353.250    0.216    0.426   74.799    2.456 2340.650
  353.500    0.227    0.458   73.617    2.280 2322.070
  353.750    0.283    0.444   65.142    2.078 2226.620
  354.000    0.274    0.365   48.166    1.825 2241.270
  354.250    0.270    0.353   43.953    1.695 2247.620
  354.500    0.259    0.370   57.946    1.760 2266.410
  354.750    0.270    0.411   70.731    1.896 2247.860
  355.000    0.280    0.433   77.444    2.044 2231.340
  355.250    0.292    0.439   78.089    2.244 2210.670
  355.500    0.283    0.433   76.293    2.374 2225.330
  355.750    0.282    0.442   78.149    2.465 2227.520
  356.000    0.281    0.442   81.218    2.559 2229.670
  356.250    0.255    0.428   82.469    2.608 2273.400
  356.500    0.258    0.425   81.278    2.658 2269.360
  356.750    0.258    0.423   83.131    2.760 2269.510
  357.000    0.259    0.424   88.632    2.710 2267.500
  357.250    0.239    0.428   92.313    2.661 2300.830
  357.500    0.248    0.421   94.161    2.712 2286.430
  357.750    0.257    0.412   94.798    2.978 2269.920
  358.000    0.268    0.409   93.615    3.394 2251.310
  358.250    0.232    0.410   94.256    3.868 2313.730
  358.500    0.213    0.431   93.679    4.408 2344.990
  358.750    0.211    0.450   89.459    4.930 2349.280
