~VERSION INFORMATION
 VERS.                 2.0:   CWLS LOG ASCII STANDARD -VERSION 2.0
 WRAP.                  NO:   ONE LINE PER DEPTH STEP
~WELL INFORMATION BLOCK
#MNEM.UNIT           DATA                    DESCRIPTION OF MNEMONIC
#---------    -------------------            -------------------------------
# Generated from Intellog Unique Number	CS_73_76/WELL/1064
WELL.         BRALORNE RES                   : Well_name    - WELL
LOC .         00/02-27-076-14W4/0            : Location     - LOCATION
UWI .         00/02-27-076-14W4/0            : Uwi          - UNIQUE WELL ID
ENTR.         T                              : Entered      - ENTERED BY
SRVC.         SCHLUMBERGER                   : Scn          - SERVICE COMPANY
STRT.M        290                            : top_depth    - START DEPTH
STOP.M        520                            : bot_depth    - STOP DEPTH
STEP.M        0.25                           : increment    - STEP LENGTH
 NULL. -999.2500:NULL Value
~CURVE INFORMATION BLOCK
#MNEM UNIT       ERCB CURVE CODE    CURVE DESCRIPTION
#-----------   ------------------   ----------------------------------
DEPT.M        00 001 00 00         : DEPTH        - DEPTH
GR  .API      00 310 00 00         : GR           - GAMMA RAY
NPHI.V/V      00 330 00 00         : PHIN         - NEUTRON POROSITY (SANDSTONE)
DPHI.V/V      00 890 00 00         : PHID         - DENSITY POROSITY (SANDSTONE)
ILD .OHMM     00 120 00 00         : RESD         - DEEP RESISTIVITY (DIL)
~PARAMETER INFORMATION
#MNEM.UNIT           DATA             DESCRIPTION OF MNEMONIC
#---------         -----------     ------------------------------
GL  .M        676.6                : gl           - GROUND LEVEL ELEVATION
EREF.M        679.9                : kb           - ELEVATION OF DEPTH REFERENCE
DATM.M        679.9                : datum        - DATUM ELEVATION
TDD .M        525                  : tdd          - TOTAL DEPTH DRILLER
RUN .         ONE                  : Run          - RUN NUMBER
ENG .         BILL                 : Engineer     - RECORDING ENGINEER
WIT .         JIM                  : Witness      - WITNESSED BY
MUD .         GEL                  : Mud_type     - MUD TYPE
MATR.         SANDSTONE            : Logunit      - NEUTRON MATRIX
TMAX.C        21                   : BHT          - MAXIMUM RECORDED TEMPERATURE
BHTD.M        525                  : BHTDEP       - MAXIMUM RECORDED TEMPERATURE
MATR.         1                    : LOGUNIT      - NEUTRON MATRIX
RMT .C        10                   : MDTP         - TEMPERATURE OF MUD
NEUT.         1                    : NEUTRON      - NEUTRON TYPE
RESI.         3.1                  : RESIST       - RESISTIVITY TYPE
RMC .OHMM     3                    : RMC          - RESISTIVITY OF MUD CAKE
RMF .OHMM     3.3                  : RMF          - RESISTIVITY OF MUD FILTRATE
SUFT.C        15                   : SUFT         - SURFACE TEMPERATURE
~A  DEPTH       GR     PHIN     PHID     RESD
# ...
  464.000  105.452    0.407    0.208    3.818
  464.250  102.924    0.381    0.200    4.195
  464.500   99.138    0.363    0.196    5.067
  464.750   94.096    0.374    0.194    6.004
  465.000   92.189    0.371    0.190    6.850
  465.250   94.619    0.348    0.185    7.524
  465.500   93.941    0.329    0.182    7.807
  465.750   87.641    0.330    0.188    7.365
  466.000   86.977    0.341    0.194    7.221
  466.250   96.852    0.370    0.194    6.815
  466.500   99.931    0.387    0.189    6.554
  466.750  100.482    0.376    0.185    6.425
  467.000   99.819    0.364    0.180    6.665
  467.250   98.519    0.354    0.176    7.048
  467.500   97.813    0.341    0.169    7.455
  467.750   94.663    0.313    0.155    8.341
  468.000   86.527    0.296    0.142    8.825
  468.250   75.282    0.309    0.129    9.511
  468.500   92.008    0.326    0.158    9.869
  468.750  101.911    0.337    0.166    9.674
  469.000  105.584    0.344    0.173    9.482
  469.250  103.663    0.340    0.178    9.473
  469.500  101.714    0.335    0.171    9.463
  469.750   99.779    0.334    0.163    9.634
  470.000   99.129    0.333    0.155    9.625
  470.250   97.816    0.331    0.148    9.984
  470.500   96.516    0.328    0.148   10.357
  470.750   93.352    0.326    0.163   10.352
  471.000   91.431    0.325    0.174   10.539
  471.250   92.618    0.325    0.184   10.528
  471.500   96.305    0.328    0.192    9.936
  471.750  101.843    0.334    0.191    9.198
  472.000  106.124    0.368    0.190    8.846
  472.250  107.310    0.378    0.188    8.508
  472.500  105.389    0.367    0.181    8.340
  472.750  104.104    0.356    0.174    8.175
  473.000  100.912    0.363    0.176    8.015
  473.250  100.262    0.376    0.185    8.005
  473.500  100.206    0.385    0.191    8.150
  473.750  100.150    0.387    0.196    8.300
  474.000  100.079    0.390    0.200    8.612
  474.250   97.537    0.392    0.203    9.107
  474.500   94.994    0.347    0.202    9.630
  474.750   91.223    0.340    0.201   10.377
  475.000   85.558    0.345    0.212   11.186
  475.250   84.880    0.345    0.234   12.287
  475.500   87.918    0.345    0.249   13.754
  475.750   87.862    0.346    0.252   16.299
  476.000   87.819    0.346    0.259   16.912
  476.250   90.221    0.346    0.267   16.886
  476.500   93.922    0.346    0.257   16.873
  476.750  101.960    0.346    0.250   16.856
  477.000  110.606    0.349    0.255   17.490
  477.250  118.630    0.351    0.262   18.143
  477.500  117.330    0.357    0.261   18.477
  477.750  115.381    0.360    0.251   19.172
  478.000  115.353    0.365    0.229   18.093
  478.250  112.783    0.368    0.219   17.078
  478.500  112.119    0.369    0.205   15.221
  478.750  109.590    0.372    0.200   14.368
  479.000  106.412    0.365    0.206   12.332
  479.250  110.707    0.352    0.211   10.383
  479.500  112.515    0.353    0.211    9.431
  479.750  120.553    0.360    0.212    9.976
  480.000  132.928    0.370    0.212   11.381
  480.250  119.198    0.373    0.222   12.985
  480.500  113.547    0.360    0.250   14.814
  480.750  102.289    0.354    0.265   16.901
  481.000   93.531    0.347    0.277   20.032
  481.250   87.881    0.345    0.290   24.193
  481.500   81.609    0.353    0.295   27.083
  481.750   79.660    0.354    0.284   25.065
  482.000   81.496    0.352    0.269   23.660
  482.250   85.777    0.343    0.248   22.762
  482.500   86.356    0.331    0.237   21.469
  482.750   83.799    0.318    0.230   21.458
  483.000   81.879    0.306    0.230   21.431
  483.250   79.336    0.309    0.232   22.663
  483.500   74.929    0.313    0.235   23.079
  483.750   69.900    0.316    0.238   23.942
  484.000   64.871    0.316    0.236   25.312
  484.250   56.099    0.314    0.233   25.777
  484.500   54.800    0.311    0.230   26.250
  484.750   65.324    0.316    0.235   27.238
  485.000   70.862    0.326    0.245   26.190
  485.250   68.319    0.342    0.255   24.722
  485.500   60.790    0.354    0.255   22.892
  485.750   68.828    0.349    0.225   21.192
  486.000   83.068    0.330    0.220   21.978
  486.250   91.078    0.312    0.247   22.816
  486.500   87.928    0.294    0.252   24.590
  486.750   86.628    0.276    0.259   26.509
  487.000   84.072    0.263    0.299   31.413
  487.250   68.490    0.248    0.310   37.224
  487.500   50.395    0.269    0.306   45.817
  487.750   44.109    0.295    0.295   44.899
  488.000   58.363    0.314    0.277   40.037
  488.250   66.387    0.336    0.265   37.063
  488.500   70.695    0.344    0.251   37.725
  488.750   70.003    0.337    0.259   41.448
  489.000   66.839    0.328    0.292   46.410
  489.250   61.175    0.318    0.313   67.760
  489.500   55.539    0.317    0.315   77.305
  489.750   49.889    0.322    0.312   70.237
  490.000   41.724    0.327    0.309   60.268
  490.250   44.154    0.335    0.301   55.821
  490.500   48.448    0.341    0.298   49.751
  490.750   50.907    0.349    0.297   46.962
  491.000   57.066    0.356    0.294   42.657
  491.250   59.482    0.349    0.292   40.256
  491.500   61.290    0.340    0.291   37.266
  491.750   64.356    0.344    0.289   33.867
  492.000   71.136    0.358    0.287   30.192
  492.250   75.417    0.373    0.281   29.579
  492.500   75.375    0.379    0.276   30.123
  492.750   76.562    0.361    0.273   31.847
  493.000   73.383    0.348    0.299   32.440
  493.250   68.990    0.343    0.295   36.315
  493.500   67.691    0.354    0.292   39.878
  493.750   73.229    0.359    0.286   36.935
  494.000   76.888    0.369    0.273   32.927
  494.250   73.738    0.360    0.243   28.795
  494.500   69.938    0.348    0.234   26.169
  494.750   67.409    0.338    0.210   21.624
  495.000   84.757    0.329    0.201   18.211
  495.250   92.795    0.328    0.206   14.488
  495.500  102.683    0.332    0.221   12.428
  495.750  100.763    0.342    0.217   11.729
  496.000   98.842    0.346    0.211   11.069
  496.250   99.407    0.350    0.203   10.646
  496.500  102.458    0.356    0.193   10.236
  496.750  105.510    0.357    0.188   10.231
  497.000  112.912    0.354    0.190   10.411
  497.250  115.328    0.345    0.193   10.405
  497.500  115.272    0.339    0.202   10.589
  497.750  113.972    0.332    0.207   10.783
  498.000  113.309    0.336    0.212   11.189
  498.250  109.523    0.341    0.214   11.394
  498.500  104.494    0.346    0.211   11.823
  498.750  101.952    0.351    0.208   12.034
  499.000  104.382    0.351    0.204   12.252
  499.250  108.055    0.351    0.205   12.243
  499.500  111.728    0.348    0.207   12.227
  499.750  109.185    0.341    0.202   12.218
  500.000  104.778    0.321    0.193   12.202
  500.250   97.857    0.307    0.180   12.423
  500.500   94.085    0.307    0.176   12.648
  500.750   90.299    0.311    0.215   13.128
  501.000   84.649    0.317    0.237   13.621
  501.250   79.620    0.325    0.255   14.401
  501.500   73.335    0.327    0.253   14.665
  501.750   65.820    0.329    0.240   15.505
  502.000   58.926    0.325    0.222   16.088
  502.250   55.141    0.324    0.199   16.697
  502.500   55.084    0.325    0.202   17.321
  502.750   56.879    0.327    0.221   17.299
  503.000   57.444    0.328    0.236   16.961
  503.250   58.023    0.331    0.254   16.317
  503.500   60.453    0.331    0.259   15.693
  503.750   64.748    0.331    0.249   14.810
  504.000   70.907    0.331    0.241   13.710
  504.250   78.931    0.326    0.230   13.186
  504.500   82.590    0.324    0.235   13.169
  504.750   81.290    0.314    0.243   13.162
  505.000   78.141    0.318    0.249   13.146
  505.250   75.598    0.329    0.254   13.132
  505.500   79.257    0.342    0.255   12.876
  505.750   80.458    0.357    0.253   12.380
  506.000   77.294    0.355    0.254   11.910
  506.250   72.265    0.354    0.269   11.026
  506.500   66.615    0.346    0.273   10.607
  506.750   59.086    0.340    0.271    9.822
  507.000   54.057    0.339    0.262    9.090
  507.250   55.865    0.333    0.256    8.743
