~VERSION INFORMATION
 VERS.                 2.0:   CWLS LOG ASCII STANDARD -VERSION 2.0
 WRAP.                  NO:   ONE LINE PER DEPTH STEP
~WELL INFORMATION BLOCK
#MNEM.UNIT           DATA                    DESCRIPTION OF MNEMONIC
#---------    -------------------            -------------------------------
# Generated from Intellog Unique Number	CW_73_75/WELL/877
WELL.         CDN SUP ER AL FRANCIS 07-35    : Well_name    - WELL
LOC .         00/07-35-074-21W4/0            : Location     - LOCATION
UWI .         00/07-35-074-21W4/0            : Uwi          - UNIQUE WELL ID
ENTR.         JAYE                           : Entered      - ENTERED BY
SRVC.         SCHLUMBERGER                   : Scn          - SERVICE COMPANY
DATE.         11 MAR 75                      : Date         - LOG DATE
STRT.M        387.096                        : top_depth    - START DEPTH
STOP.M        606.596                        : bot_depth    - STOP DEPTH
STEP.M        0.25                           : increment    - STEP LENGTH
 NULL. -999.2500:NULL Value
~CURVE INFORMATION BLOCK
#MNEM UNIT       ERCB CURVE CODE    CURVE DESCRIPTION
#-----------   ------------------   ----------------------------------
DEPT.M        00 001 00 00         : DEPTH        - DEPTH
ILD .OHMM     00 120 00 00         : RESD         - DEEP RESISTIVITY (DIL)
DPHI.V/V      00 890 00 00         : PHID         - DENSITY POROSITY (SANDSTONE)
NPHI.V/V      00 330 00 00         : PHIN         - NEUTRON POROSITY (SANDSTONE)
GR  .API      00 310 00 00         : GR           - GAMMA RAY
CALI.IN       00 280 01 00         : CAL          - CALIPER
~PARAMETER INFORMATION
#MNEM.UNIT           DATA             DESCRIPTION OF MNEMONIC
#---------         -----------     ------------------------------
GL  .M        691.896              : gl           - GROUND LEVEL ELEVATION
EREF.M        695.615              : kb           - ELEVATION OF DEPTH REFERENCE
DATM.M        691.896              : datum        - DATUM ELEVATION
TDD .M        669.036              : tdd          - TOTAL DEPTH DRILLER
RUN .         ONE                  : Run          - RUN NUMBER
BASE.         EDM                  : Branch       - HOME BASE OF LOGGING UNIT
MATR.         SANDSTONE            : Logunit      - NEUTRON MATRIX
TMAX.C        28.8889              : BHT          - MAXIMUM RECORDED TEMPERATURE
BHTD.M        669.036              : BHTDEP       - MAXIMUM RECORDED TEMPERATURE
RMT .C        15.5556              : MDTP         - TEMPERATURE OF MUD
MUDD.KG/M     0                    : MWT          - MUD DENSITY
NEUT.         1                    : NEUTRON      - NEUTRON TYPE
RESI.         0                    : RESIST       - RESISTIVITY TYPE
RM  .OHMM     2.8                  : RM           - RESISTIVITY OF MUD
RMC .OHMM     0                    : RMC          - RESISTIVITY OF MUD CAKE
RMF .OHMM     3.83                 : RMF          - RESISTIVITY OF MUD FILTRATE
SUFT.C        -17.7778             : SUFT         - SURFACE TEMPERATURE
~A  DEPTH     RESD     PHID     PHIN       GR      CAL
  387.096    3.367    0.218    0.528   93.021    9.070
  387.346    3.274    0.209    0.534   92.118    9.085
  387.596    3.196    0.208    0.531   91.509    9.159
  387.846    3.085    0.263    0.516   90.605    9.350
  388.096    2.967    0.269    0.526   89.708    9.444
  388.346    2.890    0.285    0.527   88.516    9.537
  388.596    2.857    0.274    0.521   87.325    9.612
  388.846    2.845    0.261    0.536   86.421    9.037
  389.096    2.843    0.272    0.532   85.518    8.814
  389.346    2.861    0.255    0.504   85.204    8.769
  389.596    2.917    0.238    0.490   85.470    8.742
  389.846    3.068    0.229    0.495   85.736    8.740
  390.096    3.357    0.228    0.501   80.167    8.737
  390.346    3.715    0.215    0.508   70.808    8.653
  390.596    4.209    0.197    0.503   65.534    8.471
  390.846    4.735    0.145    0.456   62.592    8.471
  391.096    5.239    0.117    0.443   59.645    8.359
  391.346    5.400    0.294    0.434   58.450    8.318
  391.596    5.309    0.319    0.428   58.722    8.313
  391.846    5.153    0.316    0.441   60.151    8.308
  392.096    5.038    0.304    0.443   63.625    8.323
  392.346    5.007    0.273    0.430   68.847    8.358
  392.596    5.031    0.262    0.429   74.654    8.413
  392.846    5.082    0.250    0.432   79.876    8.467
  393.096    5.042    0.240    0.427   81.017    8.560
  393.346    5.002    0.252    0.442   79.524    8.653
  393.596    4.953    0.282    0.477   77.756    8.668
  393.846    4.887    0.368    0.481   73.356    8.703
  394.096    4.761    0.317    0.443   70.700    8.717
  394.346    4.655    0.262    0.450   71.261    8.673
  394.596    4.477    0.324    0.471   75.609    8.673
  394.846    4.322    0.258    0.478   81.999    8.623
  395.096    4.611    0.234    0.482   88.096    8.599
  395.346    5.093    0.237    0.480   85.735    8.599
  395.596    5.855    0.267    0.483   76.087    8.570
  395.846    6.538    0.324    0.481   65.853    8.570
  396.096    6.926    0.287    0.466   64.661    8.538
  396.346    7.125    0.268    0.468   70.756    8.516
  396.596    7.106    0.264    0.468   73.059    8.510
  396.846    6.987    0.245    0.444   74.204    8.525
  397.096    6.575    0.208    0.404   76.219    8.525
  397.346    6.187    0.278    0.413   81.150    8.572
  397.596    5.919    0.253    0.420   86.370    8.610
  397.846    5.529    0.227    0.424   89.847    8.610
  398.096    5.137    0.205    0.434   94.483    8.618
  398.346    4.887    0.223    0.458   98.245    8.633
  398.596    4.692    0.248    0.470   99.678    8.628
  398.846    4.681    0.241    0.489   98.777    8.584
  399.096    4.958    0.243    0.493   94.670    8.540
  399.346    5.476    0.253    0.487   88.521    8.497
  399.596    5.994    0.260    0.477   80.328    8.452
  399.846    6.268    0.291    0.477   72.721    8.407
  400.096    6.332    0.244    0.433   68.902    8.384
  400.346    6.294    0.197    0.387   66.829    8.379
  400.596    6.131    0.156    0.373   67.390    8.374
  400.846    5.854    0.106    0.377   74.948    8.389
  401.096    5.449    0.230    0.419   83.087    8.389
  401.346    5.232    0.291    0.447   86.558    8.379
  401.596    5.105    0.295    0.470   85.074    8.379
  401.846    5.102    0.313    0.487   82.424    8.369
  402.096    5.278    0.315    0.482   79.480    8.369
  402.346    5.580    0.325    0.444   77.705    8.358
  402.596    5.900    0.311    0.450   77.968    8.393
  402.846    6.148    0.320    0.484   80.566    8.385
  403.096    6.326    0.293    0.446   82.873    8.383
  403.346    6.449    0.264    0.420   83.428    8.398
  403.596    6.527    0.262    0.416   83.697    8.398
  403.846    6.618    0.316    0.441   85.415    8.389
  404.096    6.686    0.323    0.432   85.389    8.404
  404.346    6.706    0.277    0.421   83.611    8.404
  404.596    6.665    0.265    0.420   81.547    8.394
  404.846    6.721    0.251    0.424   75.690    8.409
  405.096    6.940    0.256    0.434   65.748    8.401
  405.346    7.166    0.315    0.439   52.601    8.398
  405.596    7.495    0.326    0.437   40.617    8.398
  405.846    7.725    0.319    0.414   36.795    8.386
  406.096    7.719    0.320    0.406   36.773    8.384
  406.346    7.561    0.323    0.399   38.493    8.384
  406.596    7.325    0.322    0.392   40.512    8.374
  406.846    6.708    0.316    0.391   43.108    8.409
  407.096    6.020    0.306    0.392   46.286    8.400
  407.346    5.563    0.309    0.392   49.763    8.417
  407.596    5.169    0.305    0.391   53.528    8.417
  407.846    4.962    0.297    0.393   59.042    8.426
  408.096    4.923    0.289    0.396   67.764    8.426
  408.346    4.982    0.275    0.402   79.402    8.436
  408.596    5.061    0.253    0.409   84.917    8.473
  408.846    5.189    0.228    0.414   90.136    8.473
  409.096    5.397    0.188    0.420   89.816    8.483
  409.346    5.675    0.186    0.425   89.204    8.483
  409.596    5.754    0.201    0.430   88.887    8.491
  409.846    5.813    0.227    0.436   88.868    8.508
  410.096    5.809    0.213    0.442   88.839    8.508
  410.346    5.497    0.229    0.442   89.102    8.514
  410.596    4.748    0.215    0.445   89.371    8.532
  410.846    4.200    0.228    0.449   90.221    8.532
  411.096    3.570    0.212    0.479   94.274    8.542
  411.346    3.022    0.185    0.515  103.291    8.537
  411.596    2.743    0.175    0.559  109.090    8.533
  411.846    2.681    0.177    0.561  110.231    8.527
  412.096    2.684    0.196    0.557  110.786    8.527
  412.346    2.702    0.187    0.546  109.014    8.535
  412.596    2.775    0.197    0.540  108.402    8.571
  412.846    2.876    0.184    0.528  108.668    8.571
  413.096    3.002    0.202    0.522  109.809    8.599
  413.346    3.328    0.245    0.523  110.661    8.599
  413.596    4.063    0.268    0.508  109.175    8.686
  413.846    4.587    0.296    0.467  105.358    8.743
  414.096    4.930    0.320    0.460  103.580    8.743
  414.346    5.137    0.355    0.468   99.764    8.792
  414.596    5.189    0.382    0.485   93.321    8.945
  414.846    5.148    0.421    0.492   90.373    9.098
  415.096    5.089    0.380    0.485   90.642    9.310
  415.346    5.151    0.371    0.486   90.613    9.422
  415.596    5.328    0.337    0.501   89.713    8.985
  415.846    5.603    0.272    0.512   87.941    8.606
  416.096    5.902    0.294    0.515   82.664    8.464
  416.346    6.117    0.282    0.452   77.390    8.459
  416.596    6.421    0.267    0.428   77.361    8.473
  416.846    6.801    0.268    0.435   80.543    8.473
  417.096    7.336    0.271    0.458   79.348    8.501
  417.346    7.813    0.276    0.474   75.535    8.557
  417.596    8.157    0.296    0.485   68.505    8.557
  417.846    8.377    0.317    0.490   67.893    8.606
  418.096    8.371    0.338    0.488   68.454    8.739
  418.346    8.229    0.330    0.468   66.968    8.814
  418.596    7.915    0.330    0.442   64.901    8.966
  418.846    7.039    0.328    0.430   66.042    9.236
  419.096    6.249    0.317    0.437   68.637    9.487
  419.346    5.892    0.374    0.467   71.528    8.931
  419.596    5.941    0.412    0.512   72.085    8.631
  419.846    6.068    0.371    0.501   69.730    8.450
  420.096    6.187    0.304    0.490   67.074    8.307
  420.346    6.342    0.293    0.484   66.171    8.307
  420.596    6.326    0.303    0.472   66.148    8.236
  420.846    6.174    0.317    0.477   69.910    8.233
  421.096    5.949    0.321    0.490   74.261    8.228
  421.346    5.639    0.327    0.478   73.941    8.244
  421.596    5.384    0.331    0.474   76.248    8.317
  421.846    5.255    0.320    0.478   82.641    8.391
  422.096    5.081    0.292    0.482   89.027    8.543
  422.346    5.023    0.280    0.481   95.711    8.597
  422.596    5.047    0.311    0.493   99.767    8.671
  422.846    5.297    0.308    0.509   96.240    8.587
  423.096    5.581    0.322    0.504   80.466    8.465
  423.346    6.232    0.333    0.491   71.401    8.465
