~VERSION INFORMATION
 VERS.                 2.0:   CWLS LOG ASCII STANDARD -VERSION 2.0
 WRAP.                  NO:   ONE LINE PER DEPTH STEP
~WELL INFORMATION BLOCK
#MNEM.UNIT           DATA                    DESCRIPTION OF MNEMONIC
#---------    -------------------            -------------------------------
# Generated from Intellog Unique Number	CS_73_76/WELL/770
WELL.         ALLIED ROXANA MINERALS LTD     : Well_name    - WELL
LOC .         00/07-20-073-14W4/0            : Location     - LOCATION
UWI .         00/07-20-073-14W4/0            : Uwi          - UNIQUE WELL ID
ENTR.         SP                             : Entered      - ENTERED BY
SRVC.         SCHLUMBERGER                   : Scn          - SERVICE COMPANY
STRT.M        329.184                        : top_depth    - START DEPTH
STOP.M        548.434                        : bot_depth    - STOP DEPTH
STEP.M        0.25                           : increment    - STEP LENGTH
 NULL. -999.2500:NULL Value
~CURVE INFORMATION BLOCK
#MNEM UNIT       ERCB CURVE CODE    CURVE DESCRIPTION
#-----------   ------------------   ----------------------------------
DEPT.M        00 001 00 00         : DEPTH        - DEPTH
GR  .API      00 310 00 00         : GR           - GAMMA RAY
DPHI.V/V      00 890 00 00         : PHID         - DENSITY POROSITY (SANDSTONE)
NPHI.V/V      00 330 00 00         : PHIN         - NEUTRON POROSITY (SANDSTONE)
ILD .OHMM     00 120 00 00         : RESD         - DEEP RESISTIVITY (DIL)
~PARAMETER INFORMATION
#MNEM.UNIT           DATA             DESCRIPTION OF MNEMONIC
#---------         -----------     ------------------------------
GL  .M        670.255              : gl           - GROUND LEVEL ELEVATION
EREF.M        673.303              : kb           - ELEVATION OF DEPTH REFERENCE
DATM.M        670.255              : datum        - DATUM ELEVATION
TDD .M        573.024              : tdd          - TOTAL DEPTH DRILLER
RUN .         ONE                  : Run          - RUN NUMBER
ENG .         BILL                 : Engineer     - RECORDING ENGINEER
WIT .         JIM                  : Witness      - WITNESSED BY
MUD .         GEL                  : Mud_type     - MUD TYPE
MATR.         SANDSTONE            : Logunit      - NEUTRON MATRIX
TMAX.C        18.8889              : BHT          - MAXIMUM RECORDED TEMPERATURE
BHTD.M        573.024              : BHTDEP       - MAXIMUM RECORDED TEMPERATURE
MATR.         1                    : LOGUNIT      - NEUTRON MATRIX
RMT .C        25                   : MDTP         - TEMPERATURE OF MUD
NEUT.         1                    : NEUTRON      - NEUTRON TYPE
RESI.         0                    : RESIST       - RESISTIVITY TYPE
RMC .OHMM     0.25                 : RMC          - RESISTIVITY OF MUD CAKE
RMF .OHMM     0.25                 : RMF          - RESISTIVITY OF MUD FILTRATE
SUFT.C        15                   : SUFT         - SURFACE TEMPERATURE
~A  DEPTH       GR     PHID     PHIN     RESD
# ...
  372.684   99.309    0.122    0.508    6.568
  372.934   99.395    0.111    0.516    6.746
  373.184   97.585    0.099    0.511    7.033
  373.434   94.401    0.068    0.496    7.277
  373.684   91.669    0.031    0.476    7.372
  373.934   91.180    0.057    0.467    7.251
  374.184   94.477    0.110    0.515    7.016
  374.434   99.127    0.110    0.551    6.691
  374.684  101.434    0.100    0.514    6.244
  374.934  104.409    0.109    0.520    6.101
  375.184  106.240    0.116    0.528    5.961
  375.434  106.541    0.130    0.508    6.077
  375.684   98.917    0.150    0.503    6.202
  375.934   93.143    0.169    0.511    6.461
  376.184   87.474    0.186    0.520    6.632
  376.434   82.620    0.200    0.506    6.992
  376.684   79.161    0.201    0.486    6.869
  376.934   79.866    0.201    0.476    7.022
  377.184   82.076    0.194    0.482    7.075
  377.434   83.343    0.178    0.479    7.033
  377.684   86.338    0.169    0.478    6.889
  377.934   90.037    0.142    0.506    6.630
  378.184   95.368    0.140    0.528    6.282
  378.434   98.478    0.152    0.542    6.038
  378.684   98.760    0.146    0.533    5.910
  378.934  100.135    0.139    0.563    5.902
  379.184   98.599    0.143    0.514    5.903
  379.434   96.409    0.149    0.475    6.087
  379.684   96.424    0.154    0.487    6.494
  379.934   95.152    0.158    0.510    6.853
  380.184   94.275    0.175    0.518    6.879
  380.434   91.553    0.171    0.532    6.957
  380.684   87.068    0.151    0.552    7.163
  380.934   78.564    0.164    0.564    7.333
  381.184   69.275    0.174    0.537    7.593
  381.434   58.162    0.190    0.470    7.717
  381.684   54.830    0.212    0.452    7.809
  381.934   53.960    0.214    0.455    7.891
  382.184   53.690    0.219    0.452    7.810
  382.434   57.017    0.214    0.455    7.821
  382.684   58.830    0.220    0.469    7.735
  382.934   57.958    0.204    0.486    7.658
  383.184   57.905    0.213    0.499    7.668
  383.434   59.944    0.222    0.498    7.588
  383.684   60.953    0.227    0.486    7.587
  383.934   61.033    0.231    0.464    7.572
  384.184   60.112    0.223    0.443    7.509
  384.434   57.927    0.235    0.440    7.512
  384.684   59.599    0.240    0.461    7.514
  384.934   60.944    0.236    0.461    7.513
  385.184   63.251    0.235    0.450    7.482
  385.434   64.757    0.248    0.440    7.440
  385.684   65.130    0.242    0.457    7.440
  385.934   65.134    0.251    0.474    7.442
  386.184   64.108    0.263    0.480    7.443
  386.434   65.490    0.243    0.471    7.442
  386.684   66.540    0.246    0.457    7.422
  386.934   65.942    0.236    0.448    7.441
  387.184   65.547    0.228    0.463    7.392
  387.434   66.628    0.228    0.473    7.459
  387.684   66.588    0.248    0.475    7.451
  387.934   65.586    0.251    0.485    7.453
  388.184   64.598    0.240    0.517    7.454
  388.434   63.671    0.242    0.541    7.466
  388.684   61.935    0.255    0.520    7.402
  388.934   61.683    0.245    0.524    7.460
  389.184   62.496    0.254    0.554    7.593
  389.434   63.667    0.269    0.567    7.701
  389.684   64.074    0.282    0.589    7.777
  389.934   63.141    0.296    0.600    7.728
  390.184   61.367    0.307    0.598    7.695
  390.434   59.824    0.264    0.507    7.484
  390.684   62.394    0.264    0.477    7.394
  390.934   63.335    0.271    0.469    7.307
  391.184   61.737    0.256    0.480    7.308
  391.434   60.758    0.235    0.472    7.403
  391.684   60.510    0.234    0.466    7.396
  391.934   61.023    0.238    0.461    7.397
  392.184   61.682    0.239    0.475    7.399
  392.434   62.248    0.240    0.487    7.400
  392.684   62.709    0.253    0.494    7.393
  392.934   65.175    0.259    0.509    7.492
  393.184   68.069    0.262    0.511    7.481
  393.434   71.462    0.231    0.507    7.572
  393.684   73.168    0.227    0.509    7.570
  393.934   73.710    0.238    0.513    7.495
  394.184   72.133    0.255    0.523    7.451
  394.434   69.880    0.259    0.539    7.406
  394.684   71.341    0.264    0.545    7.273
  394.934   74.381    0.277    0.538    7.178
  395.184   73.475    0.288    0.569    7.097
  395.434   74.800    0.293    0.579    7.103
  395.684   75.073    0.270    0.559    7.104
  395.934   74.675    0.243    0.555    7.103
  396.184   78.309    0.248    0.553    7.194
  396.434   82.364    0.244    0.533    7.209
  396.684   84.162    0.216    0.514    7.194
  396.934   85.121    0.201    0.514    7.155
  397.184   86.081    0.181    0.494    7.019
  397.434   87.459    0.160    0.478    6.891
  397.684   91.141    0.145    0.490    6.797
  397.934   92.616    0.147    0.494    6.711
  398.184   93.862    0.151    0.490    6.588
  398.434   92.060    0.153    0.490    6.510
  398.684   90.117    0.163    0.497    6.567
  398.934   90.412    0.155    0.507    6.645
  399.184   93.110    0.159    0.489    6.742
  399.434   95.385    0.150    0.468    6.652
  399.684   97.695    0.133    0.475    6.603
  399.934   98.523    0.119    0.481    6.560
  400.184   97.528    0.114    0.478    6.499
  400.434   94.342    0.117    0.467    6.404
  400.684   90.447    0.122    0.456    6.511
  400.934   89.970    0.130    0.447    6.642
  401.184   92.539    0.136    0.449    6.780
  401.434   93.730    0.133    0.437    6.821
  401.684   95.045    0.119    0.440    6.961
  401.934   93.549    0.103    0.440    6.952
  402.184   93.649    0.106    0.428    6.903
  402.434   94.229    0.111    0.431    6.826
  402.684   94.907    0.111    0.460    6.729
  402.934   97.641    0.097    0.473    6.525
  403.184   99.031    0.084    0.480    6.393
  403.434  100.376    0.080    0.458    6.262
  403.684  101.860    0.089    0.444    6.139
  403.934  103.966    0.100    0.458    5.890
  404.184  106.931    0.102    0.470    5.637
  404.434  109.138    0.084    0.483    5.514
  404.684  107.412    0.080    0.489    5.385
  404.934  105.489    0.104    0.488    5.256
  405.184  104.871    0.123    0.482    5.128
  405.434  104.627    0.110    0.488    4.993
  405.684  103.127    0.093    0.491    4.949
  405.934  104.096    0.103    0.489    4.871
  406.184  105.088    0.091    0.500    4.788
  406.434  105.045    0.079    0.523    4.720
  406.684  103.476    0.081    0.540    4.675
  406.934  101.143    0.081    0.552    4.632
  407.184  100.241    0.082    0.532    4.488
  407.434  100.396    0.093    0.518    4.430
  407.684  100.713    0.101    0.543    4.158
  407.934  100.767    0.108    0.565    4.081
  408.184   99.883    0.119    0.585    4.014
  408.434   98.926    0.111    0.603    3.777
  408.684   97.270    0.110    0.607    3.449
  408.934   97.260    0.112    0.565    3.012
  409.184   98.268    0.112    0.546    3.134
  409.434   99.019    0.118    0.566    3.438
  409.684   98.266    0.118    0.583    3.098
  409.934   98.311    0.120    0.631    2.979
  410.184   98.236    0.134    0.653    3.364
  410.434   97.230    0.147    0.669    3.557
  410.684   88.000    0.171    0.649    3.756
  410.934   79.763    0.200    0.595    3.925
  411.184   73.245    0.216    0.538    4.194
  411.434   72.592    0.222    0.527    4.453
  411.684   81.113    0.225    0.494    4.691
  411.934   86.829    0.199    0.471    4.440
  412.184   92.413    0.171    0.552    4.042
  412.434   93.004    0.168    0.567    3.743
  412.684   86.127    0.181    0.597    3.546
  412.934   82.607    0.213    0.690    3.888
  413.184   77.741    0.219    0.506    4.239
  413.434   75.798    0.182    0.484    4.682
  413.684   75.465    0.144    0.489    5.298
  413.934   78.178    0.150    0.502    5.809
  414.184   80.483    0.163    0.485    6.153
  414.434   82.423    0.166    0.464    6.179
  414.684   83.368    0.153    0.491    6.184
  414.934   82.533    0.148    0.511    6.195
  415.184   82.039    0.162    0.503    6.105
  415.434   81.579    0.179    0.501    6.035
  415.684   80.645    0.185    0.508    6.034
  415.934   78.784    0.181    0.521    6.033
