~VERSION INFORMATION
 VERS.                 2.0:   CWLS LOG ASCII STANDARD -VERSION 2.0
 WRAP.                  NO:   ONE LINE PER DEPTH STEP
~WELL INFORMATION BLOCK
#MNEM.UNIT           DATA                    DESCRIPTION OF MNEMONIC
#---------    -------------------            -------------------------------
# Generated from Intellog Unique Number	CW_79_81/WELL/416
WELL.         05-12-079-21W4                 : Well_name    - WELL
LOC .         00/05-12-079-21W4/0            : Location     - LOCATION
UWI .         00/05-12-079-21W4/0            : Uwi          - UNIQUE WELL ID
ENTR.         MAX                            : Entered      - ENTERED BY
SRVC.         SCHLUMBERGER                   : Scn          - SERVICE COMPANY
STRT.M        190                            : top_depth    - START DEPTH
STOP.M        415                            : bot_depth    - STOP DEPTH
STEP.M        0.25                           : increment    - STEP LENGTH
 NULL. -999.2500:NULL Value
~CURVE INFORMATION BLOCK
#MNEM UNIT       ERCB CURVE CODE    CURVE DESCRIPTION
#-----------   ------------------   ----------------------------------
DEPT.M        00 001 00 00         : DEPTH        - DEPTH
ILD .OHMM     00 120 00 00         : RESD         - DEEP RESISTIVITY (DIL)
NPHI.V/V      00 330 00 00         : PHIN         - NEUTRON POROSITY (SANDSTONE)
DPHI.V/V      00 890 00 00         : PHID         - DENSITY POROSITY (SANDSTONE)
CALI.MM       00 280 01 00         : CAL          - CALIPER
GR  .API      00 310 00 00         : GR           - GAMMA RAY
~PARAMETER INFORMATION
#MNEM.UNIT           DATA             DESCRIPTION OF MNEMONIC
#---------         -----------     ------------------------------
GL  .M        566.25               : gl           - GROUND LEVEL ELEVATION
EREF.M        569.55               : kb           - ELEVATION OF DEPTH REFERENCE
DATM.M        566.25               : datum        - DATUM ELEVATION
TDD .M        420                  : tdd          - TOTAL DEPTH DRILLER
RUN .         ONE                  : Run          - RUN NUMBER
ENG .         BILL                 : Engineer     - RECORDING ENGINEER
WIT .         JIM                  : Witness      - WITNESSED BY
MUD .         GEL                  : Mud_type     - MUD TYPE
MATR.         SANDSTONE            : Logunit      - NEUTRON MATRIX
TMAX.C        23.3                 : BHT          - MAXIMUM RECORDED TEMPERATURE
BHTD.M        420                  : BHTDEP       - MAXIMUM RECORDED TEMPERATURE
RMT .C        12.8                 : MDTP         - TEMPERATURE OF MUD
MUDD.KG/M     1160                 : MWT          - MUD DENSITY
NEUT.         1                    : NEUTRON      - NEUTRON TYPE
RESI.         0                    : RESIST       - RESISTIVITY TYPE
RM  .OHMM     10.7                 : RM           - RESISTIVITY OF MUD
RMC .OHMM     0.25                 : RMC          - RESISTIVITY OF MUD CAKE
RMF .OHMM     11.3                 : RMF          - RESISTIVITY OF MUD FILTRATE
SUFT.C        -5                   : SUFT         - SURFACE TEMPERATURE
~A  DEPTH     RESD     PHIN     PHID      CAL       GR
# ...
  226.500    6.693    0.442    0.211  173.008   97.863
  226.750    8.107    0.430    0.222  170.637   97.632
  227.000    9.469    0.426    0.219  166.817   99.168
  227.250   10.194    0.434    0.206  169.864   97.154
  227.500   11.485    0.445    0.230  167.493   92.766
  227.750   13.413    0.441    0.260  159.742   84.829
  228.000   16.845    0.436    0.269  157.371   74.236
  228.250   18.978    0.431    0.289  156.990   64.819
  228.500   18.830    0.423    0.286  156.597   55.994
  228.750   18.352    0.413    0.273  156.696   56.361
  229.000   16.946    0.401    0.261  157.297   62.919
  229.250   15.923    0.419    0.245  159.336   69.196
  229.500   14.307    0.432    0.245  158.955   72.219
  229.750   13.818    0.428    0.270  157.088   70.797
  230.000   13.587    0.412    0.266  156.708   72.326
  230.250   13.242    0.422    0.254  156.793   80.378
  230.500   12.564    0.415    0.243  156.400   88.134
  230.750   11.285    0.412    0.221  157.014   94.107
  231.000   10.045    0.412    0.206  158.587   91.798
  231.250    9.445    0.423    0.209  160.626   88.305
  231.500    9.371    0.443    0.249  158.267   89.249
  231.750    9.051    0.467    0.239  158.378   99.372
  232.000    8.506    0.487    0.216  160.933  118.673
  232.250    7.641    0.510    0.191  165.944  124.062
  232.500    5.834    0.531    0.166  166.546  123.535
  232.750    4.744    0.533    0.163  166.656  122.409
  233.000    4.339    0.533    0.176  166.730  123.938
  233.250    3.969    0.523    0.170  168.315  128.735
  233.500    3.764    0.529    0.181  169.887  132.350
  233.750    3.604    0.532    0.217  171.950  132.104
  234.000    3.545    0.533    0.200  172.061  132.161
  234.250    3.517    0.534    0.153  168.241  133.105
  234.500    3.491    0.531    0.154  167.835  133.458
  234.750    3.432    0.557    0.178  167.934  133.220
  235.000    3.286    0.574    0.205  168.032  132.699
  235.250    3.089    0.561    0.227  168.142  132.158
  235.500    2.929    0.538    0.240  168.240  130.447
  235.750    2.803    0.514    0.223  168.326  126.954
  236.000    2.832    0.472    0.235  169.420  123.151
  236.250    3.525    0.458    0.237  170.009  113.452
  236.500    5.024    0.457    0.236  171.090  117.059
  236.750    6.366    0.458    0.225  171.680  119.786
  237.000    6.494    0.466    0.214  171.778  119.829
  237.250    6.384    0.468    0.229  171.397  121.971
  237.500    6.166    0.472    0.218  171.016  122.317
  237.750    5.694    0.478    0.208  170.598  115.274
  238.000    5.448    0.491    0.210  167.270  107.336
  238.250    5.309    0.488    0.236  163.928  100.589
  238.500    5.717    0.460    0.233  158.118   95.617
  238.750    6.499    0.449    0.234  154.790   94.195
  239.000    7.386    0.445    0.235  153.893   94.245
  239.250    8.473    0.450    0.243  152.529   93.118
  239.500    9.898    0.467    0.258  151.166   89.928
  239.750   10.185    0.474    0.282  150.748   86.133
  240.000   10.478    0.464    0.281  150.380   81.160
  240.250   11.284    0.473    0.284  150.957   76.773
  240.500   12.594    0.488    0.299  151.534   72.097
  240.750   14.577    0.493    0.313  152.136   67.124
  241.000   16.272    0.486    0.310  152.713   61.568
  241.250   18.671    0.471    0.314  154.298   60.138
  241.500   19.559    0.457    0.313  154.396   61.090
  241.750   19.765    0.448    0.320  151.546   61.739
  242.000   19.614    0.450    0.319  149.188   61.789
  242.250   19.642    0.449    0.318  148.795   60.071
  242.500   19.496    0.446    0.315  149.876   58.057
  242.750   19.347    0.440    0.304  151.460   58.410
  243.000   19.200    0.434    0.313  150.084   59.953
  243.250   19.200    0.433    0.309  150.674   57.940
  243.500   19.261    0.426    0.300  154.211   54.735
  243.750   19.281    0.420    0.297  152.357   51.242
  244.000   19.281    0.416    0.303  152.958   48.052
  244.250   19.512    0.406    0.302  151.570   46.630
  244.500   19.899    0.404    0.302  149.691   46.103
  244.750   20.291    0.409    0.291  148.327   45.258
  245.000   20.876    0.415    0.280  147.455   44.731
  245.250   21.687    0.419    0.288  147.529   46.267
  245.500   22.311    0.419    0.310  148.143   48.106
  245.750   22.954    0.414    0.312  149.212   48.156
  246.000   23.837    0.398    0.314  149.813   48.220
  246.250   25.428    0.380    0.287  150.882   47.982
  246.500   34.331    0.329    0.225  151.472   46.257
  246.750   44.704    0.199    0.165  154.051   43.947
  247.000   55.626    0.125    0.123  154.616   42.525
  247.250   75.103    0.112    0.024  155.206   41.702
  247.500   96.040    0.113    0.015  155.316   40.575
  247.750  102.465    0.115    0.000  155.427   40.625
  248.000   96.311    0.139   -0.002  155.512   42.472
  248.250   85.743    0.165   -0.000  155.623   43.705
  248.500   72.958    0.173    0.018  155.230   44.065
  248.750   64.964    0.151    0.039  155.316   43.235
  249.000   63.291    0.148    0.027  154.947   41.221
  249.250   64.537    0.148    0.039  155.021   41.567
  249.500   65.820    0.140    0.047  155.131   42.814
  249.750   65.936    0.134    0.053  155.733   43.167
  250.000   65.434    0.128    0.032  155.831   44.112
  250.250   64.351    0.133    0.011  155.930   45.359
  250.500   62.705    0.135    0.021  156.016   45.712
  250.750   61.123    0.127    0.035  155.647   44.889
  251.000   61.187    0.120    0.036  155.721   42.875
  251.250   61.852    0.116    0.018  155.328   42.622
  251.500   62.481    0.122    0.008  155.426   43.567
  251.750   62.580    0.138    0.013  155.536   45.702
  252.000   58.821    0.165    0.019  155.635   46.956
  252.250   52.834    0.204    0.063  155.745   47.006
  252.500   36.834    0.343    0.172  156.322   47.655
  252.750   29.955    0.397    0.190  156.421   49.191
  253.000   23.073    0.429    0.284  153.079   50.721
  253.250   20.728    0.447    0.311  152.686   53.750
  253.500   18.958    0.445    0.333  153.792   55.583
  253.750   16.578    0.441    0.327  154.369   56.520
  254.000   15.580    0.447    0.320  154.492   54.809
  254.250   14.917    0.455    0.320  154.074   52.788
  254.500   14.798    0.442    0.330  153.214   52.845
  254.750   14.819    0.432    0.324  153.288   53.494
  255.000   14.975    0.430    0.325  153.411   55.333
  255.250   15.411    0.424    0.324  153.005   57.165
  255.500   15.436    0.427    0.321  152.600   57.821
  255.750   15.455    0.426    0.323  151.740   57.287
  256.000   15.065    0.431    0.327  151.814   56.160
  256.250   14.966    0.448    0.318  151.924   54.731
  256.500   14.839    0.462    0.301  152.047   54.803
  256.750   14.839    0.447    0.303  152.121   56.332
  257.000   14.482    0.456    0.305  152.231   58.763
  257.250   14.109    0.465    0.318  151.838   59.714
  257.500   13.751    0.470    0.318  151.445   59.476
  257.750   13.646    0.481    0.334  151.531   58.631
  258.000   13.547    0.483    0.318  151.629   58.392
  258.250   13.684    0.472    0.329  151.727   59.344
  258.500   13.831    0.471    0.327  151.825   57.633
  258.750   14.106    0.462    0.331  151.936   55.324
  259.000   14.254    0.471    0.341  152.046   53.303
  259.250   14.277    0.467    0.340  152.157   51.282
  259.500   14.163    0.449    0.334  152.231   50.754
  259.750   14.055    0.436    0.313  152.329   51.995
  260.000   13.948    0.434    0.311  151.960   54.130
  260.250   13.720    0.440    0.321  152.034   56.258
  260.500   13.493    0.443    0.320  152.132   58.393
  260.750   13.031    0.447    0.304  152.255   59.626
  261.000   12.475    0.456    0.296  152.353   58.803
  261.250   12.380    0.443    0.304  152.439   54.711
  261.500   12.508    0.435    0.306  152.537   53.881
  261.750   13.110    0.444    0.323  152.144   56.023
  262.000   13.487    0.454    0.332  152.242   55.770
  262.250   13.750    0.468    0.328  152.341   53.770
  262.500   14.021    0.462    0.320  152.451   53.813
  262.750   14.021    0.461    0.327  152.562   53.279
