~VERSION INFORMATION
 VERS.                 2.0:   CWLS LOG ASCII STANDARD -VERSION 2.0
 WRAP.                  NO:   ONE LINE PER DEPTH STEP
~WELL INFORMATION BLOCK
#MNEM.UNIT           DATA                    DESCRIPTION OF MNEMONIC
#---------    -------------------            -------------------------------
# Generated from Intellog Unique Number	CN_91_93/WELL/2819
WELL.         PARAMOUNT RESOURCES LTD.       : Well_name    - WELL
LOC .         00/06-01-093-21W4/0            : Location     - LOCATION
UWI .         00/06-01-093-21W4/0            : Uwi          - UNIQUE WELL ID
ENTR.         JOETTE                         : Entered      - ENTERED BY
SRVC.         COMPUTALOG                     : Scn          - SERVICE COMPANY
DATE.         03/24/92                       : Date         - LOG DATE
STRT.M        100                            : top_depth    - START DEPTH
STOP.M        235                            : bot_depth    - STOP DEPTH
STEP.M        0.25                           : increment    - STEP LENGTH
 NULL. -999.2500:NULL Value
~CURVE INFORMATION BLOCK
#MNEM UNIT       ERCB CURVE CODE    CURVE DESCRIPTION
#-----------   ------------------   ----------------------------------
DEPT.M        00 001 00 00         : DEPTH        - DEPTH
CALI.MM       00 280 01 00         : CAL          - CALIPER
GR  .API      00 310 00 00         : GR           - GAMMA RAY
NPHI.V/V      00 330 00 00         : PHIN         - NEUTRON POROSITY (SANDSTONE)
DPHI.V/V      00 890 00 00         : PHID         - DENSITY POROSITY (SANDSTONE)
ILD .OHMM     00 120 00 00         : RESD         - DEEP RESISTIVITY (DIL)
~PARAMETER INFORMATION
#MNEM.UNIT           DATA             DESCRIPTION OF MNEMONIC
#---------         -----------     ------------------------------
GL  .M        443.43               : gl           - GROUND LEVEL ELEVATION
EREF.M        547.23               : kb           - ELEVATION OF DEPTH REFERENCE
DATM.M        547.23               : datum        - DATUM ELEVATION
TDD .M        234.4                : tdd          - TOTAL DEPTH DRILLER
RUN .         ONE                  : Run          - RUN NUMBER
ENG .         JO                   : Engineer     - RECORDING ENGINEER
WIT .         TIM                  : Witness      - WITNESSED BY
MUD .         GEL                  : Mud_type     - MUD TYPE
MATR.         SANDSTONE            : Logunit      - NEUTRON MATRIX
TMAX.C        23                   : BHT          - MAXIMUM RECORDED TEMPERATURE
BHTD.M        234.4                : BHTDEP       - MAXIMUM RECORDED TEMPERATURE
RMT .C        10.5                 : MDTP         - TEMPERATURE OF MUD
MUDD.KG/M     1100                 : MWT          - MUD DENSITY
NEUT.         1                    : NEUTRON      - NEUTRON TYPE
RESI.         0                    : RESIST       - RESISTIVITY TYPE
RM  .OHMM     5.2                  : RM           - RESISTIVITY OF MUD
RMC .OHMM     5.2                  : RMC          - RESISTIVITY OF MUD CAKE
RMF .OHMM     5.2                  : RMF          - RESISTIVITY OF MUD FILTRATE
SUFT.C        4                    : SUFT         - SURFACE TEMPERATURE
~A  DEPTH      CAL       GR     PHIN     PHID     RESD
# ...
  136.500  225.634   98.524    0.467    0.253    3.812
  136.750  228.716   98.588    0.468    0.268    3.543
  137.000  232.887   93.201    0.427    0.254    3.551
  137.250  232.994   88.419    0.401    0.228    3.916
  137.500  228.026   84.243    0.393    0.194    4.396
  137.750  227.123   77.644    0.388    0.156    5.036
  138.000  234.323   76.481    0.386    0.200    5.340
  138.250  230.392   83.829    0.412    0.231    5.781
  138.500  224.414   89.951    0.416    0.228    5.791
  138.750  222.529   90.030    0.413    0.216    5.801
  139.000  226.700   91.912    0.417    0.212    5.603
  139.250  228.799   93.777    0.421    0.210    5.403
  139.500  229.889   99.308    0.415    0.214    5.416
  139.750  232.094  100.599    0.408    0.214    5.425
  140.000  232.174   95.802    0.409    0.213    5.541
  140.250  232.254   91.626    0.403    0.214    5.660
  140.500  231.325   94.718    0.397    0.216    5.791
  140.750  231.431  100.250    0.405    0.217    5.798
  141.000  231.538   98.496    0.433    0.218    5.814
  141.250  230.662   96.138    0.456    0.221    5.824
  141.500  230.768   95.612    0.490    0.221    5.514
  141.750  229.865   96.855    0.508    0.219    5.323
  142.000  229.945  100.554    0.481    0.218    5.332
  142.250  230.052  101.829    0.446    0.213    5.452
  142.500  230.159  102.515    0.428    0.206    5.676
  142.750  232.338  102.579    0.422    0.211    5.792
  143.000  232.418  102.627    0.448    0.219    6.149
  143.250  232.524  103.312    0.469    0.220    6.398
  143.500  232.631  100.953    0.478    0.223    6.796
  143.750  227.690   97.367    0.451    0.226    7.071
  144.000  226.787   91.390    0.430    0.206    7.357
  144.250  232.977   90.242    0.397    0.167    7.664
  144.500  234.093   88.473    0.351    0.158    7.979
  144.750  230.162   84.903    0.385    0.177    8.145
  145.000  228.223   85.573    0.402    0.193    8.168
  145.250  226.337   89.271    0.403    0.209    8.042
  145.500  227.453   92.969    0.414    0.211    7.903
  145.750  229.552   94.245    0.440    0.208    7.626
  146.000  231.705   94.325    0.425    0.216    7.354
  146.250  231.785   94.388    0.443    0.227    6.827
  146.500  230.882   96.270    0.475    0.232    6.108
  146.750  230.005   97.561    0.480    0.233    5.671
  147.000  230.085   96.382    0.452    0.224    4.976
  147.250  230.219   94.628    0.458    0.213    4.622
  147.500  231.361  105.006    0.437    0.216    4.462
  147.750  230.405  100.224    0.419    0.221    4.470
  148.000  226.474  101.499    0.429    0.219    4.565
  148.250  222.569  107.620    0.422    0.189    4.664
  148.500  222.702  107.700    0.428    0.126    4.677
  148.750  224.775  104.720    0.423    0.160    4.596
  149.000  232.984  101.149    0.436    0.211    4.435
  149.250  234.074  102.425    0.452    0.224    4.281
  149.500  233.224  104.322    0.451    0.223    4.131
  149.750  231.285  104.992    0.435    0.220    4.138
  150.000  230.355  104.450    0.449    0.226    4.391
  150.250  229.506  103.302    0.442    0.240    4.748
  150.500  229.586  100.944    0.437    0.245    5.038
  150.750  228.683   99.174    0.468    0.245    5.149
  151.000  228.816  100.466    0.470    0.246    5.160
  151.250  228.896  101.757    0.443    0.232    5.172
  151.500  230.039  102.411    0.445    0.213    5.190
  151.750  233.147  102.475    0.485    0.220    5.100
  152.000  238.302  102.539    0.495    0.217    4.826
  152.250  240.427  102.587    0.468    0.203    4.398
  152.500  239.551  107.512    0.491    0.175    4.241
  152.750  236.629  109.394    0.500    0.103    4.092
  153.000  232.698  104.612    0.465    0.111    4.263
  153.250  230.812  100.420    0.432    0.195    4.698
  153.500  230.892   95.638    0.438    0.215    5.086
  153.750  229.989   99.942    0.429    0.200    5.095
  154.000  229.086  106.095    0.449    0.218    5.010
  154.250  230.176  106.159    0.445    0.237    4.924
  154.500  234.347  101.967    0.437    0.208    4.938
  154.750  235.436   98.413    0.422    0.184    4.946
  155.000  233.577   97.233    0.433    0.194    5.352
  155.250  232.648   95.480    0.422    0.218    5.788
  155.500  231.718   93.727    0.424    0.217    6.383
  155.750  231.878   96.214    0.442    0.219    6.641
  156.000  231.985   99.928    0.451    0.227    6.652
  156.250  232.038  104.232    0.439    0.225    6.186
  156.500  232.171  106.719    0.445    0.208    5.853
  156.750  236.316  100.726    0.451    0.206    5.647
  157.000  238.415   97.761    0.441    0.207    5.551
  157.250  241.604  100.854    0.443    0.209    5.563
  157.500  241.710  104.552    0.458    0.209    5.575
  157.750  240.807  107.645    0.478    0.206    5.591
  158.000  240.887  110.753    0.490    0.197    5.604
  158.250  239.984  110.833    0.495    0.204    5.407
  158.500  238.099  110.275    0.465    0.218    5.214
  158.750  238.205  109.112    0.456    0.225    4.843
  159.000  239.295  107.359    0.454    0.218    4.585
  159.250  241.447  103.183    0.434    0.221    4.961
  159.500  242.537   99.007    0.421    0.227    5.362
  159.750  241.660   96.664    0.432    0.234    6.260
  160.000  241.740   97.923    0.422    0.215    7.175
  160.250  241.900   96.170    0.434    0.160    7.320
  160.500  241.980   91.994    0.439    0.121    7.341
  160.750  242.060   95.086    0.414    0.096    6.694
  161.000  242.220   99.996    0.445    0.145    6.452
  161.250  239.298  106.739    0.459    0.156    5.884
  161.500  233.294  112.860    0.452    0.153    5.674
  161.750  230.399  115.347    0.467    0.161    5.579
  162.000  233.534  111.171    0.444    0.144    5.487
  162.250  235.660  111.857    0.435    0.136    5.499
  162.500  235.740  115.539    0.427    0.162    5.411
  162.750  236.883  115.603    0.426    0.200    5.321
  163.000  235.980  112.638    0.421    0.196    5.330
  163.250  237.096  113.308    0.457    0.181    5.447
  163.500  235.184  117.628    0.458    0.174    5.456
  163.750  235.263  119.509    0.464    0.171    5.574
  164.000  234.361  118.362    0.461    0.165    5.700
  164.250  234.467  115.381    0.462    0.142    5.819
  164.500  233.591  114.871    0.460    0.133    5.829
  164.750  232.715  117.342    0.496    0.160    5.417
  165.000  232.768  115.589    0.512    0.188    4.937
  165.250  234.920  111.397    0.506    0.218    4.764
  165.500  236.036  103.587    0.451    0.214    5.770
  165.750  237.126   95.171    0.402    0.234    7.550
  166.000  235.214   88.572    0.324    0.271    8.810
  166.250  231.309   84.985    0.309    0.298   10.086
  166.500  227.377   80.825    0.354    0.313   10.913
  166.750  226.474   77.845    0.370    0.284   11.141
  167.000  227.617   74.290    0.363    0.264   11.172
  167.250  227.670   73.733    0.370    0.259   10.780
  167.500  227.777   73.797    0.370    0.214   11.223
  167.750  228.920   72.649    0.368    0.189   12.620
  168.000  228.044   69.095    0.437    0.232   12.877
  168.250  228.124   71.582    0.460    0.287   12.906
  168.500  228.230   75.296    0.488    0.288   12.706
  168.750  228.337   75.328    0.465    0.262   12.487
  169.000  228.444   76.014    0.433    0.216   12.042
  169.250  227.594   79.090    0.428    0.209   11.842
  169.500  225.655   85.227    0.395    0.223   11.432
  169.750  225.761   87.714    0.401    0.228   11.236
  170.000  225.841   97.469    0.422    0.208   10.643
  170.250  225.948  107.863    0.417    0.201   10.264
  170.500  228.074  104.914    0.408    0.204    9.908
  170.750  229.243  102.523    0.398    0.214    9.560
  171.000  229.296   98.953    0.389    0.226    9.214
  171.250  229.430   95.972    0.389    0.237    9.598
  171.500  229.536   93.613    0.430    0.211   10.184
  171.750  229.670   99.145    0.445    0.202   10.403
  172.000  228.713  106.477    0.474    0.203    9.663
  172.250  226.801  108.358    0.495    0.194    6.255
  172.500  226.908  107.211    0.418    0.193    5.486
  172.750  229.033  103.035    0.371    0.213    5.293
