~VERSION INFORMATION
 VERS.                 2.0:   CWLS LOG ASCII STANDARD -VERSION 2.0
 WRAP.                  NO:   ONE LINE PER DEPTH STEP
~WELL INFORMATION BLOCK
#MNEM.UNIT           DATA                    DESCRIPTION OF MNEMONIC
#---------    -------------------            -------------------------------
# Generated from Intellog Unique Number	CS_77_79/WELL/909
WELL.         CDN-SUP CHRISTINA              : Well_name    - WELL
LOC .         00/07-26-079-10W4/0            : Location     - LOCATION
UWI .         00/07-26-079-10W4/0            : Uwi          - UNIQUE WELL ID
ENTR.         JHS                            : Entered      - ENTERED BY
SRVC.         SCHLUMBERGER                   : Scn          - SERVICE COMPANY
STRT.M        243.84                         : top_depth    - START DEPTH
STOP.M        478.34                         : bot_depth    - STOP DEPTH
STEP.M        0.25                           : increment    - STEP LENGTH
 NULL. -999.2500:NULL Value
~CURVE INFORMATION BLOCK
#MNEM UNIT       ERCB CURVE CODE    CURVE DESCRIPTION
#-----------   ------------------   ----------------------------------
DEPT.M        00 001 00 00         : DEPTH        - DEPTH
RHOB.KG/M3    00 350 00 00         : DENS         - BULK DENSITY
GR  .API      00 310 00 00         : GR           - GAMMA RAY
DPHI.V/V      00 890 00 00         : PHID         - DENSITY POROSITY (SANDSTONE)
NPHI.V/V      00 330 00 00         : PHIN         - NEUTRON POROSITY (SANDSTONE)
ILD .OHMM     00 120 00 00         : RESD         - DEEP RESISTIVITY (DIL)
~PARAMETER INFORMATION
#MNEM.UNIT           DATA             DESCRIPTION OF MNEMONIC
#---------         -----------     ------------------------------
GL  .M        679.094              : gl           - GROUND LEVEL ELEVATION
EREF.M        683.666              : kb           - ELEVATION OF DEPTH REFERENCE
DATM.M        683.666              : datum        - DATUM ELEVATION
TDD .M        487.68               : tdd          - TOTAL DEPTH DRILLER
RUN .         ONE                  : Run          - RUN NUMBER
ENG .         BILL                 : Engineer     - RECORDING ENGINEER
WIT .         JIM                  : Witness      - WITNESSED BY
MUD .         GEL                  : Mud_type     - MUD TYPE
MATR.         SANDSTONE            : Logunit      - NEUTRON MATRIX
TMAX.C        60                   : BHT          - MAXIMUM RECORDED TEMPERATURE
BHTD.M        487.68               : BHTDEP       - MAXIMUM RECORDED TEMPERATURE
MATR.         1                    : LOGUNIT      - NEUTRON MATRIX
RMT .C        25                   : MDTP         - TEMPERATURE OF MUD
NEUT.         1                    : NEUTRON      - NEUTRON TYPE
RESI.         0                    : RESIST       - RESISTIVITY TYPE
RMC .OHMM     0.25                 : RMC          - RESISTIVITY OF MUD CAKE
RMF .OHMM     0.25                 : RMF          - RESISTIVITY OF MUD FILTRATE
SUFT.C        15                   : SUFT         - SURFACE TEMPERATURE
~A  DEPTH     DENS       GR     PHID     PHIN     RESD
# ...
  426.340 2236.820   95.736    0.277    0.384   11.481
  426.590 2273.680   97.150    0.255    0.409   10.009
  426.840 2284.430   97.153    0.249    0.425    8.615
  427.090 2302.050   95.936    0.239    0.442    7.951
  427.340 2267.880   93.560    0.259    0.421    7.650
  427.590 2304.970   95.477    0.237    0.380    7.418
  427.840 2369.080   99.034    0.199    0.373    7.215
  428.090 2420.610  103.633    0.169    0.381    7.217
  428.340 2431.800  105.271    0.163    0.392    7.195
  428.590 2445.170  107.370    0.155    0.407    7.333
  428.840 2449.060  106.903    0.153    0.422    7.573
  429.090 2419.440  103.779    0.170    0.436    7.646
  429.340 2394.390   98.101    0.185    0.416    7.888
  429.590 2375.030   90.954    0.196    0.392    8.008
  429.840 2371.960   91.710    0.198    0.375    8.055
  430.090 2379.360   96.093    0.193    0.369    8.125
  430.340 2394.080   99.116    0.185    0.385    8.113
  430.590 2403.600  100.140    0.179    0.399    8.058
  430.840 2409.260  100.737    0.176    0.401    7.953
  431.090 2405.640  102.778    0.178    0.394    7.687
  431.340 2394.710  104.034    0.184    0.385    7.625
  431.590 2386.670  105.480    0.189    0.378    7.365
  431.840 2395.580  106.117    0.184    0.377    7.279
  432.090 2420.270  106.805    0.169    0.399    7.213
  432.340 2440.300  106.196    0.158    0.424    7.182
  432.590 2436.560  105.985    0.160    0.424    7.542
  432.840 2441.800  103.457    0.157    0.420    7.751
  433.090 2449.190  100.333    0.153    0.410    7.870
  433.340 2426.150   99.135    0.166    0.390    7.855
  433.590 2436.020  100.804    0.160    0.381    7.844
  433.840 2427.010  100.447    0.165    0.394    7.823
  434.090 2414.540   97.737    0.173    0.403    8.020
  434.340 2424.120   95.425    0.167    0.409    8.250
  434.590 2390.160   93.180    0.187    0.422    8.497
  434.840 2381.680   87.025    0.192    0.415    8.753
  435.090 2364.060   78.284    0.202    0.423    8.848
  435.340 2333.520   80.411    0.220    0.400    9.020
  435.590 2333.250   90.038    0.220    0.380    8.975
  435.840 2350.000   96.077    0.211    0.386    8.826
  436.090 2365.190   95.756    0.202    0.399    8.562
  436.340 2377.190   92.647    0.195    0.407    8.476
  436.590 2375.700   97.142    0.195    0.390    8.310
  436.840 2368.650   95.143    0.200    0.406    8.309
  437.090 2399.230   98.409    0.182    0.394    8.299
  437.340 2388.770  104.458    0.188    0.400    8.275
  437.590 2441.260  105.573    0.157    0.424    8.479
  437.840 2442.480   99.321    0.156    0.395    8.725
  438.090 2426.370   92.100    0.166    0.383    8.899
  438.340 2385.270   93.126    0.190    0.389    8.883
  438.590 2408.200   97.483    0.176    0.371    8.734
  438.840 2435.710  101.535    0.160    0.367    8.461
  439.090 2455.810  103.285    0.149    0.395    8.194
  439.340 2427.470  101.777    0.165    0.403    8.068
  439.590 2424.840  100.758    0.167    0.404    7.884
  439.840 2405.460  100.768    0.178    0.399    7.893
  440.090 2419.250   98.058    0.170    0.388    7.899
  440.340 2411.310   93.454    0.175    0.377    7.713
  440.590 2389.060   93.471    0.188    0.373    7.723
  440.840 2415.270  102.100    0.172    0.382    7.800
  441.090 2462.660  103.938    0.145    0.389    7.833
  441.340 2462.050  102.712    0.145    0.376    7.967
  441.590 2412.850   99.832    0.174    0.379    8.035
  441.840 2420.150   95.319    0.170    0.380    8.282
  442.090 2430.450   88.746    0.163    0.366    8.533
  442.340 2441.590   83.971    0.157    0.383    8.868
  442.590 2433.420   79.227    0.162    0.392    9.034
  442.840 2359.190   82.376    0.205    0.378    9.620
  443.090 2342.610   89.879    0.215    0.374    9.968
  443.340 2375.150   91.844    0.196    0.416   10.804
  443.590 2401.570   87.838    0.180    0.432   11.345
  443.840 2359.450   79.962    0.205    0.415   11.771
  444.090 2290.140   70.682    0.246    0.404   12.646
  444.340 2244.690   64.071    0.272    0.405   14.707
  444.590 2251.950   59.534    0.268    0.400   16.221
  444.840 2275.260   57.970    0.254    0.388   16.953
  445.090 2253.080   66.401    0.267    0.377   17.122
  445.340 2243.660   71.856    0.273    0.391   16.883
  445.590 2262.840   73.817    0.261    0.373   15.905
  445.840 2342.030   74.558    0.215    0.378   14.155
  446.090 2336.030   75.194    0.219    0.389   11.859
  446.340 2345.450   76.705    0.213    0.405   11.667
  446.590 2351.780   78.282    0.209    0.393   11.701
  446.840 2336.380   76.964    0.218    0.405   12.065
  447.090 2329.690   73.785    0.222    0.408   12.547
  447.340 2332.980   71.308    0.220    0.398   13.322
  447.590 2312.310   69.872    0.233    0.388   14.142
  447.840 2308.440   69.181    0.235    0.378   14.402
  448.090 2279.570   68.435    0.252    0.379   15.059
  448.340 2297.310   67.529    0.241    0.387   16.004
  448.590 2287.670   65.857    0.247    0.405   15.986
  448.840 2269.390   61.188    0.258    0.430   14.845
  449.090 2261.580   62.842    0.262    0.403   14.192
  449.340 2254.380   70.558    0.266    0.374   14.022
  449.590 2341.120   74.573    0.216    0.378   13.280
  449.840 2355.600   72.866    0.207    0.399   12.630
  450.090 2351.070   69.393    0.210    0.400   12.241
  450.340 2273.880   70.204    0.255    0.363   12.084
  450.590 2331.710   77.288    0.221    0.361   12.073
  450.840 2366.680   78.869    0.201    0.360   12.087
  451.090 2351.390   79.688    0.210    0.349   12.476
  451.340 2367.430   83.240    0.200    0.354   12.574
  451.590 2389.700   77.516    0.187    0.370   12.980
  451.840 2354.160   70.245    0.208    0.398   13.805
  452.090 2309.640   64.118    0.234    0.380   14.234
  452.340 2288.250   64.432    0.247    0.368   14.652
  452.590 2289.260   66.621    0.246    0.359   14.648
  452.840 2303.300   69.516    0.238    0.379   14.241
  453.090 2289.300   70.356    0.246    0.381   13.813
  453.340 2318.570   74.391    0.229    0.381   13.113
  453.590 2360.340   74.662    0.204    0.391   12.680
  453.840 2324.490   76.190    0.225    0.377   12.117
  454.090 2368.230   79.494    0.200    0.378   11.839
  454.340 2405.180   75.499    0.178    0.390   12.179
  454.590 2384.400   68.432    0.190    0.401   13.134
  454.840 2254.120   66.606    0.267    0.405   14.484
  455.090 2274.440   68.799    0.255    0.380   15.275
  455.340 2292.600   72.604    0.244    0.372   15.070
  455.590 2353.000   77.851    0.209    0.362   14.179
  455.840 2394.500   84.826    0.185    0.360   13.609
  456.090 2409.670   85.839    0.176    0.376   12.945
  456.340 2396.840   76.344    0.183    0.391   12.609
  456.590 2324.090   75.770    0.226    0.403   12.605
  456.840 2327.280   79.076    0.224    0.398   12.828
  457.090 2345.540   82.429    0.213    0.382   13.094
  457.340 2359.120   83.223    0.205    0.364   12.631
  457.590 2347.750   87.949    0.212    0.349   11.877
  457.840 2365.970   89.596    0.201    0.355   11.167
  458.090 2384.670   87.132    0.190    0.372   10.470
  458.340 2378.560   82.561    0.194    0.390   10.401
  458.590 2334.010   77.310    0.220    0.395   10.607
  458.840 2357.960   72.820    0.206    0.384   10.762
  459.090 2341.750   69.869    0.215    0.360   11.032
  459.340 2350.920   73.404    0.210    0.361   11.353
  459.590 2370.030   78.038    0.199    0.369   11.701
  459.840 2378.170   77.443    0.194    0.361   11.745
  460.090 2355.340   75.856    0.207    0.350   11.734
  460.340 2342.510   77.631    0.215    0.350   11.741
  460.590 2347.000   81.570    0.212    0.367   11.470
  460.840 2329.210   84.450    0.223    0.359   11.497
  461.090 2343.640   86.665    0.214    0.357   11.251
  461.340 2373.680   86.436    0.197    0.354   11.008
  461.590 2397.490   83.457    0.183    0.360   10.677
  461.840 2401.540   80.134    0.180    0.357   10.416
  462.090 2363.760   81.325    0.202    0.343   10.209
  462.340 2358.550   88.430    0.206    0.344    9.901
  462.590 2382.770   95.818    0.191    0.341    9.643
