~VERSION INFORMATION
 VERS.                 2.0:   CWLS LOG ASCII STANDARD -VERSION 2.0
 WRAP.                  NO:   ONE LINE PER DEPTH STEP
~WELL INFORMATION BLOCK
#MNEM.UNIT           DATA                    DESCRIPTION OF MNEMONIC
#---------    -------------------            -------------------------------
# Generated from Intellog Unique Number	CW_70_72/WELL/2900
NULL.         -999.25                        : NULL_VALUE
WELL.         SUNCOR GAMBLER                 : Well_name    - WELL              
LOC .         06-24-070-21W4                 : Location     - LOCATION          
UWI .         00/06-24-070-21W4/0            : Uwi          - UNIQUE WELL ID    
ENTR.         MAX                            : Entered      - ENTERED BY        
SRVC.         SCHLUMBERGER                   : Scn          - SERVICE COMPANY   
DATE.         23 FEB 80                      : Date         - LOG DATE
STRT.M        385                            : top_depth    - START DEPTH       
STOP.M        555                            : bot_depth    - STOP DEPTH        
STEP.M        0.25                           : increment    - STEP LENGTH       
~CURVE INFORMATION BLOCK
#MNEM UNIT       ERCB CURVE CODE    CURVE DESCRIPTION
#-----------   ------------------   ----------------------------------
DEPT.M        00 001 00 00         : DEPTH        - DEPTH                       
ILD .OHMM     00 120 00 00         : RESD         - DEEP RESISTIVITY (DIL)      
NPHI.V/V      00 330 00 00         : PHIN         - NEUTRON POROSITY (SANDSTONE)
DPHI.V/V      00 890 00 00         : PHID         - DENSITY POROSITY (SANDSTONE)
CALI.MM       00 280 01 00         : CAL          - CALIPER                     
GR  .API      00 310 00 00         : GR           - GAMMA RAY                   
~PARAMETER INFORMATION       
#MNEM.UNIT           DATA             DESCRIPTION OF MNEMONIC
#---------         -----------     ------------------------------
GL  .M        645.78               : gl           - GROUND LEVEL ELEVATION      
EREF.M        649.13               : kb           - ELEVATION OF DEPTH REFERENCE
DATM.M        645.78               : datum        - DATUM ELEVATION             
TDD .M        569                  : tdd          - TOTAL DEPTH DRILLER         
RUN .         ONE                  : Run          - RUN NUMBER                  
ENG .         BILL                 : Engineer     - RECORDING ENGINEER          
WIT .         JIM                  : Witness      - WITNESSED BY                
MUD .         GEL                  : Mud_type     - MUD TYPE                    
MATR.         SANDSTONE            : Logunit      - NEUTRON MATRIX              
TMAX.C        39                   : BHT          - MAXIMUM RECORDED TEMPERATURE
BHTD.M        569                  : BHTDEP       - MAXIMUM RECORDED TEMPERATURE
RMT .C        12.2                 : MDTP         - TEMPERATURE OF MUD          
MUDD.KG/M     1050                 : MWT          - MUD DENSITY                 
NEUT.         1                    : NEUTRON      - NEUTRON TYPE                
RESI.         0                    : RESIST       - RESISTIVITY TYPE            
RM  .OHMM     3.03                 : RM           - RESISTIVITY OF MUD          
RMC .OHMM     0.25                 : RMC          - RESISTIVITY OF MUD CAKE     
RMF .OHMM     3.94                 : RMF          - RESISTIVITY OF MUD FILTRATE 
SUFT.C        -20                  : SUFT         - SURFACE TEMPERATURE         
~A  DEPTH     RESD     PHIN     PHID      CAL       GR
# ...
  421.500    5.420    0.469    0.264  202.407   91.728
  421.750    5.523    0.477    0.260  201.921   91.436
  422.000    5.523    0.476    0.258  201.934   87.245
  422.250    5.473    0.468    0.242  202.448   80.355
  422.500    5.474    0.456    0.230  202.960   78.264
  422.750    5.475    0.465    0.230  202.960   78.272
  423.000    5.376    0.468    0.230  202.986   79.779
  423.250    5.278    0.466    0.235  203.500   82.787
  423.500    5.134    0.463    0.235  203.513   83.695
  423.750    4.902    0.466    0.227  203.028   83.102
  424.000    4.638    0.481    0.222  202.538   79.210
  424.250    4.470    0.486    0.230  202.055   77.120
  424.500    4.389    0.470    0.235  201.067   82.526
  424.750    4.349    0.469    0.236  199.580   81.934
  425.000    4.310    0.474    0.261  198.094   76.845
  425.250    4.310    0.411    0.258  199.608   79.551
  425.500    4.311    0.429    0.235  202.622   82.257
  425.750    4.312    0.482    0.220  204.131   84.066
  426.000    4.312    0.509    0.216  203.146   84.973
  426.250    4.434    0.496    0.212  202.159   84.681
  426.500    4.645    0.481    0.239  201.173   82.891
  426.750    5.241    0.447    0.266  200.686   80.797
  427.000    5.858    0.476    0.285  200.698   75.408
  427.250    6.921    0.493    0.302  201.214   67.019
  427.500    8.566    0.518    0.291  201.227   61.329
  427.750   12.294    0.492    0.210  201.237   55.640
  428.000   16.235    0.317    0.007  200.753   51.749
  428.250   20.658    0.172    0.073  200.766   51.756
  428.500   24.410    0.227    0.131  201.779   57.762
  428.750   24.189    0.288    0.188  201.790   69.765
  429.000   21.648    0.348    0.218  201.803   78.470
  429.250   19.018    0.374    0.215  201.318   78.778
  429.500   16.250    0.401    0.218  200.832   67.690
  429.750   14.145    0.432    0.236  199.844   59.001
  430.000   13.382    0.384    0.267  198.359   55.410
  430.250   12.778    0.412    0.292  197.870   57.218
  430.500   12.090    0.436    0.313  197.385   63.823
  430.750   11.438    0.455    0.323  196.899   62.933
  431.000   10.922    0.448    0.324  196.412   59.941
  431.250   10.429    0.450    0.321  195.927   56.651
  431.500   10.146    0.466    0.321  195.940   55.758
  431.750   10.433    0.474    0.325  196.453   55.766
  432.000   10.435    0.460    0.323  196.964   56.373
  432.250    9.872    0.455    0.310  198.477   56.382
  432.500    8.917    0.457    0.287  199.989   56.989
  432.750    7.619    0.460    0.272  202.503   61.196
  433.000    6.158    0.422    0.277  205.515   68.101
  433.250    4.932    0.409    0.332  244.513   73.508
  433.500    4.293    0.460    0.408  262.021   75.616
  433.750    3.950    0.492    0.401  260.533   75.923
  434.000    3.807    0.510    0.367  254.049   75.030
  434.250    3.808    0.485    0.276  219.075   73.239
  434.500    3.880    0.455    0.234  202.095   72.647
  434.750    3.953    0.468    0.226  197.609   78.953
  435.000    3.990    0.492    0.232  200.621   86.458
  435.250    3.991    0.508    0.249  204.135   90.365
  435.500    3.991    0.515    0.260  203.646   85.874
  435.750    4.067    0.502    0.270  200.664   77.185
  436.000    4.221    0.478    0.285  200.675   67.297
  436.250    4.504    0.444    0.308  196.193   63.706
  436.500    4.762    0.463    0.317  195.703   63.715
  436.750    5.082    0.491    0.325  193.717   59.224
  437.000    5.576    0.457    0.336  189.234   56.832
  437.250    6.118    0.460    0.341  186.746   59.539
  437.500    6.590    0.462    0.338  193.257   61.646
  437.750    7.230    0.457    0.323  196.768   55.356
  438.000    7.860    0.449    0.310  198.283   49.666
  438.250    8.310    0.443    0.320  196.796   46.979
  438.500    8.159    0.429    0.322  197.312   46.084
  438.750    7.508    0.431    0.322  197.322   43.693
  439.000    6.782    0.438    0.322  198.338   41.902
  439.250    5.903    0.426    0.322  197.850   42.510
  439.500    5.186    0.408    0.322  197.863   47.915
  439.750    4.514    0.408    0.319  198.876   51.524
  440.000    4.231    0.400    0.315  199.390   50.330
  440.250    3.966    0.402    0.315  199.901   51.539
  440.500    3.858    0.423    0.315  199.914   52.745
  440.750    3.823    0.421    0.308  199.926   59.351
  441.000    3.860    0.452    0.280  199.941   68.355
  441.250    3.969    0.484    0.282  199.954   67.763
  441.500    4.044    0.499    0.303  198.967   58.475
  441.750    4.007    0.498    0.311  198.480   55.185
  442.000    3.898    0.475    0.321  197.994   51.894
  442.250    3.757    0.447    0.335  198.008   49.504
  442.500    3.621    0.429    0.339  197.522   48.612
  442.750    3.457    0.436    0.337  197.037   49.219
  443.000    3.426    0.456    0.333  196.548   50.426
  443.250    3.395    0.460    0.327  196.061   48.635
  443.500    3.333    0.418    0.323  196.576   47.443
  443.750    3.333    0.436    0.323  197.089   47.452
  444.000    3.304    0.454    0.326  197.602   46.559
  444.250    3.243    0.460    0.332  198.113   47.169
  444.500    3.214    0.471    0.330  198.128   48.374
  444.750    3.215    0.473    0.327  198.139   50.482
  445.000    3.245    0.456    0.329  198.152   49.590
  445.250    3.276    0.446    0.331  197.667   49.898
  445.500    3.307    0.439    0.334  197.679   52.306
  445.750    3.338    0.448    0.330  197.194   52.913
  446.000    3.339    0.446    0.325  197.207   53.820
  446.250    3.339    0.423    0.332  197.221   53.529
  446.500    3.340    0.436    0.333  197.234   51.438
  446.750    3.340    0.452    0.330  197.246   50.845
  447.000    3.341    0.462    0.331  197.262   52.352
  447.250    3.341    0.446    0.333  197.262   54.460
  447.500    3.342    0.429    0.339  197.293   54.768
  447.750    3.342    0.420    0.337  197.300   54.476
  448.000    3.343    0.421    0.336  197.311   53.883
  448.250    3.374    0.427    0.336  198.324   52.691
  448.500    3.375    0.448    0.334  199.338   53.000
  448.750    3.344    0.438    0.326  201.850   53.907
  449.000    3.314    0.439    0.317  203.864   52.716
  449.250    3.284    0.457    0.313  203.378   53.324
  449.500    3.224    0.447    0.318  203.389   54.231
  449.750    3.195    0.417    0.328  202.902   54.538
  450.000    3.196    0.412    0.327  201.918   55.447
  450.250    3.196    0.421    0.326  202.430   57.554
  450.500    3.197    0.425    0.329  202.443   57.261
  450.750    3.197    0.421    0.331  202.960   56.669
  451.000    3.197    0.445    0.333  202.969   58.778
  451.250    3.198    0.459    0.331  202.983   61.785
  451.500    3.198    0.457    0.322  202.496   61.792
  451.750    3.229    0.444    0.312  202.509   61.201
  452.000    3.199    0.441    0.314  202.024   60.609
  452.250    3.171    0.461    0.320  201.537   62.115
  452.500    3.142    0.468    0.320  201.549   61.823
  452.750    3.113    0.446    0.311  202.065   57.633
  453.000    3.085    0.442    0.309  201.576   57.641
  453.250    3.057    0.450    0.321  201.091   59.449
  453.500    3.058    0.453    0.332  200.103   56.458
  453.750    3.058    0.466    0.332  199.118   54.066
  454.000    3.059    0.470    0.328  199.118   54.674
  454.250    3.059    0.464    0.313  198.146   56.783
  454.500    3.060    0.465    0.305  197.157   58.288
  454.750    3.060    0.460    0.307  196.671   58.297
  455.000    3.061    0.461    0.314  196.186   54.106
  455.250    3.061    0.463    0.312  195.698   50.516
  455.500    3.062    0.448    0.311  195.711   50.823
  455.750    3.090    0.421    0.316  195.724   51.731
  456.000    3.091    0.413    0.319  196.235   49.940
  456.250    3.091    0.437    0.320  196.249   50.547
  456.500    3.121    0.455    0.306  196.263   53.854
  456.750    3.150    0.456    0.302  196.778   57.161
  457.000    3.180    0.458    0.311  196.792   57.470
  457.250    3.210    0.463    0.321  196.804   56.876
  457.500    3.271    0.449    0.320  196.316   55.386
  457.750    3.302    0.441    0.315  196.830   54.194
