~VERSION INFORMATION
 VERS.                 2.0:   CWLS LOG ASCII STANDARD -VERSION 2.0
 WRAP.                  NO:   ONE LINE PER DEPTH STEP
~WELL INFORMATION BLOCK
#MNEM.UNIT           DATA                    DESCRIPTION OF MNEMONIC
#---------    -------------------            -------------------------------
# Generated from Intellog Unique Number	CS_67_68/WELL/781
WELL.         SUNDANCE OIL CANADA LTD        : Well_name    - WELL
LOC .         00/07-29-068-16W4/0            : Location     - LOCATION
UWI .         00/07-29-068-16W4/0            : Uwi          - UNIQUE WELL ID
ENTR.         SP                             : Entered      - ENTERED BY
SRVC.         SCHLUMBERGER                   : Scn          - SERVICE COMPANY
STRT.M        292.608                        : top_depth    - START DEPTH
STOP.M        511.858                        : bot_depth    - STOP DEPTH
STEP.M        0.25                           : increment    - STEP LENGTH
 NULL. -999.2500:NULL Value
~CURVE INFORMATION BLOCK
#MNEM UNIT       ERCB CURVE CODE    CURVE DESCRIPTION
#-----------   ------------------   ----------------------------------
DEPT.M        00 001 00 00         : DEPTH        - DEPTH
GR  .API      00 310 00 00         : GR           - GAMMA RAY
DPHI.V/V      00 890 00 00         : PHID         - DENSITY POROSITY (SANDSTONE)
NPHI.V/V      00 330 00 00         : PHIN         - NEUTRON POROSITY (SANDSTONE)
ILD .OHMM     00 120 00 00         : RESD         - DEEP RESISTIVITY (DIL)
~PARAMETER INFORMATION
#MNEM.UNIT           DATA             DESCRIPTION OF MNEMONIC
#---------         -----------     ------------------------------
GL  .M        563.575              : gl           - GROUND LEVEL ELEVATION
EREF.M        567.111              : kb           - ELEVATION OF DEPTH REFERENCE
DATM.M        563.575              : datum        - DATUM ELEVATION
TDD .M        514.502              : tdd          - TOTAL DEPTH DRILLER
RUN .         ONE                  : Run          - RUN NUMBER
ENG .         BILL                 : Engineer     - RECORDING ENGINEER
WIT .         JIM                  : Witness      - WITNESSED BY
MUD .         GEL                  : Mud_type     - MUD TYPE
MATR.         SANDSTONE            : Logunit      - NEUTRON MATRIX
TMAX.C        23.8889              : BHT          - MAXIMUM RECORDED TEMPERATURE
BHTD.M        514.502              : BHTDEP       - MAXIMUM RECORDED TEMPERATURE
MATR.         1                    : LOGUNIT      - NEUTRON MATRIX
RMT .C        25                   : MDTP         - TEMPERATURE OF MUD
NEUT.         1                    : NEUTRON      - NEUTRON TYPE
RESI.         0                    : RESIST       - RESISTIVITY TYPE
RMC .OHMM     0.25                 : RMC          - RESISTIVITY OF MUD CAKE
RMF .OHMM     0.25                 : RMF          - RESISTIVITY OF MUD FILTRATE
SUFT.C        15                   : SUFT         - SURFACE TEMPERATURE
~A  DEPTH       GR     PHID     PHIN     RESD
  292.608  106.671    0.226    0.534    2.195
  292.858  100.640    0.228    0.520    2.183
  293.108  101.797    0.241    0.513    2.169
  293.358  103.085    0.270    0.514    2.165
  293.608  104.522    0.307    0.521    2.163
  293.858  105.338    0.300    0.535    2.166
  294.108  105.042    0.278    0.551    2.174
  294.358  103.743    0.280    0.534    2.189
  294.608  102.456    0.294    0.519    2.214
  294.858  102.008    0.281    0.511    2.231
  295.108  101.372    0.277    0.512    2.257
  295.358  101.450    0.263    0.530    2.303
  295.608  101.496    0.247    0.541    2.377
  295.858  101.332    0.247    0.545    2.484
  296.108  100.629    0.267    0.520    2.580
  296.358   99.273    0.283    0.507    2.686
  296.608   98.739    0.277    0.497    2.767
  296.858   98.098    0.262    0.477    2.857
  297.108   98.626    0.262    0.484    2.910
  297.358  100.524    0.279    0.503    2.893
  297.608  103.724    0.291    0.522    2.848
  297.858  103.171    0.262    0.538    2.779
  298.108   99.454    0.279    0.501    2.716
  298.358   97.553    0.234    0.507    2.667
  298.608   96.950    0.271    0.525    2.640
  298.858   96.577    0.284    0.544    2.624
  299.108   99.534    0.300    0.525    2.625
  299.358  101.244    0.330    0.509    2.636
  299.608  102.434    0.342    0.504    2.650
  299.858  102.906    0.339    0.502    2.668
  300.108   99.786    0.303    0.495    2.685
  300.358   95.097    0.313    0.494    2.683
  300.608   92.748    0.327    0.494    2.640
  300.858   91.129    0.333    0.470    2.592
  301.108   93.418    0.229    0.462    2.529
  301.358   95.210    0.184    0.490    2.442
  301.608   95.305    0.222    0.521    2.379
  301.858   90.115    0.267    0.545    2.324
  302.108   86.635    0.359    0.539    2.307
  302.358   84.926    0.302    0.465    2.295
  302.608   83.993    0.268    0.441    2.261
  302.858   84.652    0.272    0.424    2.242
  303.108   87.078    0.284    0.418    2.237
  303.358   91.566    0.267    0.422    2.293
  303.608   96.080    0.263    0.413    2.369
  303.858  100.281    0.273    0.405    2.504
  304.108  105.661    0.247    0.405    2.583
  304.358  108.984    0.220    0.416    2.702
  304.608  109.084    0.210    0.429    2.844
  304.858   97.267    0.222    0.437    2.908
  305.108   80.519    0.229    0.449    2.971
  305.358   61.376    0.274    0.443    3.034
  305.608   52.141    0.307    0.396    3.061
  305.858   63.047    0.289    0.377    3.032
  306.108   67.094    0.276    0.367    2.949
  306.358   72.668    0.271    0.371    2.853
  306.608   75.481    0.255    0.381    2.759
  306.858   77.644    0.258    0.389    2.692
  307.108   79.458    0.238    0.394    2.710
  307.358   82.884    0.229    0.403    2.749
  307.608   86.112    0.218    0.402    2.827
  307.858   89.720    0.205    0.386    2.955
  308.108   91.665    0.204    0.387    3.095
  308.358   91.577    0.213    0.403    3.205
  308.608   86.958    0.218    0.411    3.288
  308.858   84.273    0.227    0.398    3.369
  309.108   83.948    0.237    0.386    3.478
  309.358   80.709    0.213    0.382    3.626
  309.608   76.673    0.209    0.378    3.777
  309.858   74.437    0.227    0.371    3.846
  310.108   77.150    0.222    0.364    3.845
  310.358   81.969    0.188    0.362    3.442
  310.608   87.125    0.188    0.368    2.977
  310.858   88.651    0.199    0.373    2.767
  311.108   84.282    0.203    0.372    2.678
  311.358   79.265    0.220    0.358    2.802
  311.608   85.321    0.210    0.351    2.947
  311.858   91.324    0.147    0.359    3.065
  312.108   95.080    0.101    0.378    3.155
  312.358   99.276    0.127    0.391    3.188
  312.608  101.838    0.151    0.407    3.201
  312.858   99.180    0.156    0.418    3.177
  313.108   97.463    0.122    0.435    3.095
  313.358   98.626    0.112    0.453    2.993
  313.608  103.900    0.182    0.468    2.895
  313.858  106.941    0.235    0.490    2.915
  314.108  109.319    0.269    0.511    3.016
  314.358  102.661    0.268    0.520    3.088
  314.608   98.092    0.288    0.504    3.230
  314.858   95.336    0.299    0.480    3.299
  315.108   88.664    0.220    0.472    3.392
  315.358   85.090    0.246    0.458    3.465
  315.608   88.371    0.239    0.448    3.458
  315.858   90.310    0.219    0.446    3.397
  316.108   92.378    0.236    0.434    3.332
  316.358   91.182    0.231    0.437    3.229
  316.608   89.185    0.247    0.456    3.113
  316.858   86.288    0.241    0.469    3.067
  317.108   82.018    0.218    0.480    3.076
  317.358   75.813    0.229    0.461    3.202
  317.608   72.160    0.217    0.454    3.402
  317.858   69.492    0.228    0.446    3.687
  318.108   68.100    0.237    0.441    3.998
  318.358   67.185    0.226    0.446    4.189
  318.608   70.021    0.226    0.447    4.289
  318.858   72.565    0.237    0.439    4.281
  319.108   72.677    0.243    0.429    3.997
  319.358   70.062    0.249    0.437    3.691
  319.608   71.049    0.234    0.433    3.444
  319.858   75.390    0.238    0.415    3.284
  320.108   79.008    0.230    0.405    3.117
  320.358   84.373    0.228    0.404    2.977
  320.608   88.298    0.238    0.427    2.879
  320.858   89.227    0.252    0.447    2.877
  321.108   87.089    0.243    0.466    2.916
  321.358   91.864    0.218    0.435    2.954
  321.608   93.179    0.207    0.429    2.986
  321.858   93.134    0.219    0.426    3.016
  322.108   93.775    0.199    0.425    3.026
  322.358   99.000    0.185    0.440    3.035
  322.608  103.503    0.170    0.449    3.052
  322.858  105.117    0.172    0.457    3.060
  323.108  107.807    0.212    0.458    3.052
  323.358  111.869    0.212    0.467    3.005
  323.608  118.454    0.185    0.485    3.033
  323.858  124.491    0.199    0.504    3.113
  324.108  127.347    0.220    0.488    3.228
  324.358  128.556    0.237    0.440    3.303
  324.608  120.041    0.225    0.408    3.415
  324.858  113.324    0.224    0.398    3.529
  325.108  109.975    0.221    0.393    3.663
  325.358  111.271    0.236    0.392    3.789
  325.608  107.227    0.224    0.400    3.932
  325.858  107.597    0.220    0.406    4.027
  326.108  112.147    0.216    0.413    4.062
  326.358  112.617    0.218    0.404    4.056
  326.608  108.618    0.224    0.396    4.031
  326.858  106.091    0.198    0.388    3.942
  327.108  106.030    0.188    0.405    3.821
  327.358  107.371    0.183    0.419    3.602
  327.608  110.426    0.182    0.432    3.463
  327.858  115.361    0.191    0.434    3.392
  328.108  118.819    0.206    0.421    3.359
  328.358  121.341    0.213    0.435    3.387
  328.608  123.236    0.188    0.450    3.450
  328.858  123.638    0.182    0.431    3.498
  329.108  122.116    0.204    0.415    3.528
  329.358  120.181    0.224    0.416    3.543
  329.608  118.812    0.217    0.435    3.580
  329.858  113.372    0.212    0.442    3.615
  330.108  110.339    0.222    0.435    3.755
  330.358  110.732    0.231    0.423    3.858
  330.608  114.375    0.204    0.410    3.875
  330.858  117.316    0.178    0.399    3.694
  331.108  119.591    0.173    0.389    3.292
  331.358  118.435    0.164    0.388    3.110
  331.608  116.688    0.165    0.406    2.990
  331.858  115.010    0.183    0.429    2.943
  332.108  116.817    0.192    0.457    2.910
  332.358  121.184    0.162    0.487    2.796
  332.608  123.630    0.172    0.505    2.573
  332.858  121.828    0.202    0.488    2.399
  333.108  121.278    0.221    0.479    2.366
  333.358  120.239    0.204    0.467    2.375
  333.608  109.837    0.199    0.452    2.398
  333.858  101.627    0.203    0.445    2.448
  334.108   95.297    0.185    0.452    2.513
  334.358   97.580    0.172    0.460    2.603
  334.608   95.799    0.206    0.462    2.685
  334.858   92.745    0.240    0.453    2.815
  335.108   91.094    0.227    0.436    2.948
  335.358   89.504    0.213    0.418    3.073
  335.608   85.330    0.227    0.405    3.186
  335.858   82.466    0.243    0.411    3.261
