~VERSION INFORMATION
 VERS.                 2.0:   CWLS LOG ASCII STANDARD -VERSION 2.0
 WRAP.                  NO:   ONE LINE PER DEPTH STEP
~WELL INFORMATION BLOCK
#MNEM.UNIT           DATA                    DESCRIPTION OF MNEMONIC
#---------    -------------------            -------------------------------
# Generated from Intellog Unique Number	CN_91_93/WELL/2991
WELL.         GULF OIL CANADA LTD.           : Well_name    - WELL
LOC .         00/05-12-093-20W4/0            : Location     - LOCATION
UWI .         00/05-12-093-20W4/0            : Uwi          - UNIQUE WELL ID
ENTR.         JOETTE                         : Entered      - ENTERED BY
SRVC.         SCHLUMBERGER                   : Scn          - SERVICE COMPANY
DATE.         04/07/92                       : Date         - LOG DATE
STRT.F        350                            : top_depth    - START DEPTH
STOP.F        810.138                        : bot_depth    - STOP DEPTH
STEP.F        0.82                           : increment    - STEP LENGTH
 NULL. -999.2500:NULL Value
~CURVE INFORMATION BLOCK
#MNEM UNIT       ERCB CURVE CODE    CURVE DESCRIPTION
#-----------   ------------------   ----------------------------------
DEPT.F        00 001 00 00         : DEPTH        - DEPTH
CALI.IN       00 280 01 00         : CAL          - CALIPER
GR  .API      00 310 00 00         : GR           - GAMMA RAY
NPHI.V/V      00 330 00 00         : PHIN         - NEUTRON POROSITY (SANDSTONE)
DPHI.V/V      00 890 00 00         : PHID         - DENSITY POROSITY (SANDSTONE)
ILD .OHMM     00 120 00 00         : RESD         - DEEP RESISTIVITY (DIL)
~PARAMETER INFORMATION
#MNEM.UNIT           DATA             DESCRIPTION OF MNEMONIC
#---------         -----------     ------------------------------
GL  .F        1762                 : gl           - GROUND LEVEL ELEVATION
EREF.F        1767                 : kb           - ELEVATION OF DEPTH REFERENCE
DATM.F        1767                 : datum        - DATUM ELEVATION
TDD .F        840                  : tdd          - TOTAL DEPTH DRILLER
RUN .         ONE                  : Run          - RUN NUMBER
ENG .         BILL                 : Engineer     - RECORDING ENGINEER
WIT .         JIM                  : Witness      - WITNESSED BY
MUD .         GEL                  : Mud_type     - MUD TYPE
MATR.         SANDSTONE            : Logunit      - NEUTRON MATRIX
TMAX.F        85                   : BHT          - MAXIMUM RECORDED TEMPERATURE
BHTD.F        840                  : BHTDEP       - MAXIMUM RECORDED TEMPERATURE
RMT .F        54                   : MDTP         - TEMPERATURE OF MUD
MUDD.LB/G     9.5                  : MWT          - MUD DENSITY
NEUT.         1                    : NEUTRON      - NEUTRON TYPE
RESI.         0                    : RESIST       - RESISTIVITY TYPE
RM  .OHMM     2.01                 : RM           - RESISTIVITY OF MUD
RMC .OHMM     2.01                 : RMC          - RESISTIVITY OF MUD CAKE
RMF .OHMM     2.01                 : RMF          - RESISTIVITY OF MUD FILTRATE
SUFT.F        -4                   : SUFT         - SURFACE TEMPERATURE
~A  DEPTH      CAL       GR     PHIN     PHID     RESD
  350.000    6.397   66.340    0.550    0.320   74.029
  350.820    6.729   69.870    0.524    0.252  242.820
  351.640    7.255   66.997    0.487    0.260   11.563
  352.461    6.870   69.942    0.519    0.265   11.157
  353.281    6.950   72.890    0.510    0.287   11.367
  354.101    6.642   72.049    0.515    0.263   12.795
  354.921    6.547   69.466    0.479    0.255   14.143
  355.741    6.530   71.834    0.483    0.274   13.647
  356.562    6.591   75.651    0.490    0.285   11.920
  357.382    6.535   78.018    0.527    0.290   12.366
  358.202    6.460   79.517    0.563    0.300    8.929
  359.022    6.404   78.671    0.549    0.304    6.274
  359.843    6.717   74.057    0.523    0.289    6.277
  360.663    6.506   75.542    0.543    0.339    7.066
  361.483    6.373   74.419    0.539    0.354    7.533
  362.303    6.744   70.096    0.528    0.290    7.203
  363.123    6.843   72.463    0.550    0.288    7.473
  363.944    6.768   73.071    0.565    0.286    7.614
  364.764    6.867   75.147    0.573    0.261    5.965
  365.584    7.005   78.387    0.582    0.261    5.501
  366.404    6.989   80.454    0.588    0.248    5.119
  367.224    7.030   82.240    0.592    0.243    4.895
  368.045    7.052   81.703    0.596    0.266    4.766
  368.865    7.074   77.948    0.602    0.274    4.989
  369.685    7.096   69.839    0.605    0.289    6.793
  370.505    7.156   67.265    0.589    0.297    8.448
  371.325    6.790   67.292    0.560    0.271    9.596
  372.146    6.695   64.128    0.513    0.223   11.614
  372.966    6.678   66.204    0.506    0.250   12.494
  373.786    6.720   70.903    0.534    0.320   12.613
  374.606    6.781   71.802    0.568    0.318    9.358
  375.427    6.880   73.296    0.579    0.308    9.358
  376.247    6.844   76.532    0.595    0.324    8.031
  377.067    6.807   76.858    0.602    0.331    6.525
  377.887    6.810   75.444    0.604    0.330    6.525
  378.707    6.831   76.643    0.590    0.316    6.299
  379.528    6.853   79.006    0.588    0.288    5.652
  380.348    6.855   80.209    0.589    0.292    5.865
  381.168    6.761   81.113    0.565    0.276    6.367
  381.988    6.745   81.444    0.520    0.228    6.665
  382.808    6.747   78.566    0.521    0.236    6.790
  383.629    7.079   81.806    0.532    0.244    6.672
  384.449    7.081   87.950    0.529    0.242    6.672
  385.269    7.006   86.540    0.547    0.240    6.619
  386.089    7.202   88.317    0.549    0.250    6.273
  386.909    7.322   90.684    0.539    0.253    6.273
  387.730    7.285   92.469    0.553    0.249    6.279
  388.550    7.113   93.955    0.566    0.242    6.169
  389.370    6.941   93.418    0.573    0.238    6.229
  390.190    6.749   91.990    0.576    0.226    6.232
  391.010    6.732   90.866    0.592    0.222    6.179
  391.831    6.599   91.488    0.600    0.245    6.127
  392.651    6.660   92.974    0.615    0.268    6.131
  393.471    6.662   90.687    0.594    0.265    6.136
  394.291    6.975   90.431    0.604    0.270    6.082
  395.112    7.016   91.335    0.610    0.285    5.976
  395.932    6.980   88.757    0.597    0.297    5.976
  396.752    6.924   86.179    0.593    0.304    5.981
  397.572    6.907   83.597    0.594    0.309    5.719
  398.392    7.026   81.605    0.606    0.326    5.620
  399.213    7.009   80.173    0.612    0.333    5.625
  400.033    7.070   78.172    0.613    0.324    5.729
  400.853    7.072   80.253    0.583    0.330    6.052
  401.673    6.958   80.580    0.579    0.304    7.003
  402.493    6.883   77.706    0.558    0.320    7.132
  403.314    6.749   74.542    0.567    0.297    7.534
  404.134    6.713   72.832    0.541    0.288    7.888
  404.954    6.793   72.573    0.533    0.283    8.037
  405.774    6.776   72.904    0.541    0.280    7.896
  406.594    6.662   72.653    0.560    0.279    7.551
  407.415    6.626   71.525    0.577    0.273    7.221
  408.235    6.628   70.683    0.572    0.271    6.905
  409.055    6.437   71.010    0.572    0.275    6.722
  409.875    6.459   72.791    0.546    0.270    6.726
  410.696    6.577   76.612    0.557    0.281    6.915
  411.516    6.405   80.429    0.571    0.290    6.982
  412.336    6.679   79.597    0.582    0.286    6.799
  413.156    6.875   81.378    0.578    0.279    6.501
  413.976    7.208   84.322    0.561    0.301    5.995
  414.797    6.803   82.326    0.564    0.318    5.479
  415.617    6.747   79.448    0.578    0.335    5.239
  416.437    6.770   73.666    0.570    0.349    5.239
  417.257    6.771   69.629    0.547    0.346    5.198
  418.077    6.774   72.287    0.545    0.358    5.441
  418.898    6.738   75.532    0.544    0.368    5.748
  419.718    6.682   75.563    0.537    0.311    5.964
  420.538    6.529   78.507    0.563    0.287    5.913
  421.358    6.648   79.997    0.578    0.267    5.863
  422.178    6.825   75.960    0.580    0.166    6.082
  422.999    6.614   73.669    0.488    0.150    7.496
  423.819    6.752   75.450    0.523    0.192    7.568
  424.639    6.851   80.730    0.561    0.261    7.302
  425.459    6.970   79.893    0.581    0.293    7.111
  426.280    6.798   81.961    0.579    0.319    7.179
  427.100    6.296   81.128    0.572    0.305    7.248
  427.920    5.911   79.127    0.573    0.316    7.122
  428.740    5.758   77.427    0.580    0.332    6.936
  429.560    6.342   77.167    0.529    0.336    6.936
  430.381    6.539   76.907    0.523    0.335    6.819
  431.201    6.308   76.361    0.540    0.289    6.759
  432.021    6.427   79.019    0.538    0.289    6.703
  432.841    6.721   83.131    0.531    0.303    6.703
  433.661    6.742   83.458    0.528    0.297    6.710
  434.482    6.784   82.043    0.516    0.301    6.593
  435.302    6.747   82.075    0.519    0.280    6.593
  436.122    6.750   82.983    0.543    0.289    6.482
  436.942    6.946   84.768    0.567    0.267    6.427
  437.762    7.201   83.645    0.585    0.275    6.427
  438.583    7.146   82.512    0.573    0.286    6.433
  439.403    7.109   81.098    0.591    0.294    6.437
  440.223    7.150   79.384    0.606    0.283    6.558
  441.043    6.803   78.256    0.559    0.303    6.681
  441.864    6.631   77.714    0.567    0.300    6.807
  442.684    6.634   77.468    0.567    0.315    6.936
  443.504    6.655   77.794    0.575    0.334    7.002
  444.324    6.735   79.862    0.556    0.292    7.072
  445.144    6.855   81.065    0.562    0.278    7.138
  445.965    6.876   80.519    0.553    0.278    7.272
  446.785    6.762   78.223    0.543    0.279    7.272
  447.605    6.629   79.131    0.565    0.252    7.413
  448.425    6.903   82.953    0.571    0.228    6.836
  449.245    7.080   88.806    0.588    0.211    5.503
  450.066    7.296   89.428    0.603    0.275    5.262
  450.886    7.259   89.754    0.612    0.323    4.897
  451.706    7.378   88.917    0.621    0.293    4.812
  452.526    7.264   86.626    0.606    0.280    4.770
  453.346    7.344   85.207    0.601    0.265    4.861
  454.167    7.541   86.697    0.616    0.284    4.998
  454.987    7.660   84.406    0.611    0.286    5.091
  455.807    7.836   80.369    0.607    0.280    5.187
  456.627    7.451   82.736    0.614    0.257    5.187
  457.448    7.085   83.944    0.610    0.222    5.240
  458.268    7.010   84.261    0.612    0.194    5.243
  459.088    6.993   85.751    0.617    0.220    5.151
  459.908    6.995   88.705    0.618    0.254    5.016
  460.728    7.017   86.118    0.618    0.269    4.884
  461.549    6.865   84.122    0.617    0.271    4.884
  462.369    6.692   87.934    0.618    0.306    4.803
  463.189    6.578   88.556    0.618    0.331    4.892
  464.009    6.464   84.810    0.584    0.349    5.168
  464.829    6.448   81.069    0.539    0.295    5.661
  465.650    6.508   78.778    0.511    0.253    6.035
  466.470    6.452   79.681    0.524    0.192    5.985
  467.290    6.513   84.376    0.572    0.197    5.775
  468.110    6.535   90.520    0.564    0.232    5.521
  468.930    6.925   92.014    0.561    0.273    5.327
