~VERSION INFORMATION
 VERS.                 2.0:   CWLS LOG ASCII STANDARD -VERSION 2.0
 WRAP.                  NO:   ONE LINE PER DEPTH STEP
~WELL INFORMATION BLOCK
#MNEM.UNIT           DATA                    DESCRIPTION OF MNEMONIC
#---------    -------------------            -------------------------------
# Generated from Intellog Unique Number	CC_80_83/WELL/2304
NULL.         -999.25                        : NULL_VALUE
WELL.         CAN SUP PONY                   : Well_name    - WELL
LOC .         07-26-082-07W4                 : Location     - LOCATION          
UWI .         00/07-26-082-07W4/0            : Uwi          - UNIQUE WELL ID    
ENTR.         DW                             : Entered      - ENTERED BY        
SRVC.         SCHLUMBERGER                   : Scn          - SERVICE COMPANY   
DATE.         22 FEB 77                      : Date         - LOG DATE
STRT.M        198.12                         : top_depth    - START DEPTH       
STOP.M        451.109                        : bot_depth    - STOP DEPTH        
STEP.M        0.305                          : increment    - STEP LENGTH       
~CURVE INFORMATION BLOCK
#MNEM UNIT       ERCB CURVE CODE    CURVE DESCRIPTION
#-----------   ------------------   ----------------------------------
DEPT.M        00 001 00 00         : DEPTH        - DEPTH                       
DPHI.V/V      00 890 00 00         : PHID         - DENSITY POROSITY (LIMESTONE)
NPHI.V/V      00 330 00 00         : PHIN         - NEUTRON POROSITY (LIMESTONE)
GR  .API      00 310 00 00         : GR           - GAMMA RAY                   
ILD .OHMM     00 120 00 00         : RESD         - DEEP RESISTIVITY (DIL)      
~PARAMETER INFORMATION       
#MNEM.UNIT           DATA             DESCRIPTION OF MNEMONIC
#---------         -----------     ------------------------------
GL  .M        651.967              : gl           - GROUND LEVEL ELEVATION      
EREF.M        655.625              : kb           - ELEVATION OF DEPTH REFERENCE
DATM.M        655.625              : datum        - DATUM ELEVATION             
TDD .M        457.81               : tdd          - TOTAL DEPTH DRILLER         
RUN .         ONE                  : Run          - RUN NUMBER                  
ENG .         BILL                 : Engineer     - RECORDING ENGINEER          
WIT .         JIM                  : Witness      - WITNESSED BY                
MUD .         GEL                  : Mud_type     - MUD TYPE                    
MATR.         LIMESTONE            : Logunit      - NEUTRON MATRIX              
TMAX.C        31.1111              : BHT          - MAXIMUM RECORDED TEMPERATURE
BHTD.M        457.81               : BHTDEP       - MAXIMUM RECORDED TEMPERATURE
MATR.         1                    : LOGUNIT      - NEUTRON MATRIX              
RMT .C        25                   : MDTP         - TEMPERATURE OF MUD          
NEUT.         1                    : NEUTRON      - NEUTRON TYPE                
RESI.         0                    : RESIST       - RESISTIVITY TYPE            
RMC .OHMM     0.25                 : RMC          - RESISTIVITY OF MUD CAKE     
RMF .OHMM     0.25                 : RMF          - RESISTIVITY OF MUD FILTRATE 
SUFT.C        4                    : SUFT         - SURFACE TEMPERATURE         
~A  DEPTH     PHID     PHIN       GR     RESD
# ...
  251.154    0.299    0.411   81.826   17.245
  251.459    0.291    0.409   81.181   15.969
  251.764    0.283    0.413   84.847   13.959
  252.069    0.273    0.432   91.582   12.925
  252.373    0.265    0.433   81.713   11.740
  252.678    0.273    0.418   77.994   11.077
  252.983    0.270    0.417   79.808   11.281
  253.288    0.270    0.412   84.707   13.128
  253.593    0.264    0.410   96.357   13.894
  253.897    0.276    0.415  102.479   14.425
  254.202    0.261    0.433  110.443   11.909
  254.507    0.238    0.429  115.334   10.414
  254.812    0.215    0.438  118.376    8.932
  255.117    0.225    0.457  122.043    7.961
  255.421    0.218    0.470  130.004    6.829
  255.726    0.207    0.478  128.130    6.086
  256.031    0.196    0.487  121.340    6.199
  256.336    0.198    0.480  115.773    7.352
  256.641    0.222    0.437  113.290    8.396
  256.945    0.233    0.429  111.423    9.588
  257.250    0.261    0.425  108.313   10.740
  257.555    0.239    0.420  107.059   11.363
  257.860    0.227    0.427  107.029   11.353
  258.165    0.225    0.433  109.466   10.920
  258.469    0.227    0.435  112.512   10.505
  258.774    0.218    0.455  114.937    9.912
  259.079    0.237    0.445  117.980    9.353
  259.384    0.254    0.423  117.344    8.994
  259.689    0.251    0.460  110.552    8.653
  259.993    0.267    0.490  108.068    8.646
  260.298    0.270    0.512  108.657    8.975
  260.603    0.288    0.456  103.097    9.864
  260.908    0.270    0.437   96.303   10.638
  261.213    0.266    0.415   90.126   11.694
  261.517    0.253    0.394   87.641   12.607
  261.822    0.237    0.388   94.991   13.090
  262.127    0.246    0.429  105.408   13.081
  262.432    0.211    0.463  110.306   12.823
  262.737    0.201    0.480  113.965   12.567
  263.042    0.213    0.482  110.866   12.324
  263.346    0.224    0.485  107.760   11.627
  263.651    0.234    0.492  107.114   10.362
  263.956    0.241    0.507  104.018    9.234
  264.261    0.235    0.502   94.761    8.229
  264.566    0.222    0.476   88.588    7.475
  264.870    0.240    0.451   83.032    7.054
  265.175    0.247    0.456   75.008    7.185
  265.480    0.273    0.464   69.450    7.896
  265.785    0.288    0.447   66.963    8.516
  266.090    0.272    0.438   66.316    9.361
  266.394    0.287    0.419   63.831   10.287
  266.699    0.293    0.435   59.492   10.681
  267.004    0.295    0.446   58.243   11.301
  267.309    0.283    0.434   54.528   12.419
  267.614    0.312    0.417   52.652   13.394
  267.918    0.333    0.405   53.845   14.721
  268.223    0.323    0.414   54.441   15.576
  268.528    0.325    0.408   55.634   16.481
  268.833    0.330    0.408   55.610   17.108
  269.138    0.299    0.406   54.356   17.095
  269.443    0.302    0.409   53.100   17.410
  269.747    0.302    0.403   53.075   17.395
  270.052    0.298    0.397   56.110   17.379
  270.357    0.299    0.399   58.539   17.038
  270.662    0.305    0.409   59.127   16.706
  270.967    0.318    0.404   59.103   16.691
  271.271    0.304    0.400   62.768   17.000
  271.576    0.300    0.392   69.507   17.646
  271.881    0.296    0.402   86.079   18.315
  272.186    0.297    0.457   94.657   18.657
  272.491    0.307    0.509  100.770   17.944
  272.795    0.314    0.500  101.361   16.612
  273.100    0.307    0.503   98.261   15.381
  273.405    0.297    0.477   85.323   14.791
  273.710    0.273    0.434   73.001   14.782
  274.015    0.252    0.394   53.299   16.248
  274.319    0.267    0.402   44.659   18.907
  274.624    0.316    0.404   43.401   20.394
  274.929    0.260    0.424   44.605   22.416
  275.234    0.246    0.451   47.037   22.829
  275.539    0.282    0.459   50.078   21.958
  275.844    0.334    0.428   51.286   20.326
  276.148    0.342    0.432   48.795   19.179
  276.453    0.342    0.444   45.687   18.102
  276.758    0.355    0.421   43.200   17.407
  277.063    0.342    0.389   41.945   17.395
  277.368    0.350    0.402   41.922   17.712
  277.672    0.355    0.411   42.505   18.038
  277.977    0.353    0.407   44.322   18.030
  278.282    0.355    0.409   45.530   18.014
  278.587    0.358    0.415   46.728   18.001
  278.892    0.346    0.409   46.698   18.686
  279.196    0.356    0.415   47.291   18.668
  279.501    0.345    0.415   49.721   18.304
  279.806    0.357    0.414   55.221   16.942
  280.111    0.316    0.419   58.885   15.990
  280.416    0.296    0.433   56.399   14.248
  280.720    0.318    0.429   53.287   13.442
  281.025    0.350    0.421   52.652   13.436
  281.330    0.356    0.415   53.242   15.935
  281.635    0.356    0.413   59.358   17.186
  281.940    0.359    0.405   61.793   18.185
  282.245    0.349    0.394   58.061   18.520
  282.549    0.346    0.399   56.818   18.504
  282.854    0.353    0.421   61.093   18.143
  283.159    0.354    0.432   74.594   17.121
  283.464    0.305    0.410   88.707   14.970
  283.769    0.258    0.408   91.132   11.896
  284.073    0.222    0.430   91.110   10.206
  284.378    0.220    0.458   89.853    8.925
  284.683    0.230    0.471   89.824    7.803
  284.988    0.239    0.470   92.869    7.223
  285.293    0.254    0.470   91.607    7.497
  285.597    0.226    0.470   92.199    7.637
  285.902    0.229    0.455   95.247    8.235
  286.207    0.260    0.437   95.217    8.880
  286.512    0.254    0.443   92.731    9.218
  286.817    0.219    0.461   89.624    9.212
  287.121    0.226    0.463   90.822    9.031
  287.426    0.256    0.456   92.029    8.686
  287.731    0.241    0.435   95.682    8.352
  288.036    0.244    0.445   97.502    8.346
  288.341    0.225    0.451   96.248    8.501
  288.646    0.243    0.432   93.149    8.824
  288.950    0.246    0.432   92.504    8.987
  289.255    0.244    0.452   91.863    8.812
  289.560    0.257    0.490   88.761    7.704
  289.865    0.276    0.501   86.268    5.783
  290.170    0.292    0.464   93.007    2.695
  290.474    0.288    0.451  102.203    1.947
  290.779    0.242    0.475  108.939    1.768
  291.084    0.208    0.505  111.361    1.944
  291.389    0.214    0.516  112.565    2.351
  291.694    0.221    0.509  113.771    2.953
  291.998    0.230    0.504  110.052    3.927
  292.303    0.216    0.491  108.182    4.485
  292.608    0.213    0.514  108.154    4.481
  292.913    0.218    0.544  107.514    4.228
  293.218    0.226    0.527  104.410    4.067
  293.522    0.227    0.512  102.540    3.910
  293.827    0.237    0.509  100.667    3.908
  294.132    0.251    0.530  100.024    3.832
  294.437    0.271    0.546   99.987    3.977
  294.742    0.252    0.540   97.509    4.051
  295.047    0.265    0.540   95.639    4.205
  295.351    0.255    0.555   96.226    4.282
  295.656    0.244    0.497   88.805    3.889
  295.961    0.271    0.500   88.174    3.669
  296.266    0.250    0.514   90.608    3.598
  296.571    0.279    0.524   93.040    3.665
  296.875    0.294    0.545   92.389    3.952
  297.180    0.287    0.560   93.599    4.262
  297.485    0.270    0.565   94.176    4.258
  297.790    0.268    0.537   96.003    4.096
  298.095    0.253    0.549   96.588    3.650
  298.399    0.232    0.578   95.330    3.253
  298.704    0.251    0.550   90.997    2.954
  299.009    0.262    0.523   87.897    2.842
  299.314    0.294    0.515   87.865    2.786
  299.619    0.274    0.558   86.608    3.121
  299.923    0.271    0.513   85.355    3.430
  300.228    0.296    0.492   76.717    3.843
  300.533    0.316    0.483   71.770    4.145
  300.838    0.307    0.454   66.824    4.824
  301.143    0.340    0.474   63.108    5.615
  301.448    0.320    0.464   64.312    7.327
  301.752    0.348    0.446   64.282   10.518
  302.057    0.352    0.448   61.179   12.717
  302.362    0.356    0.446   59.916   13.713
  302.667    0.367    0.458   61.118   13.444
  302.972    0.363    0.444   62.318   13.180
  303.276    0.338    0.441   60.452   12.922
  303.581    0.327    0.427   57.346   13.161
  303.886    0.307    0.408   55.479   15.027
