~VERSION INFORMATION
 VERS.                 2.0:   CWLS LOG ASCII STANDARD -VERSION 2.0
 WRAP.                  NO:   ONE LINE PER DEPTH STEP
~WELL INFORMATION BLOCK
#MNEM.UNIT           DATA                    DESCRIPTION OF MNEMONIC
#---------    -------------------            -------------------------------
# Generated from Intellog Unique Number	CS_73_76/WELL/1997
WELL.         06-31-076-12W4                 : Well_name    - WELL
LOC .         00/06-31-076-12W4/0            : Location     - LOCATION
UWI .         00/06-31-076-12W4/0            : Uwi          - UNIQUE WELL ID
ENTR.         SP                             : Entered      - ENTERED BY
SRVC.         SCHLUMBERGER                   : Scn          - SERVICE COMPANY
STRT.M        310.896                        : top_depth    - START DEPTH
STOP.M        545.396                        : bot_depth    - STOP DEPTH
STEP.M        0.25                           : increment    - STEP LENGTH
 NULL. -999.2500:NULL Value
~CURVE INFORMATION BLOCK
#MNEM UNIT       ERCB CURVE CODE    CURVE DESCRIPTION
#-----------   ------------------   ----------------------------------
DEPT.M        00 001 00 00         : DEPTH        - DEPTH
GR  .API      00 310 00 00         : GR           - GAMMA RAY
DPHI.V/V      00 890 00 00         : PHID         - DENSITY POROSITY (SANDSTONE)
NPHI.V/V      00 330 00 00         : PHIN         - NEUTRON POROSITY (SANDSTONE)
ILD .OHMM     00 120 00 00         : RESD         - DEEP RESISTIVITY (DIL)
~PARAMETER INFORMATION
#MNEM.UNIT           DATA             DESCRIPTION OF MNEMONIC
#---------         -----------     ------------------------------
GL  .M        698.998              : gl           - GROUND LEVEL ELEVATION
EREF.M        702.564              : kb           - ELEVATION OF DEPTH REFERENCE
DATM.M        698.998              : datum        - DATUM ELEVATION
TDD .M        547.726              : tdd          - TOTAL DEPTH DRILLER
RUN .         ONE                  : Run          - RUN NUMBER
ENG .         BILL                 : Engineer     - RECORDING ENGINEER
WIT .         JIM                  : Witness      - WITNESSED BY
MUD .         GEL                  : Mud_type     - MUD TYPE
MATR.         SANDSTONE            : Logunit      - NEUTRON MATRIX
TMAX.C        23.3333              : BHT          - MAXIMUM RECORDED TEMPERATURE
BHTD.M        547.726              : BHTDEP       - MAXIMUM RECORDED TEMPERATURE
MATR.         1                    : LOGUNIT      - NEUTRON MATRIX
RMT .C        25                   : MDTP         - TEMPERATURE OF MUD
NEUT.         1                    : NEUTRON      - NEUTRON TYPE
RESI.         0                    : RESIST       - RESISTIVITY TYPE
RMC .OHMM     0.25                 : RMC          - RESISTIVITY OF MUD CAKE
RMF .OHMM     0.25                 : RMF          - RESISTIVITY OF MUD FILTRATE
SUFT.C        15                   : SUFT         - SURFACE TEMPERATURE
~A  DEPTH       GR     PHID     PHIN     RESD
# ...
  484.896   95.998    0.277    0.394   24.578
  485.146  100.970    0.267    0.413   23.669
  485.396  103.324    0.259    0.418   20.740
  485.646  106.117    0.241    0.422   18.756
  485.896   98.964    0.222    0.446   18.267
  486.146   91.197    0.229    0.453   20.153
  486.396   84.298    0.251    0.441   22.692
  486.646   83.120    0.264    0.424   25.456
  486.896   85.512    0.278    0.424   25.814
  487.146   88.865    0.276    0.424   24.500
  487.396   93.671    0.263    0.436   20.664
  487.646   99.727    0.257    0.433   16.031
  487.896  107.785    0.232    0.445   13.593
  488.146  109.253    0.210    0.450   12.119
  488.396  106.081    0.196    0.453   11.508
  488.646  103.450    0.202    0.425   11.476
  488.896  105.477    0.222    0.404   11.456
  489.146  108.919    0.233    0.415   12.316
  489.396  110.394    0.222    0.460   12.887
  489.646  104.619    0.208    0.474   14.606
  489.896   96.696    0.202    0.468   16.889
  490.146   87.191    0.194    0.454   20.993
  490.396   81.916    0.201    0.445   27.612
  490.646   75.458    0.223    0.448   33.196
  490.896   71.369    0.251    0.436   37.739
  491.146   71.343    0.294    0.426   37.575
  491.396   72.876    0.305    0.414   32.627
  491.646   74.399    0.283    0.405   27.565
  491.896   76.409    0.265    0.390   24.253
  492.146   77.551    0.250    0.380   21.698
  492.396   78.547    0.226    0.377   20.180
  492.646   79.616    0.214    0.374   20.408
  492.896   78.015    0.204    0.372   23.336
  493.146   72.797    0.197    0.374   26.189
  493.396   70.891    0.230    0.372   30.238
  493.646   65.113    0.260    0.378   39.416
  493.896   63.774    0.302    0.415   43.734
  494.146   62.069    0.316    0.426   43.739
  494.396   61.141    0.307    0.415   39.470
  494.646   63.839    0.269    0.400   34.336
  494.896   70.868    0.268    0.383   27.310
  495.146   75.332    0.260    0.380   23.761
  495.396   81.556    0.247    0.370   20.199
  495.646   86.230    0.227    0.360   18.476
  495.896   91.870    0.214    0.354   17.086
  496.146   96.654    0.203    0.351   16.359
  496.396   98.021    0.190    0.350   16.054
  496.646   93.931    0.185    0.360   15.767
  496.896   90.877    0.177    0.376   15.765
  497.146   87.859    0.190    0.370   15.755
  497.396   83.521    0.209    0.383   15.485
  497.646   80.729    0.228    0.388   15.104
  497.896   79.076    0.238    0.390   16.040
  498.146   76.605    0.240    0.395   17.201
  498.396   76.254    0.248    0.397   18.789
  498.646   76.639    0.252    0.394   19.878
  498.896   77.564    0.269    0.386   22.205
  499.146   79.392    0.277    0.391   22.848
  499.396   82.186    0.261    0.389   21.520
  499.646   88.514    0.253    0.383   19.515
  499.896   91.017    0.236    0.382   18.526
  500.146   90.051    0.228    0.377   18.688
  500.396   87.436    0.200    0.376   17.815
  500.646   85.541    0.199    0.386   17.506
  500.896   83.289    0.220    0.384   17.122
  501.146   83.395    0.233    0.380   17.979
  501.396   83.769    0.246    0.379   18.480
  501.646   83.159    0.251    0.381   20.259
  501.896   79.023    0.248    0.390   22.418
  502.146   81.430    0.259    0.388   23.718
  502.396   88.005    0.250    0.392   27.663
  502.646   84.113    0.242    0.398   30.174
  502.896   78.291    0.247    0.397   34.730
  503.146   86.052    0.260    0.392   39.468
  503.396   92.499    0.278    0.387   43.094
  503.646   93.617    0.293    0.392   49.090
  503.896   87.888    0.274    0.393   52.872
  504.146   82.502    0.278    0.382   57.415
  504.396   76.168    0.276    0.373   64.263
  504.646   71.562    0.285    0.381   72.960
  504.896   63.087    0.301    0.385   78.069
  505.146   53.772    0.307    0.388   82.687
  505.396   47.586    0.298    0.391   89.580
  505.646   47.413    0.305    0.390   98.267
  505.896   49.080    0.309    0.381  105.032
  506.146   51.472    0.307    0.372  120.128
  506.396   54.036    0.301    0.367  131.635
  506.646   54.485    0.294    0.369  144.071
  506.896   54.420    0.290    0.374  163.103
  507.146   61.254    0.282    0.380  206.313
  507.396   65.790    0.293    0.386  264.967
  507.646   68.009    0.301    0.395  291.325
  507.896   70.433    0.295    0.402  291.392
  508.146   76.546    0.292    0.409  264.339
  508.396   81.412    0.306    0.417  227.473
  508.646   85.891    0.312    0.423  188.844
  508.896   87.966    0.314    0.418  130.455
  509.146   88.433    0.313    0.404  108.466
  509.396   86.867    0.312    0.397   96.777
  509.646   82.821    0.301    0.394   93.251
  509.896   77.085    0.301    0.402   92.608
  510.146   70.749    0.283    0.406   97.659
  510.396   64.994    0.278    0.411  100.455
  510.646   72.223    0.294    0.409   99.726
  510.896   82.490    0.285    0.405   89.403
  511.146   91.090    0.283    0.398   80.864
  511.396   96.759    0.285    0.395   72.383
  511.646   98.720    0.284    0.398   66.398
  511.896   91.895    0.280    0.404   62.479
  512.146   85.592    0.279    0.416   62.692
  512.396   80.920    0.283    0.414   66.182
  512.646   76.918    0.297    0.411   72.998
  512.896   74.704    0.286    0.418   87.411
  513.146   72.707    0.282    0.408   97.070
  513.396   73.978    0.299    0.410  113.495
  513.646   79.733    0.306    0.406  127.529
  513.896   84.039    0.302    0.403  133.947
  514.146   92.737    0.309    0.404  146.196
  514.396   98.136    0.312    0.415  163.108
  514.646  101.357    0.319    0.420  169.486
  514.896  103.717    0.315    0.414  168.909
  515.146  104.616    0.308    0.409  153.432
  515.396  105.013    0.300    0.405  140.151
  515.646  106.933    0.297    0.419  128.992
  515.896  108.256    0.298    0.435  118.809
  516.146  110.898    0.313    0.422  108.679
  516.396  113.467    0.298    0.412   92.351
  516.646  114.031    0.300    0.419   79.724
  516.896  112.186    0.306    0.433   68.844
  517.146  110.765    0.304    0.441   63.623
  517.396  108.138    0.296    0.436   60.779
  517.646  104.635    0.288    0.426   59.115
  517.896  101.347    0.288    0.407   56.350
  518.146  101.687    0.279    0.388   44.487
  518.396  100.735    0.264    0.384   44.312
  518.646   99.003    0.260    0.390   33.485
  518.896   96.058    0.274    0.391   19.429
  519.146   92.741    0.293    0.383    9.255
  519.396   84.112    0.297    0.388    6.854
  519.646   76.137    0.284    0.397    5.772
  519.896   71.120    0.277    0.400    5.110
  520.146   66.262    0.286    0.395    4.800
  520.396   62.483    0.306    0.394    4.650
  520.646   58.011    0.320    0.389    4.626
  520.896   55.133    0.304    0.381    4.708
  521.146   55.019    0.307    0.380    4.914
  521.396   60.364    0.311    0.383    4.991
  521.646   65.167    0.303    0.381    5.247
  521.896   68.464    0.308    0.378    5.468
  522.146   68.630    0.300    0.375    5.702
  522.396   70.955    0.292    0.367    5.875
  522.646   75.813    0.280    0.364    6.305
  522.896   80.011    0.274    0.357    6.472
  523.146   82.616    0.248    0.362    6.696
  523.396   80.257    0.235    0.377    6.578
  523.646   75.956    0.226    0.392    6.594
  523.896   73.972    0.244    0.382    6.524
  524.146   72.870    0.245    0.379    6.482
  524.396   72.906    0.230    0.365    6.481
  524.646   72.892    0.222    0.365    6.485
  524.896   72.808    0.258    0.358    6.496
  525.146   70.835    0.244    0.358    6.717
  525.396   69.534    0.234    0.358    6.772
  525.646   73.663    0.240    0.348    6.993
  525.896   75.873    0.251    0.343    6.983
  526.146   77.303    0.259    0.339    6.911
  526.396   77.124    0.240    0.344    6.619
  526.646   71.966    0.230    0.358    6.183
  526.896   66.488    0.223    0.369    5.869
  527.146   63.699    0.233    0.366    5.441
  527.396   65.533    0.246    0.368    4.935
  527.646   66.433    0.246    0.385    4.354
  527.896   56.556    0.248    0.404    4.008
  528.146   53.835    0.267    0.415    3.561
