~VERSION INFORMATION
 VERS.                 2.0:   CWLS LOG ASCII STANDARD -VERSION 2.0
 WRAP.                  NO:   ONE LINE PER DEPTH STEP
~WELL INFORMATION BLOCK
#MNEM.UNIT           DATA                    DESCRIPTION OF MNEMONIC
#---------    -------------------            -------------------------------
# Generated from Intellog Unique Number	CW_70_72/WELL/591
NULL.         -999.25                        : NULL_VALUE
WELL.         SUNDANCE CANAL 06-07           : Well_name    - WELL              
LOC .         06-07-071-22W4                 : Location     - LOCATION          
UWI .         00/06-07-071-22W4/0            : Uwi          - UNIQUE WELL ID    
ENTR.         JAYE                           : Entered      - ENTERED BY        
SRVC.         SCHLUMBERGER                   : Scn          - SERVICE COMPANY   
DATE.         2 MAR 77                       : Date         - LOG DATE          
STRT.M        429.768                        : top_depth    - START DEPTH       
STOP.M        627.768                        : bot_depth    - STOP DEPTH        
STEP.M        0.25                           : increment    - STEP LENGTH       
~CURVE INFORMATION BLOCK
#MNEM UNIT       ERCB CURVE CODE    CURVE DESCRIPTION
#-----------   ------------------   ----------------------------------
DEPT.M        00 001 00 00         : DEPTH        - DEPTH                       
DPHI.V/V      00 890 00 00         : PHID         - DENSITY POROSITY (SANDSTONE)
NPHI.V/V      00 330 00 00         : PHIN         - NEUTRON POROSITY (SANDSTONE)
GR  .API      00 310 00 00         : GR           - GAMMA RAY                   
CALI.MM       00 280 01 00         : CAL          - CALIPER                     
ILD .OHMM     00 120 00 00         : RESD         - DEEP RESISTIVITY (DIL)      
~PARAMETER INFORMATION       
#MNEM.UNIT           DATA             DESCRIPTION OF MNEMONIC
#---------         -----------     ------------------------------
GL  .M        669.188              : gl           - GROUND LEVEL ELEVATION      
EREF.M        672.998              : kb           - ELEVATION OF DEPTH REFERENCE
DATM.M        669.188              : datum        - DATUM ELEVATION             
TDD .M        632.46               : tdd          - TOTAL DEPTH DRILLER         
RUN .         ONE                  : Run          - RUN NUMBER                  
ENG .         ACKERMAN/MCKAY       : Engineer     - RECORDING ENGINEER          
WIT .         CHRISTENSEN          : Witness      - WITNESSED BY                
BASE.         EDM                  : Branch       - HOME BASE OF LOGGING UNIT   
MUD .         GEL                  : Mud_type     - MUD TYPE                    
MATR.         SANDSTONE            : Logunit      - NEUTRON MATRIX              
TMAX.C        27.2222              : BHT          - MAXIMUM RECORDED TEMPERATURE
BHTD.M        632.46               : BHTDEP       - MAXIMUM RECORDED TEMPERATURE
RMT .C        8.88889              : MDTP         - TEMPERATURE OF MUD          
MUDD.KG/M     1104                 : MWT          - MUD DENSITY                 
NEUT.         1                    : NEUTRON      - NEUTRON TYPE                
RESI.         0                    : RESIST       - RESISTIVITY TYPE            
RM  .OHMM     4.85                 : RM           - RESISTIVITY OF MUD          
RMC .OHMM     0                    : RMC          - RESISTIVITY OF MUD CAKE     
RMF .OHMM     0                    : RMF          - RESISTIVITY OF MUD FILTRATE 
SUFT.C        -17.7778             : SUFT         - SURFACE TEMPERATURE         
~A  DEPTH     PHID     PHIN       GR      CAL     RESD
  429.768    0.169    0.528  121.048  176.835    2.600
  430.018    0.155    0.543  117.984  175.757    2.574
  430.268    0.154    0.538  118.436  173.335    2.553
  430.518    0.164    0.526  119.548  169.884    2.560
  430.768    0.161    0.514  119.028  165.726    2.623
  431.018    0.188    0.500  116.148  164.028    2.789
  431.268    0.193    0.494  112.722  165.406    3.080
  431.518    0.181    0.495  108.327  167.798    3.522
  431.768    0.191    0.462  102.294  172.562    4.116
  432.018    0.213    0.442   93.356  172.909    4.845
  432.268    0.208    0.402   85.087  168.853    5.926
  432.518    0.163    0.371   78.388  161.508    6.208
  432.768    0.089    0.360   82.954  152.420    5.970
  433.018    0.128    0.401   88.791  149.593    5.494
  433.268    0.200    0.416   95.055  151.481    4.938
  433.518    0.229    0.435   99.802  153.678    4.264
  433.768    0.213    0.452  106.306  156.385    3.853
  434.018    0.215    0.474  111.841  158.273    3.444
  434.268    0.207    0.491  120.406  160.055    2.974
  434.518    0.197    0.509  127.150  161.944    2.972
  434.768    0.186    0.525  130.264  167.525    3.300
  435.018    0.203    0.485  126.113  180.693    3.877
  435.268    0.247    0.443  121.717  176.526    4.314
  435.518    0.208    0.428  117.137  164.164    4.437
  435.768    0.199    0.420  109.778  162.568    4.441
  436.018    0.193    0.406  104.049  161.899    4.511
  436.268    0.184    0.392  101.165  162.032    4.658
  436.518    0.213    0.396  100.766  161.561    4.808
  436.768    0.203    0.403   98.672  160.792    5.073
  437.018    0.193    0.451   93.551  159.907    5.522
  437.268    0.229    0.472   87.219  157.382    6.099
  437.518    0.250    0.455   81.308  155.476    6.554
  437.768    0.216    0.440   76.729  154.397    6.954
  438.018    0.212    0.434   72.454  154.344    7.286
  438.268    0.186    0.425   68.788  154.689    7.440
  438.518    0.164    0.409   67.541  155.642    7.541
  438.768    0.154    0.390   67.623  158.764    7.604
  439.018    0.144    0.382   68.435  160.344    7.485
  439.268    0.165    0.378   70.158  159.766    7.054
  439.518    0.184    0.375   71.575  158.375    6.238
  439.768    0.176    0.371   73.475  156.677    5.617
  440.018    0.179    0.380   76.711  156.007    5.030
  440.268    0.184    0.396   81.459  156.251    4.538
  440.518    0.192    0.405   86.510  157.004    4.245
  440.768    0.183    0.429   92.166  158.175    4.030
  441.018    0.153    0.452   96.308  159.138    3.896
  441.268    0.207    0.448   99.543  159.384    3.768
  441.518    0.198    0.440  103.683  158.308    3.737
  441.768    0.186    0.455  112.065  158.040    3.754
  442.018    0.169    0.472  110.697  158.589    3.812
  442.268    0.205    0.463  102.365  160.685    3.864
  442.518    0.208    0.446   96.213  162.569    3.967
  442.768    0.212    0.440   93.818  165.790    4.149
  443.018    0.249    0.468   94.995  169.937    4.354
  443.268    0.247    0.451   97.802  175.309    4.595
  443.518    0.214    0.438  100.672  178.938    4.751
  443.768    0.212    0.448   93.551  170.779    4.960
  444.018    0.260    0.426   84.371  160.980    5.186
  444.268    0.246    0.398   81.127  154.969    5.503
  444.518    0.220    0.401   91.023  153.166    5.946
  444.768    0.185    0.429   98.799  152.798    6.402
  445.018    0.232    0.449   81.868  152.946    6.841
  445.268    0.216    0.433   69.782  153.804    7.823
  445.518    0.229    0.404   62.176  155.177    9.209
  445.768    0.246    0.388   54.815  157.689   12.566
  446.018    0.245    0.380   55.873  159.160   18.079
  446.268    0.248    0.406   55.049  160.225   24.093
  446.518    0.239    0.403   50.711  160.983   29.956
  446.768    0.256    0.389   41.956  162.159   31.729
  447.018    0.268    0.368   40.466  163.228   28.054
  447.268    0.268    0.363   43.095  163.882   21.555
  447.518    0.273    0.378   48.992  163.510   16.291
  447.768    0.282    0.378   57.737  162.321   12.564
  448.018    0.272    0.360   66.301  160.829    9.688
  448.268    0.258    0.371   76.921  159.636    7.061
  448.518    0.242    0.391   82.456  158.038    6.130
  448.768    0.228    0.411   87.991  155.113    5.391
  449.018    0.213    0.405   92.619  153.713    4.819
  449.268    0.218    0.387   98.035  152.633    4.550
  449.518    0.217    0.379  101.814  151.960    4.431
  449.768    0.199    0.390  103.957  153.023    4.434
  450.018    0.181    0.399  107.558  156.036    4.714
  450.268    0.179    0.411  109.697  159.260    4.938
  450.518    0.183    0.408  111.721  161.660    5.071
  450.768    0.181    0.407  114.954  163.139    5.084
  451.018    0.182    0.415  117.704  163.590    4.979
  451.268    0.189    0.434  115.731  164.044    4.813
  451.518    0.186    0.423  110.912  164.386    4.495
  451.768    0.181    0.412  106.940  165.150    3.576
  452.018    0.192    0.491  111.021  165.293    2.939
  452.268    0.206    0.536  118.193  166.366    2.456
  452.518    0.213    0.567  124.092  167.739    2.306
  452.768    0.180    0.558  128.174  169.828    2.377
  453.018    0.192    0.563  131.405  174.594    2.558
  453.268    0.158    0.574  134.401  178.628    3.181
  453.518    0.174    0.556  135.939  187.895    3.664
  453.768    0.209    0.484  137.053  181.994    4.083
  454.018    0.215    0.448  136.471  172.914    4.677
  454.268    0.187    0.443  127.838  168.545    5.185
  454.518    0.186    0.451  121.748  165.607    5.305
  454.768    0.186    0.453  114.868  162.884    5.242
  455.018    0.215    0.437   94.242  159.438    4.967
  455.268    0.225    0.426   86.094  154.763    4.522
  455.518    0.218    0.442   91.022  150.194    4.101
  455.768    0.218    0.457  104.008  148.805    3.789
  456.018    0.215    0.489  114.448  150.689    3.597
  456.268    0.199    0.514  123.494  154.727    3.639
  456.518    0.175    0.530  127.878  161.329    4.027
  456.768    0.212    0.535  114.764  172.856    4.580
  457.018    0.221    0.526  107.702  169.106    4.921
  457.268    0.237    0.502  100.280  163.508    5.445
  457.518    0.241    0.476   93.581  158.737    5.981
  457.768    0.231    0.465   93.970  157.035    5.964
  458.018    0.213    0.451   98.357  155.855    5.662
  458.268    0.217    0.440   98.263  155.168    5.259
  458.518    0.206    0.441   94.044  154.592    4.859
  458.768    0.227    0.445   86.321  154.123    4.688
  459.018    0.238    0.444   85.740  153.958    4.484
  459.268    0.241    0.445   89.578  153.998    4.280
  459.518    0.233    0.440   93.600  154.251    4.107
  459.768    0.224    0.437   94.716  155.012    3.885
  460.018    0.210    0.444   97.526  156.584    3.715
  460.268    0.197    0.463  101.484  158.679    3.533
  460.518    0.221    0.473   95.096  159.642    3.403
  460.768    0.256    0.453   91.663  159.176    3.255
  461.018    0.298    0.446   88.662  157.778    3.181
  461.268    0.274    0.444   95.045  156.079    3.190
  461.518    0.249    0.452   99.248  155.201    3.258
  461.768    0.241    0.471  104.967  155.137    3.388
  462.018    0.235    0.487  111.166  156.111    3.543
  462.268    0.225    0.485  114.641  157.380    3.670
  462.518    0.214    0.454  117.695  159.058    3.866
  462.768    0.245    0.432  116.266  161.250    4.014
  463.018    0.236    0.426  116.350  162.631    3.980
  463.268    0.224    0.429  117.710  160.926    3.876
  463.518    0.209    0.418  121.244  152.971    3.776
  463.768    0.200    0.421  125.997  150.551    3.690
  464.018    0.197    0.433  127.531  155.107    3.620
  464.268    0.200    0.448  123.259  160.174    3.572
  464.518    0.191    0.476  119.286  164.933    3.562
  464.768    0.209    0.459  112.164  163.431    3.557
  465.018    0.246    0.476   99.899  161.423    3.574
  465.268    0.272    0.496   89.688  159.418    3.578
  465.518    0.264    0.483   89.108  157.816    3.607
  465.768    0.262    0.462   90.403  156.221    3.696
  466.018    0.261    0.477   90.430  155.440    3.893
