~VERSION INFORMATION
 VERS.                 2.0:   CWLS LOG ASCII STANDARD -VERSION 2.0
 WRAP.                  NO:   ONE LINE PER DEPTH STEP
~WELL INFORMATION BLOCK
#MNEM.UNIT           DATA                    DESCRIPTION OF MNEMONIC
#---------    -------------------            -------------------------------
# Generated from Intellog Unique Number	CS_71_72/WELL/838
WELL.         AMOCO AEC IPIATIK              : Well_name    - WELL
LOC .         00/08-16-072-05W4/0            : Location     - LOCATION
UWI .         00/08-16-072-05W4/0            : Uwi          - UNIQUE WELL ID
ENTR.         SP                             : Entered      - ENTERED BY
SRVC.         SCHLUMBERGER                   : Scn          - SERVICE COMPANY
STRT.M        320                            : top_depth    - START DEPTH
STOP.M        560                            : bot_depth    - STOP DEPTH
STEP.M        0.25                           : increment    - STEP LENGTH
 NULL. -999.2500:NULL Value
~CURVE INFORMATION BLOCK
#MNEM UNIT       ERCB CURVE CODE    CURVE DESCRIPTION
#-----------   ------------------   ----------------------------------
DEPT.M        00 001 00 00         : DEPTH        - DEPTH
GR  .API      00 310 00 00         : GR           - GAMMA RAY
NPHI.V/V      00 330 00 00         : PHIN         - NEUTRON POROSITY (LIMESTONE)
DPHI.V/V      00 890 00 00         : PHID         - DENSITY POROSITY (LIMESTONE)
ILD .OHMM     00 120 00 00         : RESD         - DEEP RESISTIVITY (DIL)
~PARAMETER INFORMATION
#MNEM.UNIT           DATA             DESCRIPTION OF MNEMONIC
#---------         -----------     ------------------------------
GL  .M        697.9                : gl           - GROUND LEVEL ELEVATION
EREF.M        702.17               : kb           - ELEVATION OF DEPTH REFERENCE
DATM.M        697.9                : datum        - DATUM ELEVATION
TDD .M        583                  : tdd          - TOTAL DEPTH DRILLER
RUN .         ONE                  : Run          - RUN NUMBER
ENG .         BILL                 : Engineer     - RECORDING ENGINEER
WIT .         JIM                  : Witness      - WITNESSED BY
MUD .         GEL                  : Mud_type     - MUD TYPE
MATR.         LIMESTONE            : Logunit      - NEUTRON MATRIX
TMAX.C        20                   : BHT          - MAXIMUM RECORDED TEMPERATURE
BHTD.M        583                  : BHTDEP       - MAXIMUM RECORDED TEMPERATURE
MATR.         1                    : LOGUNIT      - NEUTRON MATRIX
RMT .C        25                   : MDTP         - TEMPERATURE OF MUD
NEUT.         1                    : NEUTRON      - NEUTRON TYPE
RESI.         0                    : RESIST       - RESISTIVITY TYPE
RMC .OHMM     0.25                 : RMC          - RESISTIVITY OF MUD CAKE
RMF .OHMM     0.25                 : RMF          - RESISTIVITY OF MUD FILTRATE
SUFT.C        15                   : SUFT         - SURFACE TEMPERATURE
~A  DEPTH       GR     PHIN     PHID     RESD
# ...
  450.500   79.955    0.474    0.250    6.699
  450.750   79.359    0.468    0.244    6.579
  451.000   78.763    0.472    0.237    6.578
  451.250   78.170    0.484    0.233    6.460
  451.500   78.176    0.491    0.230    6.459
  451.750   78.180    0.474    0.226    6.459
  452.000   77.584    0.473    0.221    6.343
  452.250   76.987    0.492    0.221    6.343
  452.500   78.200    0.497    0.235    6.230
  452.750   78.808    0.481    0.243    6.229
  453.000   79.417    0.473    0.239    6.689
  453.250   72.798    0.462    0.227    7.183
  453.500   67.382    0.442    0.055    9.727
  453.750   61.363    0.285    0.018   12.941
  454.000   55.346    0.226    0.003   15.746
  454.250   52.943    0.227   -0.001   16.908
  454.500   61.986    0.260    0.052   16.607
  454.750   71.634    0.337    0.155   14.140
  455.000   75.253    0.415    0.201   11.412
  455.250   80.078    0.467    0.234    8.576
  455.500   83.098    0.489    0.258    7.173
  455.750   84.311    0.485    0.264    6.443
  456.000   83.112    0.477    0.269    5.998
  456.250   79.505    0.470    0.262    5.787
  456.500   76.499    0.468    0.252    5.684
  456.750   74.096    0.476    0.253    5.785
  457.000   72.297    0.481    0.258    5.889
  457.250   72.301    0.483    0.263    6.211
  457.500   74.116    0.483    0.264    6.211
  457.750   75.325    0.452    0.249    6.210
  458.000   74.127    0.437    0.259    6.099
  458.250   74.737    0.428    0.247    5.780
  458.500   75.949    0.444    0.219    5.577
  458.750   76.558    0.461    0.235    5.380
  459.000   75.960    0.474    0.264    5.099
  459.250   75.366    0.467    0.286    4.663
  459.500   76.578    0.457    0.277    4.341
  459.750   76.583    0.474    0.270    4.188
  460.000   74.783    0.504    0.262    3.830
  460.250   77.201    0.522    0.276    3.630
  460.500   79.016    0.530    0.283    3.379
  460.750   80.226    0.535    0.286    3.260
  461.000   81.436    0.552    0.274    3.090
  461.250   82.045    0.561    0.270    3.035
  461.500   81.451    0.567    0.271    3.034
  461.750   80.251    0.574    0.274    3.088
  462.000   78.450    0.578    0.281    3.437
  462.250   73.036    0.566    0.284    3.625
  462.500   73.041    0.513    0.275    4.034
  462.750   76.664    0.472    0.250    4.332
  463.000   78.476    0.487    0.241    4.736
  463.250   80.291    0.496    0.254    5.086
  463.500   72.466    0.499    0.262    5.270
  463.750   67.049    0.493    0.253    5.461
  464.000   67.660    0.483    0.244    5.460
  464.250   69.473    0.483    0.247    5.362
  464.500   71.890    0.489    0.259    5.361
  464.750   68.281    0.485    0.264    5.556
  465.000   59.856    0.456    0.271    6.183
  465.250   61.670    0.429    0.260    7.523
  465.500   64.083    0.417    0.227   10.188
  465.750   65.295    0.418    0.198   13.314
  466.000   62.290    0.428    0.208   15.631
  466.250   60.490    0.439    0.231   17.087
  466.500   64.114    0.453    0.243   17.393
  466.750   65.924    0.463    0.249   15.624
  467.000   71.356    0.467    0.267   12.610
  467.250   73.168    0.472    0.263    9.997
  467.500   75.585    0.485    0.249    7.926
  467.750   78.604    0.507    0.239    6.629
  468.000   81.624    0.521    0.242    5.255
  468.250   82.835    0.509    0.252    4.637
  468.500   83.442    0.496    0.241    4.395
  468.750   84.050    0.489    0.236    4.091
  469.000   83.454    0.492    0.234    4.019
  469.250   81.051    0.498    0.231    4.018
  469.500   75.636    0.490    0.239    4.163
  469.750   69.620    0.483    0.248    4.314
  470.000   66.614    0.473    0.248    4.633
  470.250   64.812    0.460    0.253    5.439
  470.500   64.216    0.446    0.271    6.737
  470.750   61.210    0.442    0.285    8.345
  471.000   58.206    0.446    0.296    9.454
  471.250   59.418    0.448    0.290   15.035
  471.500   60.025    0.449    0.284   21.481
  471.750   59.431    0.453    0.282   23.067
  472.000   57.029    0.461    0.279   23.480
  472.250   55.827    0.458    0.255   24.767
  472.500   52.221    0.422    0.207   30.136
  472.750   48.614    0.246    0.116   39.380
  473.000   46.812    0.192    0.058   45.419
  473.250   45.613    0.182    0.025   49.649
  473.500   50.440    0.206    0.071   49.642
  473.750   55.266    0.246    0.127   47.048
  474.000   58.886    0.284    0.188   43.025
  474.250   61.302    0.311    0.234   37.294
  474.500   62.514    0.345    0.256   32.910
  474.750   61.920    0.416    0.278   29.562
  475.000   61.324    0.454    0.307   27.033
  475.250   60.726    0.450    0.317   26.083
  475.500   60.736    0.461    0.316   24.717
  475.750   60.138    0.477    0.310   24.277
  476.000   60.749    0.491    0.308   24.274
  476.250   60.754    0.483    0.306   24.270
  476.500   61.362    0.475    0.306   25.149
  476.750   61.371    0.469    0.308   27.006
  477.000   60.776    0.475    0.305   28.997
  477.250   60.781    0.478    0.298   29.517
  477.500   58.981    0.474    0.305   29.514
  477.750   54.769    0.466    0.309   28.987
  478.000   54.775    0.462    0.302   27.470
  478.250   55.384    0.467    0.291   26.504
  478.500   55.391    0.462    0.280   25.119
  478.750   54.798    0.452    0.320   23.382
  479.000   54.804    0.450    0.305   22.559
  479.250   54.812    0.452    0.298   22.157
  479.500   54.817    0.452    0.304   22.153
  479.750   55.424    0.461    0.311   21.758
  480.000   57.239    0.418    0.304   21.371
  480.250   60.861    0.379    0.287   19.896
  480.500   63.276    0.329    0.123   15.773
  480.750   68.103    0.334    0.079   12.066
  481.000   72.327    0.419    0.143   10.092
  481.250   77.153    0.461    0.230    9.066
  481.500   79.568    0.475    0.260    7.859
  481.750   82.587    0.476    0.266    6.456
  482.000   83.797    0.470    0.261    6.011
  482.250   82.599    0.470    0.252    6.341
  482.500   79.593    0.477    0.249    8.898
  482.750   77.793    0.480    0.259   10.636
  483.000   77.196    0.480    0.270   12.488
  483.250   79.012    0.451    0.263   13.898
  483.500   82.031    0.429    0.262   14.400
  483.750   83.843    0.418    0.247   13.647
  484.000   82.645    0.407    0.225   12.705
  484.250   79.037    0.413    0.208   12.258
  484.500   79.046    0.402    0.225   11.616
  484.750   81.463    0.395    0.237   11.614
  485.000   82.070    0.380    0.223   11.407
  485.250   80.269    0.371    0.213   11.406
  485.500   78.469    0.374    0.198   11.609
  485.750   76.065    0.390    0.191   11.817
  486.000   73.059    0.397    0.197   12.243
  486.250   71.862    0.401    0.222   12.462
  486.500   71.264    0.401    0.229   12.913
  486.750   72.476    0.399    0.239   12.912
  487.000   74.293    0.393    0.232   13.378
  487.250   74.901    0.390    0.226   13.617
  487.500   75.510    0.389    0.217   14.110
  487.750   75.516    0.387    0.214   14.108
  488.000   73.714    0.392    0.205   14.106
  488.250   71.312    0.407    0.209   14.358
  488.500   70.716    0.398    0.217   14.356
  488.750   71.926    0.395    0.224   14.354
  489.000   74.342    0.396    0.232   14.098
  489.250   76.761    0.398    0.234   14.095
  489.500   77.368    0.399    0.227   13.845
  489.750   76.775    0.400    0.218   13.843
  490.000   76.179    0.402    0.221   13.595
  490.250   77.389    0.406    0.222   13.593
  490.500   79.805    0.421    0.218   13.591
  490.750   76.198    0.432    0.218   14.083
  491.000   73.190    0.430    0.228   14.592
  491.250   75.609    0.422    0.238   14.854
  491.500   75.011    0.416    0.235   15.668
  491.750   67.187    0.430    0.240   17.437
  492.000   60.568    0.441    0.259   19.404
  492.250   55.753    0.412    0.277   21.983
  492.500   51.543    0.404    0.277   24.464
  492.750   49.742    0.419    0.275   26.743
  493.000   52.762    0.422    0.282   27.712
  493.250   56.984    0.403    0.271   28.207
  493.500   66.029    0.404    0.251   19.736
  493.750   70.251    0.397    0.231   15.647
