~VERSION INFORMATION
 VERS.                 2.0:   CWLS LOG ASCII STANDARD -VERSION 2.0
 WRAP.                  NO:   ONE LINE PER DEPTH STEP
~WELL INFORMATION BLOCK
#MNEM.UNIT           DATA                    DESCRIPTION OF MNEMONIC
#---------    -------------------            -------------------------------
# Generated from Intellog Unique Number	CW_70_72/WELL/619
NULL.         -999.25                        : NULL_VALUE
WELL.         MESA SMITH 06-10               : Well_name    - WELL              
LOC .         06-10-072-25W4                 : Location     - LOCATION          
UWI .         00/06-10-072-25W4/0            : Uwi          - UNIQUE WELL ID    
ENTR.         JAYE                           : Entered      - ENTERED BY        
SRVC.         SCHLUMBERGER                   : Scn          - SERVICE COMPANY   
DATE.         10 FEB 75                      : Date         - LOG DATE          
STRT.M        384.048                        : top_depth    - START DEPTH       
STOP.M        600.548                        : bot_depth    - STOP DEPTH        
STEP.M        0.25                           : increment    - STEP LENGTH       
~CURVE INFORMATION BLOCK
#MNEM UNIT       ERCB CURVE CODE    CURVE DESCRIPTION
#-----------   ------------------   ----------------------------------
DEPT.M        00 001 00 00         : DEPTH        - DEPTH                       
DPHI.V/V      00 890 00 00         : PHID         - DENSITY POROSITY (SANDSTONE)
NPHI.V/V      00 330 00 00         : PHIN         - NEUTRON POROSITY (SANDSTONE)
GR  .API      00 310 00 00         : GR           - GAMMA RAY                   
CALI.MM       00 280 01 00         : CAL          - CALIPER                     
ILD .OHMM     00 120 00 00         : RESD         - DEEP RESISTIVITY (DIL)      
~PARAMETER INFORMATION       
#MNEM.UNIT           DATA             DESCRIPTION OF MNEMONIC
#---------         -----------     ------------------------------
GL  .M        606.857              : gl           - GROUND LEVEL ELEVATION      
EREF.M        610.819              : kb           - ELEVATION OF DEPTH REFERENCE
DATM.M        606.857              : datum        - DATUM ELEVATION             
TDD .M        609.6                : tdd          - TOTAL DEPTH DRILLER         
RUN .         ONE                  : Run          - RUN NUMBER                  
ENG .         FETTERLEY            : Engineer     - RECORDING ENGINEER          
WIT .         HOVER                : Witness      - WITNESSED BY                
BASE.         EDM                  : Branch       - HOME BASE OF LOGGING UNIT   
MUD .         GEL CHEM             : Mud_type     - MUD TYPE                    
MATR.         SANDSTONE            : Logunit      - NEUTRON MATRIX              
TMAX.C        23.8889              : BHT          - MAXIMUM RECORDED TEMPERATURE
BHTD.M        610.21               : BHTDEP       - MAXIMUM RECORDED TEMPERATURE
RMT .C        7.22222              : MDTP         - TEMPERATURE OF MUD          
MUDD.KG/M     0                    : MWT          - MUD DENSITY                 
NEUT.         1                    : NEUTRON      - NEUTRON TYPE                
RESI.         0                    : RESIST       - RESISTIVITY TYPE            
RM  .OHMM     4.38                 : RM           - RESISTIVITY OF MUD          
RMC .OHMM     0                    : RMC          - RESISTIVITY OF MUD CAKE     
RMF .OHMM     0                    : RMF          - RESISTIVITY OF MUD FILTRATE 
SUFT.C        -17.7778             : SUFT         - SURFACE TEMPERATURE         
~A  DEPTH     PHID     PHIN       GR      CAL     RESD
# ...
  420.548    0.187    0.466   79.906  176.917    3.560
  420.798    0.224    0.469   76.074  177.659    3.322
  421.048    0.261    0.463   70.596  177.983    3.182
  421.298    0.275    0.455   73.290  178.205    3.156
  421.548    0.235    0.471   79.214  178.534    3.194
  421.798    0.278    0.488   80.139  178.860    3.252
  422.048    0.296    0.484   76.672  178.980    3.336
  422.298    0.262    0.470   76.439  178.997    3.388
  422.548    0.251    0.469   80.533  179.322    3.514
  422.798    0.211    0.484   88.104  179.339    3.644
  423.048    0.231    0.497   93.724  179.355    3.794
  423.298    0.210    0.492   96.294  179.682    3.869
  423.548    0.203    0.470   96.243  180.111    3.953
  423.798    0.199    0.449   97.108  180.129    4.040
  424.048    0.192    0.422  100.653  180.143    4.096
  424.298    0.205    0.438  108.285  180.366    4.170
  424.548    0.200    0.440  118.722  180.488    4.191
  424.798    0.174    0.418  114.159  180.401    4.103
  425.048    0.146    0.448  109.168  179.797    3.675
  425.298    0.165    0.480  102.592  179.503    3.155
  425.548    0.211    0.456   95.102  178.796    2.815
  425.798    0.238    0.455   92.247  178.091    2.608
  426.048    0.283    0.538   90.792  182.651    2.534
  426.298    0.335    0.586   87.692  188.552    2.594
  426.548    0.313    0.517   82.275  192.492    2.882
  426.798    0.272    0.485   73.077  179.395    3.212
  427.048    0.279    0.464   64.855  176.627    3.496
  427.298    0.274    0.477   61.145  175.814    3.756
  427.548    0.266    0.456   63.960  175.729    3.960
  427.798    0.248    0.436   73.726  176.573    4.122
  428.048    0.222    0.416   81.602  177.518    4.204
  428.298    0.182    0.436   89.051  178.876    4.185
  428.548    0.203    0.446   78.756  180.032    4.136
  428.798    0.214    0.440   70.106  180.876    4.080
  429.048    0.201    0.438   74.141  181.203    4.070
  429.298    0.209    0.450   77.199  181.630    4.059
  429.548    0.234    0.489   79.772  181.953    4.071
  429.798    0.264    0.475   82.341  182.486    4.099
  430.048    0.259    0.469   83.754  183.020    4.135
  430.298    0.241    0.464   86.996  182.933    4.185
  430.548    0.228    0.455   92.188  182.848    4.214
  430.798    0.205    0.459   93.539  182.657    4.227
  431.048    0.192    0.462   92.635  182.569    4.240
  431.298    0.185    0.457   91.424  182.586    4.260
  431.548    0.161    0.467   90.885  182.500    4.249
  431.798    0.170    0.454   92.847  182.412    4.230
  432.048    0.166    0.451   96.637  182.429    4.180
  432.298    0.163    0.451   98.353  182.138    4.123
  432.548    0.160    0.437   97.022  181.944    4.068
  432.798    0.160    0.438   94.898  181.962    3.961
  433.048    0.157    0.454   94.908  181.672    3.885
  433.298    0.164    0.474   96.869  181.789    3.811
  433.548    0.162    0.464  100.782  182.221    3.752
  433.798    0.172    0.452  103.290  182.441    3.708
  434.048    0.160    0.453  102.997  182.767    3.705
  434.298    0.166    0.461  102.030  183.198    3.787
  434.548    0.169    0.471  103.076  182.803    3.919
  434.798    0.175    0.472  100.159  182.715    4.117
  435.048    0.157    0.468   93.644  182.423    4.457
  435.298    0.161    0.456   94.996  182.440    4.761
  435.548    0.169    0.450  100.981  182.453    5.002
  435.798    0.203    0.508  100.870  182.472    5.072
  436.048    0.251    0.531   97.708  182.592    4.786
  436.298    0.332    0.575   92.596  182.916    4.392
  436.548    0.361    0.564   89.557  183.245    4.284
  436.798    0.261    0.532   96.335  181.091    4.289
  437.048    0.233    0.468   94.820  180.281    4.334
  437.298    0.284    0.468   94.281  180.917    4.379
  437.548    0.307    0.492   96.730  181.968    4.401
  437.798    0.280    0.460   87.655  182.189    4.357
  438.048    0.257    0.459   82.238  180.658    4.321
  438.298    0.254    0.472   77.736  178.507    4.263
  438.548    0.244    0.487   72.379  175.941    4.166
  438.798    0.260    0.489   57.876  173.273    4.034
  439.048    0.263    0.432   46.910  172.154    3.921
  439.298    0.268    0.420   40.700  174.441    3.861
  439.548    0.277    0.428   39.063  177.146    3.829
  439.798    0.287    0.415   37.854  178.192    3.798
  440.048    0.280    0.412   39.632  177.486    3.810
  440.298    0.269    0.419   43.910  175.439    3.871
  440.548    0.277    0.423   42.151  174.321    3.948
  440.798    0.273    0.432   40.210  173.716    4.027
  441.048    0.267    0.435   39.671  173.318    4.061
  441.298    0.266    0.425   38.034  172.822    4.089
  441.548    0.264    0.420   35.117  172.424    4.094
  441.798    0.269    0.419   35.310  172.130    4.083
  442.048    0.276    0.415   37.822  171.634    4.057
  442.298    0.293    0.402   39.111  171.749    3.987
  442.548    0.286    0.385   39.852  172.490    3.876
  442.798    0.279    0.392   38.520  173.951    3.795
  443.048    0.275    0.402   37.555  177.994    3.695
  443.298    0.278    0.413   39.942  180.799    3.584
  443.548    0.294    0.427   42.818  176.892    3.451
  443.798    0.280    0.422   41.730  168.751    3.330
  444.048    0.278    0.404   42.289  166.497    3.242
  444.298    0.269    0.403   44.371  168.682    3.192
  444.548    0.280    0.401   46.577  171.486    3.225
  444.798    0.291    0.398   49.391  173.361    3.259
  445.048    0.277    0.398   43.303  172.965    3.287
  445.298    0.254    0.400   42.581  169.884    3.322
  445.548    0.262    0.406   46.129  170.106    3.344
  445.798    0.277    0.409   46.991  174.046    3.354
  446.048    0.300    0.409   46.147  172.722    3.370
  446.298    0.288    0.410   44.877  169.228    3.368
  446.548    0.281    0.419   45.131  170.585    3.334
  446.798    0.297    0.439   46.179  171.946    3.301
  447.048    0.304    0.443   46.433  171.342    3.329
  447.298    0.290    0.436   46.928  169.500    3.384
  447.548    0.274    0.429   48.341  164.768    3.431
  447.798    0.271    0.425   50.911  162.511    3.435
  448.048    0.257    0.423   52.079  164.285    3.446
  448.298    0.263    0.419   52.578  170.392    3.469
  448.548    0.276    0.410   52.586  170.719    3.486
  448.798    0.281    0.411   52.963  170.115    3.504
  449.048    0.288    0.425   54.557  171.268    3.507
  449.298    0.296    0.424   53.531  172.008    3.505
  449.548    0.283    0.419   51.102  172.127    3.476
  449.798    0.271    0.414   48.794  172.147    3.442
  450.048    0.256    0.409   43.438  171.956    3.421
  450.298    0.239    0.401   37.045  171.868    3.412
  450.548    0.228    0.391   33.396  171.883    3.391
  450.798    0.230    0.387   33.833  171.693    3.351
  451.048    0.243    0.399   38.417  171.607    3.311
  451.298    0.250    0.412   40.681  171.417    3.260
  451.548    0.260    0.426   40.143  171.435    3.204
  451.798    0.269    0.430   39.848  171.243    3.166
  452.048    0.258    0.424   40.101  171.159    3.123
  452.298    0.242    0.422   40.538  171.071    3.098
  452.548    0.251    0.414   41.280  170.984    3.079
  452.798    0.252    0.404   41.533  170.898    3.060
  453.048    0.237    0.413   41.849  171.019    3.052
  453.298    0.242    0.413   41.858  171.033    3.049
  453.548    0.245    0.394   40.709  170.843    3.042
  453.798    0.236    0.402   39.682  170.860    3.057
  454.048    0.236    0.411   39.143  171.083    3.078
  454.298    0.248    0.415   39.580  171.409    3.104
  454.548    0.246    0.400   40.382  171.530    3.130
  454.798    0.234    0.408   41.796  171.443    3.151
  455.048    0.228    0.417   43.146  171.562    3.238
  455.298    0.229    0.403   45.656  171.475    3.309
  455.548    0.242    0.399   48.409  171.494    3.374
  455.798    0.249    0.411   52.017  171.409    3.435
  456.048    0.241    0.418   55.990  171.526    3.490
  456.298    0.248    0.419   59.170  171.543    3.527
  456.548    0.251    0.418   55.949  171.456    3.518
  456.798    0.240    0.412   54.924  171.369    3.510
