~VERSION INFORMATION
 VERS.                 2.0:   CWLS LOG ASCII STANDARD -VERSION 2.0
 WRAP.                  NO:   ONE LINE PER DEPTH STEP
~WELL INFORMATION BLOCK
#MNEM.UNIT           DATA                    DESCRIPTION OF MNEMONIC
#---------    -------------------            -------------------------------
# Generated from Intellog Unique Number	CS_77_79/WELL/899
WELL.         BRALORNE RESOURCES LIMITED     : Well_name    - WELL
LOC .         00/07-16-077-14W4/0            : Location     - LOCATION
UWI .         00/07-16-077-14W4/0            : Uwi          - UNIQUE WELL ID
ENTR.         SP                             : Entered      - ENTERED BY
SRVC.         SCHLUMBERGER                   : Scn          - SERVICE COMPANY
STRT.M        280                            : top_depth    - START DEPTH
STOP.M        530                            : bot_depth    - STOP DEPTH
STEP.M        0.25                           : increment    - STEP LENGTH
 NULL. -999.2500:NULL Value
~CURVE INFORMATION BLOCK
#MNEM UNIT       ERCB CURVE CODE    CURVE DESCRIPTION
#-----------   ------------------   ----------------------------------
DEPT.M        00 001 00 00         : DEPTH        - DEPTH
ILD .OHMM     00 120 00 00         : RESD         - DEEP RESISTIVITY (DIL)
DPHI.V/V      00 890 00 00         : PHID         - DENSITY POROSITY (LIMESTONE)
NPHI.V/V      00 330 00 00         : PHIN         - NEUTRON POROSITY (LIMESTONE)
GR  .API      00 310 00 00         : GR           - GAMMA RAY
~PARAMETER INFORMATION
#MNEM.UNIT           DATA             DESCRIPTION OF MNEMONIC
#---------         -----------     ------------------------------
GL  .M        683.2                : gl           - GROUND LEVEL ELEVATION
EREF.M        686.9                : kb           - ELEVATION OF DEPTH REFERENCE
DATM.M        683.2                : datum        - DATUM ELEVATION
TDD .M        530                  : tdd          - TOTAL DEPTH DRILLER
RUN .         ONE                  : Run          - RUN NUMBER
ENG .         BILL                 : Engineer     - RECORDING ENGINEER
WIT .         JIM                  : Witness      - WITNESSED BY
MUD .         GEL                  : Mud_type     - MUD TYPE
MATR.         LIMESTONE            : Logunit      - NEUTRON MATRIX
TMAX.C        30                   : BHT          - MAXIMUM RECORDED TEMPERATURE
BHTD.M        530                  : BHTDEP       - MAXIMUM RECORDED TEMPERATURE
MATR.         1                    : LOGUNIT      - NEUTRON MATRIX
RMT .C        25                   : MDTP         - TEMPERATURE OF MUD
NEUT.         1                    : NEUTRON      - NEUTRON TYPE
RESI.         0                    : RESIST       - RESISTIVITY TYPE
RMC .OHMM     0.25                 : RMC          - RESISTIVITY OF MUD CAKE
RMF .OHMM     0.25                 : RMF          - RESISTIVITY OF MUD FILTRATE
SUFT.C        15                   : SUFT         - SURFACE TEMPERATURE
~A  DEPTH     RESD     PHID     PHIN       GR
  280.000    7.296    0.263    0.439   95.517
  280.250    7.298    0.260    0.436   97.367
  280.500    7.163    0.254    0.450   97.372
  280.750    7.165    0.251    0.467   94.936
  281.000    7.168    0.251    0.483   95.561
  281.250    7.170    0.253    0.455   95.570
  281.500    7.309    0.249    0.465   94.356
  281.750    7.312    0.247    0.476   98.040
  282.000    7.042    0.255    0.470  104.786
  282.250    6.912    0.259    0.445  113.372
  282.500    6.915    0.260    0.444  113.992
  282.750    6.917    0.247    0.440  109.109
  283.000    7.051    0.243    0.418  104.220
  283.250    7.054    0.260    0.421   98.718
  283.500    7.056    0.273    0.441   94.444
  283.750    6.796    0.281    0.477   90.175
  284.000    6.671    0.284    0.487   88.347
  284.250    6.425    0.292    0.483   87.742
  284.500    6.189    0.291    0.498   92.040
  284.750    6.309    0.285    0.484   98.176
  285.000    6.311    0.287    0.430  102.473
  285.250    6.434    0.290    0.430  104.319
  285.500    6.435    0.279    0.442  103.717
  285.750    6.317    0.271    0.450  102.505
  286.000    6.200    0.272    0.456  101.903
  286.250    6.086    0.285    0.475   98.242
  286.500    6.204    0.290    0.474   97.640
  286.750    6.090    0.298    0.463  103.163
  287.000    6.092    0.306    0.474  107.460
  287.250    6.211    0.294    0.484  107.468
  287.500    6.331    0.286    0.510  101.359
  287.750    6.334    0.281    0.452  100.144
  288.000    6.457    0.264    0.457  100.768
  288.250    6.582    0.255    0.485  101.391
  288.500    6.221    0.250    0.502  101.403
  288.750    6.222    0.242    0.484  105.087
  289.000    6.225    0.240    0.475  103.875
  289.250    6.227    0.240    0.441  100.214
  289.500    6.348    0.250    0.434   98.387
  289.750    6.471    0.254    0.453   96.560
  290.000    6.473    0.257    0.432   94.735
  290.250    6.599    0.245    0.417   94.134
  290.500    6.601    0.211    0.427   98.434
  290.750    6.479    0.183    0.428  100.277
  291.000    7.400    0.178    0.423  102.743
  291.250    7.687    0.184    0.412  102.136
  291.500    7.546    0.205    0.410   99.701
  291.750    7.131    0.225    0.490   97.875
  292.000    6.490    0.243    0.510   99.724
  292.250    6.250    0.255    0.504  100.956
  292.500    6.372    0.250    0.498  103.422
  292.750    6.876    0.252    0.477  104.652
  293.000    7.144    0.264    0.453  108.338
  293.250    7.282    0.270    0.391  108.959
  293.500    7.423    0.270    0.382  104.691
  293.750    7.426    0.273    0.391  102.863
  294.000    7.152    0.269    0.400  100.424
  294.250    7.021    0.244    0.427  107.783
  294.500    6.891    0.240    0.435  112.076
  294.750    6.764    0.246    0.419  110.864
  295.000    6.766    0.248    0.423  105.367
  295.250    6.769    0.252    0.449  103.538
  295.500    6.900    0.255    0.465  109.673
  295.750    7.034    0.251    0.440  114.581
  296.000    7.307    0.243    0.433  114.593
  296.250    7.737    0.225    0.417  107.872
  296.500    7.595    0.210    0.413  104.208
  296.750    7.454    0.218    0.431  102.993
  297.000    6.784    0.231    0.453  102.396
  297.250    6.915    0.247    0.451  101.792
  297.500    7.184    0.259    0.425  100.580
  297.750    7.324    0.265    0.426   98.751
  298.000    6.922    0.266    0.423  109.173
  298.250    7.468    0.277    0.350  115.918
  298.500    8.212    0.292    0.333  118.989
  298.750   10.707    0.328    0.313  110.429
  299.000   14.227    0.359    0.291   99.420
  299.250   18.201    0.380    0.281   84.124
  299.500   22.000    0.358    0.289   73.727
  299.750   24.656    0.329    0.293   67.003
  300.000   26.602    0.297    0.309   68.850
  300.250   29.251    0.276    0.312   71.924
  300.500   32.163    0.259    0.312   74.384
  300.750   35.367    0.261    0.238   74.395
  301.000   36.054    0.276    0.227   69.508
  301.250   26.643    0.291    0.264   51.151
  301.500   20.449    0.281    0.342   43.203
  301.750   15.401    0.239    0.361   46.889
  302.000   13.494    0.223    0.369   59.756
  302.250   12.515    0.223    0.365   87.931
  302.500   11.607    0.230    0.357   91.006
  302.750   11.391    0.234    0.364   91.022
  303.000   10.564    0.233    0.374   91.027
  303.250    9.985    0.235    0.383   92.261
  303.500    9.802    0.240    0.389   99.012
  303.750    9.804    0.251    0.395  102.080
  304.000   10.780    0.255    0.366  104.541
  304.250   11.632    0.261    0.339  104.551
  304.500   11.635    0.260    0.334  104.565
  304.750   11.422    0.250    0.343  104.577
  305.000   11.002    0.244    0.350  100.300
  305.250   10.596    0.252    0.364   92.963
  305.500   10.598    0.271    0.379   94.812
  305.750   12.572    0.298    0.377  104.005
  306.000   13.309    0.319    0.357  103.407
  306.250   14.914    0.332    0.349   96.069
  306.500   17.032    0.337    0.356   89.957
  306.750   19.087    0.336    0.363   82.624
  307.000   19.457    0.330    0.369   79.572
  307.250   19.465    0.325    0.374   77.133
  307.500   19.105    0.313    0.360   79.592
  307.750   18.753    0.303    0.352   83.894
  308.000   18.407    0.299    0.368   85.738
  308.250   17.729    0.294    0.391   86.973
  308.500   17.403    0.290    0.402   90.047
  308.750   17.742    0.289    0.396   90.671
  309.000   18.434    0.288    0.381   89.455
  309.250   18.092    0.285    0.375   87.634
  309.500   18.098    0.280    0.377   88.255
  309.750   17.765    0.272    0.380   91.939
  310.000   17.773    0.265    0.384  101.135
  310.250   17.778    0.255    0.376  101.759
  310.500   18.123    0.249    0.360   99.932
  310.750   18.128    0.242    0.350   96.273
  311.000   18.133    0.236    0.340   91.998
  311.250   17.466    0.228    0.333   87.721
  311.500   16.508    0.222    0.332   82.221
  311.750   15.309    0.229    0.334   74.271
  312.000   14.197    0.239    0.338   69.997
  312.250   12.921    0.237    0.340   67.558
  312.500   12.444    0.229    0.333   77.368
  312.750   12.213    0.211    0.327   82.888
  313.000   11.329    0.187    0.350   85.960
  313.250   10.910    0.168    0.357   88.421
  313.500    9.743    0.155    0.353   89.660
  313.750    9.383    0.149    0.357   92.115
  314.000    8.538    0.154    0.372   99.477
  314.250    7.770    0.165    0.380  101.934
  314.500    7.207    0.176    0.395  108.682
  314.750    6.812    0.185    0.405  114.203
  315.000    6.561    0.190    0.429  120.335
  315.250    6.319    0.187    0.425  124.632
  315.500    6.202    0.186    0.413  122.199
  315.750    6.087    0.188    0.422  121.593
  316.000    6.090    0.188    0.435  122.828
  316.250    6.326    0.186    0.465  124.067
  316.500    6.698    0.181    0.453  122.241
  316.750    6.959    0.176    0.401  116.743
  317.000    6.961    0.178    0.414  112.469
  317.250    6.832    0.182    0.431  110.643
  317.500    6.217    0.191    0.443  111.876
  317.750    5.552    0.210    0.460  117.396
  318.000    5.052    0.230    0.470  130.265
  318.250    4.866    0.254    0.476  133.950
  318.500    4.868    0.268    0.475  132.736
  318.750    5.455    0.260    0.458  122.340
  319.000    6.349    0.251    0.425  121.738
  319.250    7.530    0.273    0.400  124.810
  319.500    9.102    0.270    0.386  118.087
  319.750   10.795    0.257    0.372  108.913
  320.000   12.099    0.248    0.365  107.090
  320.250   12.809    0.256    0.365  110.776
  320.500   13.306    0.261    0.374  116.907
  320.750   13.827    0.273    0.383  118.144
  321.000   13.571    0.283    0.391  115.091
  321.250   13.069    0.271    0.397  105.918
  321.500   11.026    0.253    0.410   88.790
  321.750   10.034    0.242    0.421   88.185
  322.000    8.961    0.238    0.430   93.095
  322.250    8.630    0.242    0.435  121.881
  322.500    8.798    0.251    0.401  118.222
  322.750   10.240    0.261    0.371  121.295
  323.000   11.695    0.264    0.359  121.915
  323.250   12.617    0.264    0.357  118.253
