~VERSION INFORMATION
 VERS.                 2.0:   CWLS LOG ASCII STANDARD -VERSION 2.0
 WRAP.                  NO:   ONE LINE PER DEPTH STEP
~WELL INFORMATION BLOCK
#MNEM.UNIT           DATA                    DESCRIPTION OF MNEMONIC
#---------    -------------------            -------------------------------
# Generated from Intellog Unique Number	CW_70_72/WELL/3015
NULL.         -999.25                        : NULL_VALUE
WELL.         CHIEFCO POR ET AL DANCING 07-0 : Well_name    - WELL              
LOC .         07-01-070-27W4                 : Location     - LOCATION          
UWI .         00/07-01-070-27W4/0            : Uwi          - UNIQUE WELL ID    
ENTR.         J                              : Entered      - ENTERED BY        
SRVC.         SCHLUMBERGER                   : Scn          - SERVICE COMPANY   
DATE.         20 DEC 75                      : Date         - LOG DATE          
STRT.M        484.632                        : top_depth    - START DEPTH       
STOP.M        737.632                        : bot_depth    - STOP DEPTH        
STEP.M        0.25                           : increment    - STEP LENGTH       
~CURVE INFORMATION BLOCK
#MNEM UNIT       ERCB CURVE CODE    CURVE DESCRIPTION
#-----------   ------------------   ----------------------------------
DEPT.M        00 001 00 00         : DEPTH        - DEPTH                       
ILD .OHMM     00 120 00 00         : RESD         - DEEP RESISTIVITY (DIL)      
CALI.MM       00 280 01 00         : CAL          - CALIPER                     
GR  .API      00 310 00 00         : GR           - GAMMA RAY                   
NPHI.V/V      00 330 00 00         : PHIN         - NEUTRON POROSITY (SANDSTONE)
DPHI.V/V      00 890 00 00         : PHID         - DENSITY POROSITY (SANDSTONE)
~PARAMETER INFORMATION       
#MNEM.UNIT           DATA             DESCRIPTION OF MNEMONIC
#---------         -----------     ------------------------------
GL  .M        648.005              : gl           - GROUND LEVEL ELEVATION      
EREF.M        650.748              : kb           - ELEVATION OF DEPTH REFERENCE
DATM.M        648.005              : datum        - DATUM ELEVATION             
TDD .M        754.38               : tdd          - TOTAL DEPTH DRILLER         
RUN .         ONE                  : Run          - RUN NUMBER                  
ENG .         ROBSON               : Engineer     - RECORDING ENGINEER          
BASE.         RD                   : Branch       - HOME BASE OF LOGGING UNIT   
MUD .         GEL                  : Mud_type     - MUD TYPE                    
MATR.         SANDSTONE            : Logunit      - NEUTRON MATRIX              
TMAX.C        27.7778              : BHT          - MAXIMUM RECORDED TEMPERATURE
BHTD.M        754.075              : BHTDEP       - MAXIMUM RECORDED TEMPERATURE
RMT .C        17.7778              : MDTP         - TEMPERATURE OF MUD          
MUDD.KG/M     1176                 : MWT          - MUD DENSITY                 
NEUT.         1                    : NEUTRON      - NEUTRON TYPE                
RESI.         0                    : RESIST       - RESISTIVITY TYPE            
RM  .OHMM     3.72                 : RM           - RESISTIVITY OF MUD          
RMC .OHMM     2.5                  : RMC          - RESISTIVITY OF MUD CAKE     
RMF .OHMM     4.21                 : RMF          - RESISTIVITY OF MUD FILTRATE 
SUFT.C        -17.7778             : SUFT         - SURFACE TEMPERATURE         
~A  DEPTH     RESD      CAL       GR     PHIN     PHID
# ...
  521.132    3.115  180.715   86.010    0.494    0.203
  521.382    3.059  173.026   78.313    0.461    0.180
  521.632    2.991  166.678   70.922    0.448    0.193
  521.882    2.802  163.408   66.378    0.454    0.202
  522.132    2.681  160.866   62.445    0.440    0.228
  522.382    2.470  160.582   59.846    0.416    0.253
  522.632    2.355  160.604   57.673    0.417    0.264
  522.882    2.222  160.625   57.323    0.417    0.276
  523.132    2.177  160.852   59.767    0.391    0.273
  523.382    2.169  161.291   67.069    0.391    0.255
  523.632    2.176  161.312   70.118    0.405    0.245
  523.882    2.231  161.853   71.042    0.423    0.256
  524.132    2.292  161.979   71.056    0.421    0.262
  524.382    2.350  161.898   70.888    0.416    0.244
  524.632    2.405  161.922   70.659    0.418    0.238
  524.882    2.454  161.949   70.370    0.422    0.247
  525.132    2.485  161.865   72.266    0.425    0.263
  525.382    2.497  161.791   74.100    0.426    0.262
  525.632    2.501  161.816   74.540    0.431    0.248
  525.882    2.474  162.148   70.546    0.437    0.245
  526.132    2.445  162.572   66.551    0.443    0.258
  526.382    2.392  162.910   61.829    0.454    0.260
  526.632    2.323  162.620   53.948    0.426    0.248
  526.882    2.259  162.542   53.355    0.407    0.264
  527.132    2.183  162.361   56.164    0.427    0.253
  527.382    2.124  162.282   57.696    0.434    0.252
  527.632    2.036  162.302   57.526    0.439    0.263
  527.882    2.045  162.429   57.965    0.440    0.270
  528.132    2.045  162.044   57.615    0.436    0.275
  528.382    2.094  161.970   55.748    0.428    0.285
  528.632    2.190  161.580   53.999    0.416    0.272
  528.882    2.380  161.399   53.891    0.407    0.275
  529.132    2.684  161.423   54.330    0.374    0.265
  529.382    2.821  161.757   53.193    0.337    0.232
  529.632    3.006  162.390   55.815    0.307    0.182
  529.882    3.006  162.722   62.389    0.348    0.177
  530.132    2.785  161.824   66.166    0.386    0.211
  530.382    2.703  161.849   68.002    0.424    0.245
  530.632    2.682  162.590   65.708    0.443    0.268
  530.882    2.926  163.125   62.445    0.465    0.276
  531.132    3.267  163.765   60.393    0.503    0.281
  531.382    3.813  163.888   58.342    0.550    0.285
  531.632    4.272  164.225   61.211    0.445    0.213
  531.882    5.756  164.354   60.010    0.351    0.191
  532.132    6.884  154.709   56.380    0.276    0.148
  532.382    8.087  161.005   54.085    0.250    0.108
  532.632    9.215  161.029   55.436    0.235    0.079
  532.882    8.787  160.946   63.647    0.220    0.068
  533.132    7.666  160.253   71.131    0.251    0.053
  533.382    6.484  159.144   72.480    0.300    0.100
  533.632    4.964  157.417   71.280    0.341    0.194
  533.882    3.962  156.207   70.868    0.405    0.211
  534.132    3.426  155.614   72.708    0.411    0.208
  534.382    3.254  155.225   75.512    0.415    0.194
  534.632    3.183  155.458   80.323    0.420    0.186
  534.882    3.258  155.996   82.222    0.426    0.200
  535.132    3.390  156.837   82.174    0.435    0.205
  535.382    3.592  158.095   80.731    0.446    0.217
  535.632    3.724  159.662   78.558    0.465    0.239
  535.882    3.799  161.024   76.264    0.535    0.311
  536.132    3.810  161.869   76.763    0.550    0.331
  536.382    3.715  162.406   84.428    0.420    0.224
  536.632    3.639  162.839   87.295    0.410    0.185
  536.882    3.447  163.173   85.487    0.434    0.177
  537.132    3.274  162.889   84.231    0.447    0.162
  537.382    3.061  162.498   83.816    0.437    0.180
  537.632    2.892  161.497   84.071    0.447    0.199
  537.882    2.812  160.389   77.588    0.429    0.211
  538.132    2.869  159.794   75.902    0.406    0.239
  538.382    3.018  159.817   77.555    0.404    0.234
  538.632    3.123  160.769   79.575    0.439    0.213
  538.882    3.127  161.305   79.407    0.465    0.199
  539.132    2.999  160.198   72.253    0.483    0.227
  539.382    2.782  158.679   57.207    0.451    0.230
  539.632    2.454  157.465   48.051    0.429    0.263
  539.882    2.161  155.537   45.092    0.414    0.280
  540.132    1.885  154.326   44.738    0.395    0.273
  540.382    1.650  153.940   44.391    0.399    0.275
  540.632    1.608  153.653   43.857    0.405    0.283
  540.882    1.628  153.676   42.960    0.410    0.283
  541.132    1.685  153.802   42.974    0.412    0.293
  541.382    1.737  154.342   44.140    0.397    0.287
  541.632    1.808  155.291   46.222    0.385    0.281
  541.882    1.847  156.239   47.872    0.373    0.277
  542.132    1.860  156.673   49.770    0.379    0.281
  542.382    1.863  157.417   49.907    0.389    0.293
  542.632    1.859  157.544   49.736    0.399    0.303
  542.882    1.865  157.569   49.692    0.406    0.315
  543.132    1.861  157.795   50.371    0.414    0.327
  543.382    1.834  157.617   51.478    0.412    0.291
  543.632    1.807  157.640   52.769    0.402    0.284
  543.882    1.787  157.248   52.355    0.392    0.291
  544.132    1.754  156.966   50.792    0.389    0.292
  544.382    1.713  156.888   50.077    0.399    0.279
  544.632    1.672  156.602   50.819    0.411    0.272
  544.882    1.630  156.519   51.561    0.424    0.286
  545.132    1.580  156.133   52.244    0.428    0.301
  545.382    1.553  155.642   52.075    0.418    0.307
  545.632    1.503  155.255   51.785    0.413    0.313
  545.882    1.470  154.869   51.556    0.421    0.304
  546.132    1.434  154.583   51.630    0.418    0.292
  546.382    1.427  154.196   52.679    0.407    0.280
  546.632    1.429  153.601   53.602    0.406    0.297
  546.882    1.440  153.010   53.433    0.418    0.307
  547.132    1.449  152.826   52.296    0.423    0.309
  547.382    1.452  152.851   50.911    0.424    0.308
  547.632    1.438  152.977   51.046    0.430    0.307
  547.882    1.427  153.107   51.790    0.438    0.300
  548.132    1.396  153.638   51.074    0.435    0.297
  548.382    1.378  154.382   50.603    0.419    0.298
  548.632    1.366  155.021   50.677    0.412    0.298
  548.882    1.367  155.355   50.447    0.415    0.300
  549.132    1.384  155.689   49.917    0.423    0.308
  549.382    1.422  155.916   50.718    0.425    0.310
  549.632    1.548  155.942   51.036    0.421    0.303
  549.882    1.981  155.860   50.139    0.410    0.307
  550.132    2.423  155.986   48.148    0.395    0.267
  550.382    2.883  156.113   47.919    0.368    0.250
  550.632    3.710  156.445   47.022    0.322    0.225
  550.882    4.174  156.467   45.822    0.288    0.192
  551.132    3.524  156.389   47.111    0.270    0.155
  551.382    2.870  156.414   48.826    0.336    0.149
  551.632    2.410  156.537   49.446    0.383    0.228
  551.882    2.042  155.430   50.129    0.406    0.252
  552.132    1.737  154.425   53.181    0.423    0.274
  552.382    1.521  154.144   55.864    0.433    0.298
  552.632    1.469  154.267   56.548    0.435    0.305
  552.882    1.444  154.393   57.106    0.439    0.304
  553.132    1.418  154.416   57.304    0.452    0.311
  553.382    1.405  153.930   56.587    0.460    0.313
  553.632    1.379  154.051   52.717    0.462    0.304
  553.882    1.356  154.282   52.244    0.459    0.309
  554.132    1.329  154.409   53.532    0.449    0.312
  554.382    1.320  154.331   54.457    0.439    0.311
  554.632    1.363  154.250   54.351    0.432    0.311
  554.882    1.492  154.787   54.243    0.439    0.311
  555.132    1.624  155.326   55.170    0.458    0.312
  555.382    1.788  155.762   55.908    0.469    0.317
  555.632    1.846  156.196   56.714    0.486    0.315
  555.882    1.887  156.528   57.275    0.486    0.327
  556.132    1.886  157.065   56.922    0.436    0.309
  556.382    1.845  157.499   56.332    0.408    0.289
  556.632    1.848  157.727   56.526    0.398    0.278
  556.882    1.919  158.167   56.844    0.398    0.276
  557.132    2.026  158.188   57.706    0.399    0.285
  557.382    2.205  158.111   62.215    0.399    0.260
