~VERSION INFORMATION
 VERS.                 2.0:   CWLS LOG ASCII STANDARD -VERSION 2.0
 WRAP.                  NO:   ONE LINE PER DEPTH STEP
~WELL INFORMATION BLOCK
#MNEM.UNIT           DATA                    DESCRIPTION OF MNEMONIC
#---------    -------------------            -------------------------------
# Generated from Intellog Unique Number	CS_67_68/WELL/2184
WELL.         CHIEFCO et al TWEEDIE          : Well_name    - WELL
LOC .         00/08-05-067-12W4/0            : Location     - LOCATION
UWI .         00/08-05-067-12W4/0            : Uwi          - UNIQUE WELL ID
ENTR.         SP                             : Entered      - ENTERED BY
SRVC.         SCHLUMBERGER                   : Scn          - SERVICE COMPANY
STRT.M        280                            : top_depth    - START DEPTH
STOP.M        485                            : bot_depth    - STOP DEPTH
STEP.M        0.25                           : increment    - STEP LENGTH
 NULL. -999.2500:NULL Value
~CURVE INFORMATION BLOCK
#MNEM UNIT       ERCB CURVE CODE    CURVE DESCRIPTION
#-----------   ------------------   ----------------------------------
DEPT.M        00 001 00 00         : DEPTH        - DEPTH
ILD .OHMM     00 120 00 00         : RESD         - DEEP RESISTIVITY (DIL)
DPHI.V/V      00 890 00 00         : PHID         - DENSITY POROSITY (LIMESTONE)
NPHI.V/V      00 330 00 00         : PHIN         - NEUTRON POROSITY (LIMESTONE)
GR  .API      00 310 00 00         : GR           - GAMMA RAY
CALI.MM       00 280 01 00         : CAL          - CALIPER
~PARAMETER INFORMATION
#MNEM.UNIT           DATA             DESCRIPTION OF MNEMONIC
#---------         -----------     ------------------------------
GL  .M        555.5                : gl           - GROUND LEVEL ELEVATION
EREF.M        558.5                : kb           - ELEVATION OF DEPTH REFERENCE
DATM.M        558.5                : datum        - DATUM ELEVATION
TDD .M        488                  : tdd          - TOTAL DEPTH DRILLER
RUN .         ONE                  : Run          - RUN NUMBER
ENG .         BILL                 : Engineer     - RECORDING ENGINEER
WIT .         JIM                  : Witness      - WITNESSED BY
MUD .         GEL                  : Mud_type     - MUD TYPE
MATR.         LIMESTONE            : Logunit      - NEUTRON MATRIX
TMAX.C        19                   : BHT          - MAXIMUM RECORDED TEMPERATURE
BHTD.M        487.4                : BHTDEP       - MAXIMUM RECORDED TEMPERATURE
MATR.         1                    : LOGUNIT      - NEUTRON MATRIX
RMT .C        25                   : MDTP         - TEMPERATURE OF MUD
NEUT.         1                    : NEUTRON      - NEUTRON TYPE
RESI.         0                    : RESIST       - RESISTIVITY TYPE
RMC .OHMM     0.25                 : RMC          - RESISTIVITY OF MUD CAKE
RMF .OHMM     0.25                 : RMF          - RESISTIVITY OF MUD FILTRATE
SUFT.C        15                   : SUFT         - SURFACE TEMPERATURE
~A  DEPTH     RESD     PHID     PHIN       GR      CAL
# ...
  426.000    2.435    0.293    0.466   99.305  191.980
  426.250    2.505    0.284    0.461  100.786  194.140
  426.500    2.616    0.287    0.455   99.346  195.901
  426.750    2.716    0.287    0.446   98.205  195.729
  427.000    2.862    0.276    0.446   96.824  194.444
  427.250    3.016    0.260    0.435   94.165  193.355
  427.500    3.196    0.253    0.422   92.662  188.314
  427.750    3.464    0.241    0.412   93.473  185.000
  428.000    3.643    0.226    0.404   95.074  184.225
  428.250    3.639    0.221    0.401   95.519  183.848
  428.500    3.470    0.237    0.408   94.689  183.574
  428.750    3.401    0.254    0.413   94.707  183.506
  429.000    3.558    0.269    0.416   95.335  184.550
  429.250    3.750    0.274    0.414   95.352  185.392
  429.500    3.908    0.264    0.418   94.216  185.425
  429.750    4.081    0.257    0.417   93.260  184.949
  430.000    4.222    0.246    0.414   91.269  184.373
  430.250    4.263    0.231    0.414   87.820  184.099
  430.500    4.234    0.215    0.405   87.354  183.432
  430.750    4.067    0.238    0.395   88.407  183.251
  431.000    3.922    0.264    0.389   89.886  185.109
  431.250    3.902    0.257    0.400   91.979  189.403
  431.500    3.948    0.234    0.406   93.882  192.783
  431.750    4.192    0.200    0.408   96.885  193.322
  432.000    4.593    0.154    0.405   93.861  184.633
  432.250    4.787    0.077    0.387   86.998  182.132
  432.500    4.658    0.141    0.349   80.138  181.551
  432.750    4.384    0.197    0.344   76.870  182.599
  433.000    3.846    0.254    0.392   81.700  184.655
  433.250    3.456    0.242    0.427   89.998  187.528
  433.500    3.088    0.234    0.450   95.192  185.637
  433.750    2.869    0.231    0.462  100.816  184.151
  434.000    2.715    0.229    0.458  103.571  183.464
  434.250    2.778    0.220    0.445  106.513  183.194
  434.500    2.811    0.191    0.433  105.557  183.223
  434.750    2.870    0.178    0.424  102.475  183.558
  435.000    2.942    0.213    0.414  100.726  183.185
  435.250    2.999    0.236    0.409  103.119  182.609
  435.500    3.040    0.234    0.420  111.296  182.031
  435.750    3.116    0.204    0.414  114.603  180.747
  436.000    3.187    0.188    0.417  108.355  179.665
  436.250    3.304    0.176    0.432  105.145  179.084
  436.500    3.443    0.126    0.441  102.669  179.117
  436.750    3.542    0.104    0.437  102.199  180.161
  437.000    3.486    0.169    0.432  105.814  181.618
  437.250    3.215    0.220    0.439  109.544  182.661
  437.500    3.009    0.226    0.452  114.192  183.408
  437.750    2.827    0.205    0.461  111.957  183.543
  438.000    2.720    0.190    0.467  108.688  183.469
  438.250    2.732    0.179    0.457  109.499  183.198
  438.500    2.759    0.185    0.449  110.979  182.834
  438.750    2.807    0.195    0.451  108.746  182.761
  439.000    2.872    0.168    0.456  107.245  182.789
  439.250    2.927    0.160    0.453  108.601  182.920
  439.500    2.951    0.188    0.449  106.002  182.956
  439.750    2.974    0.208    0.447  108.091  183.184
  440.000    2.987    0.164    0.445  105.919  183.621
  440.250    2.978    0.194    0.449  104.050  184.673
  440.500    2.941    0.223    0.455  105.349  186.129
  440.750    2.910    0.218    0.450  108.594  187.068
  441.000    2.917    0.230    0.440  111.112  188.220
  441.250    3.046    0.244    0.435  108.024  188.552
  441.500    3.240    0.255    0.428  106.948  189.599
  441.750    3.415    0.238    0.420  106.296  189.633
  442.000    3.625    0.218    0.409  101.385  189.260
  442.250    3.870    0.210    0.394  100.916  188.478
  442.500    4.140    0.208    0.380  102.155  188.009
  442.750    4.420    0.208    0.378  102.052  187.934
  443.000    4.781    0.213    0.372   99.453  187.760
  443.250    5.376    0.171    0.354   96.427  187.997
  443.500    6.486    0.112    0.334   90.846  187.521
  443.750    7.583    0.091    0.313   86.054  185.829
  444.000    8.543    0.120    0.295   82.422  183.833
  444.250    9.172    0.133    0.284   79.580  182.440
  444.500    9.489    0.118    0.292   77.224  181.156
  444.750    9.320    0.178    0.291   80.043  180.577
  445.000    8.853    0.226    0.335   76.899  179.800
  445.250    7.539    0.237    0.356   72.531  179.018
  445.500    6.813    0.221    0.354   83.450  178.040
  445.750    6.532    0.211    0.344   88.279  177.052
  446.000    6.572    0.214    0.338   86.715  176.071
  446.250    6.625    0.214    0.329   86.675  175.294
  446.500    6.665    0.203    0.319   87.970  175.320
  446.750    6.135    0.205    0.308   88.234  175.354
  447.000    5.513    0.223    0.294   91.357  175.386
  447.250    4.854    0.214    0.276   86.262  175.417
  447.500    4.435    0.204    0.245   82.020  174.945
  447.750    4.589    0.184    0.201   85.082  174.973
  448.000    4.881    0.151    0.167   79.744  175.112
  448.250    5.299    0.093    0.129   73.129  175.444
  448.500    5.860    0.060    0.109   66.754  175.576
  448.750    6.314    0.077    0.098   60.868  175.917
  449.000    6.496    0.169    0.192   54.617  176.760
  449.250    6.103    0.214    0.243   51.105  177.604
  449.500    5.373    0.241    0.282   59.159  178.345
  449.750    4.696    0.227    0.302   70.016  179.188
  450.000    4.346    0.215    0.308   75.636  180.131
  450.250    4.632    0.199    0.304   83.390  180.468
  450.500    4.918    0.181    0.301   89.009  180.710
  450.750    5.419    0.181    0.309   93.838  180.838
  451.000    5.721    0.176    0.317   96.174  180.873
  451.250    6.029    0.162    0.323   95.397  180.602
  451.500    6.215    0.167    0.327   96.512  180.435
  451.750    6.264    0.187    0.328   96.897  180.054
  452.000    6.245    0.187    0.325   93.263  179.984
  452.250    6.179    0.184    0.325   89.509  179.607
  452.500    6.160    0.182    0.315   86.665  179.440
  452.750    6.431    0.181    0.302   88.937  179.067
  453.000    6.905    0.186    0.299   92.609  178.896
  453.250    7.469    0.188    0.311   97.866  179.335
  453.500    7.683    0.157    0.320   98.432  179.671
  453.750    7.206    0.112    0.298   90.536  180.208
  454.000    6.832    0.130    0.284   83.188  180.549
  454.250    6.231    0.170    0.299   81.628  180.279
  454.500    5.640    0.181    0.310   86.214  179.998
  454.750    4.984    0.195    0.322   83.854  179.626
  455.000    4.597    0.206    0.328   79.372  179.354
  455.250    4.791    0.227    0.328   77.683  179.283
  455.500    5.011    0.250    0.327   75.328  179.011
  455.750    5.242    0.221    0.324   77.174  178.839
  456.000    5.484    0.053    0.325   82.490  178.670
  456.250    5.497    0.033    0.334   89.207  179.107
  456.500    5.145    0.125    0.336   92.999  179.240
  456.750    4.719    0.211    0.333   85.106  179.679
  457.000    4.450    0.246    0.323   79.828  179.919
  457.250    4.469    0.227    0.313   73.820  180.045
  457.500    4.878    0.212    0.302   75.055  180.182
  457.750    5.395    0.199    0.309   79.824  180.222
  458.000    5.707    0.187    0.312   85.139  180.246
  458.250    5.785    0.176    0.308   89.360  180.174
  458.500    5.619    0.200    0.308   89.987  179.701
  458.750    5.308    0.218    0.320   86.657  179.024
  459.000    5.099    0.211    0.335   83.206  178.751
  459.250    4.835    0.197    0.335   84.932  178.679
  459.500    4.186    0.185    0.323   88.055  178.507
  459.750    3.762    0.188    0.313   88.135  178.437
  460.000    3.412    0.221    0.306   82.674  178.066
  460.250    3.602    0.264    0.304   63.637  178.098
  460.500    4.081    0.276    0.305   58.848  177.926
  460.750    4.598    0.247    0.303   59.110  177.856
  461.000    5.056    0.183    0.300   75.325  177.785
  461.250    5.581    0.081    0.295   84.536  177.514
  461.500    5.817    0.110    0.289   90.889  177.545
  461.750    5.788    0.172    0.285   97.603  177.578
  462.000    5.602    0.202    0.290   97.137  177.615
  462.250    5.321    0.220    0.296   78.951  177.640
