~VERSION INFORMATION
 VERS.                 2.0:   CWLS LOG ASCII STANDARD -VERSION 2.0
 WRAP.                  NO:   ONE LINE PER DEPTH STEP
~WELL INFORMATION BLOCK
#MNEM.UNIT           DATA                    DESCRIPTION OF MNEMONIC
#---------    -------------------            -------------------------------
# Generated from Intellog Unique Number	CW_79_81/WELL/619
WELL.         07-26-079-26W4                 : Well_name    - WELL
LOC .         00/07-26-079-26W4/0            : Location     - LOCATION
UWI .         00/07-26-079-26W4/0            : Uwi          - UNIQUE WELL ID
ENTR.         MAX                            : Entered      - ENTERED BY
SRVC.         SCHLUMBERGER                   : Scn          - SERVICE COMPANY
STRT.M        207.264                        : top_depth    - START DEPTH
STOP.M        487.764                        : bot_depth    - STOP DEPTH
STEP.M        0.25                           : increment    - STEP LENGTH
 NULL. -999.2500:NULL Value
~CURVE INFORMATION BLOCK
#MNEM UNIT       ERCB CURVE CODE    CURVE DESCRIPTION
#-----------   ------------------   ----------------------------------
DEPT.M        00 001 00 00         : DEPTH        - DEPTH
ILD .OHMM     00 120 00 00         : RESD         - DEEP RESISTIVITY (DIL)
NPHI.V/V      00 330 00 00         : PHIN         - NEUTRON POROSITY (SANDSTONE)
DPHI.V/V      00 890 00 00         : PHID         - DENSITY POROSITY (SANDSTONE)
CALI.MM       00 280 01 00         : CAL          - CALIPER
GR  .API      00 310 00 00         : GR           - GAMMA RAY
~PARAMETER INFORMATION
#MNEM.UNIT           DATA             DESCRIPTION OF MNEMONIC
#---------         -----------     ------------------------------
GL  .M        558.394              : gl           - GROUND LEVEL ELEVATION
EREF.M        562.051              : kb           - ELEVATION OF DEPTH REFERENCE
DATM.M        558.394              : datum        - DATUM ELEVATION
TDD .M        463.601              : tdd          - TOTAL DEPTH DRILLER
RUN .         ONE                  : Run          - RUN NUMBER
ENG .         BILL                 : Engineer     - RECORDING ENGINEER
WIT .         JIM                  : Witness      - WITNESSED BY
MUD .         GEL                  : Mud_type     - MUD TYPE
MATR.         SANDSTONE            : Logunit      - NEUTRON MATRIX
TMAX.C        22.2222              : BHT          - MAXIMUM RECORDED TEMPERATURE
BHTD.M        463.601              : BHTDEP       - MAXIMUM RECORDED TEMPERATURE
RMT .C        25.5556              : MDTP         - TEMPERATURE OF MUD
MUDD.KG/M     10200                : MWT          - MUD DENSITY
NEUT.         1                    : NEUTRON      - NEUTRON TYPE
RESI.         0                    : RESIST       - RESISTIVITY TYPE
RM  .OHMM     6.28                 : RM           - RESISTIVITY OF MUD
RMC .OHMM     0                    : RMC          - RESISTIVITY OF MUD CAKE
RMF .OHMM     0                    : RMF          - RESISTIVITY OF MUD FILTRATE
SUFT.C        -20.5556             : SUFT         - SURFACE TEMPERATURE
~A  DEPTH     RESD     PHIN     PHID      CAL       GR
# ...
  462.764    5.058    0.401    0.319  173.240   78.338
  463.014    5.447    0.406    0.353  172.814   78.993
  463.264    5.447    0.395    0.294  172.814   72.128
  463.514    5.617    0.414    0.113  172.998   70.071
  463.764    5.671    0.457    0.167  172.535   70.425
  464.014    5.671    0.443    0.216  172.156   72.875
  464.264    5.793    0.415    0.247  171.675   78.309
  464.514    6.238    0.347    0.290  171.222   84.954
  464.764    6.536    0.385    0.275  171.314   90.705
  465.014    6.727    0.412    0.290  171.396   93.749
  465.264    6.805    0.446    0.307  171.451   86.896
  465.514    6.870    0.420    0.333  171.543   82.727
  465.764    7.005    0.324    0.096  170.600   77.369
  466.014    7.274    0.119    0.082  170.147   72.010
  466.264    7.487    0.146    0.111  170.229   71.153
  466.514    7.705    0.199    0.156  171.319   78.104
  466.764    7.705    0.220    0.193  173.942   88.956
  467.014    7.796    0.231    0.219  173.942   90.805
  467.264    8.097    0.243    0.233  176.676   93.249
  467.514    8.182    0.256    0.244  178.736   96.599
  467.764    8.194    0.272    0.229  181.350  100.244
  468.014    8.129    0.280    0.209  182.495  101.482
  468.264    8.067    0.280    0.207  183.539  102.431
  468.514    7.862    0.284    0.214  188.693   99.768
  468.764    7.662    0.296    0.211  193.848   98.611
  469.014    7.331    0.318    0.191  197.987  102.861
  469.264    6.825    0.323    0.236  201.118  106.205
  469.514    6.298    0.338    0.254  202.716  106.849
  469.764    5.917    0.363    0.271  203.298  108.704
  470.014    5.661    0.376    0.295  201.865  111.142
  470.264    5.468    0.365    0.332  201.412  125.595
  470.514    5.328    0.328    0.290  201.540  134.947
  470.764    5.334    0.323    0.246  201.051  136.796
  471.014    5.490    0.310    0.212  200.126  125.436
  471.264    5.701    0.296    0.206  199.183  118.283
  471.514    6.084    0.288    0.190  196.706  112.019
  471.764    6.376    0.278    0.172  192.225  109.356
  472.014    6.215    0.274    0.142  188.233  103.992
  472.264    5.945    0.250    0.119  187.272   92.927
  472.514    5.337    0.211    0.057  185.331   83.367
  472.764    4.880    0.223    0.071  184.379   81.315
  473.014    4.880    0.253    0.087  183.935   87.655
  473.264    4.594    0.278    0.089  183.500  105.415
  473.514    4.474    0.293    0.096  183.130  108.764
  473.764    4.733    0.306    0.121  183.148  113.915
  474.014    5.097    0.318    0.152  183.748  117.253
  474.264    6.121    0.330    0.176  185.327  121.803
  474.514    6.653    0.346    0.169  185.401  120.041
  474.764    7.102    0.352    0.205  185.483  116.489
  475.014    7.440    0.350    0.220  185.048  112.925
  475.264    7.589    0.345    0.202  185.048  114.169
  475.514    7.327    0.346    0.197  185.232  115.718
  475.764    6.700    0.360    0.185  185.269  115.462
  476.014    5.201    0.389    0.153  185.342  115.210
  476.264    5.068    0.411    0.108  185.342  116.154
  476.514    4.988    0.410    0.080  185.525  118.598
  476.764    4.855    0.411    0.120  186.089  124.343
  477.014    4.855    0.420    0.178  186.162  130.399
  477.264    4.652    0.421    0.205  186.235  128.336
  477.514    4.102    0.419    0.180  186.309  123.578
  477.764    3.819    0.404    0.167  186.373  119.115
  478.014    3.621    0.396    0.190  186.964  121.564
  478.264    3.496    0.390    0.211  187.564  126.414
  478.514    3.566    0.384    0.183  187.619  127.052
  478.764    3.703    0.396    0.172  188.717  125.000
  479.014    3.776    0.400    0.171  190.823  122.649
  479.264    3.781    0.432    0.185  196.486  122.381
  479.514    3.752    0.440    0.212  207.240  121.235
  479.764    3.590    0.444    0.226  207.813  119.177
  480.014    3.314    0.440    0.171  207.387  122.816
  480.264    3.257    0.416    0.075  206.462  114.468
  480.514    3.262    0.409    0.110  194.839  113.900
  480.764    3.262    0.409    0.153  187.281  115.455
  481.014    3.424    0.411    0.157  183.289  119.989
  481.264    3.654    0.405    0.170  187.954  119.738
  481.514    3.692    0.397    0.194  189.026  105.371
  481.764    3.501    0.400    0.220  192.656   91.605
  482.014    3.260    0.386    0.207  195.788   22.606
  482.264    3.176    0.354    0.255  192.304   18.754
  482.514    3.180    0.295    0.290  195.435   19.992
  482.764    3.218    0.299    0.294  200.082   23.353
  483.014    3.278    0.297    0.288  201.172   29.093
  483.264    3.434    0.295    0.292  194.122   41.139
  483.514    3.767    0.293    0.276  201.309   60.999
  483.764    4.169    0.295    0.278  199.867   82.354
  484.014    4.919    0.313    0.227  189.769   99.508
  484.264    5.344    0.331    0.188  186.303  110.660
  484.514    5.115    0.329    0.226  184.335  120.912
  484.764    4.676    0.326    0.259  181.868  126.057
  485.014    3.940    0.329    0.269  179.419   49.856
  485.264    3.874    0.335    0.290  177.441   36.990
  485.514    3.950    0.343    0.295  174.475   31.632
  485.764    4.295    0.345    0.305  171.998   26.885
  486.014    4.295    0.343    0.293  169.549   25.722
  486.264    4.424    0.341    0.185  168.080   23.365
  486.514    6.092    0.338    0.147  166.121   19.807
  486.764    6.619    0.303    0.081  164.679   16.844
  487.014    8.788    0.272    0.068  164.244   14.192
  487.264   10.750    0.220    0.059  163.800   14.830
  487.514   12.006    0.206    0.081  163.882   16.374
  487.764   13.169    0.217    0.171  163.466   20.324
