~VERSION INFORMATION
 VERS.                 2.0:   CWLS LOG ASCII STANDARD -VERSION 2.0
 WRAP.                  NO:   ONE LINE PER DEPTH STEP
~WELL INFORMATION BLOCK
#MNEM.UNIT           DATA                    DESCRIPTION OF MNEMONIC
#---------    -------------------            -------------------------------
# Generated from Intellog Unique Number	CW_79_81/WELL/619
WELL.         07-26-079-26W4                 : Well_name    - WELL
LOC .         00/07-26-079-26W4/0            : Location     - LOCATION
UWI .         00/07-26-079-26W4/0            : Uwi          - UNIQUE WELL ID
ENTR.         MAX                            : Entered      - ENTERED BY
SRVC.         SCHLUMBERGER                   : Scn          - SERVICE COMPANY
STRT.M        207.264                        : top_depth    - START DEPTH
STOP.M        487.764                        : bot_depth    - STOP DEPTH
STEP.M        0.25                           : increment    - STEP LENGTH
 NULL. -999.2500:NULL Value
~CURVE INFORMATION BLOCK
#MNEM UNIT       ERCB CURVE CODE    CURVE DESCRIPTION
#-----------   ------------------   ----------------------------------
DEPT.M        00 001 00 00         : DEPTH        - DEPTH
ILD .OHMM     00 120 00 00         : RESD         - DEEP RESISTIVITY (DIL)
NPHI.V/V      00 330 00 00         : PHIN         - NEUTRON POROSITY (SANDSTONE)
DPHI.V/V      00 890 00 00         : PHID         - DENSITY POROSITY (SANDSTONE)
CALI.MM       00 280 01 00         : CAL          - CALIPER
GR  .API      00 310 00 00         : GR           - GAMMA RAY
~PARAMETER INFORMATION
#MNEM.UNIT           DATA             DESCRIPTION OF MNEMONIC
#---------         -----------     ------------------------------
GL  .M        558.394              : gl           - GROUND LEVEL ELEVATION
EREF.M        562.051              : kb           - ELEVATION OF DEPTH REFERENCE
DATM.M        558.394              : datum        - DATUM ELEVATION
TDD .M        463.601              : tdd          - TOTAL DEPTH DRILLER
RUN .         ONE                  : Run          - RUN NUMBER
ENG .         BILL                 : Engineer     - RECORDING ENGINEER
WIT .         JIM                  : Witness      - WITNESSED BY
MUD .         GEL                  : Mud_type     - MUD TYPE
MATR.         SANDSTONE            : Logunit      - NEUTRON MATRIX
TMAX.C        22.2222              : BHT          - MAXIMUM RECORDED TEMPERATURE
BHTD.M        463.601              : BHTDEP       - MAXIMUM RECORDED TEMPERATURE
RMT .C        25.5556              : MDTP         - TEMPERATURE OF MUD
MUDD.KG/M     10200                : MWT          - MUD DENSITY
NEUT.         1                    : NEUTRON      - NEUTRON TYPE
RESI.         0                    : RESIST       - RESISTIVITY TYPE
RM  .OHMM     6.28                 : RM           - RESISTIVITY OF MUD
RMC .OHMM     0                    : RMC          - RESISTIVITY OF MUD CAKE
RMF .OHMM     0                    : RMF          - RESISTIVITY OF MUD FILTRATE
SUFT.C        -20.5556             : SUFT         - SURFACE TEMPERATURE
~A  DEPTH     RESD     PHIN     PHID      CAL       GR
# ...
  243.764  129.695    0.460    0.338  240.782   65.416
  244.014  115.354    0.457    0.347  241.366   65.755
  244.264  110.336    0.466    0.341  239.424   66.089
  244.514  109.479    0.483    0.332  237.481   66.132
  244.764  119.013    0.485    0.350  235.045   66.184
  245.014  143.069    0.471    0.361  233.085   66.221
  245.264  158.420    0.460    0.356  229.642   67.155
  245.514  180.259    0.448    0.350  227.196   69.580
  245.764  195.990    0.441    0.349  223.753   69.320
  246.014  166.457    0.436    0.348  222.297   67.881
  246.264  111.540    0.441    0.345  220.885   66.734
  246.514   84.159    0.445    0.340  220.885   65.884
  246.764   76.906    0.447    0.324  220.029   65.332
  247.014   71.597    0.444    0.330  218.564   65.087
  247.264   79.993    0.435    0.326  216.640   64.524
  247.514   91.856    0.420    0.298  216.693   63.680
  247.764   69.318    0.432    0.286  216.270   63.727
  248.014   54.229    0.431    0.267  216.341   64.650
  248.264   39.450    0.421    0.243  216.404   65.589
  248.514   35.082    0.459    0.329  216.519   65.334
  248.764   32.058    0.494    0.362  216.052   67.154
  249.014   29.034    0.491    0.363  215.125   68.391
  249.264   26.541    0.478    0.347  214.181   67.844
  249.514   23.598    0.470    0.341  214.261   67.880
  249.764   20.049    0.476    0.341  214.341   69.112
  250.014   17.993    0.480    0.342  214.395   70.343
  250.264   17.216    0.483    0.350  214.475   71.574
  250.514   17.082    0.490    0.354  214.546   72.523
  250.764   16.491    0.500    0.346  214.626   71.960
  251.014   17.128    0.501    0.342  214.688   69.040
  251.264   17.311    0.510    0.348  214.769   67.883
  251.514   17.334    0.506    0.350  214.849   67.925
  251.764   17.680    0.491    0.344  214.911   68.870
  252.014   18.030    0.472    0.329  214.982   67.717
  252.264   18.213    0.478    0.338  215.045   66.268
  252.514   18.574    0.471    0.341  215.116   64.234
  252.764   19.474    0.463    0.326  215.214   63.088
  253.014   20.407    0.449    0.312  215.285   61.638
  253.264   22.391    0.366    0.289  215.348   59.897
  253.514   26.913    0.219    0.074  216.434   57.561
  253.764   32.347    0.219   -0.004  216.497   55.528
  254.014   41.458    0.296    0.020  216.074   52.895
  254.264   40.025    0.345    0.058  215.129   51.748
  254.514   30.466    0.428    0.093  214.194   52.984
  254.764   26.603    0.492    0.242  214.274   57.777
  255.014   20.819    0.502    0.383  213.330   61.688
  255.264   19.202    0.500    0.382  212.394   61.438
  255.514   19.202    0.498    0.374  211.468   60.880
  255.764   18.413    0.500    0.367  210.541   61.215
  256.014   18.255    0.498    0.371  210.604   62.748
  256.264   18.279    0.502    0.369  210.180   64.574
  256.514   18.301    0.508    0.372  210.252   65.507
  256.764   17.997    0.506    0.376  210.305   65.550
  257.014   17.860    0.500    0.379  209.873   65.300
  257.264   17.860    0.493    0.372  209.450   65.044
  257.514   17.760    0.482    0.372  209.027   66.870
  257.764   17.447    0.463    0.373  209.098   68.404
  258.014   17.447    0.462    0.369  208.666   70.824
  258.264   17.338    0.481    0.362  208.243   71.460
  258.514   17.338    0.490    0.357  207.307   69.714
  258.764   16.923    0.496    0.354  207.361   68.275
  259.014   16.780    0.495    0.355  207.361   70.397
  259.264   16.650    0.490    0.358  207.035   71.629
  259.514   16.675    0.485    0.362  206.073   73.454
  259.764   16.546    0.486    0.363  205.650   76.171
  260.014   16.417    0.496    0.356  205.721   75.327
  260.264   16.139    0.496    0.354  207.303   72.704
  260.514   15.160    0.492    0.359  208.875   73.028
  260.764   11.546    0.492    0.359  210.960   76.350
  261.014    9.200    0.486    0.344  213.044   80.257
  261.264    7.674    0.491    0.317  216.153   77.915
  261.514    6.116    0.515    0.262  218.238   77.076
  261.764    5.056    0.480    0.255  218.309   80.080
  262.014    4.622    0.442    0.270  217.877   83.695
  262.264    4.504    0.441    0.301  218.002   83.737
  262.514    4.469    0.463    0.302  217.525   82.887
  262.764    4.640    0.501    0.301  217.525   80.556
  263.014    4.731    0.505    0.306  216.688   78.512
  263.264    4.653    0.497    0.294  216.229   79.154
  263.514    4.653    0.493    0.284  216.309   80.385
  263.764    4.624    0.495    0.307  216.309   78.936
  264.014    4.547    0.491    0.320  215.930   79.880
  264.264    4.553    0.501    0.320  215.516   80.219
  264.514    4.559    0.506    0.317  215.578   78.176
  264.764    4.559    0.481    0.318  215.694   79.109
  265.014    4.614    0.476    0.319  215.217   81.232
  265.264    4.747    0.473    0.321  215.289   83.360
  265.514    4.885    0.491    0.317  215.413   83.705
  265.764    5.028    0.499    0.312  215.431   82.850
  266.014    5.174    0.500    0.315  215.017   79.919
  266.264    5.423    0.497    0.324  215.088   77.292
  266.514    5.737    0.498    0.325  214.656   75.545
  266.764    6.181    0.483    0.321  213.721   72.907
  267.014    6.597    0.484    0.313  213.289   69.679
  267.264    8.077    0.467    0.316  213.351   64.965
  267.514    8.621    0.454    0.286  214.429   62.932
  267.764   10.268    0.424    0.216  216.522   58.510
  268.014   11.683    0.371    0.249  217.591   57.066
  268.264   13.416    0.406    0.325  219.199   58.302
  268.514   14.587    0.485    0.340  219.756   61.025
  268.764   14.609    0.472    0.323  219.827   61.953
  269.014   14.363    0.464    0.323  219.890   62.595
  269.264   14.249    0.468    0.326  219.988   62.335
  269.514   14.013    0.470    0.328  219.538   62.382
  269.764   13.902    0.465    0.325  219.609   61.532
  270.014   14.438    0.459    0.318  219.680   59.196
  270.264   15.839    0.434    0.301  220.767   54.775
  270.514   23.065    0.416    0.264  223.364   50.061
  270.764   29.827    0.299    0.223  226.464   42.077
  271.014   34.882    0.259    0.214  229.538   39.444
  271.264   42.317    0.258    0.202  231.119   38.010
  271.514   70.021    0.261    0.207  232.700   39.236
  271.764   90.552    0.261    0.212  235.297   41.651
  272.014  103.069    0.262    0.211  235.377   43.779
  272.264  105.074    0.266    0.208  232.411   43.519
  272.514   96.034    0.273    0.214  227.466   42.966
  272.764   71.161    0.287    0.221  225.506   43.024
  273.014   57.226    0.302    0.240  223.070   43.661
  273.264   47.731    0.317    0.263  221.137   43.989
  273.514   38.042    0.337    0.266  217.190   44.928
  273.764   28.179    0.357    0.257  215.734   47.354
  274.014   19.764    0.345    0.257  215.310   50.066
  274.264   15.049    0.361    0.264  215.373   53.972
  274.514   13.506    0.378    0.272  214.455   65.315
  274.764   10.963    0.405    0.291  214.509   68.032
  275.014   10.204    0.432    0.301  214.580   67.777
  275.264   10.311    0.442    0.288  214.148   62.468
  275.514   12.281    0.450    0.288  214.228   54.188
  275.764   13.231    0.446    0.319  214.308   47.388
  276.014   16.051    0.437    0.347  214.379   46.241
  276.264   17.134    0.436    0.355  214.451   49.861
  276.514   17.958    0.444    0.347  214.522   52.870
  276.764   18.991    0.439    0.347  214.584   53.804
  277.014   20.090    0.436    0.342  214.664   55.932
  277.264   19.938    0.433    0.331  215.248   58.060
  277.514   19.245    0.435    0.334  215.310   59.588
  277.764   18.414    0.443    0.338  215.399   61.111
  278.014   17.459    0.441    0.338  215.470   61.450
  278.264   17.643    0.437    0.338  215.533   60.903
  278.514   17.986    0.431    0.337  214.589   60.356
  278.764   19.552    0.435    0.336  213.653   58.912
  279.014   24.606    0.432    0.333  213.724   56.863
  279.264   25.790    0.421    0.326  214.299   50.663
  279.514   29.078    0.397    0.304  214.873   43.873
  279.764   33.390    0.338    0.232  215.475   40.343
  280.014   38.342    0.303    0.227  215.537   40.980
