~VERSION INFORMATION
 VERS.                 2.0:   CWLS LOG ASCII STANDARD -VERSION 2.0
 WRAP.                  NO:   ONE LINE PER DEPTH STEP
~WELL INFORMATION BLOCK
#MNEM.UNIT           DATA                    DESCRIPTION OF MNEMONIC
#---------    -------------------            -------------------------------
# Generated from Intellog Unique Number	CW_79_81/WELL/189
WELL.         06-07-079-01W5                 : Well_name    - WELL
LOC .         00/06-07-079-01W5/0            : Location     - LOCATION
UWI .         00/06-07-079-01W5/0            : Uwi          - UNIQUE WELL ID
ENTR.         JJ                             : Entered      - ENTERED BY
SRVC.         WESTERN ATLAS                  : Scn          - SERVICE COMPANY
DATE.         25 MAR                         : Date         - LOG DATE
STRT.M        405.384                        : top_depth    - START DEPTH
STOP.M        533.384                        : bot_depth    - STOP DEPTH
STEP.M        0.25                           : increment    - STEP LENGTH
 NULL. -999.2500:NULL Value
~CURVE INFORMATION BLOCK
#MNEM UNIT       ERCB CURVE CODE    CURVE DESCRIPTION
#-----------   ------------------   ----------------------------------
DEPT.M        00 001 00 00         : DEPTH        - DEPTH
ILD .OHMM     00 120 00 00         : RESD         - DEEP RESISTIVITY (DIL)
GR  .API      00 310 00 00         : GR           - GAMMA RAY
CALI.MM       00 280 01 00         : CAL          - CALIPER
DELT.US/F     00 520 00 00         : DELT         - SONIC TRAVEL TIME
~PARAMETER INFORMATION
#MNEM.UNIT           DATA             DESCRIPTION OF MNEMONIC
#---------         -----------     ------------------------------
GL  .M        594.665              : gl           - GROUND LEVEL ELEVATION
EREF.M        595.488              : kb           - ELEVATION OF DEPTH REFERENCE
DATM.M        595.488              : datum        - DATUM ELEVATION
TDD .M        525.17               : tdd          - TOTAL DEPTH DRILLER
RUN .         ONE                  : Run          - RUN NUMBER
ENG .         BERGLIND-MILLER      : Engineer     - RECORDING ENGINEER
WIT .         FOREMAN              : Witness      - WITNESSED BY
BASE.         EDM                  : Branch       - HOME BASE OF LOGGING UNIT
MUD .         GEL                  : Mud_type     - MUD TYPE
MATR.         SANDSTONE            : Logunit      - NEUTRON MATRIX
TMAX.C        22.7778              : BHT          - MAXIMUM RECORDED TEMPERATURE
BHTD.M        525.17               : BHTDEP       - MAXIMUM RECORDED TEMPERATURE
RMT .C        16.6667              : MDTP         - TEMPERATURE OF MUD
MUDD.KG/M     1140                 : MWT          - MUD DENSITY
NEUT.         1                    : NEUTRON      - NEUTRON TYPE
RESI.         0                    : RESIST       - RESISTIVITY TYPE
RM  .OHMM     4.54                 : RM           - RESISTIVITY OF MUD
RMC .OHMM     5.6                  : RMC          - RESISTIVITY OF MUD CAKE
RMF .OHMM     5                    : RMF          - RESISTIVITY OF MUD FILTRATE
SUFT.C        5                    : SUFT         - SURFACE TEMPERATURE
~A  DEPTH     RESD       GR      CAL     DELT
# ...
  448.884   19.644   63.721  239.418  365.889
  449.134   18.205   61.978  238.547  374.080
  449.384   17.404   59.052  238.882  360.648
  449.634   18.816   59.454  239.017  321.850
  449.884   19.709   61.766  238.656  307.762
  450.134   18.210   64.028  238.690  349.271
  450.384   16.073   65.530  238.727  359.305
  450.634   14.335   65.504  238.661  367.034
  450.884   12.736   66.815  238.092  376.803
  451.134   11.556   65.748  237.323  372.112
  451.384   11.592   65.004  236.750  369.065
  451.634   12.007   65.030  235.675  374.496
  451.884   12.243   62.812  235.006  372.300
  452.134   12.279   66.743  235.248  373.133
  452.384   11.896   67.006  236.297  364.304
  452.634   11.434   66.411  236.633  370.323
  452.884   10.812   66.625  236.973  377.334
  453.134   10.210   68.269  237.213  381.976
  453.384    9.828   71.629  237.149  377.088
  453.634    9.605   69.364  236.986  363.790
  453.884    9.481   68.197  237.322  375.530
  454.134    9.696   71.177  237.664  372.480
  454.384   10.052   70.008  237.804  374.165
  454.634   10.546   67.317  237.630  376.638
  454.884   10.961   66.243  237.977  373.851
  455.134   11.117   66.029  238.211  369.294
  455.384   11.174   65.435  238.761  363.159
  455.634   10.950   68.558  239.192  361.692
  455.884   10.568   65.624  238.724  368.567
  456.134   10.345   66.984  238.760  371.432
  456.384   10.242   70.247  239.606  375.091
  456.634   10.238   70.556  238.433  375.722
  456.884   10.254   67.388  237.859  362.689
  457.134   10.369   67.935  237.898  363.583
  457.384   10.505   69.818  238.036  372.301
  457.634   10.621   70.557  236.161  377.995
  457.884   10.816   70.297  235.280  357.006
  458.134   11.192   69.558  235.722  344.035
  458.384   12.005   68.245  237.375  359.061
  458.634   12.580   65.648  233.979  354.896
  458.884   13.255   63.813  232.500  344.881
  459.134   14.088   62.979  232.134  347.289
  459.384   15.001   62.574  233.886  350.224
  459.634   15.954   63.028  236.452  355.326
  459.884   17.027   61.907  238.915  355.630
  460.134   18.559   58.169  239.449  318.739
  460.384   21.147   53.900  239.387  253.717
  460.634   23.855   49.445  239.119  269.007
  460.884   27.340   48.949  239.053  294.482
  461.134   30.207   48.875  238.695  306.024
  461.384   30.342   49.948  238.326  320.919
  461.634   31.297   45.920  238.770  280.610
  461.884   34.682   45.039  239.211  249.039
  462.134   39.962   46.014  239.651  288.710
  462.384   44.922   44.989  240.388  324.634
  462.634   46.533   44.874  240.726  263.754
  462.884   42.921   48.184  240.567  245.460
  463.134   32.650   52.835  240.295  258.580
  463.384   25.349   55.902  240.331  299.434
  463.634   17.031   59.598  241.379  337.920
  463.884   15.074   63.624  241.824  353.598
  464.134   13.674   66.031  241.047  356.075
  464.384   12.694   66.530  239.671  352.634
  464.634   11.952   65.219  239.609  338.614
  464.884   12.068   63.861  239.640  349.695
  465.134   12.523   65.219  239.486  351.315
  465.384   12.559   65.388  240.021  348.263
  465.634   11.558   63.791  240.462  342.854
  465.884   11.136   65.436  239.789  353.674
  466.134   11.053   68.083  237.402  348.653
  466.384   11.009   69.580  238.548  344.489
  466.634   10.706   64.314  240.003  349.461
  466.884   10.084   63.294  240.845  346.809
  467.134    9.981   65.458  240.884  356.774
  467.384   10.196   68.150  240.115  357.078
  467.634   10.212   70.224  239.849  327.613
  467.884    9.830   72.727  240.086  363.799
  468.134    9.308   75.417  240.730  373.896
  468.384    8.945   76.638  241.779  378.998
  468.634    8.523   77.323  242.822  385.940
  468.884    8.240   80.779  246.089  379.476
  469.134    8.595   78.563  247.136  355.464
  469.384    9.568   73.585  238.388  340.654
  469.634   10.960   68.607  234.886  334.712
  469.884   12.611   65.672  237.149  331.665
  470.134   14.043   63.027  236.580  286.101
  470.384   14.458   60.954  235.402  266.361
  470.634   14.195   62.840  236.345  302.022
  470.884   13.354   66.435  237.290  326.578
  471.134   12.074   68.746  238.545  338.120
  471.384   11.253   68.055  239.287  329.747
  471.634   10.671   68.126  239.632  327.882
  471.884   10.687   73.203  239.970  329.833
  472.134   11.441   73.606  240.505  329.541
  472.384   11.956   73.680  240.947  324.133
  472.634   11.733   78.610  241.591  327.526
  472.884   10.892   80.730  241.929  337.425
  473.134    9.532   85.664  241.868  347.060
  473.384    9.090   86.640  241.095  366.031
  473.634    8.946   85.999  240.826  379.939
  473.884    9.082   83.928  240.567  351.918
  474.134    9.517   75.656  240.393  330.603
  474.384   10.092   68.626  239.826  341.749
  474.634   11.145   70.320  239.560  344.683
  474.884   10.742   71.056  239.504  350.769
  475.134   10.160   75.516  239.433  359.751
  475.384    9.419   71.724  239.365  355.848
  475.634    9.933   70.366  239.605  353.590
  475.884   10.368   70.393  239.640  351.267
  476.134   10.185   68.174  240.190  322.917
  476.384   10.142   65.958  240.326  354.439
  476.634   10.616   63.789  240.460  367.162
  476.884   11.171   61.287  239.792  353.863
  477.134   12.044   48.206  236.492  371.257
  477.384   12.818   38.842  229.054  413.555
  477.634   11.797   27.523  227.576  430.158
  477.884   10.318   20.507  228.525  430.069
  478.134    9.079   20.507  228.765  414.664
  478.384    7.619   20.507  229.003  398.345
  478.634    6.898   20.619  229.541  399.240
  478.884    6.714   21.114  229.978  407.755
  479.134    6.949   22.712  229.913  402.938
  479.384    7.365   23.735  229.460  375.640
  479.634    8.637   21.852  229.687  376.667
  479.884   10.667   22.498  229.419  369.612
  480.134   13.255   23.234  229.254  356.771
  480.384   16.780   23.117  229.394  345.840
  480.634   21.801   21.328  228.720  354.292
  480.884   27.878   21.640  221.179  356.767
  481.134   36.527   23.236  225.966  362.460
  481.384   44.080   23.834  228.123  369.665
  481.634   48.263   25.143  228.667  366.157
  481.884   49.734   26.022  228.903  371.195
  482.134   49.611   27.238  228.839  372.024
  482.384   48.989   28.453  229.185  367.728
  482.634   48.686   29.431  229.825  365.008
  482.884   48.643   28.548  230.166  364.525
  483.134   48.360   29.287  230.404  367.327
  483.384   48.077   28.358  230.439  368.289
  483.634   47.814   28.765  230.276  367.477
  483.884   47.890   30.458  230.012  365.481
  484.134   48.305   33.198  229.541  363.944
  484.384   48.959   35.461  229.073  364.119
  484.634   49.852   33.339  229.009  364.749
  484.884   50.726   32.412  229.041  366.107
  485.134   50.981   33.528  229.282  369.436
  485.384   50.758   34.840  230.732  374.274
  485.634   49.499   35.720  234.509  387.656
  485.884   45.288   34.887  230.205  372.125
  486.134   40.978   30.192  227.104  347.192
  486.384   41.612   27.452  227.048  337.441
  486.634   48.606   25.001  227.081  336.431
  486.884   51.155   23.881  227.418  346.069
  487.134   52.048   23.282  227.559  355.311
  487.384   52.183   23.308  228.705  357.651
  487.634   52.179   23.855  231.268  350.661
  487.884   52.096   24.784  233.321  346.236
  488.134   51.634   25.618  235.485  345.422
  488.384   50.175   25.070  236.728  345.858
  488.634   42.495   26.383  237.173  346.884
  488.884   38.066   28.787  237.812  341.077
  489.134   33.197   29.287  238.054  335.074
  489.384   29.924   31.503  237.788  337.876
  489.634   28.385   31.815  237.724  339.561
  489.884   27.922   31.931  237.355  343.149
  490.134   27.579   31.765  236.684  351.998
  490.384   27.058   31.979  235.407  352.960
  490.634   25.339   33.672  234.230  347.084
  490.884   22.883   33.505  233.162  341.674
  491.134   19.909   32.197  232.689  337.574
  491.384   17.273   31.839  232.323  342.942
  491.634   15.775   32.003  232.156  346.006
  491.884   13.936   32.409  232.497  340.527
  492.134   12.896   32.527  232.532  344.447
