~VERSION INFORMATION
 VERS.                 2.0:   CWLS LOG ASCII STANDARD -VERSION 2.0
 WRAP.                  NO:   ONE LINE PER DEPTH STEP
~WELL INFORMATION BLOCK
#MNEM.UNIT           DATA                    DESCRIPTION OF MNEMONIC
#---------    -------------------            -------------------------------
# Generated from Intellog Unique Number	CW_82_90/WELL/3059
WELL.         TOTAL ET AL LIVOCK             : Well_name    - WELL
LOC .         00/06-36-085-23W4/0            : Location     - LOCATION
UWI .         00/06-36-085-23W4/0            : Uwi          - UNIQUE WELL ID
ENTR.         JAYE                           : Entered      - ENTERED BY
SRVC.         SCHLUMBERGER                   : Scn          - SERVICE COMPANY
DATE.         16 JAN 78                      : Date         - LOG DATE
STRT.M        188.976                        : top_depth    - START DEPTH
STOP.M        393.226                        : bot_depth    - STOP DEPTH
STEP.M        0.25                           : increment    - STEP LENGTH
 NULL. -999.2500:NULL Value
~CURVE INFORMATION BLOCK
#MNEM UNIT       ERCB CURVE CODE    CURVE DESCRIPTION
#-----------   ------------------   ----------------------------------
DEPT.M        00 001 00 00         : DEPTH        - DEPTH
CALI.MM       00 280 01 00         : CAL          - CALIPER
GR  .API      00 310 00 00         : GR           - GAMMA RAY
NPHI.V/V      00 330 00 00         : PHIN         - NEUTRON POROSITY (SANDSTONE)
DPHI.V/V      00 890 00 00         : PHID         - DENSITY POROSITY (SANDSTONE)
ILD .OHMM     00 120 00 00         : RESD         - DEEP RESISTIVITY (DIL)
~PARAMETER INFORMATION
#MNEM.UNIT           DATA             DESCRIPTION OF MNEMONIC
#---------         -----------     ------------------------------
GL  .M        565.404              : gl           - GROUND LEVEL ELEVATION
EREF.M        568.452              : kb           - ELEVATION OF DEPTH REFERENCE
DATM.M        565.404              : datum        - DATUM ELEVATION
TDD .M        408.432              : tdd          - TOTAL DEPTH DRILLER
RUN .         ONE                  : Run          - RUN NUMBER
ENG .         BUSHMAN              : Engineer     - RECORDING ENGINEER
WIT .         KIRKPATRICK          : Witness      - WITNESSED BY
BASE.         EDMONTON             : Branch       - HOME BASE OF LOGGING UNIT
MUD .         GEL CHEM             : Mud_type     - MUD TYPE
MATR.         SANDSTONE            : Logunit      - NEUTRON MATRIX
TMAX.C        21.1111              : BHT          - MAXIMUM RECORDED TEMPERATURE
BHTD.M        408.432              : BHTDEP       - MAXIMUM RECORDED TEMPERATURE
RMT .C        -17.7778             : MDTP         - TEMPERATURE OF MUD
MUDD.KG/M     8700                 : MWT          - MUD DENSITY
NEUT.         1                    : NEUTRON      - NEUTRON TYPE
RESI.         0                    : RESIST       - RESISTIVITY TYPE
RM  .OHMM     2.5                  : RM           - RESISTIVITY OF MUD
RMC .OHMM     2.5                  : RMC          - RESISTIVITY OF MUD CAKE
RMF .OHMM     6.28                 : RMF          - RESISTIVITY OF MUD FILTRATE
SUFT.C        4                    : SUFT         - SURFACE TEMPERATURE
~A  DEPTH      CAL       GR     PHIN     PHID     RESD
# ...
  371.476  196.713   50.564    0.310    0.130   44.029
  371.726  196.070   61.637    0.267    0.066   42.411
  371.976  194.049   68.517    0.279    0.096   43.644
  372.226  192.451   69.014    0.334    0.181   46.915
  372.476  192.657   63.691    0.390    0.220   50.814
  372.726  192.545   64.063    0.399    0.211   52.890
  372.976  190.947   72.069    0.403    0.198   54.846
  373.226  188.183   79.137    0.409    0.234   51.836
  373.476  190.192   87.394    0.428    0.261   46.908
  373.726  192.200   96.965    0.443    0.280   43.505
  373.976  192.936  101.341    0.446    0.293   40.425
  374.226  192.824   99.523    0.437    0.303   37.350
  374.476  192.712   96.954    0.420    0.271   38.586
  374.726  193.129   96.574    0.409    0.249   40.858
  374.976  194.183   93.943    0.398    0.258   43.092
  375.226  195.131   90.810    0.401    0.248   46.144
  375.476  196.715   89.993    0.393    0.238   49.414
  375.726  197.876   87.674    0.400    0.225   52.019
  375.976  195.748   82.727    0.406    0.229   54.450
  376.226  198.180   76.904    0.392    0.229   58.419
  376.476  200.187   71.081    0.380    0.183   62.560
  376.726  200.712   64.069    0.363    0.119   65.735
  376.976  200.813   60.184    0.355    0.145   69.332
  377.226  201.335   62.372    0.354    0.212   73.131
  377.476  201.647   62.180    0.349    0.216   75.121
  377.726  201.640   63.490    0.341    0.221   69.933
  377.976  201.634   64.238    0.389    0.283   62.813
  378.226  201.205   64.109    0.393    0.267   59.814
  378.476  200.667   63.730    0.398    0.240   55.370
  378.726  200.449   57.469    0.402    0.248   57.093
  378.976  201.185   48.830    0.413    0.233   58.978
  379.226  203.086   32.493    0.430    0.181   61.971
  379.476  204.141   26.357    0.402    0.093   67.376
  379.726  207.210   22.098    0.258    0.057   71.468
  379.976  207.416   22.032    0.270    0.073   76.534
  380.226  204.122   25.407    0.303    0.100   80.418
  380.476  203.161   29.284    0.305    0.148   82.447
  380.726  203.049   32.409    0.311    0.141   75.889
  380.976  207.284   34.158    0.329    0.212   67.517
  381.226  207.914   36.782    0.359    0.247   62.738
  381.476  204.832   39.407    0.390    0.275   61.587
  381.726  204.401   38.340    0.450    0.301   60.454
  381.976  202.167   34.394    0.453    0.194   60.128
  382.226  199.616   34.202    0.408    0.163   60.037
  382.476  200.352   38.203    0.379    0.187   59.159
  382.726  200.981   42.392    0.383    0.231   57.307
  382.976  201.823   46.019    0.406    0.216   55.406
  383.226  201.181   50.145    0.404    0.230   55.528
  383.476  200.538   56.272    0.360    0.212   54.925
  383.726  200.213   54.644    0.353    0.200   57.273
  383.976  201.055   38.808    0.390    0.204   61.337
  384.226  205.185   35.300    0.412    0.199   63.961
  384.476  213.556   30.791    0.422    0.209   68.880
  384.726  221.292   31.726    0.408    0.179   75.738
  384.976  208.241   36.353    0.388    0.189   76.920
  385.226  202.507   38.289    0.358    0.183   73.403
  385.476  202.924   39.411    0.343    0.163   70.966
  385.726  204.192   39.658    0.342    0.203   67.716
  385.976  205.139   37.840    0.357    0.204   67.094
  386.226  206.618   33.144    0.361    0.199   71.848
  386.476  210.960   31.262    0.431    0.245   78.709
  386.726  206.074   29.632    0.433    0.225   82.386
  386.976  204.795   25.561    0.406    0.196   87.559
  387.226  208.925   24.181    0.386    0.185   93.760
  387.476  206.478   24.991    0.393    0.261   99.083
  387.726  205.094   26.676    0.371    0.258   86.175
  387.976  206.042   29.051    0.393    0.236   76.811
  388.226  205.079   33.240    0.424    0.316   70.303
  388.476  204.755   36.303    0.445    0.290   62.188
  388.726  204.962   37.613    0.490    0.287   56.062
  388.976  204.001   40.175    0.495    0.255   51.904
  389.226  202.616   44.364    0.486    0.198   49.806
  389.476  201.655   47.677    0.466    0.174   48.611
  389.726  200.905   51.116    0.330    0.128   48.258
  389.976  199.414   51.613    0.331    0.123   48.003
  390.226  198.454   46.352    0.336    0.141   48.203
  390.476  198.235   41.843    0.330    0.160   48.587
  390.726  198.546   41.151    0.332    0.156   48.969
  390.976  199.071   36.642    0.337    0.134   49.452
  391.226  200.866   36.200    0.262    0.112   50.704
  391.476  202.239   41.391    0.266    0.110   52.475
  391.726  203.611   41.262    0.279    0.177   55.558
  391.976  205.195   38.755    0.331    0.197   59.721
  392.226  207.310   34.934    0.392    0.219   62.635
  392.476  205.077   32.991    0.402    0.246   60.449
  392.726  201.465   35.553    0.252    0.088   58.003
  392.976  200.822   37.552    0.220    0.040   54.101
  393.226  202.722   39.362    0.242    0.028   49.893
