~VERSION INFORMATION
 VERS.                 2.0:   CWLS LOG ASCII STANDARD -VERSION 2.0
 WRAP.                  NO:   ONE LINE PER DEPTH STEP
~WELL INFORMATION BLOCK
#MNEM.UNIT           DATA                    DESCRIPTION OF MNEMONIC
#---------    -------------------            -------------------------------
# Generated from Intellog Unique Number	CS_71_72/WELL/772
WELL.         KIRBY                          : Well_name    - WELL
LOC .         00/06-20-071-05W4/0            : Location     - LOCATION
UWI .         00/06-20-071-05W4/0            : Uwi          - UNIQUE WELL ID
ENTR.         SP                             : Entered      - ENTERED BY
SRVC.         SCHLUMBERGER                   : Scn          - SERVICE COMPANY
STRT.M        310                            : top_depth    - START DEPTH
STOP.M        555                            : bot_depth    - STOP DEPTH
STEP.M        0.25                           : increment    - STEP LENGTH
 NULL. -999.2500:NULL Value
~CURVE INFORMATION BLOCK
#MNEM UNIT       ERCB CURVE CODE    CURVE DESCRIPTION
#-----------   ------------------   ----------------------------------
DEPT.M        00 001 00 00         : DEPTH        - DEPTH
ILD .OHMM     00 120 00 00         : RESD         - DEEP RESISTIVITY (DIL)
DPHI.V/V      00 890 00 00         : PHID         - DENSITY POROSITY (LIMESTONE)
NPHI.V/V      00 330 00 00         : PHIN         - NEUTRON POROSITY (LIMESTONE)
GR  .API      00 310 00 00         : GR           - GAMMA RAY
~PARAMETER INFORMATION
#MNEM.UNIT           DATA             DESCRIPTION OF MNEMONIC
#---------         -----------     ------------------------------
GL  .M        678.2                : gl           - GROUND LEVEL ELEVATION
EREF.M        681.5                : kb           - ELEVATION OF DEPTH REFERENCE
DATM.M        678.2                : datum        - DATUM ELEVATION
TDD .M        555                  : tdd          - TOTAL DEPTH DRILLER
RUN .         ONE                  : Run          - RUN NUMBER
ENG .         BILL                 : Engineer     - RECORDING ENGINEER
WIT .         JIM                  : Witness      - WITNESSED BY
MUD .         GEL                  : Mud_type     - MUD TYPE
MATR.         LIMESTONE            : Logunit      - NEUTRON MATRIX
TMAX.C        20.5                 : BHT          - MAXIMUM RECORDED TEMPERATURE
BHTD.M        555                  : BHTDEP       - MAXIMUM RECORDED TEMPERATURE
MATR.         1                    : LOGUNIT      - NEUTRON MATRIX
RMT .C        25                   : MDTP         - TEMPERATURE OF MUD
NEUT.         1                    : NEUTRON      - NEUTRON TYPE
RESI.         0                    : RESIST       - RESISTIVITY TYPE
RMC .OHMM     0.25                 : RMC          - RESISTIVITY OF MUD CAKE
RMF .OHMM     0.25                 : RMF          - RESISTIVITY OF MUD FILTRATE
SUFT.C        15                   : SUFT         - SURFACE TEMPERATURE
~A  DEPTH     RESD     PHID     PHIN       GR
  310.000    2.945    0.273    0.552   89.428
  310.250    2.839    0.267    0.526   87.803
  310.500    2.737    0.262    0.502   85.568
  310.750    2.817    0.261    0.513   82.300
  311.000    2.971    0.261    0.524   78.668
  311.250    2.802    0.248    0.478   80.146
  311.500    2.706    0.237    0.479   84.054
  311.750    2.663    0.230    0.502   87.295
  312.000    2.731    0.243    0.518   89.501
  312.250    2.951    0.238    0.535   88.850
  312.500    3.106    0.201    0.534   86.677
  312.750    3.239    0.168    0.525   87.668
  313.000    3.260    0.211    0.521   88.838
  313.250    3.324    0.226    0.529   89.646
  313.500    3.519    0.245    0.517   90.395
  313.750    3.732    0.250    0.495   91.443
  314.000    3.878    0.239    0.477   91.764
  314.250    3.823    0.235    0.465   87.828
  314.500    3.673    0.231    0.457   85.349
  314.750    3.547    0.231    0.479   84.941
  315.000    3.420    0.236    0.515   86.782
  315.250    3.285    0.238    0.501   89.415
  315.500    3.192    0.241    0.518   91.745
  315.750    3.147    0.244    0.532   93.220
  316.000    3.144    0.240    0.544   95.123
  316.250    3.188    0.242    0.550   94.713
  316.500    3.257    0.244    0.551   91.689
  316.750    3.309    0.232    0.537   89.820
  317.000    3.399    0.227    0.520   93.184
  317.250    3.512    0.232    0.499   94.537
  317.500    3.649    0.238    0.493   91.634
  317.750    3.805    0.240    0.487   89.400
  318.000    3.946    0.226    0.477   87.834
  318.250    4.115    0.211    0.496   85.965
  318.500    4.204    0.119    0.511   88.963
  318.750    4.122    0.091    0.459   96.584
  319.000    3.901    0.128    0.429  102.076
  319.250    3.630    0.180    0.439  102.761
  319.500    3.409    0.204    0.476   96.333
  319.750    3.381    0.209    0.505   93.426
  320.000    3.821    0.217    0.522   91.983
  320.250    5.214    0.222    0.505   84.945
  320.500    7.264    0.224    0.499   75.348
  320.750    9.390    0.253    0.466   65.691
  321.000   11.673    0.288    0.423   60.902
  321.250   13.216    0.323    0.392   60.069
  321.500   11.433    0.345    0.392   66.719
  321.750    9.690    0.357    0.416   74.641
  322.000    7.941    0.411    0.449   86.459
  322.250    6.883    0.332    0.504   91.890
  322.500    7.592    0.237    0.547   95.313
  322.750   10.151    0.217    0.485   81.462
  323.000   13.197    0.215    0.402   70.830
  323.250   16.904    0.319    0.277   60.507
  323.500   20.970    0.349    0.235   51.032
  323.750   27.936    0.369    0.216   45.573
  324.000   32.830    0.371    0.214   40.541
  324.250   32.736    0.368    0.219   34.477
  324.500   28.060    0.364    0.231   30.235
  324.750   22.539    0.358    0.258   26.419
  325.000   21.278    0.329    0.294   23.575
  325.250   19.434    0.307    0.309   21.949
  325.500   18.290    0.282    0.319   21.174
  325.750   19.107    0.261    0.332   23.076
  326.000   18.881    0.259    0.345   24.738
  326.250   18.961    0.282    0.366   25.666
  326.500   19.089    0.293    0.358   24.221
  326.750   19.144    0.292    0.352   22.964
  327.000   19.118    0.290    0.359   23.040
  327.250   18.926    0.284    0.368   22.934
  327.500   18.725    0.277    0.365   22.890
  327.750   18.257    0.284    0.343   23.514
  328.000   17.736    0.291    0.328   24.629
  328.250   17.195    0.303    0.348   24.826
  328.500   16.579    0.311    0.373   24.720
  328.750   15.777    0.320    0.392   28.692
  329.000   14.491    0.319    0.373   39.294
  329.250   13.333    0.314    0.349   47.583
  329.500   12.976    0.305    0.343   58.490
  329.750   12.747    0.295    0.374   71.465
  330.000   12.710    0.291    0.400   78.903
  330.250   12.326    0.292    0.429   80.502
  330.500   11.034    0.291    0.437   89.827
  330.750   10.974    0.285    0.430   98.177
  331.000    9.266    0.261    0.429  106.589
  331.250    8.124    0.236    0.434   98.942
  331.500    8.598    0.218    0.438   88.737
  331.750    9.101    0.233    0.436   80.846
  332.000    9.509    0.243    0.420   73.562
  332.250    9.806    0.251    0.399   74.674
  332.500    9.869    0.231    0.386   80.044
  332.750    9.552    0.192    0.391   85.415
  333.000    9.631    0.191    0.395   85.005
  333.250   10.197    0.216    0.392   90.317
  333.500   10.918    0.243    0.403   95.137
  333.750   11.129    0.260    0.412   98.804
  334.000   11.307    0.283    0.399   98.881
  334.250   10.944    0.294    0.427   98.168
  334.500   10.032    0.296    0.445   98.854
  334.750    8.794    0.295    0.434   99.600
  335.000    8.016    0.202    0.443   96.395
  335.250    6.883    0.138    0.459  101.947
  335.500    5.834    0.095    0.463  107.073
  335.750    5.327    0.137    0.477  108.184
  336.000    4.903    0.176    0.486  104.064
  336.250    4.530    0.205    0.501   99.824
  336.500    4.431    0.186    0.515   98.745
  336.750    4.100    0.172    0.524  100.221
  337.000    3.844    0.178    0.522  102.797
  337.250    3.577    0.197    0.513  104.513
  337.500    3.366    0.203    0.504  107.332
  337.750    3.240    0.209    0.503  108.745
  338.000    3.230    0.214    0.493  108.518
  338.250    3.657    0.222    0.477  107.257
  338.500    4.504    0.233    0.466  101.313
  338.750    5.999    0.232    0.454   89.222
  339.000    7.444    0.203    0.478   77.071
  339.250    8.148    0.257    0.493   65.165
  339.500    8.937    0.318    0.446   55.570
  339.750    9.603    0.335    0.420   52.179
  340.000    9.977    0.347    0.428   54.812
  340.250   10.023    0.352    0.439   54.405
  340.500   10.070    0.345    0.422   55.880
  340.750    9.985    0.336    0.411   60.702
  341.000    9.844    0.328    0.404   70.697
  341.250    9.725    0.312    0.427   79.417
  341.500    9.697    0.297    0.444   83.323
  341.750    9.687    0.285    0.445   87.537
  342.000    9.823    0.273    0.430   87.980
  342.250   10.074    0.264    0.415   82.521
  342.500   10.311    0.268    0.403   65.505
  342.750   10.436    0.289    0.390   50.860
  343.000   10.406    0.308    0.382   45.706
  343.250   10.146    0.314    0.401   46.088
  343.500    9.949    0.319    0.417   48.782
  343.750    9.920    0.329    0.432   53.422
  344.000    9.892    0.335    0.442   58.244
  344.250    9.827    0.310    0.455   61.484
  344.500    9.854    0.293    0.450   59.616
  344.750    9.862    0.297    0.441   56.955
  345.000    9.925    0.302    0.434   58.371
  345.250    9.934    0.300    0.419   65.810
  345.500    9.869    0.293    0.413   70.876
  345.750    9.896    0.287    0.409   72.840
  346.000   10.034    0.291    0.408   68.476
  346.250   10.099    0.309    0.409   62.592
  346.500   10.108    0.323    0.407   59.080
  346.750   10.060    0.332    0.419   58.914
  347.000   10.052    0.331    0.425   60.452
  347.250   10.040    0.329    0.417   60.833
  347.500   10.012    0.319    0.408   59.391
  347.750   10.001    0.304    0.393   61.779
  348.000    9.917    0.288    0.383   67.088
  348.250    9.925    0.279    0.384   74.894
  348.500    9.990    0.269    0.392   80.020
  348.750   10.092    0.256    0.388   81.314
  349.000   10.176    0.244    0.404   71.900
  349.250   10.262    0.246    0.413   60.178
  349.500   10.118    0.264    0.407   54.414
  349.750    9.848    0.280    0.390   50.599
  350.000    9.966    0.271    0.379   50.858
  350.250   10.589    0.218    0.406   53.127
  350.500   11.357    0.182    0.425   58.193
  350.750   11.778    0.146    0.377   61.980
  351.000   11.989    0.174    0.341   65.283
  351.250   11.998    0.223    0.355   66.272
  351.500   11.897    0.286    0.386   69.697
  351.750   11.535    0.279    0.406   72.938
  352.000   10.797    0.271    0.400   74.596
  352.250    9.940    0.270    0.395   73.215
  352.500    9.850    0.277    0.396   74.995
  352.750    9.638    0.282    0.403   77.992
  353.000    9.363    0.283    0.410   79.955
  353.250    9.163    0.267    0.422   85.327
