~VERSION INFORMATION
 VERS.                 2.0:   CWLS LOG ASCII STANDARD -VERSION 2.0
 WRAP.                  NO:   ONE LINE PER DEPTH STEP
~WELL INFORMATION BLOCK
#MNEM.UNIT           DATA                    DESCRIPTION OF MNEMONIC
#---------    -------------------            -------------------------------
# Generated from Intellog Unique Number	CS_67_68/WELL/2172
WELL.         MANNVILLE ET AL ATMORE         : Well_name    - WELL
LOC .         00/06-31-067-15W4/0            : Location     - LOCATION
UWI .         00/06-31-067-15W4/0            : Uwi          - UNIQUE WELL ID
ENTR.         SP                             : Entered      - ENTERED BY
SRVC.         SCHLUMBERGER                   : Scn          - SERVICE COMPANY
STRT.M        359.664                        : top_depth    - START DEPTH
STOP.M        536.914                        : bot_depth    - STOP DEPTH
STEP.M        0.25                           : increment    - STEP LENGTH
 NULL. -999.2500:NULL Value
~CURVE INFORMATION BLOCK
#MNEM UNIT       ERCB CURVE CODE    CURVE DESCRIPTION
#-----------   ------------------   ----------------------------------
DEPT.M        00 001 00 00         : DEPTH        - DEPTH
CALI.MM       00 280 01 00         : CAL          - CALIPER
GR  .API      00 310 00 00         : GR           - GAMMA RAY
DPHI.V/V      00 890 00 00         : PHID         - DENSITY POROSITY (SANDSTONE)
NPHI.V/V      00 330 00 00         : PHIN         - NEUTRON POROSITY (SANDSTONE)
ILD .OHMM     00 120 00 00         : RESD         - DEEP RESISTIVITY (DIL)
~PARAMETER INFORMATION
#MNEM.UNIT           DATA             DESCRIPTION OF MNEMONIC
#---------         -----------     ------------------------------
GL  .M        606.095              : gl           - GROUND LEVEL ELEVATION
EREF.M        607.162              : kb           - ELEVATION OF DEPTH REFERENCE
DATM.M        607.162              : datum        - DATUM ELEVATION
TDD .M        539.496              : tdd          - TOTAL DEPTH DRILLER
RUN .         ONE                  : Run          - RUN NUMBER
ENG .         BILL                 : Engineer     - RECORDING ENGINEER
WIT .         JIM                  : Witness      - WITNESSED BY
MUD .         GEL                  : Mud_type     - MUD TYPE
MATR.         SANDSTONE            : Logunit      - NEUTRON MATRIX
TMAX.C        17.7778              : BHT          - MAXIMUM RECORDED TEMPERATURE
BHTD.M        539.496              : BHTDEP       - MAXIMUM RECORDED TEMPERATURE
MATR.         1                    : LOGUNIT      - NEUTRON MATRIX
RMT .C        25                   : MDTP         - TEMPERATURE OF MUD
NEUT.         1                    : NEUTRON      - NEUTRON TYPE
RESI.         0                    : RESIST       - RESISTIVITY TYPE
RMC .OHMM     0.25                 : RMC          - RESISTIVITY OF MUD CAKE
RMF .OHMM     0.25                 : RMF          - RESISTIVITY OF MUD FILTRATE
SUFT.C        15                   : SUFT         - SURFACE TEMPERATURE
~A  DEPTH      CAL       GR     PHID     PHIN     RESD
# ...
  505.664  174.100  119.508    0.142    0.458    2.835
  505.914  174.475  121.318    0.146    0.452    2.773
  506.164  174.978  123.428    0.160    0.449    2.727
  506.414  174.801  125.359    0.169    0.455    2.680
  506.664  174.723  125.672    0.168    0.461    2.670
  506.914  174.546  124.486    0.178    0.466    2.681
  507.164  174.632  125.216    0.185    0.473    2.718
  507.414  174.397  124.811    0.178    0.489    2.776
  507.664  174.267  123.825    0.162    0.499    2.849
  507.914  173.790  123.337    0.146    0.491    2.936
  508.164  173.614  120.629    0.134    0.481    3.067
  508.414  173.502  118.776    0.123    0.473    3.177
  508.664  171.416  122.669    0.093    0.466    3.263
  508.914  169.521  127.066    0.154    0.452    3.313
  509.164  168.592  125.173    0.172    0.438    3.263
  509.414  166.485  120.830    0.186    0.424    3.157
  509.664  163.880  117.982    0.182    0.412    3.017
  509.914  162.591  119.469    0.174    0.408    2.896
  510.164  163.671  124.177    0.169    0.426    2.748
  510.414  165.647  126.096    0.168    0.450    2.634
  510.664  168.318  126.253    0.175    0.472    2.557
  510.914  170.322  126.427    0.165    0.489    2.540
  511.164  172.164  126.900    0.176    0.499    2.714
  511.414  172.925  128.402    0.177    0.502    3.071
  511.664  172.700  129.809    0.178    0.492    3.575
  511.914  171.974  129.526    0.173    0.428    4.152
  512.164  168.525  126.136    0.169    0.389    5.056
  512.414  164.125  113.220    0.160    0.358    5.928
  512.664  161.820   94.703    0.150    0.337    6.810
  512.914  159.525   92.213    0.162    0.322    7.510
  513.164  156.855   94.022    0.183    0.312    8.086
  513.414  154.251   95.356    0.208    0.301    8.411
  513.664  153.689   96.579    0.233    0.297    8.676
  513.914  153.378   97.345    0.236    0.328    8.885
  514.164  153.152   97.043    0.215    0.343    9.025
  514.414  152.518   96.507    0.199    0.348    9.081
  514.664  152.015   96.842    0.201    0.347    9.042
  514.914  151.489   98.224    0.205    0.347    8.875
  515.164  151.154   99.248    0.207    0.349    8.667
  515.414  151.242   98.334    0.199    0.358    8.382
  515.664  151.481   97.106    0.190    0.370    8.177
  515.914  151.185   95.954    0.183    0.364    7.936
  516.164  151.600   96.684    0.177    0.361    7.423
  516.414  151.496  100.506    0.172    0.354    6.759
  516.664  151.260  106.373    0.169    0.358    6.130
  516.914  151.060  112.785    0.165    0.355    5.437
  517.164  151.283  119.737    0.160    0.354    4.833
  517.414  151.857  128.132    0.168    0.371    4.399
  517.664  152.453  132.903    0.194    0.398    4.206
  517.914  154.693  136.576    0.205    0.430    4.296
  518.164  154.968  138.404    0.200    0.441    4.556
  518.414  154.550  131.411    0.181    0.420    4.981
  518.664  152.884  124.569    0.170    0.392    5.307
  518.914  153.754  123.381    0.172    0.362    5.593
  519.164  157.378  125.392    0.182    0.342    5.877
  519.414  158.350  125.781    0.169    0.355    6.146
  519.664  162.066  115.939    0.183    0.351    6.384
  519.914  160.466  106.675    0.200    0.342    6.607
  520.164  157.210   99.564    0.217    0.334    6.786
  520.414  158.404   94.562    0.224    0.327    6.934
  520.664  160.686   98.044    0.192    0.333    7.024
  520.914  161.668  102.186    0.176    0.338    7.007
  521.164  162.269  102.382    0.184    0.351    6.883
  521.414  162.469   97.340    0.207    0.364    6.724
  521.664  162.426   98.947    0.198    0.354    6.519
  521.914  162.094  103.552    0.173    0.341    6.388
  522.164  161.679  107.563    0.159    0.332    6.213
  522.414  162.033  111.178    0.154    0.349    6.057
  522.664  162.482  113.756    0.147    0.360    5.954
  522.914  162.359  115.657    0.138    0.371    5.782
  523.164  161.504  116.838    0.157    0.382    5.633
  523.414  160.080  117.112    0.149    0.390    5.488
  523.664  159.392  118.472    0.145    0.393    5.358
  523.914  159.361  120.948    0.144    0.383    5.333
  524.164  159.823  123.950    0.137    0.372    5.398
  524.414  160.394  126.489    0.127    0.380    5.464
  524.664  161.603  124.923    0.114    0.388    5.476
  524.914  162.986  117.746    0.102    0.362    5.328
  525.164  162.837  109.441    0.124    0.344    5.103
  525.414  161.402  102.993    0.151    0.346    4.785
  525.664  158.467   98.191    0.188    0.368    4.458
  525.914  156.995   92.735    0.212    0.370    4.243
  526.164  156.637   94.466    0.207    0.354    4.192
  526.414  156.721  106.788    0.184    0.338    4.390
  526.664  157.961  111.823    0.160    0.338    4.662
  526.914  159.716  112.012    0.128    0.338    5.055
  527.164  160.956  110.404    0.117    0.339    5.423
  527.414  161.350  110.496    0.126    0.352    5.727
  527.664  161.992  110.274    0.118    0.371    5.720
  527.914  162.715  106.435    0.115    0.392    5.519
  528.164  163.218  103.730    0.132    0.406    5.207
  528.414  163.422  113.982    0.124    0.415    4.731
  528.664  163.297  120.778    0.081    0.427    4.467
  528.914  163.177  124.573    0.066    0.475    4.504
  529.164  162.929  122.276    0.116    0.431    4.806
  529.414  162.938  120.497    0.134    0.336    5.129
  529.664  162.561  124.126    0.137    0.333    5.460
  529.914  162.821  127.743    0.141    0.345    5.695
  530.164  163.163  129.101    0.135    0.352    5.905
  530.414  163.273  129.664    0.129    0.350    6.066
  530.664  163.571  127.912    0.122    0.349    6.171
  530.914  163.849  124.613    0.131    0.347    6.215
  531.164  164.374  120.491    0.140    0.341    6.034
  531.414  164.935  116.426    0.149    0.336    5.774
  531.664  165.576  106.116    0.149    0.348    5.333
  531.914  165.902   87.541    0.150    0.359    4.802
  532.164  162.732   20.549    0.157    0.360    4.501
  532.414  162.213   14.355    0.167    0.352    4.254
  532.664  162.685   13.295    0.179    0.346    4.256
  532.914  162.429   13.472    0.177    0.335    4.332
  533.164  162.739   12.041    0.167    0.319    4.477
  533.414  162.685   57.974    0.151    0.317    4.786
  533.664  162.952   63.792    0.129    0.310    5.173
  533.914  162.958   66.519    0.123    0.298    5.441
  534.164  162.832   66.201    0.124    0.215    5.764
  534.414  162.978   66.023    0.134    0.058    5.974
  534.664  163.065   65.683    0.163   -0.001    6.013
  534.914  162.970   65.298    0.209    0.000    5.993
  535.164  163.056   64.775    0.226    0.000    5.817
  535.414  162.935   64.538    0.242    0.000    5.614
  535.664  161.909   64.177    0.186   -0.000    5.499
  535.914  161.922   63.999    0.155   -0.000    5.506
  536.164  162.327   64.137    0.154   -0.000    5.652
  536.414  162.363   64.306    0.096    0.000    6.091
  536.664  162.763   64.570    0.051    0.000    7.338
  536.914  162.344   64.585    0.036    0.000    9.063
