~VERSION INFORMATION
 VERS.                 2.0:   CWLS LOG ASCII STANDARD -VERSION 2.0
 WRAP.                  NO:   ONE LINE PER DEPTH STEP
~WELL INFORMATION BLOCK
#MNEM.UNIT           DATA                    DESCRIPTION OF MNEMONIC
#---------    -------------------            -------------------------------
# Generated from Intellog Unique Number	CW_70_72/WELL/529
NULL.         -999.25                        : NULL_VALUE
WELL.         CHIEFCO SCEPTRE SPURFIELD 06-0 : Well_name    - WELL              
LOC .         06-02-072-02W5                 : Location     - LOCATION          
UWI .         00/06-02-072-02W5/0            : Uwi          - UNIQUE WELL ID    
ENTR.         JAYE                           : Entered      - ENTERED BY        
SRVC.         SCHLUMBERGER                   : Scn          - SERVICE COMPANY   
DATE.         21 JAN 78                      : Date         - LOG DATE          
STRT.M        387.096                        : top_depth    - START DEPTH       
STOP.M        640.096                        : bot_depth    - STOP DEPTH        
STEP.M        0.25                           : increment    - STEP LENGTH       
~CURVE INFORMATION BLOCK
#MNEM UNIT       ERCB CURVE CODE    CURVE DESCRIPTION
#-----------   ------------------   ----------------------------------
DEPT.M        00 001 00 00         : DEPTH        - DEPTH                       
DPHI.V/V      00 890 00 00         : PHID         - DENSITY POROSITY (SANDSTONE)
NPHI.V/V      00 330 00 00         : PHIN         - NEUTRON POROSITY (SANDSTONE)
GR  .API      00 310 00 00         : GR           - GAMMA RAY                   
CALI.MM       00 280 01 00         : CAL          - CALIPER                     
ILD .OHMM     00 120 00 00         : RESD         - DEEP RESISTIVITY (DIL)      
~PARAMETER INFORMATION       
#MNEM.UNIT           DATA             DESCRIPTION OF MNEMONIC
#---------         -----------     ------------------------------
GL  .M        588.416              : gl           - GROUND LEVEL ELEVATION      
EREF.M        591.312              : kb           - ELEVATION OF DEPTH REFERENCE
DATM.M        588.416              : datum        - DATUM ELEVATION             
TDD .M        659.892              : tdd          - TOTAL DEPTH DRILLER         
RUN .         ONE                  : Run          - RUN NUMBER                  
ENG .         CONQUIST/DALY        : Engineer     - RECORDING ENGINEER          
WIT .         SIFERD               : Witness      - WITNESSED BY                
BASE.         EDM                  : Branch       - HOME BASE OF LOGGING UNIT   
MUD .         GEL CHEM             : Mud_type     - MUD TYPE                    
MATR.         SANDSTONE            : Logunit      - NEUTRON MATRIX              
TMAX.C        25.5556              : BHT          - MAXIMUM RECORDED TEMPERATURE
BHTD.M        660.197              : BHTDEP       - MAXIMUM RECORDED TEMPERATURE
RMT .C        18.8889              : MDTP         - TEMPERATURE OF MUD          
MUDD.KG/M     1128                 : MWT          - MUD DENSITY                 
NEUT.         1                    : NEUTRON      - NEUTRON TYPE                
RESI.         0                    : RESIST       - RESISTIVITY TYPE            
RM  .OHMM     6.55                 : RM           - RESISTIVITY OF MUD          
RMC .OHMM     0                    : RMC          - RESISTIVITY OF MUD CAKE     
RMF .OHMM     5.8                  : RMF          - RESISTIVITY OF MUD FILTRATE 
SUFT.C        0                    : SUFT         - SURFACE TEMPERATURE         
~A  DEPTH     PHID     PHIN       GR      CAL     RESD
  387.096    0.147    0.529   91.252  193.191    2.381
  387.346    0.242    0.558   94.064  199.222    2.389
  387.596    0.250    0.580  100.552  203.042    2.415
  387.846    0.262    0.587  103.427  201.800    2.492
  388.096    0.277    0.558  103.191  199.926    2.548
  388.346    0.249    0.517  101.213  199.103    2.595
  388.596    0.217    0.487  102.969  198.809    2.608
  388.846    0.257    0.493  106.032  199.356    2.597
  389.096    0.239    0.526  104.489  201.593    2.571
  389.346    0.227    0.553  104.751  204.671    2.517
  389.596    0.231    0.559  106.133  210.176    2.473
  389.846    0.222    0.548  107.330  206.296    2.439
  390.096    0.224    0.562  106.409  201.260    2.428
  390.346    0.205    0.543  103.933  197.488    2.436
  390.596    0.191    0.521  101.145  202.044    2.458
  390.846    0.208    0.493   97.735  211.130    2.498
  391.096    0.239    0.492   94.201  222.644    2.583
  391.346    0.287    0.504   90.542  232.570    2.691
  391.596    0.300    0.497   86.884  238.601    2.810
  391.846    0.303    0.494   83.909  221.549    3.000
  392.096    0.228    0.486   79.937  198.172    3.197
  392.346    0.215    0.456   75.656  182.913    3.414
  392.596    0.201    0.427   75.669  179.983    3.708
  392.846    0.216    0.390   82.902  180.955    3.907
  393.096    0.228    0.379   87.833  189.831    3.853
  393.346    0.210    0.420   90.585  204.610    3.625
  393.596    0.284    0.446   88.668  215.698    3.210
  393.846    0.293    0.474   86.130  232.480    2.941
  394.096    0.314    0.494   88.510  233.239    2.669
  394.346    0.320    0.530   90.638  215.030    2.409
  394.596    0.334    0.546   86.359  203.986    2.327
  394.846    0.355    0.483   80.083  188.934    2.551
  395.096    0.314    0.437   74.184  173.779    2.916
  395.346    0.279    0.409   71.333  161.048    3.358
  395.596    0.272    0.395   70.850  157.277    3.752
  395.846    0.278    0.389   75.592  159.093    4.099
  396.096    0.196    0.400   74.425  161.116    4.545
  396.346    0.157    0.415   69.643  162.510    4.909
  396.596    0.163    0.410   62.687  161.689    5.182
  396.846    0.186    0.387   57.408  160.444    5.358
  397.096    0.201    0.378   57.672  159.522    5.166
  397.346    0.270    0.386   59.988  159.228    4.833
  397.596    0.267    0.395   64.171  159.458    4.386
  397.846    0.239    0.394   68.727  160.326    4.011
  398.096    0.241    0.399   71.729  162.771    3.838
  398.346    0.248    0.407   74.729  167.326    3.742
  398.596    0.233    0.394   78.291  173.567    3.740
  398.846    0.200    0.421   80.171  182.654    3.795
  399.096    0.225    0.447   81.804  194.480    3.829
  399.346    0.271    0.459   84.244  188.917    3.878
  399.596    0.197    0.463   87.058  185.778    3.846
  399.846    0.230    0.474   92.113  198.552    3.722
  400.096    0.257    0.476   96.857  200.053    3.678
  400.346    0.309    0.450   98.364  202.393    3.676
  400.596    0.338    0.444  100.307  215.589    3.716
  400.846    0.249    0.454  103.867  213.399    3.879
  401.096    0.169    0.383  108.798  196.559    4.149
  401.346    0.189    0.420  103.894  185.199    4.389
  401.596    0.231    0.441   95.194  180.584    4.617
  401.846    0.211    0.451   92.095  181.449    4.755
  402.096    0.203    0.439   96.403  185.053    4.753
  402.346    0.223    0.444   99.092  182.969    4.591
  402.596    0.270    0.474   97.736  178.142    4.434
  402.846    0.212    0.469   97.999  183.647    4.333
  403.096    0.193    0.424  101.684  182.300    4.354
  403.346    0.196    0.422  103.503  179.790    4.477
  403.596    0.208    0.442  103.826  178.233    4.718
  403.846    0.148    0.455  100.792  177.836    4.972
  404.096    0.160    0.449  100.742  178.178    5.180
  404.346    0.173    0.436  102.560  178.725    5.296
  404.596    0.183    0.419  100.457  179.588    5.263
  404.846    0.195    0.425   95.677  180.768    5.151
  405.096    0.207    0.437   90.399  182.898    4.985
  405.346    0.201    0.422   91.471  184.925    4.798
  405.596    0.206    0.400   95.219  189.691    4.539
  405.846    0.212    0.456   98.469  195.615    4.214
  406.096    0.265    0.496  105.702  207.335    3.965
  406.346    0.323    0.537  112.624  224.854    3.564
  406.596    0.364    0.547  104.857  234.362    3.198
  406.846    0.352    0.511   99.953  216.467    2.947
  407.096    0.316    0.467   96.419  195.620    2.799
  407.346    0.296    0.391   92.511  176.250    3.057
  407.596    0.190    0.392   88.353  175.749    3.442
  407.846    0.206    0.401   78.968  181.355    4.001
  408.096    0.211    0.345   68.773  180.113    4.470
  408.346    0.252    0.325   57.583  171.597    4.874
  408.596    0.279    0.340   46.703  159.603    5.078
  408.846    0.294    0.354   42.671  153.829    4.217
  409.096    0.286    0.363   43.992  153.535    3.359
  409.346    0.297    0.370   46.248  154.190    2.902
  409.596    0.283    0.380   48.873  154.529    2.512
  409.846    0.290    0.390   53.057  155.083    2.191
  410.096    0.299    0.394   55.497  155.524    2.085
  410.346    0.275    0.387   52.585  156.177    2.072
  410.596    0.250    0.378   50.420  156.623    2.118
  410.846    0.259    0.361   55.101  157.069    2.245
  411.096    0.248    0.349   62.833  157.300    2.339
  411.346    0.223    0.366   75.045  157.853    2.545
  411.596    0.221    0.383   78.422  158.192    2.738
  411.846    0.206    0.377   81.362  158.633    2.951
  412.096    0.197    0.376   84.485  159.396    3.181
  412.346    0.189    0.377   88.979  160.473    3.365
  412.596    0.173    0.378   94.595  161.651    3.573
  412.846    0.186    0.391  101.890  164.940    3.708
  413.096    0.224    0.433  107.194  171.919    3.893
  413.346    0.292    0.437  110.134  189.015    4.079
  413.596    0.234    0.392  108.340  197.154    4.242
  413.846    0.223    0.400  108.977  181.788    4.345
  414.096    0.269    0.459  110.795  180.018    4.157
  414.346    0.312    0.503  113.050  201.858    3.689
  414.596    0.297    0.546  113.748  223.172    3.224
  414.846    0.290    0.540  113.449  238.793    2.780
  415.096    0.333    0.545  110.475  246.404    2.287
  415.346    0.379    0.556  103.704  251.906    2.048
  415.596    0.261    0.509   97.865  222.629    2.195
  415.846    0.257    0.496   91.593  186.078    2.425
  416.096    0.278    0.480   82.892  180.830    2.659
  416.346    0.279    0.444   76.805  172.948    2.904
  416.596    0.284    0.425   70.283  161.271    3.078
  416.846    0.265    0.409   68.491  158.343    3.105
  417.096    0.245    0.424   73.235  158.684    3.074
  417.346    0.249    0.449   74.368  161.339    3.003
  417.596    0.281    0.435   75.690  165.787    2.951
  417.846    0.276    0.481   82.673  174.347    2.867
  418.096    0.312    0.540   92.522  186.283    2.817
  418.346    0.299    0.458   89.920  199.687    2.794
  418.596    0.248    0.426   81.034  176.101    2.846
  418.846    0.195    0.408   76.626  167.062    2.953
  419.096    0.210    0.409   82.179  170.141    3.106
  419.346    0.215    0.412   84.869  175.537    3.280
  419.596    0.223    0.419   80.526  180.303    3.672
  419.846    0.279    0.408   75.310  169.996    4.141
  420.096    0.291    0.372   70.842  159.688    4.372
  420.346    0.264    0.373   67.433  150.753    4.312
  420.596    0.254    0.387   65.765  151.515    4.064
  420.846    0.245    0.396   65.529  155.226    3.640
  421.096    0.252    0.394   64.422  156.827    3.297
  421.346    0.282    0.389   62.941  157.696    2.998
  421.596    0.281    0.404   61.834  158.244    2.773
  421.846    0.282    0.411   63.964  158.791    2.720
  422.096    0.291    0.424   66.404  159.447    2.844
  422.346    0.257    0.443   71.832  160.525    3.043
  422.596    0.186    0.458   74.833  162.445    3.355
  422.846    0.127    0.398   76.402  163.416    3.770
  423.096    0.149    0.390   76.355  165.546    4.400
  423.346    0.203    0.380   73.691  165.882    5.096
