~VERSION INFORMATION
 VERS.                 2.0:   CWLS LOG ASCII STANDARD -VERSION 2.0
 WRAP.                  NO:   ONE LINE PER DEPTH STEP
~WELL INFORMATION BLOCK
#MNEM.UNIT           DATA                    DESCRIPTION OF MNEMONIC
#---------    -------------------            -------------------------------
# Generated from Intellog Unique Number	CW_73_75/WELL/3524
WELL.         ULSTER MARTIN HILLS            : Well_name    - WELL
LOC .         00/09-09-074-02W5/0            : Location     - LOCATION
UWI .         00/09-09-074-02W5/0            : Uwi          - UNIQUE WELL ID
ENTR.         T                              : Entered      - ENTERED BY
SRVC.         SCHLUMBERGER                   : Scn          - SERVICE COMPANY
STRT.M        355                            : top_depth    - START DEPTH
STOP.M        615                            : bot_depth    - STOP DEPTH
STEP.M        0.25                           : increment    - STEP LENGTH
 NULL. -999.2500:NULL Value
~CURVE INFORMATION BLOCK
#MNEM UNIT       ERCB CURVE CODE    CURVE DESCRIPTION
#-----------   ------------------   ----------------------------------
DEPT.M        00 001 00 00         : DEPTH        - DEPTH
GR  .API      00 310 00 00         : GR           - GAMMA RAY
NPHI.V/V      00 330 00 00         : PHIN         - NEUTRON POROSITY (SANDSTONE)
DPHI.V/V      00 890 00 00         : PHID         - DENSITY POROSITY (SANDSTONE)
ILD .OHMM     00 120 00 00         : RESD         - DEEP RESISTIVITY (DIL)
~PARAMETER INFORMATION
#MNEM.UNIT           DATA             DESCRIPTION OF MNEMONIC
#---------         -----------     ------------------------------
GL  .M        636                  : gl           - GROUND LEVEL ELEVATION
EREF.M        639                  : kb           - ELEVATION OF DEPTH REFERENCE
DATM.M        639                  : datum        - DATUM ELEVATION
TDD .M        620                  : tdd          - TOTAL DEPTH DRILLER
RUN .         ONE                  : Run          - RUN NUMBER
ENG .         BILL                 : Engineer     - RECORDING ENGINEER
WIT .         JIM                  : Witness      - WITNESSED BY
MUD .         GEL                  : Mud_type     - MUD TYPE
MATR.         SANDSTONE            : Logunit      - NEUTRON MATRIX
TMAX.C        21                   : BHT          - MAXIMUM RECORDED TEMPERATURE
BHTD.M        620                  : BHTDEP       - MAXIMUM RECORDED TEMPERATURE
RMT .C        22                   : MDTP         - TEMPERATURE OF MUD
MUDD.KG/M     1130                 : MWT          - MUD DENSITY
NEUT.         1                    : NEUTRON      - NEUTRON TYPE
RESI.         0                    : RESIST       - RESISTIVITY TYPE
RM  .OHMM     3.2                  : RM           - RESISTIVITY OF MUD
RMC .OHMM     3.5                  : RMC          - RESISTIVITY OF MUD CAKE
RMF .OHMM     2.4                  : RMF          - RESISTIVITY OF MUD FILTRATE
SUFT.C        4                    : SUFT         - SURFACE TEMPERATURE
~A  DEPTH       GR     PHIN     PHID     RESD
# ...
  398.500  100.790    0.406    0.251    6.166
  398.750   97.352    0.408    0.251    6.172
  399.000   93.904    0.409    0.248    6.177
  399.250   89.311    0.400    0.232    6.184
  399.500   85.864    0.394    0.233    6.190
  399.750   82.420    0.390    0.246    6.308
  400.000   76.674    0.384    0.258    6.433
  400.250   71.500    0.371    0.247    6.678
  400.500   66.898    0.350    0.241    6.806
  400.750   62.306    0.342    0.247    6.939
  401.000   60.593    0.371    0.256    7.071
  401.250   58.299    0.384    0.263    7.078
  401.500   55.433    0.380    0.277    7.084
  401.750   50.840    0.368    0.282    7.090
  402.000   63.555    0.372    0.279    6.968
  402.250   63.001    0.378    0.274    6.728
  402.500   63.015    0.383    0.268    6.610
  402.750   63.033    0.386    0.267    6.380
  403.000   63.047    0.381    0.271    6.271
  403.250   63.069    0.375    0.274    6.163
  403.500   61.934    0.378    0.274    5.947
  403.750   73.495    0.381    0.272    5.845
  404.000   70.633    0.385    0.268    5.642
  404.250   68.912    0.388    0.269    5.542
  404.500   68.930    0.388    0.269    5.349
  404.750   83.380    0.389    0.270    5.162
  405.000   84.552    0.394    0.270    4.983
  405.250   85.147    0.401    0.271    4.721
  405.500   85.743    0.411    0.274    4.640
  405.750   86.333    0.419    0.281    4.477
  406.000   88.082    0.421    0.290    4.400
  406.250   93.302    0.412    0.334    4.247
  406.500   92.739    0.394    0.350    4.097
  406.750   80.064    0.389    0.316    3.954
  407.000   67.968    0.385    0.289    4.337
  407.250   61.063    0.382    0.289    4.668
  407.500   57.620    0.373    0.289    4.937
  407.750   56.484    0.364    0.290    5.221
  408.000   55.925    0.360    0.292    5.418
  408.250   59.405    0.360    0.292    5.728
  408.500   59.423    0.360    0.292    5.947
  408.750   60.595    0.366    0.292    6.063
  409.000   66.387    0.374    0.285    6.067
  409.250   70.448    0.397    0.272    5.965
  409.500   75.654    0.424    0.253    5.969
  409.750   88.365    0.430    0.251    5.866
  410.000   94.738    0.445    0.259    5.981
  410.250   97.064    0.454    0.266    6.209
  410.500   99.962    0.425    0.268    6.328
  410.750   65.947    0.398    0.257    6.336
  411.000   65.961    0.340    0.231    6.339
  411.250   73.479    0.327    0.221    6.230
  411.500   79.843    0.319    0.212    5.906
  411.750   79.284    0.318    0.212    5.803
  412.000   55.072    0.318    0.239    5.601
  412.250   48.744    0.319    0.259    5.405
  412.500   41.840    0.322    0.276    5.216
  412.750   38.973    0.326    0.285    5.034
  413.000   36.111    0.327    0.287    4.859
  413.250   32.673    0.327    0.287    4.773
  413.500   30.960    0.326    0.288    4.777
  413.750   31.555    0.326    0.282    4.695
  414.000   40.800    0.328    0.260    4.787
  414.250   61.010    0.332    0.236    4.879
  414.500   73.148    0.333    0.223    5.161
  414.750   88.166    0.342    0.208    5.355
  415.000   92.800    0.346    0.196    5.769
  415.250  100.899    0.355    0.195    5.987
  415.500  102.648    0.361    0.191    5.991
  415.750  104.974    0.365    0.193    6.220
  416.000  102.108    0.362    0.202    6.341
  416.250   96.357    0.367    0.215    6.464
  416.500   91.764    0.373    0.232    6.471
  416.750   90.629    0.379    0.231    6.476
  417.000   89.493    0.382    0.223    6.249
  417.250   91.242    0.375    0.229    5.709
  417.500   91.837    0.370    0.264    5.218
  417.750   91.279    0.363    0.282    4.943
  418.000   95.912    0.371    0.351    4.684
  418.250   94.777    0.384    0.541    4.438
  418.500   89.607    0.444    0.565    4.206
  418.750   90.198    0.483    0.556    4.210
  419.000   98.874    0.456    0.466    4.213
  419.250  105.816    0.436    0.322    4.376
  419.500  104.685    0.410    0.277    4.458
  419.750  100.660    0.388    0.257    4.715
  420.000   94.909    0.376    0.275    4.805
  420.250   93.773    0.378    0.328    5.081
  420.500   89.753    0.383    0.327    5.179
  420.750   84.584    0.385    0.277    5.184
  421.000   81.136    0.389    0.258    5.188
  421.250   74.231    0.385    0.247    5.290
  421.500   69.057    0.381    0.254    5.296
  421.750   72.546    0.374    0.260    5.299
  422.000   73.141    0.365    0.265    5.303
  422.250   71.429    0.367    0.267    5.308
  422.500   69.712    0.374    0.280    5.314
  422.750   69.153    0.381    0.297    5.415
  423.000   69.748    0.382    0.308    5.420
  423.250   65.728    0.380    0.311    5.527
  423.500   61.712    0.379    0.307    5.531
  423.750   62.884    0.378    0.304    5.436
  424.000   75.018    0.378    0.298    5.344
  424.250   79.651    0.380    0.290    5.347
  424.500   80.246    0.381    0.277    5.256
  424.750   76.808    0.383    0.278    5.260
  425.000   80.287    0.390    0.296    5.172
  425.250   76.267    0.395    0.307    5.080
  425.500   71.670    0.390    0.302    4.904
  425.750   68.231    0.389    0.296    4.819
  426.000   71.707    0.389    0.294    4.569
  426.250   87.879    0.389    0.291    4.489
  426.500   96.555    0.390    0.326    4.332
  426.750   94.270    0.393    0.346    4.258
  427.000   91.981    0.397    0.302    4.183
  427.250   91.422    0.390    0.275    4.111
  427.500   93.743    0.381    0.248    4.592
  427.750   92.031    0.385    0.227    5.130
  428.000   88.011    0.392    0.252    5.324
  428.250   81.683    0.400    0.263    5.330
  428.500   75.355    0.406    0.265    5.335
  428.750   78.839    0.413    0.273    5.242
  429.000   92.127    0.420    0.285    5.059
  429.250  101.953    0.420    0.285    4.971
  429.500  106.014    0.393    0.275    4.799
  429.750  102.566    0.375    0.267    4.802
  430.000   96.815    0.371    0.267    4.720
  430.250   90.496    0.374    0.267    4.724
  430.500   86.476    0.380    0.265    4.816
  430.750   81.879    0.384    0.270    4.911
  431.000   80.162    0.384    0.288    5.005
  431.250   73.834    0.373    0.298    5.103
  431.500   66.352    0.367    0.300    5.105
  431.750   62.332    0.366    0.296    5.111
  432.000   58.889    0.364    0.294    5.116
  432.250   55.450    0.360    0.292    5.027
  432.500   53.161    0.359    0.298    5.034
  432.750   51.448    0.361    0.307    5.036
  433.000   50.890    0.364    0.312    4.952
  433.250   53.792    0.369    0.321    4.954
  433.500   57.849    0.378    0.325    4.958
  433.750   58.444    0.382    0.322    5.149
  434.000   60.202    0.391    0.318    5.247
  434.250   60.793    0.390    0.299    5.448
  434.500   60.811    0.376    0.290    5.657
  434.750   59.099    0.362    0.279    5.871
  435.000   56.232    0.337    0.253    6.438
  435.250   54.520    0.301    0.170    7.595
  435.500   48.197    0.261    0.088    9.463
  435.750   45.330    0.195    0.055   12.232
  436.000   42.459    0.099    0.003   14.172
  436.250   42.477    0.102   -0.006   12.947
  436.500   48.265    0.117    0.002    8.997
  436.750   47.134    0.150    0.037    8.216
  437.000   48.310    0.258    0.142    6.977
  437.250   54.093    0.410    0.327    5.818
  437.500   56.419    0.412    0.312    7.943
  437.750   55.861    0.392    0.291    7.390
  438.000   63.379    0.372    0.276    6.877
  438.250   67.440    0.370    0.265    6.399
  438.500   66.881    0.376    0.260    6.174
  438.750   70.942    0.391    0.258    5.744
  439.000   72.687    0.358    0.268    5.443
  439.250   68.094    0.352    0.276    5.160
  439.500   65.805    0.362    0.283    5.070
  439.750   64.092    0.387    0.287    4.982
  440.000   65.837    0.400    0.287    4.989
  440.250   76.821    0.405    0.282    4.993
  440.500   87.801    0.405    0.280    4.997
  440.750   87.251    0.398    0.272    5.001
  441.000   85.529    0.392    0.232    5.005
  441.250   82.663    0.388    0.235    5.197
  441.500   78.652    0.383    0.255    5.395
  441.750   76.363    0.379    0.261    5.705
