~VERSION INFORMATION
 VERS.                 2.0:   CWLS LOG ASCII STANDARD -VERSION 2.0
 WRAP.                  NO:   ONE LINE PER DEPTH STEP
~WELL INFORMATION BLOCK
#MNEM.UNIT           DATA                    DESCRIPTION OF MNEMONIC
#---------    -------------------            -------------------------------
# Generated from Intellog Unique Number	CC_84_87/WELL/1167
NULL.         -999.25                        : NULL_VALUE
WELL.         HB GORDON LK EV                : Well_name    - WELL
LOC .         07-24-086-03W4                 : Location     - LOCATION          
UWI .         00/07-24-086-03W400            : Uwi          - UNIQUE WELL ID    
ENTR.         DW                             : Entered      - ENTERED BY        
SRVC.         SCHLUMBERGER                   : Scn          - SERVICE COMPANY   
DATE.         13 MAR 76                      : Date         - LOG DATE
STRT.M        33.528                         : top_depth    - START DEPTH       
STOP.M        195.071                        : bot_depth    - STOP DEPTH        
STEP.M        0.3048                         : increment    - STEP LENGTH       
~CURVE INFORMATION BLOCK
#MNEM UNIT       ERCB CURVE CODE    CURVE DESCRIPTION
#-----------   ------------------   ----------------------------------
DEPT.M        00 001 00 00         : DEPTH        - DEPTH                       
DPHI.V/V      00 890 00 00         : PHID         - DENSITY POROSITY (LIMESTONE)
NPHI.V/V      00 330 00 00         : PHIN         - NEUTRON POROSITY (LIMESTONE)
GR  .API      00 310 00 00         : GR           - GAMMA RAY                   
ILD .OHMM     00 120 00 00         : RESD         - DEEP RESISTIVITY (DIL)      
~PARAMETER INFORMATION       
#MNEM.UNIT           DATA             DESCRIPTION OF MNEMONIC
#---------         -----------     ------------------------------
GL  .M        474.878              : gl           - GROUND LEVEL ELEVATION      
EREF.M        476.707              : kb           - ELEVATION OF DEPTH REFERENCE
DATM.M        476.707              : datum        - DATUM ELEVATION             
TDD .M        199.034              : tdd          - TOTAL DEPTH DRILLER         
RUN .         ONE                  : Run          - RUN NUMBER                  
ENG .         BILL                 : Engineer     - RECORDING ENGINEER          
WIT .         JIM                  : Witness      - WITNESSED BY                
MUD .         GEL                  : Mud_type     - MUD TYPE                    
MATR.         LIMESTONE            : Logunit      - NEUTRON MATRIX              
TMAX.C        20.5556              : BHT          - MAXIMUM RECORDED TEMPERATURE
BHTD.M        199.034              : BHTDEP       - MAXIMUM RECORDED TEMPERATURE
MATR.         1                    : LOGUNIT      - NEUTRON MATRIX              
RMT .C        25                   : MDTP         - TEMPERATURE OF MUD          
NEUT.         1                    : NEUTRON      - NEUTRON TYPE                
RESI.         0                    : RESIST       - RESISTIVITY TYPE            
RMC .OHMM     0.25                 : RMC          - RESISTIVITY OF MUD CAKE     
RMF .OHMM     0.25                 : RMF          - RESISTIVITY OF MUD FILTRATE 
SUFT.C        15                   : SUFT         - SURFACE TEMPERATURE         
~A  DEPTH     PHID     PHIN       GR     RESD
   33.528    0.271    0.474   64.718   34.978
   33.833    0.292    0.408   66.532   39.825
   34.138    0.222    0.352   68.347   51.623
   34.442    0.196    0.322   65.927   58.781
   34.747    0.196    0.287   64.113   59.895
   35.052    0.177    0.282   65.927   54.615
   35.357    0.148    0.268   67.742   50.730
   35.662    0.136    0.258   67.137   50.741
   35.966    0.142    0.244   61.089   53.652
   36.271    0.130    0.236   66.532   57.788
   36.576    0.128    0.230   68.952   59.984
   36.881    0.148    0.227   73.790   54.697
   37.186    0.202    0.230   75.605   47.176
   37.490    0.525    0.304   58.669   43.015
   37.795    0.572    0.571   48.387   50.827
   38.100    0.585    0.602   45.363   68.372
   38.405    0.336    0.441   55.040   77.852
   38.710    0.319    0.398   57.460   82.312
   39.014    0.301    0.431   55.040   79.341
   39.319    0.270    0.360   58.669   69.721
   39.624    0.183    0.292   61.089   65.964
   39.929    0.164    0.272   64.113   61.274
   40.234    0.146    0.258   65.323   56.919
   40.538    0.165    0.271   59.879   55.883
   40.843    0.197    0.282   56.855   56.944
   41.148    0.163    0.270   61.089   58.027
   41.453    0.169    0.270   62.298   58.036
   41.758    0.182    0.270   55.645   59.134
   42.062    0.183    0.278   56.250   59.147
   42.367    0.179    0.281   58.669   63.718
   42.672    0.154    0.275   56.855   67.371
   42.977    0.183    0.283   50.806   72.562
   43.282    0.187    0.269   45.363   79.624
   43.586    0.187    0.259   44.153   82.640
   43.891    0.177    0.244   44.153   89.023
   44.196    0.158    0.244   45.363   92.398
   44.501    0.169    0.272   45.363   92.420
   44.806    0.219    0.318   42.944   87.448
   45.110    0.388    0.420   41.734   84.290
   45.415    0.363    0.494   39.919   84.320
   45.720    0.253    0.343   39.315   85.912
   46.025    0.168    0.267   41.129   85.941
   46.330    0.128    0.231   44.758   84.376
   46.634    0.146    0.224   55.040   81.334
   46.939    0.152    0.238   58.065   79.854
   47.244    0.159    0.252   58.669   79.888
   47.549    0.151    0.259   58.065   78.438
   47.853    0.135    0.233   53.831   75.596
   48.158    0.133    0.230   53.226   64.010
   48.463    0.146    0.236   56.250   49.406
   48.768    0.167    0.259   62.298   36.750
   49.073    0.187    0.275   74.395   29.987
   49.377    0.205    0.306   81.048   26.840
   49.682    0.222    0.385   86.492   24.474
   49.987    0.228    0.401   90.121   23.157
   50.292    0.196    0.424   91.331   22.320
   50.597    0.222    0.430   85.282   21.514
   50.901    0.225    0.402   80.444   20.738
   51.206    0.207    0.401   90.726   20.363
   51.511    0.247    0.418   91.936   20.368
   51.816    0.236    0.433   85.887   20.000
   52.121    0.216    0.403   80.444   20.378
   52.425    0.201    0.385   82.258   20.763
   52.730    0.190    0.378   86.492   21.556
   53.035    0.204    0.389   89.516   21.560
   53.340    0.245    0.402   90.726   21.169
   53.645    0.213    0.406   94.355   20.785
   53.950    0.260    0.416   98.589   20.408
   54.254    0.272    0.431   93.750   20.038
   54.559    0.250    0.414   88.306   19.315
   54.864    0.265    0.399   87.097   19.320
   55.169    0.247    0.425   82.258   19.325
   55.474    0.244    0.447   86.492   19.329
   55.778    0.238    0.456   81.653   19.334
   56.083    0.227    0.440   80.444   19.700
   56.388    0.232    0.422   85.282   19.707
   56.693    0.233    0.414   88.306   19.710
   56.998    0.224    0.408   82.258   19.716
   57.302    0.229    0.429   81.048   19.720
   57.607    0.284    0.442   79.839   20.852
   57.912    0.244    0.414   78.024   23.309
   58.217    0.269    0.408   75.605   24.643
   58.521    0.275    0.435   80.444   28.585
   58.826    0.300    0.448   79.839   34.408
   59.131    0.322    0.433   78.024   38.460
   59.436    0.327    0.418   69.556   41.425
   59.741    0.300    0.397   68.952   43.806
   60.045    0.281    0.386   69.556   43.008
   60.350    0.314    0.420   70.161   41.460
   60.655    0.316    0.418   73.186   42.241
   60.960    0.321    0.437   76.210   45.504
   61.265    0.342    0.463   71.976   47.228
   61.569    0.328    0.473   63.508   49.019
   61.874    0.325    0.445   60.484   52.809
   62.179    0.327    0.433   54.435   52.818
   62.484    0.356    0.440   50.806   51.859
   62.789    0.356    0.435   53.226   49.072
   63.093    0.346    0.414   58.065   46.429
   63.398    0.280    0.361   62.298   43.937
   63.703    0.158    0.332   66.532   43.140
   64.008    0.197    0.293   66.532   42.361
   64.313    0.191    0.288   65.927   40.078
   64.617    0.184    0.306   69.556   35.875
   64.922    0.191    0.349   74.395   30.945
   65.227    0.225    0.382   78.024   26.201
   65.532    0.272    0.390   79.839   23.021
   65.837    0.315    0.396   78.629   18.785
   66.141    0.422    0.412   71.371   17.448
   66.446    0.469    0.445   55.040   16.818
   66.751    0.559    0.533   53.831   16.822
   67.056    0.601    0.606   73.186   17.140
   67.361    0.403    0.549   88.911   18.123
   67.665    0.352    0.506   96.774   18.129
   67.970    0.320    0.484   97.984   16.841
   68.275    0.333    0.473   96.774   16.232
   68.580    0.306    0.478   93.145   16.235
   68.885    0.332    0.519   84.073   16.850
   69.189    0.340    0.572   79.234   18.489
   69.494    0.286    0.459   83.468   23.096
   69.799    0.297    0.503   69.556   27.289
   70.104    0.322    0.419   37.500   36.033
   70.409    0.337    0.368   30.242   45.009
   70.713    0.311    0.363   41.734   53.183
   71.018    0.308    0.383   40.524   58.363
   71.323    0.306    0.397   33.266   59.464
   71.628    0.309    0.354   24.194   60.586
   71.933    0.346    0.323   24.798   59.495
   72.237    0.343    0.331   27.823   59.503
   72.542    0.299    0.348   27.218   61.763
   72.847    0.280    0.366   25.403   61.782
   73.152    0.319    0.395   24.194   61.797
   73.457    0.327    0.401   24.798   62.964
   73.761    0.315    0.378   25.403   61.826
   74.066    0.299    0.361   24.194   61.841
   74.371    0.294    0.365   22.984   59.616
   74.676    0.316    0.365   22.984   57.461
   74.981    0.297    0.357   24.798   56.421
   75.285    0.289    0.360   24.798   56.434
   75.590    0.293    0.382   25.403   56.446
   75.895    0.325    0.388   23.589   57.516
   76.200    0.332    0.372   22.379   59.702
   76.505    0.323    0.362   25.403   59.714
   76.809    0.320    0.355   32.661   60.841
   77.114    0.305    0.342   39.919   60.864
   77.419    0.271    0.317   44.758   58.661
   77.724    0.236    0.312   47.177   56.553
   78.029    0.227    0.321   45.363   56.562
   78.334    0.255    0.323   45.363   58.707
   78.638    0.282    0.334   48.992   60.937
   78.943    0.275    0.342   49.597   60.949
   79.248    0.263    0.340   53.831   62.102
   79.553    0.234    0.331   58.669   62.117
   79.858    0.219    0.333   59.879   60.994
   80.162    0.261    0.371   54.435   58.793
   80.467    0.325    0.388   46.573   57.728
   80.772    0.355    0.428   48.992   55.646
   81.077    0.372    0.428   54.435   50.742
   81.382    0.348    0.404   59.274   47.125
   81.686    0.310    0.400   66.532   40.647
   81.991    0.289    0.412   73.186   33.787
   82.296    0.315    0.438   76.210   30.241
   82.601    0.345    0.495   75.605   26.574
   82.906    0.336    0.506   66.532   25.613
   83.210    0.304    0.517   62.298   25.619
   83.515    0.191    0.370   67.137   26.592
   83.820    0.251    0.376   74.395   27.607
   84.125    0.348    0.453   75.605   28.127
   84.430    0.357    0.498   70.161   28.135
   84.734    0.327    0.491   69.556   27.119
   85.039    0.317    0.485   72.581   24.725
   85.344    0.367    0.473   77.419   17.721
   85.649    0.398    0.461   82.258   11.796
   85.954    0.429    0.491   88.306    9.105
   86.258    0.470    0.553   95.564    8.000
