~VERSION INFORMATION
 VERS.                 2.0:   CWLS LOG ASCII STANDARD -VERSION 2.0
 WRAP.                  NO:   ONE LINE PER DEPTH STEP
~WELL INFORMATION BLOCK
#MNEM.UNIT           DATA                    DESCRIPTION OF MNEMONIC
#---------    -------------------            -------------------------------
# Generated from Intellog Unique Number	CS_69_70/WELL/714
NULL.         -999.25                        : NULL_VALUE
WELL.         ET AL TWEEDIE                  : Well_name    - WELL              
LOC .         00/06-05-070-13W4/0            : Location     - LOCATION          
UWI .         00/06-05-070-13W4/0            : Uwi          - UNIQUE WELL ID    
ENTR.         SP                             : Entered      - ENTERED BY        
SRVC.         SCHLUMBERGER                   : Scn          - SERVICE COMPANY   
STRT.M        275                            : top_depth    - START DEPTH       
STOP.M        520                            : bot_depth    - STOP DEPTH        
STEP.M        0.25                           : increment    - STEP LENGTH       
~CURVE INFORMATION BLOCK
#MNEM UNIT       ERCB CURVE CODE    CURVE DESCRIPTION
#-----------   ------------------   ----------------------------------
DEPT.M        00 001 00 00         : DEPTH        - DEPTH                       
ILD .OHMM     00 120 00 00         : RESD         - DEEP RESISTIVITY (DIL)      
DPHI.V/V      00 890 00 00         : PHID         - DENSITY POROSITY (LIMESTONE)
NPHI.V/V      00 330 00 00         : PHIN         - NEUTRON POROSITY (LIMESTONE)
GR  .API      00 310 00 00         : GR           - GAMMA RAY                   
~PARAMETER INFORMATION       
#MNEM.UNIT           DATA             DESCRIPTION OF MNEMONIC
#---------         -----------     ------------------------------
GL  .M        577.2                : gl           - GROUND LEVEL ELEVATION      
EREF.M        581.1                : kb           - ELEVATION OF DEPTH REFERENCE
DATM.M        577.2                : datum        - DATUM ELEVATION             
TDD .M        528                  : tdd          - TOTAL DEPTH DRILLER         
RUN .         ONE                  : Run          - RUN NUMBER                  
ENG .         BILL                 : Engineer     - RECORDING ENGINEER          
WIT .         JIM                  : Witness      - WITNESSED BY                
MUD .         GEL                  : Mud_type     - MUD TYPE                    
MATR.         LIMESTONE            : Logunit      - NEUTRON MATRIX              
TMAX.C        23                   : BHT          - MAXIMUM RECORDED TEMPERATURE
BHTD.M        528                  : BHTDEP       - MAXIMUM RECORDED TEMPERATURE
MATR.         1                    : LOGUNIT      - NEUTRON MATRIX              
RMT .C        25                   : MDTP         - TEMPERATURE OF MUD          
NEUT.         1                    : NEUTRON      - NEUTRON TYPE                
RESI.         0                    : RESIST       - RESISTIVITY TYPE            
RMC .OHMM     0.25                 : RMC          - RESISTIVITY OF MUD CAKE     
RMF .OHMM     0.25                 : RMF          - RESISTIVITY OF MUD FILTRATE 
SUFT.C        15                   : SUFT         - SURFACE TEMPERATURE         
~A  DEPTH     RESD     PHID     PHIN       GR
# ...
  405.500    2.468    0.271    0.446   97.451
  405.750    2.344    0.267    0.452   97.158
  406.000    2.218    0.268    0.472   96.327
  406.250    2.146    0.275    0.492   94.836
  406.500    2.084    0.282    0.480   92.985
  406.750    2.039    0.283    0.467   90.774
  407.000    2.021    0.275    0.455   88.683
  407.250    2.087    0.272    0.462   87.192
  407.500    2.258    0.271    0.470   86.720
  407.750    2.466    0.256    0.415   86.308
  408.000    2.604    0.251    0.390   84.697
  408.250    2.786    0.252    0.369   81.227
  408.500    2.958    0.273    0.378   75.720
  408.750    3.095    0.285    0.391   73.449
  409.000    3.160    0.272    0.386   74.955
  409.250    3.180    0.257    0.377   74.963
  409.500    3.247    0.257    0.371   76.889
  409.750    3.328    0.261    0.364   79.955
  410.000    3.431    0.257    0.361   80.262
  410.250    3.616    0.240    0.363   77.992
  410.500    3.898    0.207    0.361   75.181
  410.750    4.280    0.151    0.359   71.412
  411.000    4.691    0.113    0.349   63.865
  411.250    5.259    0.102    0.335   61.954
  411.500    5.678    0.111    0.328   70.897
  411.750    5.545    0.173    0.331   75.519
  412.000    5.083    0.190    0.342   80.445
  412.250    4.703    0.208    0.351   83.209
  412.500    4.433    0.221    0.360   85.074
  412.750    4.210    0.219    0.365   80.465
  413.000    4.119    0.212    0.364   81.133
  413.250    4.009    0.204    0.362   83.300
  413.500    4.002    0.201    0.372   84.207
  413.750    4.027    0.203    0.376   84.334
  414.000    4.051    0.208    0.367   82.902
  414.250    4.200    0.196    0.365   80.032
  414.500    4.304    0.181    0.369   77.222
  414.750    4.428    0.169    0.367   74.592
  415.000    4.522    0.165    0.359   74.179
  415.250    4.576    0.179    0.355   79.045
  415.500    4.569    0.199    0.352   82.229
  415.750    4.445    0.209    0.356   86.074
  416.000    4.269    0.214    0.361   88.240
  416.250    4.153    0.220    0.371   89.925
  416.500    4.049    0.231    0.373   88.793
  416.750    3.991    0.236    0.367   88.082
  417.000    3.941    0.242    0.364   86.172
  417.250    3.921    0.242    0.363   84.981
  417.500    3.924    0.235    0.358   84.629
  417.750    3.947    0.224    0.356   85.595
  418.000    3.978    0.213    0.354   87.222
  418.250    4.087    0.204    0.354   87.230
  418.500    4.134    0.196    0.361   86.517
  418.750    4.253    0.185    0.368   85.566
  419.000    4.351    0.177    0.371   84.733
  419.250    4.427    0.194    0.371   84.921
  419.500    4.470    0.215    0.376   85.771
  419.750    4.448    0.215    0.373   86.077
  420.000    4.417    0.204    0.367   86.322
  420.250    4.386    0.212    0.372   86.630
  420.500    4.389    0.220    0.368   86.939
  420.750    4.498    0.221    0.360   88.325
  421.000    4.602    0.213    0.356   90.070
  421.250    4.691    0.203    0.361   92.237
  421.500    4.720    0.198    0.358   94.345
  421.750    4.695    0.188    0.355   94.949
  422.000    4.577    0.191    0.353   95.317
  422.250    4.149    0.197    0.352   93.525
  422.500    3.698    0.189    0.362   87.538
  422.750    3.037    0.207    0.372   81.850
  423.000    2.499    0.243    0.382   79.340
  423.250    2.211    0.279    0.386   81.926
  423.500    2.054    0.318    0.388   84.751
  423.750    1.950    0.315    0.415   88.475
  424.000    1.897    0.290    0.437   92.500
  424.250    1.877    0.269    0.447   95.626
  424.500    1.960    0.247    0.430   93.714
  424.750    2.157    0.229    0.401   81.252
  425.000    2.399    0.214    0.379   74.784
  425.250    2.710    0.217    0.369   71.854
  425.500    3.014    0.256    0.371   75.459
  425.750    3.231    0.283    0.372   79.605
  426.000    3.412    0.290    0.376   82.010
  426.250    3.637    0.298    0.379   80.877
  426.500    4.039    0.302    0.379   69.616
  426.750    4.535    0.274    0.359   60.989
  427.000    4.971    0.155    0.341   53.262
  427.250    5.210    0.115    0.330   56.987
  427.500    5.291    0.211    0.321   65.088
  427.750    5.177    0.229    0.334   74.689
  428.000    4.971    0.228    0.345   77.874
  428.250    4.686    0.216    0.352   79.320
  428.500    4.425    0.198    0.347   76.390
  428.750    4.148    0.186    0.344   73.040
  429.000    3.804    0.178    0.349   78.625
  429.250    3.741    0.195    0.353   83.369
  429.500    3.593    0.230    0.356   87.572
  429.750    3.476    0.248    0.356   92.498
  430.000    3.382    0.254    0.366   91.364
  430.250    3.340    0.220    0.373   85.676
  430.500    3.317    0.202    0.371   83.345
  430.750    3.388    0.217    0.365   85.512
  431.000    3.415    0.225    0.368   87.498
  431.250    3.422    0.230    0.377   90.024
  431.500    3.380    0.230    0.378   91.470
  431.750    3.246    0.226    0.372   92.616
  432.000    3.100    0.222    0.381   94.785
  432.250    2.943    0.217    0.387   96.829
  432.500    2.801    0.211    0.393   99.055
  432.750    2.611    0.209    0.398   96.425
  433.000    2.475    0.209    0.397   89.717
  433.250    2.368    0.213    0.404   91.944
  433.500    2.299    0.221    0.408   94.050
  433.750    2.279    0.229    0.407   95.496
  434.000    2.302    0.220    0.401   98.143
  434.250    2.377    0.204    0.394   99.707
  434.500    2.459    0.190    0.395   92.701
  434.750    2.465    0.197    0.406   90.970
  435.000    2.403    0.219    0.421   95.294
  435.250    2.346    0.236    0.445  101.298
  435.500    2.278    0.251    0.458  104.063
  435.750    2.242    0.254    0.440  105.929
  436.000    2.226    0.235    0.416  105.396
  436.250    2.248    0.231    0.404  101.567
  436.500    2.410    0.242    0.409   98.037
  436.750    2.752    0.244    0.418   94.328
  437.000    3.148    0.236    0.427   87.021
  437.250    3.568    0.222    0.391   80.494
  437.500    3.926    0.186    0.368   76.125
  437.750    4.303    0.197    0.356   77.511
  438.000    4.804    0.222    0.348   74.222
  438.250    5.436    0.237    0.334   65.236
  438.500    5.969    0.250    0.323   60.269
  438.750    6.555    0.260    0.314   62.915
  439.000    7.158    0.258    0.317   64.121
  439.250    7.658    0.264    0.321   64.488
  439.500    8.117    0.276    0.322   63.476
  439.750    8.603    0.174    0.321   59.047
  440.000    9.360    0.138    0.314   55.758
  440.250   10.413    0.108    0.298   54.746
  440.500   11.350    0.070    0.277   53.435
  440.750   12.326    0.049    0.262   48.947
  441.000   13.162    0.038    0.254   46.316
  441.250   13.873    0.118    0.254   51.359
  441.500   10.596    0.196    0.284   66.055
  441.750    7.625    0.217    0.317   84.948
  442.000    6.011    0.229    0.328   87.953
  442.250    5.201    0.239    0.333   78.788
  442.500    4.679    0.242    0.326   71.122
  442.750    4.394    0.255    0.321   69.811
  443.000    4.244    0.265    0.315   75.874
  443.250    4.343    0.260    0.313   80.977
  443.500    4.352    0.254    0.315   84.403
  443.750    4.234    0.229    0.319   85.849
  444.000    4.089    0.218    0.321   84.238
  444.250    3.769    0.228    0.324   81.487
  444.500    3.474    0.241    0.327   80.176
  444.750    3.312    0.255    0.331   82.462
  445.000    3.382    0.252    0.336   84.628
  445.250    3.460    0.236    0.343   90.570
  445.500    3.580    0.217    0.346   98.132
  445.750    3.788    0.204    0.347  103.956
  446.000    3.963    0.196    0.347  107.920
  446.250    4.241    0.190    0.346  110.385
  446.500    4.297    0.183    0.348  107.156
  446.750    4.538    0.191    0.347  104.166
  447.000    4.739    0.191    0.347  100.456
  447.250    4.930    0.187    0.350   96.267
  447.500    5.120    0.183    0.350   93.577
  447.750    5.470    0.189    0.349   89.867
  448.000    5.522    0.180    0.344   92.093
  448.250    5.691    0.189    0.340   84.188
  448.500    6.137    0.220    0.335   78.079
  448.750    6.206    0.241    0.333   72.092
