~VERSION INFORMATION
 VERS.                 2.0:   CWLS LOG ASCII STANDARD -VERSION 2.0
 WRAP.                  NO:   ONE LINE PER DEPTH STEP
~WELL INFORMATION BLOCK
#MNEM.UNIT           DATA                    DESCRIPTION OF MNEMONIC
#---------    -------------------            -------------------------------
# Generated from Intellog Unique Number	CN_91_93/WELL/2819
WELL.         PARAMOUNT RESOURCES LTD.       : Well_name    - WELL
LOC .         00/06-01-093-21W4/0            : Location     - LOCATION
UWI .         00/06-01-093-21W4/0            : Uwi          - UNIQUE WELL ID
ENTR.         JOETTE                         : Entered      - ENTERED BY
SRVC.         COMPUTALOG                     : Scn          - SERVICE COMPANY
DATE.         03/24/92                       : Date         - LOG DATE
STRT.M        100                            : top_depth    - START DEPTH
STOP.M        235                            : bot_depth    - STOP DEPTH
STEP.M        0.25                           : increment    - STEP LENGTH
 NULL. -999.2500:NULL Value
~CURVE INFORMATION BLOCK
#MNEM UNIT       ERCB CURVE CODE    CURVE DESCRIPTION
#-----------   ------------------   ----------------------------------
DEPT.M        00 001 00 00         : DEPTH        - DEPTH
CALI.MM       00 280 01 00         : CAL          - CALIPER
GR  .API      00 310 00 00         : GR           - GAMMA RAY
NPHI.V/V      00 330 00 00         : PHIN         - NEUTRON POROSITY (SANDSTONE)
DPHI.V/V      00 890 00 00         : PHID         - DENSITY POROSITY (SANDSTONE)
ILD .OHMM     00 120 00 00         : RESD         - DEEP RESISTIVITY (DIL)
~PARAMETER INFORMATION
#MNEM.UNIT           DATA             DESCRIPTION OF MNEMONIC
#---------         -----------     ------------------------------
GL  .M        443.43               : gl           - GROUND LEVEL ELEVATION
EREF.M        547.23               : kb           - ELEVATION OF DEPTH REFERENCE
DATM.M        547.23               : datum        - DATUM ELEVATION
TDD .M        234.4                : tdd          - TOTAL DEPTH DRILLER
RUN .         ONE                  : Run          - RUN NUMBER
ENG .         JO                   : Engineer     - RECORDING ENGINEER
WIT .         TIM                  : Witness      - WITNESSED BY
MUD .         GEL                  : Mud_type     - MUD TYPE
MATR.         SANDSTONE            : Logunit      - NEUTRON MATRIX
TMAX.C        23                   : BHT          - MAXIMUM RECORDED TEMPERATURE
BHTD.M        234.4                : BHTDEP       - MAXIMUM RECORDED TEMPERATURE
RMT .C        10.5                 : MDTP         - TEMPERATURE OF MUD
MUDD.KG/M     1100                 : MWT          - MUD DENSITY
NEUT.         1                    : NEUTRON      - NEUTRON TYPE
RESI.         0                    : RESIST       - RESISTIVITY TYPE
RM  .OHMM     5.2                  : RM           - RESISTIVITY OF MUD
RMC .OHMM     5.2                  : RMC          - RESISTIVITY OF MUD CAKE
RMF .OHMM     5.2                  : RMF          - RESISTIVITY OF MUD FILTRATE
SUFT.C        4                    : SUFT         - SURFACE TEMPERATURE
~A  DEPTH      CAL       GR     PHIN     PHID     RESD
# ...
  209.500  232.753  110.096    0.350    0.167   12.338
  209.750  233.842  105.315    0.323    0.120   12.838
  210.000  233.949  102.334    0.296    0.085   13.365
  210.250  234.082   98.764    0.377    0.146   13.659
  210.500  232.196  100.645    0.407    0.200   12.681
  210.750  230.231  106.798    0.430    0.209   10.118
  211.000  228.345  108.679    0.505    0.211    8.068
  211.250  229.461  110.560    0.444    0.206    6.687
  211.500  232.623  113.653    0.434    0.169    6.702
  211.750  234.722  111.883    0.410    0.152    8.283
  212.000  234.802  102.256    0.391    0.138   10.238
  212.250  233.926   96.247    0.403    0.138   11.500
  212.500  232.996  100.567    0.414    0.176   12.436
  212.750  233.129  105.477    0.382    0.170   12.696
  213.000  235.282  104.935    0.372    0.155   12.485
  213.250  236.344  101.364    0.353    0.155   11.610
  213.500  237.461   98.400    0.376    0.165   11.405
  213.750  234.565   97.874    0.399    0.171   11.656
  214.000  232.626  100.983    0.439    0.177   12.135
  214.250  231.723  102.226    0.469    0.187   12.388
  214.500  232.866  104.107    0.460    0.183   12.423
  214.750  235.018  106.610    0.428    0.181   11.987
  215.000  235.072  108.475    0.359    0.177   11.572
  215.250  233.186  112.189    0.283    0.168   11.367
  215.500  233.266  111.648    0.268    0.144   12.790
  215.750  233.373  108.667    0.260    0.047   13.300
  216.000  232.470  100.857    0.296    0.011   14.940
  216.250  230.557   92.441    0.346    0.159   16.466
  216.500  229.654   93.110    0.356    0.196   15.589
  216.750  234.835   98.642    0.326    0.187   13.948
  217.000  237.970  102.324    0.324    0.183   13.450
  217.250  233.056  106.628    0.338    0.192   13.488
  217.500  230.108  107.919    0.344    0.179   14.042
  217.750  230.214  110.422    0.333    0.147   14.891
  218.000  231.357  107.442    0.337    0.139   15.809
  218.250  231.437  103.855    0.335    0.122   15.844
  218.500  231.597  103.935    0.337    0.133   15.871
  218.750  231.650  108.239    0.316    0.165   15.925
  219.000  231.810  108.925    0.293    0.159   15.951
  219.250  230.881  107.778    0.287    0.137   15.996
  219.500  230.987  103.602    0.293    0.091   16.014
  219.750  231.094   99.999    0.330    0.045   19.065
  220.000  230.164   94.006    0.365    0.156   21.814
  220.250  227.242   90.436    0.401    0.194   24.043
  220.500  225.357   92.333    0.410    0.208   26.514
  220.750  227.509   95.409    0.380    0.201   25.101
  221.000  228.598  100.351    0.373    0.190   22.446
  221.250  228.678   98.598    0.363    0.192   20.850
  221.500  228.785   95.633    0.344    0.197   20.885
  221.750  230.911   93.864    0.336    0.208   21.333
  222.000  235.082   92.111    0.340    0.222   22.636
  222.250  235.189   90.963    0.364    0.212   24.962
  222.500  232.293   89.816    0.368    0.209   28.593
  222.750  230.354   85.624    0.374    0.227   29.768
  223.000  229.425   84.493    0.357    0.233   26.620
  223.250  230.594   87.569    0.357    0.225   24.727
  223.500  232.667   91.889    0.373    0.188   26.739
  223.750  235.802   89.530    0.353    0.176   27.298
  224.000  238.007   88.989    0.358    0.136   23.501
  224.250  235.032   93.898    0.372    0.049   19.840
  224.500  230.091   94.584    0.392    0.079   15.532
  224.750  230.198   88.575    0.411    0.156   13.889
  225.000  232.350   86.216    0.403    0.154   12.902
  225.250  232.483   95.971    0.396    0.156   13.179
  225.500  232.537  102.714    0.394    0.172   13.991
  225.750  233.653  103.989    0.380    0.160   14.015
  226.000  234.796  110.111    0.372    0.107   13.268
  226.250  235.912  110.207    0.377    0.075   12.324
  226.500  234.026  106.604    0.376    0.073   12.352
  226.750  234.106  101.806    0.375    0.104   13.106
  227.000  234.213   99.448    0.388    0.136   14.445
  227.250  234.293   98.906    0.451    0.133   14.755
  227.500  234.399  102.636    0.472    0.136   14.245
  227.750  234.506  104.501    0.465    0.147   13.736
  228.000  234.666  106.398    0.457    0.162   13.012
  228.250  234.746  104.645    0.443    0.127   12.795
  228.500  235.835  103.482    0.433    0.067   12.817
  228.750  234.986  102.940    0.421    0.107   13.092
  229.000  235.066  104.215    0.404    0.169   13.891
  229.250  234.136  104.901    0.395    0.174   15.022
  229.500  233.233  104.965    0.383    0.166   15.345
  229.750  232.357  104.423    0.376    0.155   14.814
  230.000  232.490  101.459    0.381    0.154   13.768
  230.250  232.543   99.100    0.395    0.157   13.784
  230.500  231.641  102.176    0.410    0.164   14.088
  230.750  230.738  105.891    0.423    0.169   14.956
  231.000  229.835  102.320    0.453    0.179   15.269
  231.250  229.968   99.945    0.454    0.186   15.311
  231.500  230.075  101.221    0.445    0.189   14.223
  231.750  230.155  103.724    0.418    0.189   13.708
  232.000  230.261  104.999    0.403    0.155   13.226
  232.250  231.377  100.217    0.375    0.135   18.683
  232.500  231.511   96.631    0.373    0.045   24.418
  232.750  230.608   97.922    0.364    0.022   38.637
  233.000  229.705   99.214    0.361    0.013   45.973
  233.250  229.838   99.868    0.376   -0.003   51.699
  233.500  229.945  100.553    0.398   -0.006   53.762
  233.750  230.078  100.601    0.442    0.002   58.171
  234.000  229.148  100.649    0.443    0.010   60.560
  234.250  229.255  100.729    0.430    0.009   61.860
  234.500  229.362  100.793    0.417    0.006   63.189
  234.750  229.468  100.857    0.406    0.005   63.295
  235.000  229.575  100.937    0.401    0.005   63.437
