~VERSION INFORMATION
 VERS.                 2.0:   CWLS LOG ASCII STANDARD -VERSION 2.0
 WRAP.                  NO:   ONE LINE PER DEPTH STEP
~WELL INFORMATION BLOCK
#MNEM.UNIT           DATA                    DESCRIPTION OF MNEMONIC
#---------    -------------------            -------------------------------
# Generated from Intellog Unique Number	CW_79_81/WELL/2457
WELL.         SHELL MISTEHAE                 : Well_name    - WELL
LOC .         00/07-09-081-02W5/0            : Location     - LOCATION
UWI .         00/07-09-081-02W5/0            : Uwi          - UNIQUE WELL ID
ENTR.         MAX                            : Entered      - ENTERED BY
SRVC.         SCHLUMBERGER                   : Scn          - SERVICE COMPANY
STRT.M        243.84                         : top_depth    - START DEPTH
STOP.M        490.59                         : bot_depth    - STOP DEPTH
STEP.M        0.25                           : increment    - STEP LENGTH
 NULL. -999.2500:NULL Value
~CURVE INFORMATION BLOCK
#MNEM UNIT       ERCB CURVE CODE    CURVE DESCRIPTION
#-----------   ------------------   ----------------------------------
DEPT.M        00 001 00 00         : DEPTH        - DEPTH
ILD .OHMM     00 120 00 00         : RESD         - DEEP RESISTIVITY (DIL)
NPHI.V/V      00 330 00 00         : PHIN         - NEUTRON POROSITY (SANDSTONE)
DPHI.V/V      00 890 00 00         : PHID         - DENSITY POROSITY (SANDSTONE)
GR  .API      00 310 00 00         : GR           - GAMMA RAY
CALI.MM       00 280 01 00         : CAL          - CALIPER
~PARAMETER INFORMATION
#MNEM.UNIT           DATA             DESCRIPTION OF MNEMONIC
#---------         -----------     ------------------------------
GL  .M        607.771              : gl           - GROUND LEVEL ELEVATION
EREF.M        612.023              : kb           - ELEVATION OF DEPTH REFERENCE
DATM.M        607.771              : datum        - DATUM ELEVATION
TDD .M        492.557              : tdd          - TOTAL DEPTH DRILLER
RUN .         ONE                  : Run          - RUN NUMBER
ENG .         BILL                 : Engineer     - RECORDING ENGINEER
WIT .         JIM                  : Witness      - WITNESSED BY
MUD .         GEL                  : Mud_type     - MUD TYPE
MATR.         SANDSTONE            : Logunit      - NEUTRON MATRIX
TMAX.C        25.5556              : BHT          - MAXIMUM RECORDED TEMPERATURE
BHTD.M        492.557              : BHTDEP       - MAXIMUM RECORDED TEMPERATURE
MATR.         1                    : LOGUNIT      - NEUTRON MATRIX
RMT .C        21.1111              : MDTP         - TEMPERATURE OF MUD
NEUT.         1                    : NEUTRON      - NEUTRON TYPE
RESI.         0                    : RESIST       - RESISTIVITY TYPE
RMC .OHMM     3.28                 : RMC          - RESISTIVITY OF MUD CAKE
RMF .OHMM     4.9                  : RMF          - RESISTIVITY OF MUD FILTRATE
SUFT.C        -18.3333             : SUFT         - SURFACE TEMPERATURE
~A  DEPTH     RESD     PHIN     PHID       GR      CAL
# ...
  462.840    8.890    0.427    0.124   84.852  259.636
  463.090    8.574    0.427    0.115   82.954  259.635
  463.340    8.317    0.427    0.106   83.012  259.634
  463.590    8.171    0.426    0.101   86.331  259.432
  463.840    8.160    0.426    0.108   91.371  259.029
  464.090    8.323    0.431    0.139   94.040  258.626
  464.340    8.518    0.426    0.136   95.522  258.624
  464.590    8.838    0.413    0.107   93.386  258.623
  464.840    9.169    0.393    0.044   90.895  258.622
  465.090    9.312    0.375    0.025   89.352  259.022
  465.340    9.020    0.367    0.063   89.588  259.724
  465.590    7.952    0.379    0.108   92.305  260.292
  465.840    7.056    0.392    0.144   94.034  261.127
  466.090    7.059    0.408    0.144   94.271  261.929
  466.340    7.257    0.455    0.160   94.685  263.032
  466.590    7.583    0.478    0.158   94.803  264.236
  466.840    7.984    0.463    0.131   94.388  265.540
  467.090    8.485    0.434    0.104   93.141  267.480
  467.340    8.888    0.421    0.138   91.658  269.153
  467.590    9.023    0.406    0.121   89.049  270.356
  467.840    9.110    0.407    0.118   85.727  272.765
  468.090    9.313    0.413    0.125   81.694  275.174
  468.340    9.732    0.417    0.139   78.490  277.382
  468.590   10.630    0.426    0.164   78.559  280.694
  468.840   11.933    0.440    0.183   75.346  283.204
  469.090   14.564    0.454    0.209   65.144  286.015
  469.340   18.178    0.456    0.233   56.011  286.415
  469.590   22.767    0.449    0.243   49.606  287.418
  469.840   27.620    0.442    0.236   46.047  289.826
  470.090   30.687    0.442    0.215   43.911  292.737
  470.340   29.786    0.428    0.198   43.910  295.246
  470.590   28.100    0.410    0.195   45.570  296.852
  470.840   26.664    0.413    0.211   47.941  298.457
  471.090   25.921    0.415    0.227   50.669  299.862
  471.340   26.068    0.409    0.235   53.218  301.267
  471.590   27.699    0.406    0.235   54.433  303.692
  471.840   30.147    0.419    0.223   52.208  305.783
  472.090   32.655    0.453    0.241   46.041  306.986
  472.340   34.093    0.451    0.263   40.761  306.985
  472.590   34.491    0.441    0.272   38.626  306.984
  472.840   33.937    0.433    0.269   39.396  307.485
  473.090   32.207    0.420    0.270   40.097  308.119
  473.340   30.799    0.414    0.261   38.861  307.281
  473.590   30.139    0.421    0.260   39.809  304.870
  473.840   28.206    0.428    0.260   41.291  302.459
  474.090   25.944    0.433    0.259   43.188  299.846
  474.340   23.934    0.437    0.258   45.381  297.134
  474.590   21.597    0.435    0.252   48.296  294.137
  474.840   18.200    0.428    0.246   51.013  291.206
  475.090   14.661    0.418    0.239   57.891  288.795
  475.340   12.052    0.412    0.226   63.880  285.480
  475.590   10.715    0.413    0.207   69.928  281.864
  475.840   10.324    0.415    0.184   73.842  278.047
  476.090   10.622    0.396    0.161   70.233  272.874
  476.340   10.955    0.375    0.191   69.985  269.107
  476.590   10.802    0.372    0.209   72.356  265.892
  476.840   10.127    0.387    0.236   75.795  262.677
  477.090    8.435    0.443    0.321   77.692  259.864
  477.340    6.500    0.523    0.438   77.099  257.554
  477.590    4.853    0.574    0.499   74.429  255.293
  477.840    4.181    0.583    0.576   72.946  254.036
  478.090    4.002    0.583    0.508   76.029  254.035
  478.340    3.919    0.562    0.351   77.333  254.335
  478.590    3.935    0.543    0.267   77.451  255.940
  478.840    4.052    0.527    0.280   77.568  258.550
  479.090    4.337    0.479    0.259   80.503  261.226
  479.340    4.721    0.401    0.174   85.691  264.572
  479.590    5.411    0.420    0.165   89.723  267.784
  479.840    6.085    0.422    0.161   91.086  271.298
  480.090    7.127    0.417    0.179   86.224  273.907
  480.340    8.713    0.411    0.213   77.801  275.915
  480.590   10.040    0.414    0.228   74.667  279.378
  480.840   11.361    0.405    0.223   74.419  280.632
  481.090   11.957    0.397    0.217   72.758  280.630
  481.340   10.949    0.391    0.207   71.631  280.930
  481.590    9.374    0.395    0.216   71.630  281.532
  481.840    7.937    0.414    0.254   72.874  282.535
  482.090    6.661    0.449    0.330   75.404  284.977
  482.340    5.910    0.451    0.421   77.380  289.160
  482.590    5.870    0.434    0.457   75.482  295.183
  482.840    5.991    0.440    0.434   74.829  303.617
  483.090    6.302    0.456    0.360   74.235  313.657
  483.340    6.714    0.472    0.292   72.929  316.370
  483.590    6.875    0.478    0.347   69.371  295.848
  483.840    6.674    0.486    0.409   63.439  301.704
  484.090    7.075    0.492    0.472   61.541  326.203
  484.340    7.622    0.466    0.488   56.440  341.668
  484.590    8.431    0.439    0.368   49.917  325.807
  484.840    9.663    0.418    0.191   44.697  290.453
  485.090   12.111    0.385    0.204   47.818  282.283
  485.340   15.914    0.370    0.216   64.619  285.629
  485.590   15.124    0.377    0.214   70.075  288.440
  485.840   13.343    0.375    0.205   69.838  284.322
  486.090   12.047    0.368    0.191   67.228  281.107
  486.340   10.755    0.356    0.178   64.262  280.604
  486.590    8.320    0.336    0.173   61.602  278.678
  486.840    7.221    0.321    0.174   61.355  279.095
  487.090    6.515    0.324    0.191   60.880  278.692
  487.340    6.432    0.336    0.205   59.871  278.891
  487.590    6.716    0.348    0.225   59.633  279.091
  487.840    7.302    0.351    0.243   60.877  277.082
  488.090    8.425    0.343    0.227   64.118  268.628
  488.340    9.608    0.340    0.188   66.094  266.535
  488.590    9.968    0.341    0.160   67.042  265.329
  488.840   10.010    0.342    0.153   67.279  264.725
  489.090    9.722    0.341    0.156   67.041  262.916
  489.340    9.118    0.337    0.165   66.447  260.003
  489.590    8.106    0.325    0.181   65.003  257.574
  489.840    7.466    0.321    0.188   62.532  255.481
  490.090    7.524    0.323    0.196   60.159  254.676
  490.340    7.541    0.336    0.200   57.964  254.173
  490.590    7.344    0.352    0.201   55.709  254.974
