~VERSION INFORMATION
 VERS.                 2.0:   CWLS LOG ASCII STANDARD -VERSION 2.0
 WRAP.                  NO:   ONE LINE PER DEPTH STEP
~WELL INFORMATION BLOCK
#MNEM.UNIT           DATA                    DESCRIPTION OF MNEMONIC
#---------    -------------------            -------------------------------
# Generated from Intellog Unique Number	CW_82_90/WELL/468
WELL.         STAR GASCAN HOOLE 6-3          : Well_name    - WELL
LOC .         00/06-03-082-26W4/0            : Location     - LOCATION
UWI .         00/06-03-082-26W4/0            : Uwi          - UNIQUE WELL ID
ENTR.         os                             : Entered      - ENTERED BY
SRVC.         SCHLUMBERGER                   : Scn          - SERVICE COMPANY
DATE.         01 FEB 1982                    : Date         - LOG DATE
STRT.M        215                            : top_depth    - START DEPTH
STOP.M        432                            : bot_depth    - STOP DEPTH
STEP.M        0.25                           : increment    - STEP LENGTH
 NULL. -999.2500:NULL Value
~CURVE INFORMATION BLOCK
#MNEM UNIT       ERCB CURVE CODE    CURVE DESCRIPTION
#-----------   ------------------   ----------------------------------
DEPT.M        00 001 00 00         : DEPTH        - DEPTH
ILD .OHMM     00 120 00 00         : RESD         - DEEP RESISTIVITY (DIL)
GR  .API      00 310 00 00         : GR           - GAMMA RAY
CALI.MM       00 280 01 00         : CAL          - CALIPER
DPHI.V/V      00 890 00 00         : PHID         - DENSITY POROSITY (SANDSTONE)
NPHI.V/V      00 330 00 00         : PHIN         - NEUTRON POROSITY (SANDSTONE)
~PARAMETER INFORMATION
#MNEM.UNIT           DATA             DESCRIPTION OF MNEMONIC
#---------         -----------     ------------------------------
GL  .M        561.1                : gl           - GROUND LEVEL ELEVATION
EREF.M        564.6                : kb           - ELEVATION OF DEPTH REFERENCE
DATM.M        561.1                : datum        - DATUM ELEVATION
TDD .M        433                  : tdd          - TOTAL DEPTH DRILLER
RUN .         ONE                  : Run          - RUN NUMBER
ENG .         NIGHTINGALE & HEATH  : Engineer     - RECORDING ENGINEER
WIT .         WEBSTER              : Witness      - WITNESSED BY
BASE.         EDMONTON             : Branch       - HOME BASE OF LOGGING UNIT
MUD .         GEL CHEM             : Mud_type     - MUD TYPE
MATR.         SANDSTONE            : Logunit      - NEUTRON MATRIX
TMAX.C        29.4                 : BHT          - MAXIMUM RECORDED TEMPERATURE
BHTD.M        433                  : BHTDEP       - MAXIMUM RECORDED TEMPERATURE
RMT .C        29.4                 : MDTP         - TEMPERATURE OF MUD
MUDD.KG/M     1100                 : MWT          - MUD DENSITY
NEUT.         1                    : NEUTRON      - NEUTRON TYPE
RESI.         0                    : RESIST       - RESISTIVITY TYPE
RM  .OHMM     3.88                 : RM           - RESISTIVITY OF MUD
RMC .OHMM     3.9                  : RMC          - RESISTIVITY OF MUD CAKE
RMF .OHMM     6                    : RMF          - RESISTIVITY OF MUD FILTRATE
SUFT.C        4                    : SUFT         - SURFACE TEMPERATURE
~A  DEPTH     RESD       GR      CAL     PHID     PHIN
# ...
  288.000    5.850   78.888  238.450    0.271    0.480
  288.250    6.020   71.090  238.018    0.303    0.464
  288.500    6.160   71.080  236.122    0.320    0.450
  288.750    6.435   75.090  235.480    0.307    0.453
  289.000    6.672   73.636  235.152    0.316    0.473
  289.250    7.264   69.041  234.512    0.323    0.482
  289.500    8.656   64.760  235.018    0.328    0.510
  289.750    9.318   58.218  235.735    0.328    0.487
  290.000    9.900   58.020  237.601    0.327    0.452
  290.250   10.401   59.958  239.675    0.322    0.433
  290.500   10.825   59.257  240.914    0.318    0.435
  290.750   11.034   54.661  239.960    0.327    0.432
  291.000   11.268   51.700  238.170    0.323    0.437
  291.250   11.487   51.438  237.631    0.318    0.442
  291.500   11.362   54.445  236.677    0.324    0.433
  291.750   10.662   59.271  235.618    0.327    0.413
  292.000    9.875   63.658  234.871    0.315    0.405
  292.250    9.585   68.297  234.857    0.303    0.410
  292.500    9.808   70.422  235.886    0.298    0.440
  292.750   10.054   70.476  237.020    0.288    0.451
  293.000   10.385   67.074  237.112    0.288    0.456
  293.250   10.686   59.904  236.678    0.313    0.449
  293.500   11.017   61.024  236.351    0.329    0.443
  293.750   11.146   62.083  236.231    0.332    0.458
  294.000   10.799   59.184  236.634    0.336    0.464
  294.250    9.945   56.662  236.933    0.334    0.453
  294.500    9.124   59.102  238.068    0.326    0.444
  294.750    8.659   66.190  239.621    0.316    0.442
  295.000    8.613   70.828  240.755    0.299    0.459
  295.250    8.520   75.090  240.946    0.273    0.468
  295.500    8.428   79.163  240.935    0.238    0.452
  295.750    8.447   83.299  242.590    0.224    0.445
  296.000    8.466   86.932  242.055    0.223    0.466
  296.250    8.248   87.864  243.503    0.231    0.469
  296.500    7.179   86.222  242.129    0.269    0.450
  296.750    5.939   74.592  238.667    0.270    0.433
  297.000    5.337   73.891  240.115    0.257    0.430
  297.250    5.113   80.602  242.294    0.241    0.432
  297.500    5.748   89.323  245.726    0.233    0.470
  297.750    6.559   81.022  246.025    0.232    0.512
  298.000    7.471   76.679  244.756    0.221    0.499
  298.250    8.803   72.461  244.114    0.233    0.445
  298.500   10.873   72.325  242.743    0.254    0.423
  298.750   13.328   71.625  242.832    0.240    0.443
  299.000   15.586   67.910  243.129    0.220    0.446
  299.250   20.598   62.624  242.907    0.264    0.472
  299.500   27.687   54.888  242.472    0.312    0.496
  299.750   31.360   50.105  241.939    0.325    0.487
  300.000   32.391   43.877  241.402    0.323    0.466
  300.250   31.979   41.731  237.312    0.326    0.457
  300.500   31.514   42.350  237.298    0.337    0.433
  300.750   27.636   41.334  238.535    0.364    0.422
  301.000   23.738   42.769  239.985    0.355    0.452
  301.250   20.506   44.519  240.492    0.352    0.447
  301.500   18.016   41.306  240.582    0.353    0.445
  301.750   15.416   43.431  240.150    0.346    0.448
  302.000   13.069   45.807  239.509    0.349    0.449
  302.250   13.000   47.244  239.491    0.355    0.455
  302.500   13.030   48.553  239.895    0.339    0.458
  302.750   13.010   52.501  240.507    0.336    0.441
  303.000   13.089   54.376  240.704    0.335    0.417
  303.250   13.168   54.805  241.106    0.331    0.406
  303.500   13.322   54.983  241.197    0.328    0.410
  303.750   13.302   57.486  240.553    0.320    0.412
  304.000   13.182   60.869  240.956    0.314    0.415
  304.250   12.677   64.754  241.257    0.311    0.437
  304.500   11.828   68.010  241.972    0.304    0.441
  304.750   11.678   60.526  242.375    0.303    0.432
  305.000   11.530   61.332  243.301    0.310    0.437
  305.250   11.025   73.069  242.975    0.315    0.447
  305.500   10.582   81.099  240.557    0.268    0.477
  305.750    9.948   66.580  241.483    0.211    0.480
  306.000    9.161   59.849  243.033    0.095    0.442
  306.250    7.665   64.488  243.541    0.056    0.266
  306.500    6.747   77.103  244.573    0.155    0.386
  306.750    6.500   87.520  246.125    0.187    0.423
  307.000    6.576   85.626  246.631    0.169    0.435
  307.250    6.934   85.302  246.409    0.202    0.424
  307.500    7.176   84.539  246.604    0.221    0.469
  307.750    7.454   85.031  245.437    0.228    0.461
  308.000    7.920   86.718  245.425    0.232    0.445
  308.250    8.704   87.273  246.036    0.231    0.430
  308.500    9.933   87.390  245.604    0.225    0.446
  308.750   11.272   86.375  245.068    0.216    0.495
  309.000   12.365   75.436  243.903    0.190    0.431
  309.250   12.748   70.150  243.471    0.112    0.228
  309.500   12.562   71.397  243.455    0.069    0.240
  309.750   10.669   79.867  243.442    0.084    0.297
  310.000    9.251   87.332  243.427    0.191    0.410
  310.250    8.730   87.888  243.306    0.260    0.453
  310.500    8.332   87.814  243.606    0.261    0.430
  310.750    8.134   88.244  243.591    0.257    0.422
  311.000    7.941   84.529  243.159    0.257    0.420
  311.250    7.722   81.756  242.829    0.261    0.427
  311.500    7.398   79.170  243.024    0.262    0.446
  311.750    6.826   79.161  243.010    0.259    0.458
  312.000    6.157   83.421  243.310    0.251    0.461
  312.250    5.876   86.177  244.861    0.246    0.461
  312.500    5.791   90.186  246.310    0.238    0.459
  312.750    6.095   89.172  247.234    0.233    0.456
  313.000    6.378   87.153  247.429    0.232    0.453
  313.250    6.777   91.917  247.413    0.235    0.461
  313.500    7.214   99.507  246.354    0.238    0.488
  313.750    7.564  101.632  246.028    0.235    0.496
  314.000    7.857   96.033  246.953    0.234    0.473
  314.250    7.949   91.689  247.354    0.224    0.468
  314.500    8.073   91.554  247.339    0.211    0.477
  314.750    8.152   91.669  247.326    0.217    0.438
  315.000    8.484   95.052  247.625    0.225    0.425
  315.250    8.763   99.941  248.026    0.225    0.447
  315.500    9.188   96.289  247.594    0.217    0.462
  315.750   10.023   86.480  247.582    0.214    0.466
  316.000   10.872   79.750  246.835    0.219    0.449
  316.250   11.837   79.049  246.089    0.228    0.422
  316.500   13.059   81.552  245.760    0.249    0.445
  316.750   14.460   77.586  245.328    0.232    0.469
  317.000   13.984   68.091  244.583    0.202    0.490
  317.250    9.711   72.667  243.941    0.166    0.472
  317.500    8.678   76.928  243.820    0.236    0.460
  317.750    8.051   81.441  245.375    0.237    0.472
  318.000    7.443   85.389  247.763    0.213    0.455
  318.250    7.238   85.379  249.420    0.200    0.404
  318.500    7.133   85.368  252.643    0.196    0.396
  318.750    7.135   89.191  260.150    0.216    0.404
  319.000    7.178   88.427  259.927    0.226    0.412
  319.250    7.457   85.717  255.628    0.232    0.420
  319.500    7.775   84.200  251.122    0.230    0.405
  319.750    8.214   84.442  246.302    0.214    0.392
  320.000    8.710   85.750  246.598    0.192    0.402
  320.250    9.237   87.185  247.733    0.188    0.435
  320.500    9.685   88.809  248.033    0.205    0.463
  320.750    9.762   90.684  247.706    0.220    0.456
  321.000    9.821   92.244  246.855    0.229    0.459
  321.250    9.843   89.408  245.901    0.226    0.454
  321.500   10.186   85.253  245.675    0.215    0.443
  321.750   10.802   86.939  245.451    0.209    0.462
  322.000   11.116   90.383  245.333    0.216    0.476
  322.250   11.225   88.678  245.319    0.216    0.484
  322.500   11.229   86.344  245.932    0.216    0.490
  322.750   11.213   83.948  246.438    0.223    0.473
  323.000   11.111   84.754  246.425    0.218    0.446
  323.250   10.486   88.828  246.828    0.206    0.428
  323.500   10.045   94.219  247.231    0.207    0.425
  323.750   10.106   96.032  247.527    0.231    0.449
  324.000   10.206   91.374  246.680    0.227    0.416
  324.250   10.286   87.031  246.036    0.225    0.389
