~VERSION INFORMATION
 VERS.                 2.0:   CWLS LOG ASCII STANDARD -VERSION 2.0
 WRAP.                  NO:   ONE LINE PER DEPTH STEP
~WELL INFORMATION BLOCK
#MNEM.UNIT           DATA                    DESCRIPTION OF MNEMONIC
#---------    -------------------            -------------------------------
# Generated from Intellog Unique Number	CW_73_75/WELL/3519
WELL.         PINNACLE RESOURCES             : Well_name    - WELL
LOC .         00/04-05-074-02W5/0            : Location     - LOCATION
UWI .         00/04-05-074-02W5/0            : Uwi          - UNIQUE WELL ID
ENTR.         T                              : Entered      - ENTERED BY
SRVC.         SCHLUMBERGER                   : Scn          - SERVICE COMPANY
STRT.M        390                            : top_depth    - START DEPTH
STOP.M        655                            : bot_depth    - STOP DEPTH
STEP.M        0.25                           : increment    - STEP LENGTH
 NULL. -999.2500:NULL Value
~CURVE INFORMATION BLOCK
#MNEM UNIT       ERCB CURVE CODE    CURVE DESCRIPTION
#-----------   ------------------   ----------------------------------
DEPT.M        00 001 00 00         : DEPTH        - DEPTH
ILD .OHMM     00 120 00 00         : RESD         - DEEP RESISTIVITY (DIL)
DPHI.V/V      00 890 00 00         : PHID         - DENSITY POROSITY (SANDSTONE)
NPHI.V/V      00 330 00 00         : PHIN         - NEUTRON POROSITY (SANDSTONE)
GR  .API      00 310 00 00         : GR           - GAMMA RAY
~PARAMETER INFORMATION
#MNEM.UNIT           DATA             DESCRIPTION OF MNEMONIC
#---------         -----------     ------------------------------
GL  .M        665                  : gl           - GROUND LEVEL ELEVATION
EREF.M        669.22               : kb           - ELEVATION OF DEPTH REFERENCE
DATM.M        669.22               : datum        - DATUM ELEVATION
TDD .M        670                  : tdd          - TOTAL DEPTH DRILLER
RUN .         ONE                  : Run          - RUN NUMBER
ENG .         BILL                 : Engineer     - RECORDING ENGINEER
WIT .         JIM                  : Witness      - WITNESSED BY
MUD .         GEL                  : Mud_type     - MUD TYPE
MATR.         SANDSTONE            : Logunit      - NEUTRON MATRIX
TMAX.C        30                   : BHT          - MAXIMUM RECORDED TEMPERATURE
BHTD.M        670                  : BHTDEP       - MAXIMUM RECORDED TEMPERATURE
RMT .C        30                   : MDTP         - TEMPERATURE OF MUD
MUDD.KG/M     1120                 : MWT          - MUD DENSITY
NEUT.         1                    : NEUTRON      - NEUTRON TYPE
RESI.         0                    : RESIST       - RESISTIVITY TYPE
RM  .OHMM     3.1                  : RM           - RESISTIVITY OF MUD
RMC .OHMM     0.29                 : RMC          - RESISTIVITY OF MUD CAKE
RMF .OHMM     2.26                 : RMF          - RESISTIVITY OF MUD FILTRATE
SUFT.C        4                    : SUFT         - SURFACE TEMPERATURE
~A  DEPTH     RESD     PHID     PHIN       GR
# ...
  520.500    4.149    0.206    0.405   79.745
  520.750    4.139    0.207    0.406   82.024
  521.000    4.131    0.208    0.406   81.405
  521.250    4.123    0.202    0.406   73.790
  521.500    4.113    0.196    0.408   74.311
  521.750    4.107    0.189    0.410   84.749
  522.000    4.099    0.191    0.411   87.586
  522.250    4.093    0.194    0.420   87.549
  522.500    4.081    0.200    0.428   84.602
  522.750    4.075    0.199    0.431   81.061
  523.000    4.140    0.193    0.423   81.594
  523.250    4.134    0.190    0.419   79.775
  523.500    4.126    0.190    0.412   81.472
  523.750    4.116    0.191    0.409   80.271
  524.000    4.108    0.193    0.401   76.136
  524.250    4.098    0.188    0.394   73.177
  524.500    4.094    0.189    0.392   73.710
  524.750    4.086    0.195    0.392   75.989
  525.000    4.078    0.203    0.403   84.669
  525.250    4.066    0.206    0.392   84.632
  525.500    4.060    0.209    0.390   84.583
  525.750    4.054    0.211    0.424   79.879
  526.000    3.970    0.216    0.445   77.489
  526.250    3.962    0.232    0.445   73.936
  526.500    3.953    0.244    0.436   70.408
  526.750    3.943    0.252    0.410   67.449
  527.000    3.937    0.263    0.402   67.400
  527.250    3.932    0.286    0.397   67.933
  527.500    3.922    0.290    0.399   65.531
  527.750    3.914    0.296    0.404   64.900
  528.000    3.908    0.286    0.402   64.864
  528.250    3.901    0.265    0.395   65.397
  528.500    3.891    0.260    0.388   65.917
  528.750    3.884    0.250    0.381   67.044
  529.000    3.807    0.234    0.386   71.044
  529.250    3.798    0.221    0.394   72.184
  529.500    3.722    0.212    0.401   76.790
  529.750    3.713    0.207    0.408   77.311
  530.000    3.705    0.202    0.411   76.680
  530.250    3.698    0.201    0.417   77.807
  530.500    3.691    0.207    0.411   79.492
  530.750    3.682    0.211    0.390   79.455
  531.000    3.678    0.211    0.387   71.234
  531.250    3.669    0.210    0.380   71.197
  531.500    3.662    0.217    0.390   76.386
  531.750    3.657    0.259    0.411   82.726
  532.000    3.646    0.282    0.413   82.677
  532.250    3.642    0.293    0.413   73.911
  532.500    3.633    0.298    0.412   58.137
  532.750    3.626    0.298    0.410   61.579
  533.000    3.616    0.291    0.407   65.604
  533.250    3.545    0.269    0.379   67.301
  533.500    3.539    0.264    0.366   66.088
  533.750    3.531    0.291    0.364   66.039
  534.000    3.524    0.295    0.372   66.559
  534.250    3.519    0.296    0.378   65.928
  534.500    3.512    0.297    0.387   64.133
  534.750    3.568    0.298    0.395   61.769
  535.000    3.694    0.295    0.399   58.785
  535.250    3.968    0.293    0.400   54.675
  535.500    4.423    0.286    0.400   52.880
  535.750    5.402    0.271    0.401   56.310
  536.000    7.231    0.243    0.389   57.413
  536.250    9.335    0.192    0.363   57.958
  536.500   10.785    0.161    0.329   57.909
  536.750   10.192    0.143    0.259   60.782
  537.000    9.452    0.121    0.200   63.643
  537.250   10.340    0.151    0.252   50.779
  537.500   11.734    0.184    0.277   50.730
  537.750   14.331    0.243    0.264   51.844
  538.000   17.175    0.205    0.212   53.541
  538.250   18.788    0.088    0.179   51.164
  538.500   17.424    0.013    0.157   46.460
  538.750   15.874    0.009    0.139   44.665
  539.000   13.180    0.006    0.131   38.202
  539.250   11.358    0.004    0.128   35.813
  539.500    9.436    0.009    0.122   38.079
  539.750    8.435    0.016    0.123   39.219
  540.000    7.134    0.022    0.129   43.801
  540.250    6.378    0.028    0.140   46.104
  540.500    5.496    0.039    0.190   51.268
  540.750    4.561    0.077    0.268   51.231
  541.000    4.155    0.108    0.295   52.916
  541.250    3.784    0.124    0.319   54.637
  541.500    3.509    0.147    0.345   57.498
  541.750    3.374    0.175    0.369   59.764
  542.000    3.306    0.217    0.387   62.031
  542.250    3.179    0.272    0.393   63.170
  542.500    3.114    0.279    0.395   65.449
  542.750    3.111    0.289    0.395   63.072
  543.000    3.047    0.283    0.399   58.937
  543.250    3.041    0.275    0.401   60.040
  543.500    3.036    0.269    0.413   61.749
  543.750    3.087    0.274    0.435   64.597
  544.000    3.079    0.286    0.441   63.397
  544.250    3.130    0.296    0.426   59.831
  544.500    3.125    0.304    0.404   62.122
  544.750    3.177    0.297    0.402   63.831
  545.000    3.169    0.291    0.406   59.709
  545.250    3.222    0.299    0.430   57.914
  545.500    3.275    0.302    0.435   60.192
  545.750    3.329    0.301    0.434   61.307
  546.000    3.382    0.299    0.426   61.246
  546.250    3.440    0.297    0.417   57.705
  546.500    3.497    0.291    0.416   53.001
  546.750    3.554    0.285    0.423   54.685
  547.000    3.613    0.279    0.426   58.140
  547.250    3.739    0.265    0.417   63.328
  547.500    3.801    0.243    0.406   70.251
  547.750    3.865    0.224    0.400   71.960
  548.000    3.929    0.271    0.429   67.231
  548.250    4.064    0.293    0.431   66.042
  548.500    4.060    0.295    0.430   64.235
  548.750    4.280    0.290    0.401   64.768
  549.000    4.352    0.270    0.396   65.301
  549.250    4.672    0.264    0.383   65.264
  549.500    4.925    0.255    0.383   64.026
  549.750    5.011    0.231    0.380   61.068
  550.000    4.908    0.237    0.378   57.539
  550.250    4.812    0.241    0.376   57.490
  550.500    4.625    0.203    0.376   59.769
  550.750    4.532    0.196    0.375   63.793
  551.000    4.443    0.198    0.369   68.982
  551.250    4.353    0.185    0.355   77.662
  551.500    4.266    0.169    0.342   84.597
  551.750    4.257    0.109    0.337   85.711
  552.000    4.249    0.102    0.338   75.769
  552.250    4.241    0.149    0.347   67.573
  552.500    4.232    0.222    0.367   62.856
  552.750    4.222    0.215    0.398   59.303
  553.000    4.214    0.211    0.401   58.684
  553.250    4.204    0.215    0.409   59.217
  553.500    4.195    0.219    0.415   62.647
  553.750    4.185    0.223    0.418   68.430
  554.000    4.179    0.232    0.404   85.852
  554.250    4.173    0.238    0.393   86.360
  554.500    4.089    0.245    0.385   82.250
  554.750    4.005    0.241    0.383   75.217
  555.000    3.997    0.237    0.383   71.094
  555.250    3.918    0.229    0.391   77.447
  555.500    3.911    0.230    0.404   86.709
  555.750    3.903    0.231    0.408   84.332
  556.000    3.966    0.218    0.405   79.046
  556.250    3.956    0.199    0.399   78.402
  556.500    3.948    0.200    0.393   78.935
  556.750    4.015    0.206    0.395   77.722
  557.000    4.007    0.238    0.403   77.079
  557.250    4.000    0.213    0.406   77.030
  557.500    4.064    0.208    0.394   76.411
  557.750    4.058    0.188    0.384   76.362
  558.000    4.123    0.184    0.392   81.551
  558.250    4.115    0.180    0.398   86.739
  558.500    4.109    0.186    0.397   86.678
  558.750    4.177    0.192    0.395   85.465
  559.000    4.243    0.198    0.392   85.416
  559.250    4.235    0.204    0.384   85.379
  559.500    4.305    0.219    0.379   84.154
  559.750    4.451    0.214    0.376   82.347
  560.000    4.444    0.188    0.375   81.146
  560.250    4.438    0.175    0.369   80.503
  560.500    4.513    0.162    0.346   79.884
  560.750    4.502    0.173    0.337   76.925
  561.000    4.496    0.196    0.365   71.638
  561.250    4.487    0.209    0.379   66.340
  561.500    4.474    0.210    0.397   69.200
  561.750    4.469    0.205    0.412   76.135
  562.000    4.460    0.204    0.400   80.754
  562.250    4.450    0.204    0.386   91.180
  562.500    4.443    0.200    0.400   91.131
  562.750    4.434    0.193    0.409   84.668
  563.000    4.423    0.191    0.409   82.291
  563.250    4.410    0.194    0.402   87.480
  563.500    4.406    0.198    0.382   90.910
  563.750    4.393    0.205    0.378   89.697
