~VERSION INFORMATION
 VERS.                 2.0:   CWLS LOG ASCII STANDARD -VERSION 2.0
 WRAP.                  NO:   ONE LINE PER DEPTH STEP
~WELL INFORMATION BLOCK
#MNEM.UNIT           DATA                    DESCRIPTION OF MNEMONIC
#---------    -------------------            -------------------------------
# Generated from Intellog Unique Number	CS_67_68/WELL/699
WELL.         ESSO RESOURCES CANADA          : Well_name    - WELL
LOC .         00/06-26-068-07W4/0            : Location     - LOCATION
UWI .         00/06-26-068-07W4/0            : Uwi          - UNIQUE WELL ID
ENTR.         SP                             : Entered      - ENTERED BY
SRVC.         SCHLUMBERGER                   : Scn          - SERVICE COMPANY
STRT.M        290                            : top_depth    - START DEPTH
STOP.M        515                            : bot_depth    - STOP DEPTH
STEP.M        0.25                           : increment    - STEP LENGTH
 NULL. -999.2500:NULL Value
~CURVE INFORMATION BLOCK
#MNEM UNIT       ERCB CURVE CODE    CURVE DESCRIPTION
#-----------   ------------------   ----------------------------------
DEPT.M        00 001 00 00         : DEPTH        - DEPTH
ILD .OHMM     00 120 00 00         : RESD         - DEEP RESISTIVITY (DIL)
DPHI.V/V      00 890 00 00         : PHID         - DENSITY POROSITY (LIMESTONE)
NPHI.V/V      00 330 00 00         : PHIN         - NEUTRON POROSITY (LIMESTONE)
GR  .API      00 310 00 00         : GR           - GAMMA RAY
~PARAMETER INFORMATION
#MNEM.UNIT           DATA             DESCRIPTION OF MNEMONIC
#---------         -----------     ------------------------------
GL  .M        632.88               : gl           - GROUND LEVEL ELEVATION
EREF.M        636.48               : kb           - ELEVATION OF DEPTH REFERENCE
DATM.M        632.88               : datum        - DATUM ELEVATION
TDD .M        526                  : tdd          - TOTAL DEPTH DRILLER
RUN .         ONE                  : Run          - RUN NUMBER
ENG .         BILL                 : Engineer     - RECORDING ENGINEER
WIT .         JIM                  : Witness      - WITNESSED BY
MUD .         GEL                  : Mud_type     - MUD TYPE
MATR.         LIMESTONE            : Logunit      - NEUTRON MATRIX
TMAX.C        26                   : BHT          - MAXIMUM RECORDED TEMPERATURE
BHTD.M        526                  : BHTDEP       - MAXIMUM RECORDED TEMPERATURE
MATR.         1                    : LOGUNIT      - NEUTRON MATRIX
RMT .C        25                   : MDTP         - TEMPERATURE OF MUD
NEUT.         1                    : NEUTRON      - NEUTRON TYPE
RESI.         0                    : RESIST       - RESISTIVITY TYPE
RMC .OHMM     0.25                 : RMC          - RESISTIVITY OF MUD CAKE
RMF .OHMM     0.25                 : RMF          - RESISTIVITY OF MUD FILTRATE
SUFT.C        15                   : SUFT         - SURFACE TEMPERATURE
~A  DEPTH     RESD     PHID     PHIN       GR
# ...
  464.000    8.634    0.295    0.348   64.603
  464.250    8.481    0.297    0.350   69.306
  464.500    8.491    0.291    0.363   74.073
  464.750    8.691    0.288    0.374   79.328
  465.000    8.898    0.307    0.389   80.728
  465.250    9.178    0.324    0.377   80.720
  465.500    9.308    0.334    0.369   83.955
  465.750    9.127    0.324    0.377   85.967
  466.000    8.652    0.314    0.382   87.979
  466.250    8.170    0.305    0.386   89.317
  466.500    7.846    0.298    0.389   88.575
  466.750    7.635    0.298    0.392   86.731
  467.000    7.474    0.303    0.394   87.212
  467.250    7.466    0.292    0.387   92.957
  467.500    7.572    0.275    0.364  107.393
  467.750    7.666    0.261    0.351  113.566
  468.000    7.760    0.249    0.339  110.804
  468.250    7.900    0.237    0.334  105.962
  468.500    8.058    0.231    0.331  101.914
  468.750    8.439    0.229    0.328  100.437
  469.000    8.918    0.220    0.318  100.735
  469.250    9.410    0.215    0.335  101.156
  469.500   10.043    0.226    0.374   95.518
  469.750   10.436    0.262    0.390   78.619
  470.000   10.906    0.298    0.399   65.881
  470.250   11.421    0.299    0.386   58.285
  470.500   11.692    0.182    0.363   60.479
  470.750   11.949    0.121    0.347   70.263
  471.000   12.255    0.121    0.378   75.948
  471.250   12.785    0.206    0.403   61.496
  471.500   13.591    0.242    0.428   48.392
  471.750   14.393    0.298    0.449   38.959
  472.000   14.959    0.319    0.409   39.747
  472.250   15.257    0.325    0.374   50.142
  472.500   13.851    0.299    0.349   60.967
  472.750   12.408    0.284    0.341   71.118
  473.000   11.201    0.303    0.338   73.251
  473.250   10.399    0.277    0.336   81.751
  473.500    9.638    0.261    0.356   90.310
  473.750    9.118    0.273    0.377   91.221
  474.000    8.499    0.277    0.349   86.562
  474.250    8.131    0.268    0.323   92.613
  474.500    7.722    0.255    0.315   97.378
  474.750    7.473    0.242    0.325   99.879
  475.000    7.315    0.235    0.329   99.993
  475.250    7.361    0.235    0.333  100.352
  475.500    7.495    0.239    0.335  100.773
  475.750    7.517    0.239    0.337  101.194
  476.000    7.481    0.234    0.328  104.797
  476.250    7.460    0.222    0.316  108.155
  476.500    7.425    0.209    0.319  109.310
  476.750    7.432    0.204    0.334  107.035
  477.000    7.398    0.216    0.331  105.010
  477.250    7.350    0.221    0.329  101.269
  477.500    7.343    0.225    0.348   96.671
  477.750    7.392    0.229    0.366   90.604
  478.000    7.455    0.244    0.386   84.293
  478.250    7.575    0.259    0.379   83.245
  478.500    7.711    0.271    0.369   86.172
  478.750    7.777    0.277    0.371   87.635
  479.000    7.755    0.271    0.361   87.566
  479.250    7.589    0.261    0.345   95.330
  479.500    7.319    0.246    0.327  106.828
  479.750    7.255    0.231    0.327  115.021
  480.000    7.209    0.223    0.332  119.296
  480.250    7.242    0.226    0.335  119.777
  480.500    7.541    0.230    0.352  116.892
  480.750    8.017    0.224    0.331  113.152
  481.000    8.815    0.200    0.308  109.228
  481.250    9.693    0.181    0.292  103.283
  481.500   11.025    0.164    0.278   94.157
  481.750   12.213    0.101    0.292   74.749
  482.000   13.181    0.042    0.275   55.341
  482.250   13.983    0.074    0.265   64.819
  482.500   14.397    0.148    0.284   82.252
  482.750   12.519    0.183    0.301   91.608
  483.000   11.320    0.214    0.320   94.783
  483.250   10.393    0.247    0.304   96.978
  483.500    9.797    0.213    0.296   96.112
  483.750    9.623    0.201    0.288   94.330
  484.000    9.633    0.209    0.300   93.221
  484.250    9.751    0.213    0.319   91.683
  484.500    9.927    0.229    0.351   81.577
  484.750   10.298    0.263    0.381   70.308
  485.000   10.969    0.270    0.361   69.688
  485.250   11.701    0.246    0.394   71.272
  485.500   12.770    0.275    0.430   62.022
  485.750   13.473    0.340    0.409   58.465
  486.000   12.822    0.358    0.377   77.367
  486.250   11.948    0.299    0.356   94.679
  486.500   10.724    0.229    0.349  111.929
  486.750    9.395    0.182    0.374  122.815
  487.000    8.755    0.154    0.352  117.177
  487.250    8.330    0.153    0.324  110.007
  487.500    8.121    0.161    0.305  106.880
  487.750    8.161    0.170    0.301  109.685
  488.000    8.449    0.169    0.302  112.861
  488.250    8.831    0.170    0.309  110.772
  488.500    9.336    0.203    0.337  102.503
  488.750    9.719    0.231    0.366   91.050
  489.000   10.198    0.256    0.368   81.066
  489.250   10.699    0.270    0.350   77.693
  489.500   10.993    0.268    0.334   78.540
  489.750   11.192    0.259    0.331   81.471
  490.000   11.225    0.256    0.329   83.483
  490.250   10.720    0.251    0.323   86.719
  490.500   10.141    0.247    0.318   87.200
  490.750    9.759    0.246    0.326   81.072
  491.000    9.934    0.248    0.331   78.126
  491.250   10.483    0.248    0.337   79.647
  491.500   10.874    0.251    0.339   80.068
  491.750   11.153    0.252    0.349   79.448
  492.000   11.332    0.244    0.364   77.055
  492.250   11.472    0.244    0.367   73.680
  492.500   11.505    0.236    0.352   73.672
  492.750   11.515    0.208    0.321   76.602
  493.000   11.767    0.177    0.300   79.226
  493.250   12.253    0.185    0.326   81.115
  493.500   13.001    0.272    0.410   79.088
  493.750   13.976    0.285    0.398   68.370
  494.000   14.635    0.294    0.360   64.261
  494.250   14.845    0.252    0.335   71.904
  494.500   14.099    0.211    0.328   80.708
  494.750   12.917    0.212    0.334   85.657
  495.000   11.573    0.230    0.343   89.504
  495.250   11.938    0.233    0.346   91.333
  495.500   13.326    0.230    0.357   88.387
  495.750   15.242    0.230    0.372   69.101
  496.000   17.436    0.252    0.388   59.424
  496.250   19.391    0.282    0.405   53.358
  496.500   21.004    0.310    0.419   48.454
  496.750   22.244    0.329    0.399   42.632
  497.000   22.900    0.335    0.369   36.687
  497.250   23.137    0.337    0.374   33.620
  497.500   16.987    0.336    0.409   32.081
  497.750   13.930    0.337    0.433   29.870
  498.000   11.577    0.337    0.399   28.087
  498.250   10.353    0.341    0.393   27.651
  498.500    9.069    0.345    0.412   29.602
  498.750    7.944    0.350    0.424   30.573
  499.000    7.090    0.351    0.405   28.913
  499.250    6.595    0.346    0.380   33.800
  499.500    6.298    0.334    0.359   44.870
  499.750    6.095    0.307    0.330   61.386
  500.000    5.931    0.267    0.332   77.106
  500.250    5.816    0.233    0.368   74.650
  500.500    5.639    0.297    0.408   53.529
  500.750    5.497    0.335    0.411   45.014
  501.000    5.329    0.355    0.389   36.928
  501.250    5.215    0.311    0.369   45.548
  501.500    5.124    0.291    0.382   54.109
  501.750    5.090    0.293    0.405   54.835
  502.000    5.029    0.306    0.412   47.667
  502.250    4.949    0.319    0.395   40.620
  502.500    4.898    0.334    0.371   37.920
  502.750    4.822    0.330    0.353   46.541
  503.000    4.799    0.321    0.378   43.474
  503.250    4.767    0.329    0.405   36.427
  503.500    4.727    0.342    0.344   35.747
  503.750    4.759    0.296    0.348   46.265
  504.000    4.773    0.274    0.365   53.111
  504.250    4.786    0.282    0.381   52.675
  504.500    4.745    0.278    0.391   57.930
  504.750    4.575    0.253    0.362   60.493
  505.000    4.385    0.319    0.413   54.365
  505.250    4.389    0.345    0.410   27.429
  505.500    4.520    0.355    0.365   23.259
  505.750    4.662    0.344    0.345   31.636
  506.000    4.791    0.322    0.348   42.583
  506.250    4.905    0.293    0.361   52.550
  506.500    4.956    0.275    0.350   59.457
  506.750    4.933    0.274    0.375   58.165
  507.000    4.632    0.311    0.404   49.528
  507.250    4.457    0.340    0.428   41.012
