~VERSION INFORMATION
 VERS.                 2.0:   CWLS LOG ASCII STANDARD -VERSION 2.0
 WRAP.                  NO:   ONE LINE PER DEPTH STEP
~WELL INFORMATION BLOCK
#MNEM.UNIT           DATA                    DESCRIPTION OF MNEMONIC
#---------    -------------------            -------------------------------
# Generated from Intellog Unique Number	CS_73_76/WELL/2392
WELL.         07-26-076-12W4                 : Well_name    - WELL
LOC .         00/07-26-076-12W4/0            : Location     - LOCATION
UWI .         00/07-26-076-12W4/0            : Uwi          - UNIQUE WELL ID
ENTR.         SP                             : Entered      - ENTERED BY
SRVC.         SCHLUMBERGER                   : Scn          - SERVICE COMPANY
STRT.M        283.464                        : top_depth    - START DEPTH
STOP.M        523.964                        : bot_depth    - STOP DEPTH
STEP.M        0.25                           : increment    - STEP LENGTH
 NULL. -999.2500:NULL Value
~CURVE INFORMATION BLOCK
#MNEM UNIT       ERCB CURVE CODE    CURVE DESCRIPTION
#-----------   ------------------   ----------------------------------
DEPT.M        00 001 00 00         : DEPTH        - DEPTH
GR  .API      00 310 00 00         : GR           - GAMMA RAY
DPHI.V/V      00 890 00 00         : PHID         - DENSITY POROSITY (SANDSTONE)
NPHI.V/V      00 330 00 00         : PHIN         - NEUTRON POROSITY (SANDSTONE)
ILD .OHMM     00 120 00 00         : RESD         - DEEP RESISTIVITY (DIL)
~PARAMETER INFORMATION
#MNEM.UNIT           DATA             DESCRIPTION OF MNEMONIC
#---------         -----------     ------------------------------
GL  .M        669.95               : gl           - GROUND LEVEL ELEVATION
EREF.M        672.998              : kb           - ELEVATION OF DEPTH REFERENCE
DATM.M        669.95               : datum        - DATUM ELEVATION
TDD .M        528.523              : tdd          - TOTAL DEPTH DRILLER
RUN .         ONE                  : Run          - RUN NUMBER
ENG .         BILL                 : Engineer     - RECORDING ENGINEER
WIT .         JIM                  : Witness      - WITNESSED BY
MUD .         GEL                  : Mud_type     - MUD TYPE
MATR.         SANDSTONE            : Logunit      - NEUTRON MATRIX
TMAX.C        35                   : BHT          - MAXIMUM RECORDED TEMPERATURE
BHTD.M        528.523              : BHTDEP       - MAXIMUM RECORDED TEMPERATURE
MATR.         1                    : LOGUNIT      - NEUTRON MATRIX
RMT .C        25                   : MDTP         - TEMPERATURE OF MUD
NEUT.         1                    : NEUTRON      - NEUTRON TYPE
RESI.         0                    : RESIST       - RESISTIVITY TYPE
RMC .OHMM     0.25                 : RMC          - RESISTIVITY OF MUD CAKE
RMF .OHMM     0.25                 : RMF          - RESISTIVITY OF MUD FILTRATE
SUFT.C        15                   : SUFT         - SURFACE TEMPERATURE
~A  DEPTH       GR     PHID     PHIN     RESD
# ...
  457.464   92.280    0.193    0.460    8.247
  457.714   89.453    0.205    0.447    9.018
  457.964   86.237    0.240    0.432    9.717
  458.214   83.164    0.247    0.425   10.558
  458.464   81.773    0.234    0.444   11.344
  458.714   81.877    0.220    0.450   12.060
  458.964   83.225    0.217    0.448   12.244
  459.214   83.669    0.211    0.449   11.584
  459.464   85.041    0.206    0.461   11.610
  459.714   89.398    0.201    0.477   11.636
  459.964   93.678    0.219    0.477   11.643
  460.214   99.799    0.219    0.478   12.028
  460.464  103.593    0.248    0.489   12.139
  460.714  104.730    0.278    0.494   12.276
  460.964  106.036    0.276    0.470   12.905
  461.214  102.848    0.266    0.474   13.329
  461.464   91.288    0.266    0.470   14.360
  461.714   79.299    0.269    0.453   17.020
  461.964   71.347    0.288    0.442   21.360
  462.214   64.340    0.269    0.456   25.110
  462.464   59.635    0.277    0.458   28.484
  462.714   59.050    0.271    0.439   30.752
  462.964   62.991    0.271    0.414   33.276
  463.214   69.155    0.257    0.409   32.805
  463.464   75.470    0.244    0.431   29.183
  463.714   83.733    0.231    0.436   24.743
  463.964   89.743    0.260    0.434   22.772
  464.214   93.727    0.247    0.444   19.640
  464.464   97.340    0.233    0.440   17.216
  464.714  100.439    0.221    0.437   15.123
  464.964  106.108    0.216    0.437   12.715
  465.214  110.640    0.208    0.448   11.348
  465.464  116.608    0.222    0.466   10.421
  465.714  121.510    0.217    0.473    9.320
  465.964  124.947    0.205    0.473    8.674
  466.214  127.404    0.220    0.469    8.280
  466.464  123.530    0.226    0.468    8.657
  466.714  114.982    0.229    0.467    9.731
  466.964  106.767    0.227    0.455   11.082
  467.214  101.563    0.216    0.433   12.777
  467.464   98.511    0.236    0.416   14.236
  467.714   96.030    0.265    0.411   15.890
  467.964   99.703    0.250    0.405   17.037
  468.214   98.753    0.233    0.414   17.450
  468.464   85.754    0.253    0.426   17.433
  468.714   81.388    0.254    0.427   16.942
  468.964   79.347    0.230    0.422   16.042
  469.214   80.234    0.248    0.411   14.851
  469.464   82.193    0.214    0.402   14.084
  469.714   81.475    0.220    0.408   13.697
  469.964   81.091    0.189    0.424   13.928
  470.214   80.079    0.229    0.437   14.215
  470.464   79.643    0.263    0.423   14.180
  470.714   83.471    0.251    0.407   14.162
  470.964   86.864    0.229    0.415   14.092
  471.214   89.193    0.218    0.427   14.125
  471.464   88.523    0.250    0.434   14.392
  471.714   86.931    0.270    0.441   15.108
  471.964   81.177    0.269    0.458   16.268
  472.214   78.089    0.264    0.406   17.967
  472.464   71.995    0.273    0.391   18.981
  472.714   71.643    0.258    0.394   20.218
  472.964   70.910    0.244    0.398   20.920
  473.214   73.668    0.249    0.392   20.695
  473.464   79.862    0.248    0.404   20.104
  473.714   84.810    0.225    0.419   18.933
  473.964   91.404    0.207    0.446   16.961
  474.214   97.850    0.230    0.457   14.265
  474.464  106.266    0.253    0.448   12.068
  474.714  114.864    0.238    0.430   10.216
  474.964  121.159    0.196    0.440    8.933
  475.214  125.033    0.189    0.460    8.206
  475.464  125.791    0.171    0.479    8.079
  475.714  119.568    0.181    0.497    8.571
  475.964  114.071    0.203    0.489    8.718
  476.214  109.515    0.199    0.479    9.286
  476.464  106.166    0.186    0.470    9.585
  476.714  101.070    0.203    0.463    9.881
  476.964  100.646    0.223    0.461    9.694
  477.214   98.287    0.211    0.463    9.453
  477.464  101.485    0.212    0.469    9.335
  477.714  104.452    0.184    0.489    9.250
  477.964  106.790    0.187    0.485    8.964
  478.214  102.035    0.209    0.473    8.573
  478.464  101.519    0.186    0.466    7.965
  478.714  107.425    0.182    0.459    7.589
  478.964  114.872    0.191    0.459    7.273
  479.214  117.971    0.184    0.450    6.870
  479.464  115.411    0.184    0.445    6.812
  479.714  115.372    0.177    0.463    6.793
  479.964  114.785    0.176    0.475    6.936
  480.214  110.688    0.169    0.489    7.049
  480.464  106.657    0.153    0.505    7.261
  480.714  106.658    0.162    0.489    7.479
  480.964  106.135    0.178    0.493    7.701
  481.214  109.667    0.172    0.484    7.887
  481.464  114.075    0.157    0.483    8.666
  481.714  118.999    0.137    0.486    9.549
  481.964  122.587    0.167    0.464    9.028
  482.214  121.463    0.227    0.426    8.902
  482.464  125.651    0.231    0.414    8.912
  482.714  128.439    0.211    0.437    8.892
  482.964  124.864    0.186    0.469    9.066
  483.214  118.304    0.218    0.440    9.151
  483.464  118.275    0.204    0.417    9.396
  483.714  117.766    0.206    0.431    9.549
  483.964  109.969    0.154    0.445    9.840
  484.214   99.422    0.169    0.427   10.155
  484.464   91.556    0.227    0.418   10.818
  484.714   88.455    0.219    0.422   11.434
  484.964   84.591    0.209    0.429   12.352
  485.214   78.197    0.200    0.444   15.043
  485.464   71.030    0.238    0.442   18.276
  485.714   63.756    0.241    0.426   21.012
  485.964   59.916    0.211    0.400   22.639
  486.214   66.298    0.168    0.350   24.419
  486.464   72.889    0.195    0.366   25.115
  486.714   78.559    0.211    0.395   21.720
  486.964   86.282    0.220    0.401   18.880
  487.214   93.340    0.193    0.399   15.166
  487.464   96.264    0.183    0.391   13.662
  487.714   98.363    0.194    0.372   12.575
  487.964   99.306    0.198    0.380   11.645
  488.214  100.340    0.214    0.386   11.187
  488.464  104.434    0.222    0.385   10.728
  488.714  106.588    0.213    0.403   10.345
  488.964  109.540    0.146    0.419   10.283
  489.214  102.239    0.175    0.417   10.368
  489.464   96.025    0.196    0.408   10.513
  489.714   92.931    0.188    0.414   10.972
  489.964   88.016    0.206    0.421   11.102
  490.214   84.797    0.216    0.426   12.482
  490.464   78.784    0.231    0.433   14.393
  490.714   72.759    0.247    0.429   16.792
  490.964   67.199    0.265    0.426   18.178
  491.214   64.867    0.266    0.416   20.075
  491.464   66.120    0.257    0.416   21.037
  491.714   71.157    0.255    0.409   20.209
  491.964   75.978    0.264    0.402   18.794
  492.214   79.094    0.259    0.404   17.626
  492.464   78.777    0.223    0.409   16.310
  492.714   76.938    0.209    0.405   15.399
  492.964   76.263    0.211    0.395   14.769
  493.214   76.222    0.222    0.391   15.161
  493.464   74.589    0.213    0.396   15.879
  493.714   71.769    0.210    0.408   16.802
  493.964   66.728    0.206    0.424   18.677
  494.214   57.934    0.228    0.445   20.043
  494.464   51.901    0.259    0.449   21.706
  494.714   49.947    0.259    0.435   23.517
  494.964   54.427    0.249    0.424   25.357
  495.214   56.788    0.252    0.418   26.732
  495.464   53.244    0.262    0.424   28.050
  495.714   49.219    0.286    0.428   29.077
  495.964   48.633    0.296    0.411   28.828
  496.214   55.568    0.284    0.399   26.527
  496.464   56.972    0.269    0.397   24.651
  496.714   56.083    0.247    0.411   23.601
  496.964   56.184    0.257    0.412   22.631
  497.214   57.353    0.274    0.404   18.675
  497.464   55.261    0.273    0.395   14.397
  497.714   49.128    0.256    0.390   11.728
  497.964   45.634    0.250    0.399   10.133
  498.214   42.273    0.259    0.410    8.401
  498.464   41.928    0.303    0.411    7.241
  498.714   46.943    0.309    0.408    6.344
  498.964   65.230    0.307    0.402    6.191
  499.214   78.996    0.267    0.390    6.183
  499.464  100.927    0.247    0.383    6.357
  499.714  128.324    0.198    0.394    6.749
  499.964  136.768    0.151    0.409    7.374
  500.214  136.861    0.150    0.462    8.047
  500.464  128.939    0.136    0.465    8.529
  500.714  122.582    0.134    0.467    8.994
