~VERSION INFORMATION
 VERS.                 2.0:   CWLS LOG ASCII STANDARD -VERSION 2.0
 WRAP.                  NO:   ONE LINE PER DEPTH STEP
~WELL INFORMATION BLOCK
#MNEM.UNIT           DATA                    DESCRIPTION OF MNEMONIC
#---------    -------------------            -------------------------------
# Generated from Intellog Unique Number	CS_77_79/WELL/867
WELL.         ICGR GRAHAM                    : Well_name    - WELL
LOC .         00/06-05-079-05W4/0            : Location     - LOCATION
UWI .         00/06-05-079-05W4/0            : Uwi          - UNIQUE WELL ID
ENTR.         JHS                            : Entered      - ENTERED BY
SRVC.         SCHLUMBERGER                   : Scn          - SERVICE COMPANY
STRT.M        105                            : top_depth    - START DEPTH
STOP.M        365                            : bot_depth    - STOP DEPTH
STEP.M        0.25                           : increment    - STEP LENGTH
 NULL. -999.2500:NULL Value
~CURVE INFORMATION BLOCK
#MNEM UNIT       ERCB CURVE CODE    CURVE DESCRIPTION
#-----------   ------------------   ----------------------------------
DEPT.M        00 001 00 00         : DEPTH        - DEPTH
DPHI.V/V      00 890 00 00         : PHID         - DENSITY POROSITY (LIMESTONE)
NPHI.V/V      00 330 00 00         : PHIN         - NEUTRON POROSITY (LIMESTONE)
GR  .API      00 310 00 00         : GR           - GAMMA RAY
ILD .OHMM     00 120 00 00         : RESD         - DEEP RESISTIVITY (DIL)
RHOB.KG/M3    00 350 00 00         : DENS         - BULK DENSITY
~PARAMETER INFORMATION
#MNEM.UNIT           DATA             DESCRIPTION OF MNEMONIC
#---------         -----------     ------------------------------
GL  .M        529.39               : gl           - GROUND LEVEL ELEVATION
EREF.M        533.04               : kb           - ELEVATION OF DEPTH REFERENCE
DATM.M        533.04               : datum        - DATUM ELEVATION
TDD .M        374                  : tdd          - TOTAL DEPTH DRILLER
RUN .         ONE                  : Run          - RUN NUMBER
ENG .         BILL                 : Engineer     - RECORDING ENGINEER
WIT .         JIM                  : Witness      - WITNESSED BY
MUD .         GEL                  : Mud_type     - MUD TYPE
MATR.         LIMESTONE            : Logunit      - NEUTRON MATRIX
TMAX.C        20.4                 : BHT          - MAXIMUM RECORDED TEMPERATURE
BHTD.M        374                  : BHTDEP       - MAXIMUM RECORDED TEMPERATURE
MATR.         1                    : LOGUNIT      - NEUTRON MATRIX
RMT .C        25                   : MDTP         - TEMPERATURE OF MUD
NEUT.         1                    : NEUTRON      - NEUTRON TYPE
RESI.         0                    : RESIST       - RESISTIVITY TYPE
RMC .OHMM     0.25                 : RMC          - RESISTIVITY OF MUD CAKE
RMF .OHMM     0.25                 : RMF          - RESISTIVITY OF MUD FILTRATE
SUFT.C        15                   : SUFT         - SURFACE TEMPERATURE
~A  DEPTH     PHID     PHIN       GR     RESD     DENS
# ...
  251.000    0.291    0.483   71.588    7.042 2211.960
  251.250    0.278    0.483   65.322    7.046 2235.300
  251.500    0.145    0.315   59.682    7.053 2462.150
  251.750    0.071    0.296   60.946    7.331 2589.370
  252.000    0.018    0.456   96.731    7.476 2678.430
  252.250    0.201    0.483  102.391    7.207 2366.840
  252.500    0.287    0.506   99.888    6.947 2218.480
  252.750    0.290    0.516   78.560    6.448 2214.270
  253.000    0.286    0.528   73.548    5.875 2220.660
  253.250    0.289    0.523   79.206    5.455 2216.440
  253.500    0.284    0.504   85.492    5.257 2224.950
  253.750    0.281    0.518   81.108    4.972 2229.220
  254.000    0.287    0.535   76.724    4.794 2218.640
  254.250    0.280    0.541   83.010    4.797 2231.400
  254.500    0.270    0.528   82.391    5.082 2248.380
  254.750    0.269    0.508   80.520    5.280 2250.530
  255.000    0.267    0.493   87.433    5.700 2252.670
  255.250    0.264    0.462   89.952    5.922 2259.060
  255.500    0.272    0.453   86.826    6.514 2244.250
  255.750    0.285    0.435   84.325    6.767 2223.080
  256.000    0.306    0.427   81.821    7.169 2187.070
  256.250    0.302    0.451   76.182    7.175 2193.450
  256.500    0.300    0.472   76.193    7.181 2197.720
  256.750    0.296    0.453   76.830    6.922 2204.120
  257.000    0.282    0.436   75.584    6.550 2227.460
  257.250    0.254    0.441   78.104    6.194 2276.240
  257.500    0.235    0.452   80.623    5.749 2308.070
  257.750    0.225    0.462   81.888    5.237 2325.050
  258.000    0.239    0.468   80.641    4.509 2301.760
  258.250    0.246    0.485   80.023    3.811 2289.070
  258.500    0.260    0.585   80.033    3.536 2265.780
  258.750    0.296    0.609   76.277    2.934 2204.330
  259.000    0.291    0.556   77.544    2.774 2212.840
  259.250    0.293    0.544   80.062    2.576 2208.630
  259.500    0.299    0.550   82.583    2.436 2198.050
  259.750    0.294    0.541   83.218    2.349 2206.560
  260.000    0.292    0.516   81.974    2.307 2210.830
  260.250    0.296    0.526   76.335    2.352 2204.500
  260.500    0.281    0.544   78.228    2.355 2229.960
  260.750    0.271    0.566   83.256    2.402 2246.950
  261.000    0.273    0.531   86.405    2.449 2242.740
  261.250    0.271    0.547   80.137    2.694 2247.000
  261.500    0.255    0.551   80.776    2.907 2274.590
  261.750    0.227    0.496   84.550    3.257 2321.260
  262.000    0.212    0.469   87.071    3.650 2346.720
  262.250    0.235    0.472   82.058    4.411 2308.590
  262.500    0.243    0.476   80.189    4.758 2293.780
  262.750    0.255    0.431   81.451    5.232 2274.720
  263.000    0.228    0.411   85.227    5.976 2319.280
  263.250    0.222    0.409   87.746    6.209 2329.900
  263.500    0.232    0.416   89.011    6.455 2312.970
  263.750    0.251    0.443   92.786    6.220 2281.200
  264.000    0.261    0.497   95.306    5.667 2264.270
  264.250    0.264    0.489   92.179    4.699 2257.940
  264.500    0.248    0.471   90.933    4.282 2285.520
  264.750    0.236    0.478   92.827    4.126 2306.750
  265.000    0.220    0.491   94.715    3.977 2334.330
  265.250    0.209    0.511   95.981    3.763 2353.430
  265.500    0.233    0.506   97.246    3.695 2311.070
  265.750    0.248    0.494   97.255    3.700 2285.660
  266.000    0.242    0.500   94.753    3.703 2296.280
  266.250    0.232    0.505   89.744    3.706 2313.270
  266.500    0.242    0.501   88.499    3.639 2296.340
  266.750    0.249    0.499   89.134    3.509 2283.650
  267.000    0.252    0.503   89.771    3.447 2279.440
  267.250    0.255    0.521   89.156    3.321 2273.100
  267.500    0.264    0.536   89.164    3.262 2258.290
  267.750    0.262    0.520   87.289    3.391 2262.570
  268.000    0.259    0.472   85.416    3.800 2266.830
  268.250    0.269    0.443   84.170    4.339 2249.900
  268.500    0.274    0.431   90.456    4.955 2241.440
  268.750    0.238    0.434   90.466    5.551 2302.950
  269.000    0.236    0.445   83.570    5.880 2307.210
  269.250    0.238    0.464   81.697    6.109 2303.000
  269.500    0.229    0.486   88.612    5.778 2317.870
  269.750    0.231    0.514   91.759    5.366 2315.770
  270.000    0.193    0.491   88.630    5.471 2379.400
  270.250    0.128    0.412   74.832    6.016 2491.780
  270.500    0.074    0.316   70.449    6.871 2582.960
  270.750    0.071    0.343   74.851    7.555 2589.350
  271.000    0.235    0.421   84.275    8.001 2307.430
  271.250    0.255    0.409   86.167    8.008    0.000
  271.500    0.269    0.379   80.529    8.170 2250.260
  271.750    0.291    0.323   73.007    8.488 2212.120
  272.000    0.297    0.296   69.878    8.821 2201.550
  272.250    0.280    0.305   70.516    8.997 2231.260
  272.500    0.277    0.416   78.685    8.352 2235.530
  272.750    0.269    0.415   84.342    7.754 2250.390
  273.000    0.264    0.344   79.961    7.334 2258.900
  273.250    0.266    0.256   73.065    7.479 2254.690
  273.500    0.317    0.152   63.032    8.226 2167.800
  273.750    0.374    0.108   51.744    9.937 2070.310
  274.000    0.396    0.105   46.733   12.944 2032.180
  274.250    0.403    0.105   44.233   19.235 2021.610
  274.500    0.419    0.065   39.220   28.587 1994.080
  274.750    0.440    0.052   31.698   46.670 1958.070
  275.000    0.446    0.182   29.826   54.307 1947.510
  275.250    0.430    0.215   41.758   54.366 1975.090
  275.500    0.417    0.184   54.948   50.462 1996.310
  275.750    0.427    0.096   52.447   43.454 1979.380
  276.000    0.441    0.088   54.968   41.103 1956.100
  276.250    0.442    0.084   58.115   42.712 1954.000
  276.500    0.446    0.079   54.359   46.973 1947.670
  276.750    0.441    0.088   61.901   52.625 1956.170
  277.000    0.422    0.112   66.302   58.985 1988.000
  277.250    0.416    0.141   61.291   59.032 1998.640
  277.500    0.411    0.157   60.047   53.767 2007.140
  277.750    0.401    0.174   63.193   40.579 2024.120
  278.000    0.391    0.241   65.086   29.496 2041.110
  278.250    0.375    0.267   64.467   21.846 2068.690
  278.500    0.356    0.301   63.850   15.006 2100.520
  278.750    0.334    0.323   67.627    9.928 2138.700
  279.000    0.324    0.333   69.519    8.079 2155.690
  279.250    0.325    0.339   68.901    6.958 2153.600
  279.500    0.323    0.351   71.421    6.580 2157.860
  279.750    0.309    0.366   75.824    6.225 2181.210
  280.000    0.293    0.371   81.479    6.468 2208.800
  280.250    0.273    0.375   96.552    6.724 2242.740
  280.500    0.260    0.385  104.721    6.986 2266.080
  280.750    0.245    0.401  109.753    7.540 2291.550
  281.000    0.237    0.415  112.902    8.293 2304.300
  281.250    0.274    0.339  106.632    9.293 2240.730
  281.500    0.331    0.295   91.580   10.414 2143.240
  281.750    0.361    0.241   84.684   11.668 2092.400
  282.000    0.305    0.274   80.928   12.356 2187.820
  282.250    0.268    0.308   89.726   12.140 2251.440
  282.500    0.228    0.324   93.501   12.148 2319.300
  282.750    0.189    0.328   85.978   11.707 2387.170
  283.000    0.214    0.329   82.222   10.869 2344.800
  283.250    0.232    0.326   74.699   10.091 2313.030
  283.500    0.243    0.315   62.784   10.097 2293.970
  283.750    0.288    0.334   54.007    9.199 2217.690
  284.000    0.310    0.355   63.431    8.381 2179.560
  284.250    0.311    0.366   79.759    7.782 2177.470
  284.500    0.233    0.372   91.694    7.643 2311.040
  284.750    0.211    0.391   95.469    7.942 2349.230
  285.000    0.195    0.304   92.969    8.901 2376.810
  285.250    0.215    0.239   72.265   10.357 2342.920
  285.500    0.342    0.177   46.542   11.387 2124.610
  285.750    0.393    0.164   43.415   12.759 2037.720
  286.000    0.384    0.236   43.423   13.510 2052.590
  286.250    0.335    0.275   50.337   13.272 2137.410
  286.500    0.303    0.345   57.251   12.318 2192.550
  286.750    0.290    0.351   54.750    8.954 2213.780
  287.000    0.321    0.334   50.370    7.286 2160.810
  287.250    0.332    0.324   65.437    6.043 2141.760
