~VERSION INFORMATION
 VERS.                 2.0:   CWLS LOG ASCII STANDARD -VERSION 2.0
 WRAP.                  NO:   ONE LINE PER DEPTH STEP
~WELL INFORMATION BLOCK
#MNEM.UNIT           DATA                    DESCRIPTION OF MNEMONIC
#---------    -------------------            -------------------------------
# Generated from Intellog Unique Number	CS_77_79/WELL/914
WELL.         PCI PCEJ CHARD                 : Well_name    - WELL
LOC .         00/07-32-079-06W4/0            : Location     - LOCATION
UWI .         00/07-32-079-06W4/0            : Uwi          - UNIQUE WELL ID
ENTR.         JHS                            : Entered      - ENTERED BY
SRVC.         SCHLUMBERGER                   : Scn          - SERVICE COMPANY
STRT.M        120                            : top_depth    - START DEPTH
STOP.M        360                            : bot_depth    - STOP DEPTH
STEP.M        0.25                           : increment    - STEP LENGTH
 NULL. -999.2500:NULL Value
~CURVE INFORMATION BLOCK
#MNEM UNIT       ERCB CURVE CODE    CURVE DESCRIPTION
#-----------   ------------------   ----------------------------------
DEPT.M        00 001 00 00         : DEPTH        - DEPTH
DPHI.V/V      00 890 00 00         : PHID         - DENSITY POROSITY (LIMESTONE)
NPHI.V/V      00 330 00 00         : PHIN         - NEUTRON POROSITY (LIMESTONE)
GR  .API      00 310 00 00         : GR           - GAMMA RAY
ILD .OHMM     00 120 00 00         : RESD         - DEEP RESISTIVITY (DIL)
RHOB.KG/M3    00 350 00 00         : DENS         - BULK DENSITY
~PARAMETER INFORMATION
#MNEM.UNIT           DATA             DESCRIPTION OF MNEMONIC
#---------         -----------     ------------------------------
GL  .M        547.4                : gl           - GROUND LEVEL ELEVATION
EREF.M        550.5                : kb           - ELEVATION OF DEPTH REFERENCE
DATM.M        550.5                : datum        - DATUM ELEVATION
TDD .M        365                  : tdd          - TOTAL DEPTH DRILLER
RUN .         ONE                  : Run          - RUN NUMBER
ENG .         BILL                 : Engineer     - RECORDING ENGINEER
WIT .         JIM                  : Witness      - WITNESSED BY
MUD .         GEL                  : Mud_type     - MUD TYPE
MATR.         LIMESTONE            : Logunit      - NEUTRON MATRIX
TMAX.C        20                   : BHT          - MAXIMUM RECORDED TEMPERATURE
BHTD.M        365                  : BHTDEP       - MAXIMUM RECORDED TEMPERATURE
MATR.         1                    : LOGUNIT      - NEUTRON MATRIX
RMT .C        25                   : MDTP         - TEMPERATURE OF MUD
NEUT.         1                    : NEUTRON      - NEUTRON TYPE
RESI.         0                    : RESIST       - RESISTIVITY TYPE
RMC .OHMM     0.25                 : RMC          - RESISTIVITY OF MUD CAKE
RMF .OHMM     0.25                 : RMF          - RESISTIVITY OF MUD FILTRATE
SUFT.C        15                   : SUFT         - SURFACE TEMPERATURE
~A  DEPTH     PHID     PHIN       GR     RESD     DENS
# ...
  302.500    0.253    0.394   83.586    9.282 2276.570
  302.750    0.272    0.475   77.493    8.455 2245.150
  303.000    0.285    0.434   68.976    8.787 2222.080
  303.250    0.302    0.388   55.597    9.479 2192.770
  303.500    0.325    0.412   47.074   10.421 2155.080
  303.750    0.328    0.422   44.627   12.588 2148.720
  304.000    0.332    0.414   42.780   14.923 2142.370
  304.250    0.339    0.415   42.762   18.370 2129.770
  304.500    0.345    0.446   42.742   20.968 2119.230
  304.750    0.342    0.458   43.329   26.305 2125.450
  305.000    0.339    0.437   43.914   28.917 2129.540
  305.250    0.341    0.431   43.895   32.405 2127.380
  305.500    0.340    0.435   43.876   33.666 2129.390
  305.750    0.332    0.441   45.682   34.327 2141.840
  306.000    0.330    0.440   46.270   33.711 2145.940
  306.250    0.336    0.451   45.034   31.882 2135.430
  306.500    0.342    0.450   48.051   29.043 2124.890
  306.750    0.320    0.428   57.744   25.001 2162.430
  307.000    0.280    0.407   65.011   19.957 2231.300
  307.250    0.269    0.409   68.632   15.345 2250.030
  307.500    0.280    0.436   61.330   13.460 2231.140
  307.750    0.291    0.445   45.523   12.972 2212.260
  308.000    0.286    0.448   38.215   13.735 2220.540
  308.250    0.258    0.419   43.054   14.547 2268.520
  308.500    0.226    0.427   49.709   15.113 2322.770
  308.750    0.223    0.448   50.297   15.123 2328.940
  309.000    0.245    0.421   56.352   13.776 2291.260
  309.250    0.263    0.401   67.260   12.083 2259.860
  309.500    0.276    0.407   76.349    9.291 2238.870
  309.750    0.277    0.411   79.362    7.558 2236.720
  310.000    0.288    0.417   72.663    6.506 2217.830
  310.250    0.296    0.422   68.998    5.815 2203.120
  310.500    0.294    0.411   75.052    5.297 2207.230
  310.750    0.256    0.399   85.355    4.916 2271.920
  311.000    0.229    0.411   93.836    4.829 2317.810
  311.250    0.228    0.460   98.060    4.832 2319.820
  311.500    0.233    0.480   97.438    4.927 2311.380
  311.750    0.237    0.481   99.845    5.119 2305.030
  312.000    0.238    0.471   97.394    5.319 2302.880
  312.250    0.243    0.435   95.555    5.632 2294.430
  312.500    0.242    0.401   97.358    6.077 2296.450
  312.750    0.246    0.409   97.941    6.558 2290.110
  313.000    0.230    0.390   94.890    6.813 2317.190
  313.250    0.189    0.374   90.009    7.351 2386.070
  313.500    0.177    0.392   89.384    7.783 2406.880
  313.750    0.190    0.386   86.935    7.939 2385.900
  314.000    0.214    0.380   80.840    7.796 2344.040
  314.250    0.232    0.396   74.753    7.656 2312.630
  314.500    0.219    0.399   74.126    7.518 2335.530
  314.750    0.188    0.395   81.999    7.384 2387.680
  315.000    0.182    0.417   86.229    7.251 2398.060
  315.250    0.195    0.434   82.563    7.254 2377.080
  315.500    0.207    0.420   79.510    7.259 2356.120
  315.750    0.208    0.400   78.882    7.403 2353.950
  316.000    0.223    0.412   78.855    7.408 2328.790
  316.250    0.228    0.411   79.443    7.413 2320.360
  316.500    0.211    0.390   80.035    7.559 2349.530
  316.750    0.191    0.383   83.657    7.567 2382.890
  317.000    0.177    0.394   87.282    7.570 2407.870
  317.250    0.174    0.394   88.473    7.576 2411.980
  317.500    0.179    0.402   88.457    7.581 2403.550
  317.750    0.193    0.415   86.004    7.587 2380.480
  318.000    0.207    0.400   81.737    7.736 2355.330
  318.250    0.214    0.392   75.644    7.741 2344.820
  318.500    0.214    0.392   75.019    7.894 2344.730
  318.750    0.214    0.386   74.996    7.900 2344.650
  319.000    0.212    0.375   75.587    7.905 2346.660
  319.250    0.210    0.368   79.208    7.764 2350.770
  319.500    0.205    0.390   81.617    7.770 2359.040
  319.750    0.202    0.406   84.635    7.630 2365.240
  320.000    0.209    0.409   79.148    7.493 2352.630
  320.250    0.222    0.406   75.486    7.359 2329.580
  320.500    0.218    0.400   79.714    7.226 2337.860
  320.750    0.215    0.403   83.340    7.231 2341.960
  321.000    0.208    0.405   86.354    7.101 2354.400
  321.250    0.212    0.419   83.907    6.973 2348.070
  321.500    0.232    0.433   74.171    6.978 2312.480
  321.750    0.241    0.432   69.289    6.854 2297.780
  322.000    0.233    0.411   70.482    6.859 2312.320
  322.250    0.206    0.415   80.183    6.862 2358.190
  322.500    0.184    0.442   91.699    6.867 2395.740
  322.750    0.178    0.448   95.319    7.004 2406.070
  323.000    0.186    0.439   91.653    7.278 2391.390
  323.250    0.203    0.426   86.170    7.420 2362.080
  323.500    0.208    0.405   82.509    7.566 2353.640
  323.750    0.207    0.392   80.664    7.715 2355.660
  324.000    0.201    0.399   78.826    7.722 2366.030
  324.250    0.196    0.414   75.773    7.583 2374.300
  324.500    0.195    0.409   78.787    7.308 2376.310
  324.750    0.211    0.396   81.196    7.043 2349.080
  325.000    0.234    0.382   79.962    7.182 2309.300
  325.250    0.245    0.372   76.299    7.187 2290.420
  325.500    0.249    0.376   76.881    7.059 2284.080
  325.750    0.223    0.402   79.290    6.803 2327.880
  326.000    0.208    0.414   81.099    6.556 2354.950
  326.250    0.208    0.390   83.501    6.560 2354.860
  326.500    0.219    0.374   84.093    6.690 2336.000
  326.750    0.227    0.364   86.502    6.951 2321.310
  327.000    0.229    0.362   85.875    7.089 2319.120
  327.250    0.240    0.368   83.425    7.093 2300.260
  327.500    0.238    0.392   84.012    7.098 2302.270
  327.750    0.224    0.402   83.384    7.102 2327.260
  328.000    0.215    0.407   80.934    7.108 2341.800
  328.250    0.229    0.408   77.271    6.979 2318.760
  328.500    0.240    0.397   77.253    6.986 2299.850
  328.750    0.237    0.385   80.876    6.859 2303.960
  329.000    0.223    0.382   82.071    6.864 2328.960
  329.250    0.212    0.390   85.085    6.870 2347.690
  329.500    0.225    0.395   89.925    6.874 2324.630
  329.750    0.229    0.378   91.114    7.009 2318.290
  330.000    0.206    0.373   88.667    7.148 2357.910
  330.250    0.207    0.388   86.822    7.290 2355.740
  330.500    0.222    0.414   84.986    7.432 2330.590
  330.750    0.226    0.430   83.747    7.438 2324.220
  331.000    0.223    0.402   83.731    7.585 2328.330
  331.250    0.216    0.389   83.714    7.591 2340.810
  331.500    0.206    0.378   84.906    7.594 2357.440
  331.750    0.215    0.363   90.960    7.458 2342.710
  332.000    0.211    0.361   95.188    7.465 2348.910
  332.250    0.203    0.380  106.705    7.470 2363.470
  332.500    0.201    0.381  129.151    7.473 2365.490
  332.750    0.195    0.366  146.735    7.621 2375.850
  333.000    0.203    0.364  145.500    7.627 2363.230
  333.250    0.214    0.379  138.198    7.633 2344.360
  333.500    0.221    0.387  112.676    7.496 2331.750
  333.750    0.230    0.380   96.263    7.223 2317.050
  334.000    0.245    0.376   95.026    6.961 2291.890
  334.250    0.242    0.378   96.222    6.835 2296.000
  334.500    0.237    0.392   95.591    6.840 2304.290
  334.750    0.235    0.399   99.217    6.846 2308.370
  335.000    0.241    0.391  105.268    6.851 2297.840
  335.250    0.244    0.374  105.244    6.728 2293.600
  335.500    0.245    0.363  100.977    6.485 2291.430
  335.750    0.256    0.363   95.496    6.366 2272.560
  336.000    0.280    0.387   85.151    5.910 2230.680
  336.250    0.305    0.399   72.382    5.589 2188.830
  336.500    0.334    0.396   65.684    5.187 2138.610
  336.750    0.329    0.383   68.093    4.814 2146.890
  337.000    0.315    0.372   75.359    4.728 2171.880
  337.250    0.300    0.372   90.518    4.731 2196.880
  337.500    0.276    0.377   91.707    5.106 2238.590
  337.750    0.253    0.371   88.657    5.305 2278.210
  338.000    0.217    0.365   83.168    5.618 2338.720
  338.250    0.210    0.386   88.615    5.727 2351.170
  338.500    0.233    0.409   96.488    5.951 2311.400
  338.750    0.266    0.409   94.041    5.956 2254.910
