~VERSION INFORMATION
 VERS.                 2.0:   CWLS LOG ASCII STANDARD -VERSION 2.0
 WRAP.                  NO:   ONE LINE PER DEPTH STEP
~WELL INFORMATION BLOCK
#MNEM.UNIT           DATA                    DESCRIPTION OF MNEMONIC
#---------    -------------------            -------------------------------
# Generated from Intellog Unique Number	CS_77_79/WELL/862
WELL.         ICGR CHARD                     : Well_name    - WELL
LOC .         00/05-21-078-05W4/0            : Location     - LOCATION
UWI .         00/05-21-078-05W4/0            : Uwi          - UNIQUE WELL ID
ENTR.         JHS                            : Entered      - ENTERED BY
SRVC.         SCHLUMBERGER                   : Scn          - SERVICE COMPANY
STRT.M        155                            : top_depth    - START DEPTH
STOP.M        415                            : bot_depth    - STOP DEPTH
STEP.M        0.25                           : increment    - STEP LENGTH
 NULL. -999.2500:NULL Value
~CURVE INFORMATION BLOCK
#MNEM UNIT       ERCB CURVE CODE    CURVE DESCRIPTION
#-----------   ------------------   ----------------------------------
DEPT.M        00 001 00 00         : DEPTH        - DEPTH
DPHI.V/V      00 890 00 00         : PHID         - DENSITY POROSITY (LIMESTONE)
NPHI.V/V      00 330 00 00         : PHIN         - NEUTRON POROSITY (LIMESTONE)
GR  .API      00 310 00 00         : GR           - GAMMA RAY
ILD .OHMM     00 120 00 00         : RESD         - DEEP RESISTIVITY (DIL)
RHOB.KG/M3    00 350 00 00         : DENS         - BULK DENSITY
~PARAMETER INFORMATION
#MNEM.UNIT           DATA             DESCRIPTION OF MNEMONIC
#---------         -----------     ------------------------------
GL  .M        575.9                : gl           - GROUND LEVEL ELEVATION
EREF.M        579.5                : kb           - ELEVATION OF DEPTH REFERENCE
DATM.M        579.5                : datum        - DATUM ELEVATION
TDD .M        425                  : tdd          - TOTAL DEPTH DRILLER
RUN .         ONE                  : Run          - RUN NUMBER
ENG .         BILL                 : Engineer     - RECORDING ENGINEER
WIT .         JIM                  : Witness      - WITNESSED BY
MUD .         GEL                  : Mud_type     - MUD TYPE
MATR.         LIMESTONE            : Logunit      - NEUTRON MATRIX
TMAX.C        21                   : BHT          - MAXIMUM RECORDED TEMPERATURE
BHTD.M        425                  : BHTDEP       - MAXIMUM RECORDED TEMPERATURE
MATR.         1                    : LOGUNIT      - NEUTRON MATRIX
RMT .C        25                   : MDTP         - TEMPERATURE OF MUD
NEUT.         1                    : NEUTRON      - NEUTRON TYPE
RESI.         0                    : RESIST       - RESISTIVITY TYPE
RMC .OHMM     0.25                 : RMC          - RESISTIVITY OF MUD CAKE
RMF .OHMM     0.25                 : RMF          - RESISTIVITY OF MUD FILTRATE
SUFT.C        15                   : SUFT         - SURFACE TEMPERATURE
~A  DEPTH     PHID     PHIN       GR     RESD     DENS
# ...
  337.500    0.344    0.321   37.056    5.798 2122.280
  337.750    0.347    0.317   39.526    5.693 2115.980
  338.000    0.341    0.318   43.838    5.590 2126.570
  338.250    0.330    0.333   42.005    5.387 2145.610
  338.500    0.321    0.344   37.709    5.291 2160.430
  338.750    0.313    0.351   37.720    5.195 2175.240
  339.000    0.311    0.360   36.500    5.006 2177.390
  339.250    0.318    0.366   32.820    4.916 2166.870
  339.500    0.324    0.363   29.754    4.920 2156.360
  339.750    0.321    0.362   30.378    4.830 2160.610
  340.000    0.320    0.364   34.076    4.835 2162.760
  340.250    0.320    0.357   32.243    4.747 2162.810
  340.500    0.321    0.345   32.249    4.662 2160.720
  340.750    0.319    0.353   39.023    4.664 2164.980
  341.000    0.317    0.369   42.719    4.668 2167.140
  341.250    0.319    0.372   38.426    4.671 2165.050
  341.500    0.317    0.364   29.213    4.675 2167.200
  341.750    0.319    0.373   32.297    4.679 2165.140
  342.000    0.316    0.370   32.922    4.682 2169.390
  342.250    0.316    0.359   29.856    4.685 2169.420
  342.500    0.315    0.352   28.022    4.689 2171.570
  342.750    0.312    0.375   28.647    4.605 2175.830
  343.000    0.315    0.398   27.426    4.607 2171.640
  343.250    0.323    0.389   26.206    4.611 2156.910
  343.500    0.331    0.384   24.986    4.615 2144.270
  343.750    0.339    0.385   27.454    4.707 2129.530
  344.000    0.342    0.405   31.151    4.709 2125.340
  344.250    0.343    0.430   34.851    4.713 2123.280
  344.500    0.341    0.413   33.629    4.808 2127.530
  344.750    0.331    0.392   30.565    4.811 2144.450
  345.000    0.317    0.360   27.501    4.907 2167.710
  345.250    0.300    0.344   25.667    4.909 2197.300
  345.500    0.287    0.353   25.060    4.913 2218.460
  345.750    0.289    0.347   23.839    5.010 2216.380
  346.000    0.295    0.350   22.618    5.306 2205.860
  346.250    0.300    0.357   25.087    5.838 2197.450
  346.500    0.305    0.371   30.014    6.545 2189.050
  346.750    0.260    0.370   41.706    7.200 2265.080
  347.000    0.193    0.355   58.928    7.921 2379.120
  347.250    0.175    0.352   82.913    8.713 2410.830
  347.500    0.172    0.381   87.842    9.228 2415.090
  347.750    0.181    0.397   87.852    9.591 2400.340
  348.000    0.198    0.369   86.631    9.600 2370.830
  348.250    0.203    0.349   88.484    9.427 2362.420
  348.500    0.204    0.332   83.576    9.256 2360.350
  348.750    0.207    0.358   81.126    9.090 2356.160
  349.000    0.214    0.361   83.594    8.926 2343.520
  349.250    0.202    0.358   90.365    8.767 2364.670
  349.500    0.186    0.365   95.907    8.773 2392.160
  349.750    0.177    0.390   98.991    8.947 2406.980
  350.000    0.175    0.392  100.231    8.783 2411.230
  350.250    0.185    0.382   97.779    8.151 2394.380
  350.500    0.204    0.376   89.797    7.706 2360.640
  350.750    0.227    0.386   83.044    7.285 2322.670
  351.000    0.246    0.383   75.677    6.889 2288.930
  351.250    0.256    0.370   67.078    6.895 2272.080
  351.500    0.247    0.361   66.472    6.771 2286.890
  351.750    0.233    0.375   78.163    6.523 2312.260
  352.000    0.223    0.379   81.861    6.405 2329.180
  352.250    0.246    0.362   76.952    6.533 2289.110
  352.500    0.266    0.368   77.577    6.664 2255.370
  352.750    0.252    0.372   84.963    6.421 2278.630
  353.000    0.232    0.361   93.580    6.186 2312.440
  353.250    0.213    0.358  100.966    5.960 2346.260
  353.500    0.215    0.361  107.738    5.427 2342.070
  353.750    0.252    0.389   93.607    5.130 2278.770
  354.000    0.279    0.397  102.224    5.038 2232.360
  354.250    0.306    0.411  117.602    4.764 2185.950
  354.500    0.313    0.400  124.374    4.677 2175.440
  354.750    0.295    0.385   92.414    4.593 2205.020
  355.000    0.290    0.411   70.292    4.596 2213.510
  355.250    0.327    0.431   44.480    4.778 2150.210
  355.500    0.347    0.417   31.580    4.966 2116.470
  355.750    0.343    0.404   30.977    5.064 2122.840
  356.000    0.319    0.380   37.746    5.263 2165.100
  356.250    0.291    0.354   61.732    5.168 2211.580
  356.500    0.268    0.332  109.694    4.981 2251.730
  356.750    0.257    0.347  117.695    4.709 2270.770
  357.000    0.282    0.390   97.417    4.624 2228.580
  357.250    0.321    0.405   80.212    4.456 2161.060
  357.500    0.337    0.385   58.090    4.459 2133.650
  357.750    0.335    0.386   56.873    4.463 2137.910
  358.000    0.336    0.417   56.878    4.465 2135.840
  358.250    0.338    0.417   59.347    4.554 2131.650
  358.500    0.336    0.405   64.276    4.645 2135.910
  358.750    0.333    0.405   66.744    4.738 2140.170
  359.000    0.333    0.396   68.598    4.831 2140.200
  359.250    0.326    0.386   74.754    4.835 2152.910
  359.500    0.323    0.385   82.756    4.838 2157.170
  359.750    0.322    0.401   87.682    4.842 2159.310
  360.000    0.318    0.411   77.241    4.938 2165.680
  360.250    0.321    0.402   64.955    5.035 2161.510
  360.500    0.320    0.394   61.277    5.335 2163.640
  360.750    0.313    0.390   64.974    5.543 2174.230
  361.000    0.310    0.394   70.516    6.215 2180.610
  361.250    0.287    0.391   69.910    6.968 2218.650
  361.500    0.265    0.370   66.230    7.667 2256.690
  361.750    0.242    0.342   71.774    7.966 2296.830
  362.000    0.165    0.333   83.463    7.822 2427.760
  362.250    0.155    0.342   93.924    7.537 2444.700
  362.500    0.155    0.384  102.543    7.126 2444.720
  362.750    0.164    0.434  106.239    6.739 2429.990
  363.000    0.170    0.467  110.552    6.492 2419.470
  363.250    0.183    0.491  114.250    6.497 2396.280
  363.500    0.197    0.470  111.185    6.502 2373.090
  363.750    0.223    0.398   97.054    6.508 2328.790
  364.000    0.259    0.372   82.924    6.391 2267.610
  364.250    0.262    0.366   75.555    6.395 2261.310
  364.500    0.271    0.401   71.875    6.280 2246.560
  364.750    0.291    0.418   76.190    6.166 2212.820
  365.000    0.301    0.409   85.420    5.831 2195.970
  365.250    0.297    0.403   89.117    5.618 2202.340
  365.500    0.289    0.394   92.203    5.313 2215.040
  365.750    0.291    0.408   89.751    5.216 2212.970
  366.000    0.304    0.425   77.465    5.122 2189.780
  366.250    0.326    0.414   65.793    5.325 2151.820
  366.500    0.318    0.405   69.492    5.430 2166.640
  366.750    0.309    0.420   76.878    5.644 2181.450
  367.000    0.307    0.434   81.806    5.865 2185.710
  367.250    0.313    0.418   82.432    6.213 2175.190
  367.500    0.304    0.414   85.513    6.457 2190.000
  367.750    0.289    0.415   95.359    6.462 2215.370
  368.000    0.278    0.400   97.213    6.467 2234.410
  368.250    0.281    0.384   92.920    6.349 2230.230
  368.500    0.285    0.397   91.699    6.235 2221.820
  368.750    0.283    0.410   94.168    5.896 2226.070
  369.000    0.292    0.410   97.866    5.574 2211.340
  369.250    0.303    0.425   99.103    5.270 2192.380
  369.500    0.305    0.422   91.122    5.274 2188.190
  369.750    0.315    0.425   80.679    5.278 2171.330
  370.000    0.327    0.425   76.384    5.486 2150.250
  370.250    0.329    0.410   86.845    5.702 2148.190
  370.500    0.312    0.391   94.848    6.041 2175.670
  370.750    0.301    0.405   96.088    6.159 2194.700
  371.000    0.296    0.410   94.251    6.163 2203.180
  371.250    0.296    0.399   89.342    6.053 2203.220
  371.500    0.296    0.388   87.506    5.943 2203.260
  371.750    0.301    0.394   82.599    5.727 2194.850
  372.000    0.298    0.386   85.682    5.623 2201.220
  372.250    0.299    0.377   88.764    5.419 2199.150
  372.500    0.300    0.356   75.863    5.321 2197.070
  372.750    0.294    0.337   62.347    5.128 2207.660
  373.000    0.286    0.358   57.438    5.131 2220.370
  373.250    0.300    0.374   51.916    5.232 2197.170
  373.500    0.305    0.357   64.219    5.338 2188.770
  373.750    0.291    0.349   74.065    5.342 2212.030
