~VERSION INFORMATION
 VERS.                 2.0:   CWLS LOG ASCII STANDARD -VERSION 2.0
 WRAP.                  NO:   ONE LINE PER DEPTH STEP
~WELL INFORMATION BLOCK
#MNEM.UNIT           DATA                    DESCRIPTION OF MNEMONIC
#---------    -------------------            -------------------------------
# Generated from Intellog Unique Number	CX_WELLS/WELL/4078
WELL.         BANKENO                        : Well_name    - WELL
LOC .         00/05-33-081-12W4/0            : Location     - LOCATION
UWI .         00/05-33-081-12W400            : Uwi          - UNIQUE WELL ID
ENTR.         T                              : Entered      - ENTERED BY
SRVC.         SCHLUMBERGER                   : Scn          - SERVICE COMPANY
STRT.M        300                            : top_depth    - START DEPTH
STOP.M        535                            : bot_depth    - STOP DEPTH
STEP.M        0.25                           : increment    - STEP LENGTH
 NULL. -999.2500:NULL Value
~CURVE INFORMATION BLOCK
#MNEM UNIT       ERCB CURVE CODE    CURVE DESCRIPTION
#-----------   ------------------   ----------------------------------
DEPT.M        00 001 00 00         : DEPTH        - DEPTH
GR  .API      00 310 00 00         : GR           - GAMMA RAY
NPHI.V/V      00 330 00 00         : PHIN         - NEUTRON POROSITY (SANDSTONE)
DPHI.V/V      00 890 00 00         : PHID         - DENSITY POROSITY (SANDSTONE)
ILD .OHMM     00 120 00 00         : RESD         - DEEP RESISTIVITY (DIL)
~PARAMETER INFORMATION
#MNEM.UNIT           DATA             DESCRIPTION OF MNEMONIC
#---------         -----------     ------------------------------
GL  .M        744                  : gl           - GROUND LEVEL ELEVATION
EREF.M        748                  : kb           - ELEVATION OF DEPTH REFERENCE
DATM.M        748                  : datum        - DATUM ELEVATION
TDD .M        548                  : tdd          - TOTAL DEPTH DRILLER
RUN .         ONE                  : Run          - RUN NUMBER
ENG .         BILL                 : Engineer     - RECORDING ENGINEER
WIT .         JIM                  : Witness      - WITNESSED BY
MUD .         GEL                  : Mud_type     - MUD TYPE
MATR.         SANDSTONE            : Logunit      - NEUTRON MATRIX
TMAX.C        15                   : BHT          - MAXIMUM RECORDED TEMPERATURE
BHTD.M        548                  : BHTDEP       - MAXIMUM RECORDED TEMPERATURE
MATR.         1                    : LOGUNIT      - NEUTRON MATRIX
RMT .C        25                   : MDTP         - TEMPERATURE OF MUD
NEUT.         1                    : NEUTRON      - NEUTRON TYPE
RESI.         0                    : RESIST       - RESISTIVITY TYPE
RMC .OHMM     0.25                 : RMC          - RESISTIVITY OF MUD CAKE
RMF .OHMM     0.25                 : RMF          - RESISTIVITY OF MUD FILTRATE
SUFT.C        4                    : SUFT         - SURFACE TEMPERATURE
~A  DEPTH       GR     PHIN     PHID     RESD
# ...
  474.000   88.514    0.542    0.253    4.230
  474.250   88.576    0.538    0.248    4.163
  474.500   87.990    0.511    0.248    3.886
  474.750   86.806    0.479    0.247    3.563
  475.000   86.843    0.461    0.246    3.268
  475.250   86.917    0.487    0.246    3.103
  475.500   86.979    0.501    0.246    3.001
  475.750   87.004    0.504    0.244    3.061
  476.000   87.079    0.477    0.239    3.118
  476.250   87.103    0.465    0.211    3.178
  476.500   87.153    0.442    0.188    3.297
  476.750   87.826    0.430    0.180    3.303
  477.000   91.627    0.435    0.201    3.309
  477.250   94.780    0.451    0.247    3.311
  477.500  100.439    0.450    0.255    3.375
  477.750   96.126    0.451    0.250    3.563
  478.000   91.826    0.452    0.245    3.831
  478.250   88.746    0.446    0.233    3.971
  478.500   84.446    0.421    0.239    4.270
  478.750   81.392    0.421    0.261    4.275
  479.000   80.170    0.429    0.268    4.281
  479.250   78.362    0.436    0.275    4.289
  479.500   77.776    0.409    0.277    4.370
  479.750   76.592    0.412    0.278    4.697
  480.000   76.629    0.433    0.281    4.957
  480.250   76.068    0.430    0.286    5.233
  480.500   76.130    0.401    0.291    5.527
  480.750   76.155    0.398    0.289    5.731
  481.000   75.581    0.398    0.281    6.165
  481.250   75.643    0.396    0.257    6.279
  481.500   75.693    0.389    0.253    6.990
  481.750   75.730    0.381    0.249    7.511
  482.000   77.661    0.372    0.248    8.507
  482.250   78.322    0.361    0.247    8.978
  482.500   80.254    0.361    0.246    9.818
  482.750   82.808    0.386    0.243   10.376
  483.000   83.469    0.410    0.247   10.203
  483.250   86.659    0.419    0.252    9.527
  483.500   87.943    0.436    0.259    9.051
  483.750   88.604    0.428    0.265    8.595
  484.000   89.289    0.406    0.255    8.310
  484.250   89.949    0.394    0.245    8.329
  484.500   91.881    0.377    0.197    8.335
  484.750   93.165    0.371    0.204    8.495
  485.000   91.980    0.380    0.228    8.659
  485.250   88.914    0.389    0.236    9.472
  485.500   84.588    0.397    0.257   10.358
  485.750   78.405    0.370    0.269   10.931
  486.000   70.976    0.354    0.278   12.170
  486.250   66.052    0.339    0.288   14.029
  486.500   65.466    0.319    0.296   16.751
  486.750   67.398    0.327    0.299   18.973
  487.000   68.071    0.345    0.289   22.260
  487.250   67.510    0.355    0.288   25.670
  487.500   67.534    0.348    0.285   30.116
  487.750   67.609    0.341    0.275   34.717
  488.000   67.634    0.334    0.247   40.731
  488.250   67.683    0.322    0.234   45.347
  488.500   68.393    0.322    0.198   46.236
  488.750   69.665    0.344    0.239   43.908
  489.000   70.948    0.353    0.263   40.986
  489.250   74.737    0.347    0.272   37.591
  489.500   79.162    0.338    0.292   34.464
  489.750   82.328    0.338    0.265   30.528
  490.000   86.117    0.368    0.224   28.486
  490.250   91.164    0.379    0.196   25.680
  490.500   92.448    0.387    0.192   23.971
  490.750   83.149    0.387    0.191   22.367
  491.000   73.850    0.381    0.198   19.805
  491.250   67.044    0.372    0.226   17.848
  491.500   67.094    0.365    0.224   15.804
  491.750   73.999    0.348    0.217   13.750
  492.000   79.047    0.355    0.214   14.015
  492.250   76.616    0.366    0.238   17.043
  492.500   75.407    0.379    0.266   17.068
  492.750   75.444    0.390    0.310   16.789
  493.000   74.870    0.415    0.352   16.521
  493.250   69.946    0.468    0.326   16.545
  493.500   66.867    0.474    0.296   16.863
  493.750   61.308    0.446    0.300   18.126
  494.000   58.254    0.408    0.311   18.795
  494.250   57.057    0.404    0.318   21.667
  494.500   56.483    0.397    0.318   34.303
  494.750   55.311    0.385    0.317   38.840
  495.000   55.348    0.367    0.314   62.560
  495.250   54.750    0.362    0.312   78.746
  495.500   56.682    0.387    0.310   99.156
  495.750   60.458    0.391    0.308   87.800
  496.000   64.870    0.387    0.299   65.206
  496.250   71.788    0.385    0.290   59.783
  496.500   74.355    0.391    0.276   50.197
  496.750   75.003    0.394    0.264   39.299
  497.000   78.181    0.396    0.257   31.869
  497.250   81.347    0.399    0.252   27.244
  497.500   80.138    0.405    0.254   22.093
  497.750   72.709    0.411    0.260   17.603
  498.000   66.526    0.410    0.263   17.020
  498.250   66.576    0.409    0.262   16.748
  498.500   69.118    0.408    0.266   16.198
  498.750   71.661    0.407    0.269   15.662
  499.000   71.723    0.404    0.273   15.411
  499.250   70.538    0.400    0.274   17.151
  499.500   69.317    0.397    0.273   18.422
  499.750   69.391    0.392    0.265   19.109
  500.000   70.039    0.384    0.252   19.484
  500.250   72.594    0.377    0.244   20.211
  500.500   75.124    0.364    0.237   20.234
  500.750   82.042    0.370    0.231   19.577
  501.000   89.570    0.378    0.231   18.268
  501.250   97.098    0.389    0.247   16.748
  501.500  100.887    0.395    0.265   15.099
  501.750   87.849    0.386    0.269   14.339
  502.000   82.290    0.379    0.266   13.389
  502.250   82.975    0.370    0.243   12.950
  502.500   83.635    0.369    0.238   12.734
  502.750   84.320    0.368    0.240   13.214
  503.000   86.252    0.366    0.240   14.961
  503.250   89.406    0.364    0.236   17.884
  503.500   92.559    0.363    0.234   17.897
  503.750   90.116    0.364    0.233   17.311
  504.000   87.672    0.364    0.234   16.731
  504.250   87.722    0.362    0.235   15.900
  504.500   86.525    0.360    0.231   15.640
  504.750   85.964    0.354    0.224   15.122
  505.000   87.247    0.351    0.215   14.631
  505.250   91.049    0.349    0.203   14.631
  505.500   92.968    0.347    0.187   13.920
  505.750   90.525    0.353    0.192   11.684
  506.000   88.081    0.357    0.202   10.906
  506.250   86.909    0.359    0.228   10.926
  506.500   85.077    0.359    0.237   11.334
  506.750   82.621    0.358    0.257   11.548
  507.000   77.062    0.356    0.273   12.408
  507.250   73.359    0.360    0.247   13.099
  507.500   67.177    0.362    0.242   14.329
  507.750   67.239    0.362    0.219   15.669
  508.000   70.392    0.356    0.214   17.141
  508.250   79.179    0.347    0.216   16.867
  508.500   79.241    0.351    0.222   15.470
  508.750   77.434    0.356    0.232   14.696
  509.000   77.471    0.356    0.227   14.472
  509.250   76.885    0.351    0.223   14.483
  509.500   75.700    0.351    0.222   14.251
  509.750   73.893    0.348    0.219   14.272
  510.000   73.917    0.341    0.217   14.044
  510.250   73.356    0.339    0.222   14.065
  510.500   73.418    0.342    0.230   14.085
  510.750   72.820    0.345    0.237   14.356
  511.000   72.246    0.350    0.230   14.898
  511.250   71.697    0.353    0.216   15.448
  511.500   71.099    0.362    0.220   16.024
  511.750   68.680    0.367    0.228   17.218
  512.000   67.459    0.371    0.234   18.184
  512.250   65.040    0.377    0.241   18.855
  512.500   64.442    0.389    0.263   18.855
  512.750   61.400    0.399    0.265   17.036
  513.000   60.801    0.409    0.269   17.659
  513.250   58.981    0.407    0.269   17.992
  513.500   57.785    0.400    0.259   18.352
  513.750   57.834    0.384    0.255   18.378
  514.000   57.908    0.384    0.260   18.071
  514.250   58.556    0.384    0.261   17.782
  514.500   59.877    0.383    0.255   17.193
  514.750   61.161    0.383    0.250   16.629
  515.000   62.445    0.384    0.243   16.078
  515.250   64.987    0.384    0.241   15.274
  515.500   71.905    0.384    0.245   14.511
  515.750   70.085    0.375    0.246   14.279
  516.000   66.407    0.368    0.233   13.800
  516.250   66.457    0.372    0.232   13.580
  516.500   69.024    0.375    0.238   13.600
  516.750   70.283    0.371    0.249   13.861
  517.000   75.319    0.363    0.235   14.128
  517.250   77.861    0.356    0.233   14.164
