~VERSION INFORMATION
 VERS.                 2.0:   CWLS LOG ASCII STANDARD -VERSION 2.0
 WRAP.                  NO:   ONE LINE PER DEPTH STEP
~WELL INFORMATION BLOCK
#MNEM.UNIT           DATA                    DESCRIPTION OF MNEMONIC
#---------    -------------------            -------------------------------
# Generated from Intellog Unique Number	CW_70_72/WELL/3018
NULL.         -999.25                        : NULL_VALUE
WELL.         DOME SULPETRO BOUVIER 07-31    : Well_name    - WELL              
LOC .         07-31-070-24W4                 : Location     - LOCATION          
UWI .         00/07-31-070-24W4/0            : Uwi          - UNIQUE WELL ID    
ENTR.         J                              : Entered      - ENTERED BY        
SRVC.         WESTERN ATLAS                  : Scn          - SERVICE COMPANY   
DATE.         22 FEB 80                      : Date         - LOG DATE          
STRT.M        450                            : top_depth    - START DEPTH       
STOP.M        635                            : bot_depth    - STOP DEPTH        
STEP.M        0.25                           : increment    - STEP LENGTH       
~CURVE INFORMATION BLOCK
#MNEM UNIT       ERCB CURVE CODE    CURVE DESCRIPTION
#-----------   ------------------   ----------------------------------
DEPT.M        00 001 00 00         : DEPTH        - DEPTH                       
ILD .OHMM     00 120 00 00         : RESD         - DEEP RESISTIVITY (DIL)      
CALI.MM       00 280 01 00         : CAL          - CALIPER                     
GR  .API      00 310 00 00         : GR           - GAMMA RAY                   
NPHI.V/V      00 330 00 00         : PHIN         - NEUTRON POROSITY (SANDSTONE)
DPHI.V/V      00 890 00 00         : PHID         - DENSITY POROSITY (SANDSTONE)
~PARAMETER INFORMATION       
#MNEM.UNIT           DATA             DESCRIPTION OF MNEMONIC
#---------         -----------     ------------------------------
GL  .M        655.9                : gl           - GROUND LEVEL ELEVATION      
EREF.M        659.5                : kb           - ELEVATION OF DEPTH REFERENCE
DATM.M        655.9                : datum        - DATUM ELEVATION             
TDD .M        645                  : tdd          - TOTAL DEPTH DRILLER         
RUN .         ONE                  : Run          - RUN NUMBER                  
ENG .         WEIERS/PETERSON      : Engineer     - RECORDING ENGINEER          
WIT .         TRAHAM               : Witness      - WITNESSED BY                
MUD .         GEL CHEM             : Mud_type     - MUD TYPE                    
MATR.         SANDSTONE            : Logunit      - NEUTRON MATRIX              
TMAX.C        23                   : BHT          - MAXIMUM RECORDED TEMPERATURE
BHTD.M        646.6                : BHTDEP       - MAXIMUM RECORDED TEMPERATURE
RMT .C        15                   : MDTP         - TEMPERATURE OF MUD          
MUDD.KG/M     9.5                  : MWT          - MUD DENSITY                 
NEUT.         1                    : NEUTRON      - NEUTRON TYPE                
RESI.         0                    : RESIST       - RESISTIVITY TYPE            
RM  .OHMM     3.4                  : RM           - RESISTIVITY OF MUD          
RMC .OHMM     3.7                  : RMC          - RESISTIVITY OF MUD CAKE     
RMF .OHMM     3.1                  : RMF          - RESISTIVITY OF MUD FILTRATE 
SUFT.C        0                    : SUFT         - SURFACE TEMPERATURE         
~A  DEPTH     RESD      CAL       GR     PHIN     PHID
# ...
  523.000    2.925  163.804   87.609    0.394    0.273
  523.250    2.925  163.690   85.575    0.397    0.277
  523.500    2.920  163.990   82.863    0.401    0.285
  523.750    2.903  164.184   81.319    0.405    0.285
  524.000    2.909  164.382   80.576    0.410    0.278
  524.250    2.892  164.475   79.833    0.413    0.279
  524.500    2.892  164.262   79.644    0.414    0.266
  524.750    2.876  164.449   80.068    0.414    0.257
  525.000    2.855  164.343   81.600    0.412    0.264
  525.250    2.855  164.438   81.902    0.409    0.275
  525.500    2.871  163.610   80.665    0.402    0.283
  525.750    2.865  163.191   80.168    0.394    0.280
  526.000    2.854  162.770   79.978    0.387    0.272
  526.250    2.854  162.453   80.219    0.380    0.266
  526.500    2.833  162.035   80.460    0.377    0.265
  526.750    2.838  161.513   80.638    0.381    0.269
  527.000    2.844  161.401   80.203    0.391    0.281
  527.250    2.833  161.902   80.627    0.399    0.285
  527.500    2.817  162.405   81.297    0.408    0.293
  527.750    2.812  162.706   81.846    0.413    0.299
  528.000    2.796  163.105   82.087    0.404    0.304
  528.250    2.796  163.302   82.387    0.394    0.292
  528.500    2.801  163.394   82.690    0.389    0.277
  528.750    2.822  163.283   82.808    0.389    0.273
  529.000    2.912  163.069   82.310    0.396    0.279
  529.250    2.956  162.956   81.260    0.401    0.289
  529.500    3.050  162.947   83.713    0.401    0.294
  529.750    3.050  163.345   86.598    0.394    0.290
  530.000    3.266  163.747   92.250    0.386    0.238
  530.250    3.303  163.536   97.657    0.388    0.209
  530.500    3.371  162.604  104.909    0.399    0.198
  530.750    3.491  162.594  112.898    0.407    0.197
  531.000    3.491  162.892  110.740    0.361    0.171
  531.250    4.004  162.884  103.724    0.319    0.147
  531.500    4.049  162.566   94.616    0.313    0.132
  531.750    4.140  162.250   93.750    0.346    0.146
  532.000    4.328  161.726  103.523    0.366    0.169
  532.250    4.344  161.616  111.450    0.392    0.183
  532.500    4.417  161.709  116.855    0.411    0.194
  532.750    4.474  162.828  115.928    0.430    0.200
  533.000    4.533  164.355  118.813    0.441    0.198
  533.250    4.583  165.574  119.669    0.450    0.183
  533.500    4.600  165.977  120.278    0.460    0.176
  533.750    4.660  166.378  123.901    0.471    0.182
  534.000    4.721  166.267  127.032    0.473    0.186
  534.250    4.836  165.438  126.287    0.460    0.191
  534.500    4.935  163.994  126.834    0.452    0.181
  534.750    5.008  162.549  128.921    0.449    0.156
  535.000    5.064  162.438  132.852    0.451    0.146
  535.250    5.074  162.941  132.108    0.455    0.147
  535.500    5.102  167.544  129.397    0.457    0.148
  535.750    5.073  170.504  129.576    0.455    0.165
  536.000    5.064  171.112  131.476    0.456    0.160
  536.250    5.054  171.410  132.947    0.458    0.157
  536.500    5.045  171.192  133.863    0.461    0.162
  536.750    5.017  171.084  133.613    0.467    0.165
  537.000    4.970  171.074  132.561    0.472    0.169
  537.250    4.942  171.371  131.264    0.472    0.171
  537.500    4.897  171.361  130.028    0.465    0.171
  537.750    4.869  171.352  130.085    0.455    0.162
  538.000    4.851  171.239  130.079    0.454    0.161
  538.250    4.833  171.130  128.044    0.456    0.161
  538.500    4.788  171.019  125.025    0.454    0.161
  538.750    4.788  171.110  125.820    0.444    0.170
  539.000    4.666  171.512  129.749    0.439    0.170
  539.250    4.648  171.503  130.051    0.433    0.164
  539.500    4.546  171.496  127.770    0.431    0.174
  539.750    4.348  172.202  123.152    0.435    0.183
  540.000    4.098  171.784  117.550    0.453    0.210
  540.250    4.098  170.135  110.288    0.448    0.239
  540.500    3.819  167.256  102.349    0.434    0.258
  540.750    3.797  166.221   96.625    0.421    0.257
  541.000    3.919  165.597   96.312    0.417    0.208
  541.250    4.236  164.665  110.942    0.414    0.198
  541.500    4.536  163.529  118.563    0.413    0.192
  541.750    4.647  161.571  124.153    0.414    0.178
  542.000    4.561  159.613  125.562    0.415    0.193
  542.250    4.283  164.013  118.792    0.421    0.220
  542.500    4.074  167.797  112.575    0.428    0.235
  542.750    3.889  168.198  107.527    0.435    0.242
  543.000    3.631  168.392  106.414    0.445    0.252
  543.250    3.493  168.077  111.882    0.449    0.251
  543.500    3.304  167.247  115.812    0.442    0.247
  543.750    3.131  165.906  117.467    0.430    0.252
  544.000    2.945  166.100  117.339    0.418    0.262
  544.250    2.832  167.628  113.889    0.411    0.274
  544.500    2.739  166.800  110.563    0.408    0.283
  544.750    2.689  164.843  108.343    0.416    0.276
  545.000    2.791  163.604  105.200    0.436    0.276
  545.250    3.016  164.823  101.136    0.440    0.262
  545.500    3.113  165.737   97.687    0.431    0.242
  545.750    3.050  166.444   98.358    0.432    0.219
  546.000    2.994  166.642  100.259    0.433    0.219
  546.250    2.950  166.427  102.283    0.427    0.252
  546.500    2.939  166.008  101.846    0.419    0.269
  546.750    2.960  165.691   99.565    0.409    0.281
  547.000    3.083  164.964   96.916    0.406    0.288
  547.250    3.164  164.443   92.052    0.406    0.286
  547.500    3.206  163.819   87.803    0.402    0.284
  547.750    3.083  163.809   84.353    0.393    0.289
  548.000    2.831  163.593   82.811    0.383    0.298
  548.250    2.733  163.788   84.650    0.374    0.299
  548.500    2.629  163.883   86.305    0.374    0.310
  548.750    2.561  163.667   87.406    0.385    0.309
  549.000    2.496  162.942   82.296    0.401    0.297
  549.250    2.445  161.601   79.708    0.415    0.297
  549.500    2.445  160.465   79.024    0.426    0.293
  549.750    2.473  159.328   78.836    0.437    0.286
  550.000    2.614  159.319   77.969    0.427    0.286
  550.250    2.753  161.257   77.040    0.411    0.286
  550.500    2.965  162.580   76.236    0.404    0.266
  550.750    3.111  163.184   75.739    0.394    0.258
  551.000    3.325  163.380   76.717    0.379    0.245
  551.250    3.561  163.680   76.834    0.364    0.222
  551.500    3.892  164.387   76.459    0.353    0.187
  551.750    4.017  164.891   77.008    0.343    0.171
  552.000    3.806  165.291   78.786    0.344    0.148
  552.250    3.463  165.791   80.378    0.349    0.150
  552.500    3.180  166.092   80.927    0.358    0.194
  552.750    3.059  166.290   81.290    0.368    0.224
  553.000    2.964  166.382   82.207    0.385    0.241
  553.250    2.975  166.578   83.738    0.390    0.262
  553.500    3.081  166.670   84.347    0.383    0.265
  553.750    3.337  166.559   84.036    0.381    0.271
  554.000    3.469  166.550   82.677    0.380    0.264
  554.250    3.233  166.131   81.133    0.382    0.264
  554.500    3.052  165.405   80.082    0.385    0.266
  554.750    2.893  164.473   78.724    0.396    0.267
  555.000    2.818  163.438   79.333    0.403    0.274
  555.250    2.803  163.224   81.296    0.398    0.283
  555.500    3.007  163.418   82.336    0.389    0.284
  555.750    3.293  164.127   82.884    0.384    0.278
  556.000    3.819  165.348   84.600    0.376    0.266
  556.250    4.404  166.261   86.870    0.368    0.245
  556.500    5.146  167.072   85.942    0.358    0.245
  556.750    6.239  167.166   82.738    0.343    0.213
  557.000    7.836  167.259   79.535    0.326    0.192
  557.250   10.366  166.122   76.885    0.289    0.170
  557.500   12.946  163.756   73.988    0.249    0.146
  557.750   15.610  161.594   72.508    0.202    0.134
  558.000   18.171  159.843   70.473    0.166    0.108
  558.250   21.789  163.112   67.515    0.134    0.071
  558.500   25.599  166.076   65.172    0.117    0.043
  558.750   28.398  168.936   63.691    0.111    0.038
  559.000   25.268  170.054   62.149    0.133    0.051
  559.250   17.443  170.353   63.680    0.155    0.119
