~VERSION INFORMATION
 VERS.                 2.0:   CWLS LOG ASCII STANDARD -VERSION 2.0
 WRAP.                  NO:   ONE LINE PER DEPTH STEP
~WELL INFORMATION BLOCK
#MNEM.UNIT           DATA                    DESCRIPTION OF MNEMONIC
#---------    -------------------            -------------------------------
# Generated from Intellog Unique Number	CS_67_68/WELL/623
WELL.         INNER-CITY GAS LTD             : Well_name    - WELL
LOC .         00/03-18-068-12W4/0            : Location     - LOCATION
UWI .         00/03-18-068-12W4/0            : Uwi          - UNIQUE WELL ID
ENTR.         SP                             : Entered      - ENTERED BY
SRVC.         SCHLUMBERGER                   : Scn          - SERVICE COMPANY
STRT.M        300                            : top_depth    - START DEPTH
STOP.M        480                            : bot_depth    - STOP DEPTH
STEP.M        0.25                           : increment    - STEP LENGTH
 NULL. -999.2500:NULL Value
~CURVE INFORMATION BLOCK
#MNEM UNIT       ERCB CURVE CODE    CURVE DESCRIPTION
#-----------   ------------------   ----------------------------------
DEPT.M        00 001 00 00         : DEPTH        - DEPTH
ILD .OHMM     00 120 00 00         : RESD         - DEEP RESISTIVITY (DIL)
DPHI.V/V      00 890 00 00         : PHID         - DENSITY POROSITY (LIMESTONE)
NPHI.V/V      00 330 00 00         : PHIN         - NEUTRON POROSITY (LIMESTONE)
GR  .API      00 310 00 00         : GR           - GAMMA RAY
~PARAMETER INFORMATION
#MNEM.UNIT           DATA             DESCRIPTION OF MNEMONIC
#---------         -----------     ------------------------------
GL  .M        599                  : gl           - GROUND LEVEL ELEVATION
EREF.M        602.55               : kb           - ELEVATION OF DEPTH REFERENCE
DATM.M        599                  : datum        - DATUM ELEVATION
TDD .M        482                  : tdd          - TOTAL DEPTH DRILLER
RUN .         ONE                  : Run          - RUN NUMBER
ENG .         BILL                 : Engineer     - RECORDING ENGINEER
WIT .         JIM                  : Witness      - WITNESSED BY
MUD .         GEL                  : Mud_type     - MUD TYPE
MATR.         LIMESTONE            : Logunit      - NEUTRON MATRIX
TMAX.C        35                   : BHT          - MAXIMUM RECORDED TEMPERATURE
BHTD.M        482                  : BHTDEP       - MAXIMUM RECORDED TEMPERATURE
MATR.         1                    : LOGUNIT      - NEUTRON MATRIX
RMT .C        25                   : MDTP         - TEMPERATURE OF MUD
NEUT.         1                    : NEUTRON      - NEUTRON TYPE
RESI.         0                    : RESIST       - RESISTIVITY TYPE
RMC .OHMM     0.25                 : RMC          - RESISTIVITY OF MUD CAKE
RMF .OHMM     0.25                 : RMF          - RESISTIVITY OF MUD FILTRATE
SUFT.C        15                   : SUFT         - SURFACE TEMPERATURE
~A  DEPTH     RESD     PHID     PHIN       GR
# ...
  343.500    2.467    0.287    0.416   91.841
  343.750    2.514    0.275    0.442   97.182
  344.000    2.566    0.266    0.461  103.616
  344.250    2.648    0.253    0.484  106.963
  344.500    2.758    0.244    0.502  108.258
  344.750    2.868    0.246    0.512  110.877
  345.000    2.901    0.270    0.505  114.347
  345.250    2.890    0.289    0.520  114.070
  345.500    2.869    0.297    0.477  108.709
  345.750    2.854    0.288    0.395  106.374
  346.000    2.854    0.279    0.392  105.550
  346.250    2.870    0.264    0.416  106.601
  346.500    2.908    0.266    0.433  104.870
  346.750    2.974    0.256    0.456  107.071
  347.000    3.069    0.243    0.498  111.996
  347.250    3.156    0.235    0.526  114.917
  347.500    3.215    0.242    0.494  118.386
  347.750    3.276    0.253    0.464  119.316
  348.000    3.350    0.251    0.442  114.381
  348.250    3.413    0.241    0.451  109.750
  348.500    3.439    0.232    0.474  106.807
  348.750    3.458    0.234    0.516  112.032
  349.000    3.408    0.223    0.541  118.343
  349.250    3.303    0.227    0.521  124.834
  349.500    3.207    0.250    0.447  130.178
  349.750    3.154    0.262    0.409  125.304
  350.000    3.108    0.272    0.385  114.807
  350.250    3.052    0.256    0.390  109.083
  350.500    2.958    0.248    0.393  107.231
  350.750    2.819    0.266    0.399  110.279
  351.000    2.717    0.280    0.410  113.687
  351.250    2.697    0.288    0.424  103.009
  351.500    2.703    0.295    0.434   96.258
  351.750    2.733    0.277    0.452   96.462
  352.000    2.790    0.267    0.474  102.957
  352.250    2.863    0.261    0.497  108.118
  352.500    2.983    0.261    0.432  110.862
  352.750    3.078    0.246    0.398  109.681
  353.000    3.219    0.236    0.374  110.001
  353.250    3.365    0.223    0.358  111.474
  353.500    3.512    0.213    0.362  113.012
  353.750    3.631    0.218    0.357  114.482
  354.000    3.727    0.230    0.361  115.535
  354.250    3.875    0.232    0.359  111.748
  354.500    4.000    0.221    0.366  111.225
  354.750    4.182    0.222    0.372  115.606
  355.000    4.292    0.224    0.379  117.321
  355.250    4.389    0.224    0.387  122.360
  355.500    4.447    0.213    0.415  129.038
  355.750    4.448    0.211    0.429  133.352
  356.000    4.432    0.204    0.435  132.347
  356.250    4.408    0.186    0.425  129.889
  356.500    4.351    0.182    0.440  137.834
  356.750    4.056    0.197    0.463  145.052
  357.000    3.651    0.232    0.480  137.213
  357.250    3.262    0.264    0.503  117.221
  357.500    2.979    0.290    0.490  103.339
  357.750    2.772    0.289    0.496   97.434
  358.000    2.647    0.298    0.463   96.311
  358.250    2.580    0.294    0.447   92.825
  358.500    2.524    0.270    0.432   92.848
  358.750    2.491    0.254    0.423   93.597
  359.000    2.464    0.264    0.432   89.931
  359.250    2.460    0.277    0.459   85.297
  359.500    2.465    0.280    0.465   87.678
  359.750    2.488    0.283    0.449   93.627
  360.000    2.493    0.295    0.428   93.408
  360.250    2.470    0.291    0.460   93.008
  360.500    2.416    0.287    0.516   89.825
  360.750    2.381    0.297    0.499   78.178
  361.000    2.312    0.314    0.450   66.955
  361.250    2.241    0.327    0.419   62.686
  361.500    2.176    0.316    0.396   63.191
  361.750    2.136    0.303    0.379   66.781
  362.000    2.140    0.290    0.384   71.401
  362.250    2.197    0.284    0.392   76.382
  362.500    2.331    0.277    0.388   79.854
  362.750    2.529    0.266    0.374   82.051
  363.000    2.703    0.244    0.387   86.125
  363.250    2.912    0.235    0.402   93.103
  363.500    3.147    0.225    0.412  100.077
  363.750    3.340    0.222    0.421  106.872
  364.000    3.441    0.233    0.429  109.920
  364.250    3.479    0.227    0.405  111.334
  364.500    3.473    0.217    0.394  112.625
  364.750    3.468    0.217    0.439  108.599
  365.000    3.442    0.252    0.463  101.365
  365.250    3.355    0.286    0.431   94.133
  365.500    3.064    0.278    0.390   86.598
  365.750    2.815    0.274    0.375   79.785
  366.000    2.614    0.287    0.393   70.919
  366.250    2.510    0.253    0.416   75.482
  366.500    2.393    0.263    0.418   79.189
  366.750    2.358    0.283    0.397   81.690
  367.000    2.406    0.294    0.378   69.740
  367.250    2.475    0.268    0.386   76.838
  367.500    2.521    0.239    0.405   81.759
  367.750    2.517    0.255    0.418   82.084
  368.000    2.453    0.269    0.412   81.139
  368.250    2.386    0.281    0.440   71.733
  368.500    2.295    0.297    0.463   63.531
  368.750    2.229    0.307    0.453   62.345
  369.000    2.184    0.316    0.436   69.381
  369.250    2.168    0.290    0.459   76.840
  369.500    2.193    0.290    0.485   79.100
  369.750    2.238    0.316    0.437   72.837
  370.000    2.349    0.328    0.391   68.444
  370.250    2.433    0.284    0.354   79.413
  370.500    2.530    0.262    0.350   87.296
  370.750    2.630    0.243    0.394   93.244
  371.000    2.735    0.237    0.443   95.505
  371.250    2.886    0.253    0.470   92.745
  371.500    3.023    0.245    0.460   90.711
  371.750    3.149    0.247    0.446   91.944
  372.000    3.202    0.253    0.432   93.964
  372.250    3.167    0.239    0.454   94.891
  372.500    3.087    0.223    0.450   94.552
  372.750    3.025    0.244    0.432   89.860
  373.000    2.942    0.279    0.419   85.286
  373.250    2.900    0.266    0.406   91.173
  373.500    2.922    0.246    0.412   97.247
  373.750    2.949    0.243    0.441  100.532
  374.000    2.911    0.262    0.459   97.894
  374.250    2.816    0.295    0.442   83.767
  374.500    2.675    0.325    0.420   71.757
  374.750    2.503    0.287    0.401   74.323
  375.000    2.452    0.270    0.397   79.060
  375.250    2.499    0.279    0.375   83.922
  375.500    2.617    0.260    0.368   90.051
  375.750    2.726    0.252    0.375   95.937
  376.000    2.845    0.254    0.384   93.664
  376.250    2.980    0.254    0.403   93.806
  376.500    3.128    0.268    0.389   92.377
  376.750    2.948    0.293    0.370   86.356
  377.000    2.639    0.311    0.358   82.266
  377.250    2.624    0.273    0.392   78.478
  377.500    2.754    0.242    0.415   90.051
  377.750    2.896    0.249    0.414   95.757
  378.000    3.039    0.249    0.445   97.171
  378.250    2.956    0.242    0.499  101.850
  378.500    2.786    0.236    0.534  110.101
  378.750    2.607    0.283    0.536  113.444
  379.000    2.453    0.311    0.491  106.820
  379.250    2.295    0.318    0.472  102.971
  379.500    2.128    0.308    0.480   99.547
  379.750    2.104    0.314    0.472  101.503
  380.000    2.120    0.305    0.454  104.549
  380.250    2.148    0.303    0.443  103.303
  380.500    2.221    0.317    0.475  102.239
  380.750    2.366    0.316    0.518  102.139
  381.000    2.446    0.309    0.557  103.193
  381.250    2.511    0.333    0.595  103.094
  381.500    2.568    0.335    0.525  101.242
  381.750    2.582    0.320    0.493   96.668
  382.000    2.587    0.312    0.473   89.556
  382.250    2.597    0.311    0.469   84.801
  382.500    2.564    0.317    0.473   87.668
  382.750    2.480    0.324    0.489   89.321
  383.000    2.382    0.326    0.499   89.889
  383.250    2.296    0.329    0.530   93.842
  383.500    2.481    0.330    0.559   96.891
  383.750    2.653    0.323    0.506   95.460
  384.000    2.899    0.268    0.423   91.069
  384.250    3.319    0.172    0.396   85.590
  384.500    3.595    0.258    0.462   79.021
  384.750    3.995    0.311    0.487   79.227
  385.000    4.326    0.333    0.479   86.868
  385.250    4.791    0.338    0.424   90.759
  385.500    5.304    0.340    0.381   88.186
  385.750    5.809    0.325    0.358   85.850
  386.000    6.028    0.289    0.366   83.513
  386.250    6.119    0.214    0.405   80.636
  386.500    4.419    0.186    0.452   80.898
  386.750    3.411    0.279    0.456   83.400
