~VERSION INFORMATION
 VERS.                 2.0:   CWLS LOG ASCII STANDARD -VERSION 2.0
 WRAP.                  NO:   ONE LINE PER DEPTH STEP
~WELL INFORMATION BLOCK
#MNEM.UNIT           DATA                    DESCRIPTION OF MNEMONIC
#---------    -------------------            -------------------------------
# Generated from Intellog Unique Number	CN_91_93/WELL/3273
WELL.         AMOCO CANADA PETROLEUM CO.LTD. : Well_name    - WELL
LOC .         00/07-22-093-19W4/0            : Location     - LOCATION
UWI .         00/07-22-093-19W4/0            : Uwi          - UNIQUE WELL ID
ENTR.         JOETTE                         : Entered      - ENTERED BY
SRVC.         SCHLUMBERGER                   : Scn          - SERVICE COMPANY
DATE.         04\29\92                       : Date         - LOG DATE
STRT.F        260                            : top_depth    - START DEPTH
STOP.F        789.856                        : bot_depth    - STOP DEPTH
STEP.F        0.82                           : increment    - STEP LENGTH
 NULL. -999.2500:NULL Value
~CURVE INFORMATION BLOCK
#MNEM UNIT       ERCB CURVE CODE    CURVE DESCRIPTION
#-----------   ------------------   ----------------------------------
DEPT.F        00 001 00 00         : DEPTH        - DEPTH
CALI.IN       00 280 01 00         : CAL          - CALIPER
GR  .API      00 310 00 00         : GR           - GAMMA RAY
NPHI.V/V      00 330 00 00         : PHIN         - NEUTRON POROSITY (SANDSTONE)
DPHI.V/V      00 890 00 00         : PHID         - DENSITY POROSITY (SANDSTONE)
ILD .OHMM     00 120 00 00         : RESD         - DEEP RESISTIVITY (DIL)
~PARAMETER INFORMATION
#MNEM.UNIT           DATA             DESCRIPTION OF MNEMONIC
#---------         -----------     ------------------------------
GL  .F        1711                 : gl           - GROUND LEVEL ELEVATION
EREF.F        1722.6               : kb           - ELEVATION OF DEPTH REFERENCE
DATM.F        1722.6               : datum        - DATUM ELEVATION
TDD .F        787                  : tdd          - TOTAL DEPTH DRILLER
RUN .         ONE                  : Run          - RUN NUMBER
ENG .         JO                   : Engineer     - RECORDING ENGINEER
WIT .         TIM                  : Witness      - WITNESSED BY
MUD .         GEL                  : Mud_type     - MUD TYPE
MATR.         SANDSTONE            : Logunit      - NEUTRON MATRIX
TMAX.F        75                   : BHT          - MAXIMUM RECORDED TEMPERATURE
BHTD.F        787                  : BHTDEP       - MAXIMUM RECORDED TEMPERATURE
RMT .F        47                   : MDTP         - TEMPERATURE OF MUD
MUDD.LB/G     8.8                  : MWT          - MUD DENSITY
NEUT.         1                    : NEUTRON      - NEUTRON TYPE
RESI.         0                    : RESIST       - RESISTIVITY TYPE
RM  .OHMM     2.18                 : RM           - RESISTIVITY OF MUD
RMC .OHMM     2.3                  : RMC          - RESISTIVITY OF MUD CAKE
RMF .OHMM     3.35                 : RMF          - RESISTIVITY OF MUD FILTRATE
SUFT.F        39.2                 : SUFT         - SURFACE TEMPERATURE
~A  DEPTH      CAL       GR     PHIN     PHID     RESD
# ...
  379.751    9.441   85.558    0.553    0.230    6.427
  380.571    9.441   85.818    0.566    0.221    6.603
  381.391    9.419   86.668    0.547    0.216    7.023
  382.211    9.395   87.809    0.540    0.207    6.824
  383.031    9.374   81.865    0.547    0.199    6.108
  383.852    9.312   79.162    0.542    0.179    5.177
  384.672    9.291   80.312    0.522    0.146    4.894
  385.492    9.291   84.116    0.525    0.116    4.543
  386.312    9.245   92.946    0.558    0.081    4.178
  387.133    9.244  100.295    0.581    0.050    4.134
  387.953    9.244   97.300    0.609    0.024    4.241
  388.773    9.258   92.825    0.609    0.035    4.510
  389.593    9.258   94.561    0.600    0.018    4.712
  390.413    9.331   97.184    0.607    0.043    4.878
  391.234    9.369   98.924    0.605    0.066    5.004
  392.054    9.369   98.889    0.599    0.053    5.042
  392.874    9.384   97.076    0.605    0.036    5.032
  393.694    9.384   95.558    0.612    0.218    5.032
  394.514    9.438   94.932    0.601    0.212    4.924
  395.335    9.494   96.963    0.576    0.202    4.571
  396.155    9.494  100.472    0.602    0.189    4.092
  396.975    9.510  103.090    0.610    0.185    4.012
  397.795    9.527  103.059    0.595    0.208    4.386
  398.615    9.524  101.246    0.600    0.223    5.109
  399.436    9.521   97.070    0.616    0.252    5.433
  400.256    9.517   93.789    0.598    0.245    5.781
  401.076    9.516   91.672    0.570    0.231    5.930
  401.896    9.516   92.527    0.551    0.216    5.658
  402.717    9.510   92.786    0.522    0.212    5.063
  403.537    9.509   90.983    0.569    0.212    4.919
  404.357    9.509   89.170    0.595    0.204    5.093
  405.177    9.484   94.156    0.610    0.215    5.618
  405.997    9.482   90.575    0.580    0.225    6.911
  406.818    9.482   70.739    0.554    0.237    7.156
  407.638    9.458   67.454    0.554    0.261    7.749
  408.458    9.455   59.734    0.537    0.292    7.879
  409.278    9.451   65.605    0.519    0.269    7.246
  410.098    9.450   72.945    0.498    0.236    6.668
  410.919    9.450   76.463    0.492    0.195    6.242
  411.739    9.445   86.470    0.518    0.140    6.292
  412.559    9.445   89.092    0.534    0.180    6.571
  413.379    9.439   83.739    0.510    0.228    6.742
  414.199    9.437   80.450    0.501    0.217    6.856
  415.020    9.433   85.431    0.528    0.237    6.856
  415.840    9.432   78.606    0.514    0.227    6.892
  416.660    9.449   80.928    0.497    0.220    6.576
  417.480    9.447   89.758    0.516    0.204    5.994
  418.301    9.464   94.744    0.528    0.190    5.464
  419.121    9.481   99.434    0.599    0.214    5.117
  419.941    9.481  103.829    0.622    0.230    4.883
  420.761    9.477  107.628    0.610    0.214    4.658
  421.581    9.514  108.774    0.606    0.198    4.564
  422.402    9.509  106.670    0.609    0.217    4.767
  423.222    9.528   99.836    0.615    0.231    4.981
  424.042    9.526   96.846    0.606    0.210    5.203
  424.862    9.543   96.210    0.603    0.204    5.240
  425.682    9.501   96.765    0.610    0.232    5.135
  426.503    9.420   96.438    0.610    0.235    4.992
  427.323    9.359   96.394    0.598    0.228    4.677
  428.143    9.336   96.358    0.561    0.210    4.461
  428.963    9.353   96.026    0.602    0.212    4.254
  429.783    9.410   95.104    0.591    0.223    4.366
  430.604    9.447   93.591    0.598    0.235    5.227
  431.424    9.447   89.715    0.598    0.229    6.430
  432.244    9.461   83.176    0.579    0.208    6.718
  433.064    9.479   77.823    0.566    0.198    7.968
  433.885    9.479   73.643    0.544    0.203    9.626
  434.705    9.473   74.784    0.506    0.200   10.058
  435.525    9.471   77.116    0.491    0.218   10.993
  436.345    9.471   78.848    0.471    0.273   10.208
  437.165    9.465   80.879    0.489    0.262    8.268
  437.986    9.444   84.688    0.555    0.243    6.758
  438.806    9.444   89.083    0.582    0.218    6.273
  439.626    9.438   93.178    0.595    0.185    6.273
  440.446    9.417   91.669    0.562    0.145    5.807
  441.266    9.417   87.194    0.514    0.126    5.445
  442.087    9.411   84.504    0.499    0.129    5.240
  442.907    9.410   89.194    0.534    0.146    5.231
  443.727    9.407   94.180    0.553    0.153    5.231
  444.547    9.407  100.347    0.574    0.171    5.115
  445.367    9.402  109.468    0.596    0.145    4.970
  446.188    9.400  105.592    0.603    0.118    4.786
  447.008    9.378  101.702    0.621    0.154    4.526
  447.828    9.316  100.485    0.620    0.149    4.163
  448.648    9.333  101.339    0.632    0.197    3.829
  449.469    9.390  102.780    0.623    0.193    3.554
  450.289    9.427  101.563    0.632    0.179    3.330
  451.109    9.424  100.636    0.625    0.176    3.091
  451.929    9.421   97.942    0.630    0.209    2.922
  452.749    9.419  100.269    0.652    0.210    2.787
  453.570    9.397   96.389    0.658    0.224    2.886
  454.390    9.397   93.985    0.663    0.248    3.518
  455.210    9.391   94.835    0.639    0.258    4.249
  456.030    9.390   93.918    0.615    0.259    5.089
  456.850    9.387   92.396    0.599    0.256    5.563
  457.671    9.385   94.727    0.596    0.239    7.033
  458.491    9.382   91.438    0.572    0.219    8.267
  459.311    9.380   89.334    0.551    0.213   10.169
  460.131    9.377   89.585    0.509    0.214   11.119
  460.951    9.394   82.759    0.517    0.204   14.441
  461.772    9.394   76.816    0.451    0.193   17.453
  462.592    9.390   71.158    0.303    0.128   21.277
  463.412    9.387   66.401    0.271    0.069   13.002
  464.232    9.384   59.566    0.256    0.026   11.959
  465.052    9.401   60.417    0.264    0.076   10.233
  465.873    9.399   69.533    0.342    0.107    9.074
  466.693    9.416   74.819    0.401    0.183    8.503
  467.513    9.416   81.281    0.477    0.230    7.819
  468.333    9.412   81.836    0.500    0.247    7.735
  469.154    9.389   88.003    0.534    0.236    7.862
  469.974    9.386   89.439    0.524    0.224    8.064
  470.794    9.386   84.377    0.503    0.237    8.052
  471.614    9.382   81.688    0.490    0.228    7.750
  472.434    9.379   81.056    0.478    0.235    7.067
  473.255    9.375   83.674    0.553    0.228    6.560
  474.075    9.374   91.318    0.588    0.220    7.303
  474.895    9.392   93.355    0.586    0.225    8.057
  475.715    9.409   90.656    0.489    0.229    8.968
  476.535    9.404   78.504    0.496    0.235   11.034
  477.356    9.404   66.062    0.456    0.253   11.736
  478.176    9.401   57.751    0.437    0.253   12.833
  478.996    9.397   58.306    0.435    0.214   13.649
  479.816    9.396   62.110    0.428    0.198   13.140
  480.636    9.396   66.210    0.441    0.241   12.530
  481.457    9.411   63.506    0.473    0.258   13.457
  482.277    9.411   64.356    0.488    0.233   14.975
  483.097    9.405   65.802    0.506    0.195   15.934
  483.917    9.403   56.595    0.520    0.156   11.163
  484.738    9.401   51.538    0.397    0.128    8.332
  485.558    9.401   53.279    0.363    0.069    6.276
  486.378    9.395   61.809    0.385    0.086    4.991
  487.198    9.374   70.639    0.421    0.172    4.590
  488.018    9.352   75.329    0.482    0.228    4.300
  488.839    9.352   85.927    0.570    0.220    4.371
  489.659    9.346   91.208    0.588    0.205    4.610
  490.479    9.345   91.754    0.610    0.208    4.993
  491.299    9.342   93.790    0.611    0.213    5.410
  492.119    9.342   92.864    0.585    0.202    6.476
  492.940    9.337   91.060    0.575    0.204    6.584
  493.760    9.354   91.015    0.566    0.200    6.938
  494.580    9.354   93.342    0.557    0.201    6.926
  495.400    9.349   89.471    0.530    0.206    6.607
  496.220    9.349   88.539    0.476    0.206    6.302
  497.041    9.343   90.280    0.543    0.197    6.180
  497.861    9.342   90.831    0.572    0.210    6.633
  498.681    9.338   88.436    0.570    0.220    7.251
