~VERSION INFORMATION
 VERS.                 2.0:   CWLS LOG ASCII STANDARD -VERSION 2.0
 WRAP.                  NO:   ONE LINE PER DEPTH STEP
~WELL INFORMATION BLOCK
#MNEM.UNIT           DATA                    DESCRIPTION OF MNEMONIC
#---------    -------------------            -------------------------------
# Generated from Intellog Unique Number	CW_79_81/WELL/2444
WELL.         04-12-081-23W4                 : Well_name    - WELL
LOC .         00/04-12-081-23W4/0            : Location     - LOCATION
UWI .         00/04-12-081-23W4/0            : Uwi          - UNIQUE WELL ID
ENTR.         MAX                            : Entered      - ENTERED BY
SRVC.         SCHLUMBERGER                   : Scn          - SERVICE COMPANY
STRT.M        240                            : top_depth    - START DEPTH
STOP.M        454.75                         : bot_depth    - STOP DEPTH
STEP.M        0.25                           : increment    - STEP LENGTH
 NULL. -999.2500:NULL Value
~CURVE INFORMATION BLOCK
#MNEM UNIT       ERCB CURVE CODE    CURVE DESCRIPTION
#-----------   ------------------   ----------------------------------
DEPT.M        00 001 00 00         : DEPTH        - DEPTH
ILD .OHMM     00 120 00 00         : RESD         - DEEP RESISTIVITY (DIL)
NPHI.V/V      00 330 00 00         : PHIN         - NEUTRON POROSITY (SANDSTONE)
DPHI.V/V      00 890 00 00         : PHID         - DENSITY POROSITY (SANDSTONE)
GR  .API      00 310 00 00         : GR           - GAMMA RAY
CALI.MM       00 280 01 00         : CAL          - CALIPER
~PARAMETER INFORMATION
#MNEM.UNIT           DATA             DESCRIPTION OF MNEMONIC
#---------         -----------     ------------------------------
GL  .M        601                  : gl           - GROUND LEVEL ELEVATION
EREF.M        604.6                : kb           - ELEVATION OF DEPTH REFERENCE
DATM.M        601                  : datum        - DATUM ELEVATION
TDD .M        459.2                : tdd          - TOTAL DEPTH DRILLER
RUN .         ONE                  : Run          - RUN NUMBER
ENG .         BILL                 : Engineer     - RECORDING ENGINEER
WIT .         JIM                  : Witness      - WITNESSED BY
MUD .         GEL                  : Mud_type     - MUD TYPE
MATR.         SANDSTONE            : Logunit      - NEUTRON MATRIX
TMAX.C        24                   : BHT          - MAXIMUM RECORDED TEMPERATURE
BHTD.M        459.2                : BHTDEP       - MAXIMUM RECORDED TEMPERATURE
MATR.         1                    : LOGUNIT      - NEUTRON MATRIX
RMT .C        21                   : MDTP         - TEMPERATURE OF MUD
NEUT.         1                    : NEUTRON      - NEUTRON TYPE
RESI.         0                    : RESIST       - RESISTIVITY TYPE
RMC .OHMM     5.18                 : RMC          - RESISTIVITY OF MUD CAKE
RMF .OHMM     5.48                 : RMF          - RESISTIVITY OF MUD FILTRATE
SUFT.C        -10                  : SUFT         - SURFACE TEMPERATURE
~A  DEPTH     RESD     PHIN     PHID       GR      CAL
# ...
  276.500   11.450    0.425    0.343   46.158  243.711
  276.750   11.126    0.423    0.343   46.788  243.973
  277.000   10.384    0.427    0.337   47.598  244.132
  277.250    8.563    0.437    0.331   48.848  244.857
  277.500    6.707    0.441    0.333   50.117  246.147
  277.750    5.235    0.463    0.305   53.006  248.593
  278.000    4.199    0.480    0.268   55.894  248.950
  278.250    3.613    0.487    0.262   59.258  247.427
  278.500    3.324    0.491    0.286   62.681  245.314
  278.750    3.193    0.507    0.297   64.421  244.995
  279.000    3.124    0.526    0.298   62.233  245.061
  279.250    3.081    0.528    0.298   61.322  244.723
  279.500    3.022    0.527    0.301   61.476  244.394
  279.750    2.992    0.533    0.308   62.462  245.055
  280.000    2.983    0.542    0.312   63.867  246.503
  280.250    2.939    0.536    0.306   64.659  247.034
  280.500    2.919    0.525    0.317   62.468  245.444
  280.750    2.922    0.510    0.325   62.502  245.521
  281.000    3.037    0.492    0.327   60.227  247.068
  281.250    3.289    0.503    0.322   56.702  249.306
  281.500    3.807    0.534    0.312   52.343  251.249
  281.750    5.304    0.518    0.308   46.729  251.138
  282.000    6.816    0.473    0.328   45.787  248.318
  282.250    8.799    0.441    0.344   47.247  245.208
  282.500   12.451    0.420    0.348   50.310  243.894
  282.750   17.240    0.410    0.348   52.959  243.364
  283.000   20.553    0.412    0.351   54.480  243.022
  283.250   22.081    0.440    0.358   55.965  242.702
  283.500   20.955    0.460    0.368   58.483  242.762
  283.750   20.212    0.460    0.369   60.418  243.618
  284.000   19.719    0.445    0.369   61.287  243.880
  284.250   19.379    0.428    0.367   61.444  243.943
  284.500   19.079    0.417    0.363   60.175  244.006
  284.750   18.743    0.414    0.360   54.517  243.994
  285.000   19.046    0.424    0.354   48.622  243.648
  285.250   19.916    0.416    0.350   48.423  243.718
  285.500   20.271    0.415    0.356   48.934  243.779
  285.750   20.288    0.432    0.364   48.968  243.444
  286.000   20.081    0.458    0.370   48.173  242.815
  286.250   19.577    0.464    0.370   47.035  242.413
  286.500   19.149    0.482    0.369   47.075  242.068
  286.750   18.610    0.485    0.377   47.106  241.333
  287.000   18.089    0.463    0.379   47.855  240.896
  287.250   17.582    0.448    0.376   48.845  239.973
  287.500   17.217    0.458    0.373   49.361  237.670
  287.750   17.236    0.486    0.373   48.552  232.659
  288.000   17.249    0.473    0.378   49.087  231.076
  288.250   17.391    0.454    0.380   49.604  230.731
  288.500   17.823    0.443    0.380   49.934  230.401
  288.750   18.172    0.434    0.377   51.632  230.468
  289.000   18.256    0.431    0.372   54.283  231.421
  289.250   18.057    0.451    0.369   54.874  234.692
  289.500   17.667    0.479    0.374   51.702  238.883
  289.750   17.042    0.477    0.382   50.073  241.335
  290.000   16.626    0.463    0.389   49.336  242.288
  290.250   16.580    0.448    0.388   49.966  242.543
  290.500   16.838    0.435    0.381   50.539  242.501
  290.750   17.107    0.421    0.368   47.537  242.176
  291.000   17.133    0.424    0.363   46.587  242.243
  291.250   17.141    0.446    0.369   47.096  242.307
  291.500   16.966    0.470    0.378   48.499  242.667
  291.750   16.857    0.470    0.384   49.727  243.124
  292.000   16.901    0.456    0.386   50.184  243.482
  292.250   17.095    0.467    0.381   49.904  243.481
  292.500   17.373    0.473    0.371   50.686  243.129
  292.750   17.518    0.450    0.368   50.479  242.797
  293.000   17.467    0.439    0.371   50.278  242.757
  293.250   17.418    0.441    0.373   50.675  242.626
  293.500   17.434    0.449    0.372   51.902  242.300
  293.750   17.451    0.445    0.366   53.647  241.969
  294.000   17.467    0.437    0.359   52.697  242.035
  294.250   17.611    0.435    0.346   50.360  241.703
  294.500   17.755    0.434    0.337   48.911  241.366
  294.750   17.706    0.436    0.336   47.999  240.833
  295.000   17.464    0.438    0.343   48.158  240.108
  295.250   17.092    0.434    0.352   51.557  239.733
  295.500   16.470    0.416    0.358   55.312  241.436
  295.750   15.890    0.435    0.360   53.443  243.077
  296.000   15.160    0.449    0.353   53.007  243.540
  296.250   14.469    0.463    0.349   54.352  243.808
  296.500   13.964    0.474    0.348   55.872  244.270
  296.750   13.817    0.469    0.341   52.285  245.060
  297.000   14.042    0.445    0.317   43.660  246.776
  297.250   15.552    0.376    0.166   43.465  247.236
  297.500   18.413    0.299    0.109   44.692  246.805
  297.750   19.971    0.249    0.116   47.224  245.288
  298.000   18.653    0.260    0.176   50.706  243.178
  298.250   15.771    0.378    0.308   54.401  241.501
  298.500   12.534    0.425    0.333   53.698  240.750
  298.750   11.825    0.447    0.343   52.311  240.002
  299.000   11.349    0.449    0.341   53.597  241.358
  299.250   10.992    0.442    0.336   54.823  241.821
  299.500   10.784    0.437    0.334   54.919  240.593
  299.750   10.875    0.442    0.344   54.438  238.920
  300.000   10.884    0.457    0.348   54.234  238.155
  300.250   10.734    0.455    0.345   54.265  238.609
  300.500   10.588    0.449    0.346   53.770  239.369
  300.750   10.481    0.448    0.350   54.644  239.630
  301.000   10.452    0.453    0.353   56.702  238.998
  301.250   10.541    0.462    0.356   57.592  237.331
  301.500   10.551    0.457    0.355   57.137  236.559
  301.750   10.405    0.442    0.349   56.700  237.019
  302.000   10.262    0.426    0.342   56.795  238.968
  302.250   10.046    0.416    0.336   57.308  241.212
  302.500    9.747    0.415    0.332   58.359  242.858
  302.750    9.261    0.432    0.323   60.453  243.490
  303.000    8.592    0.458    0.314   61.231  244.381
  303.250    7.809    0.499    0.307   62.933  245.626
  303.500    6.779    0.514    0.300   66.237  246.584
  303.750    6.240    0.509    0.294   68.176  247.047
  304.000    6.252    0.490    0.292   68.154  246.911
  304.250    6.699    0.466    0.297   67.864  245.941
  304.500    6.503    0.447    0.300   67.404  244.764
  304.750    6.557    0.500    0.312   65.067  244.432
  305.000    7.271    0.493    0.331   61.837  244.402
  305.250    8.501    0.464    0.344   58.666  244.268
  305.500    9.955    0.438    0.344   56.924  243.835
  305.750   10.844    0.432    0.338   58.003  243.049
  306.000   11.022    0.431    0.341   56.059  242.697
  306.250   10.949    0.431    0.346   55.388  241.566
  306.500   10.879    0.422    0.347   56.491  239.847
  306.750   10.929    0.416    0.347   58.307  238.324
  307.000   11.100    0.420    0.347   59.534  237.294
  307.250   11.360    0.438    0.347   58.088  236.413
  307.500   11.815    0.440    0.342   55.398  235.648
  307.750   12.991    0.436    0.329   52.827  236.517
  308.000   15.046    0.439    0.320   52.216  239.152
  308.250   16.535    0.437    0.317   52.729  241.981
  308.500   16.295    0.432    0.324   53.715  243.919
  308.750   14.647    0.439    0.348   54.959  244.305
  309.000   12.900    0.433    0.366   56.236  243.966
  309.250   12.353    0.409    0.363   57.224  243.244
  309.500   12.097    0.406    0.361   57.316  242.221
  309.750   11.843    0.416    0.358   56.286  240.896
  310.000   11.467    0.434    0.355   54.844  239.370
  310.250   10.815    0.455    0.351   54.945  237.443
  310.500   10.035    0.455    0.346   56.466  235.441
  310.750    9.610    0.461    0.341   58.638  231.149
  311.000    9.515    0.469    0.339   58.497  227.448
  311.250    9.558    0.468    0.336   56.758  225.730
  311.500    9.584    0.465    0.333   54.841  225.995
  311.750    9.441    0.480    0.332   55.526  227.187
  312.000    9.377    0.478    0.344   58.779  228.903
  312.250    9.523    0.464    0.356   58.346  231.739
  312.500    9.724    0.444    0.360   57.551  234.578
  312.750    9.985    0.431    0.358   57.350  236.820
