~VERSION INFORMATION
 VERS.                 2.0:   CWLS LOG ASCII STANDARD -VERSION 2.0
 WRAP.                  NO:   ONE LINE PER DEPTH STEP
~WELL INFORMATION BLOCK
#MNEM.UNIT           DATA                    DESCRIPTION OF MNEMONIC
#---------    -------------------            -------------------------------
# Generated from Intellog Unique Number	CS_69_70/WELL/820
WELL.         GENERAL AMERICAN OILS          : Well_name    - WELL
LOC .         00/07-15-069-14W4/0            : Location     - LOCATION
UWI .         00/07-15-069-14W4/0            : Uwi          - UNIQUE WELL ID
ENTR.         SP                             : Entered      - ENTERED BY
SRVC.         SCHLUMBERGER                   : Scn          - SERVICE COMPANY
STRT.M        265.176                        : top_depth    - START DEPTH
STOP.M        453.926                        : bot_depth    - STOP DEPTH
STEP.M        0.25                           : increment    - STEP LENGTH
 NULL. -999.2500:NULL Value
~CURVE INFORMATION BLOCK
#MNEM UNIT       ERCB CURVE CODE    CURVE DESCRIPTION
#-----------   ------------------   ----------------------------------
DEPT.M        00 001 00 00         : DEPTH        - DEPTH
GR  .API      00 310 00 00         : GR           - GAMMA RAY
DPHI.V/V      00 890 00 00         : PHID         - DENSITY POROSITY (SANDSTONE)
NPHI.V/V      00 330 00 00         : PHIN         - NEUTRON POROSITY (SANDSTONE)
ILD .OHMM     00 120 00 00         : RESD         - DEEP RESISTIVITY (DIL)
~PARAMETER INFORMATION
#MNEM.UNIT           DATA             DESCRIPTION OF MNEMONIC
#---------         -----------     ------------------------------
GL  .M        561.899              : gl           - GROUND LEVEL ELEVATION
EREF.M        565.191              : kb           - ELEVATION OF DEPTH REFERENCE
DATM.M        561.899              : datum        - DATUM ELEVATION
TDD .M        457.2                : tdd          - TOTAL DEPTH DRILLER
RUN .         ONE                  : Run          - RUN NUMBER
ENG .         BILL                 : Engineer     - RECORDING ENGINEER
WIT .         JIM                  : Witness      - WITNESSED BY
MUD .         GEL                  : Mud_type     - MUD TYPE
MATR.         SANDSTONE            : Logunit      - NEUTRON MATRIX
TMAX.C        12.2222              : BHT          - MAXIMUM RECORDED TEMPERATURE
BHTD.M        457.2                : BHTDEP       - MAXIMUM RECORDED TEMPERATURE
MATR.         1                    : LOGUNIT      - NEUTRON MATRIX
RMT .C        25                   : MDTP         - TEMPERATURE OF MUD
NEUT.         1                    : NEUTRON      - NEUTRON TYPE
RESI.         0                    : RESIST       - RESISTIVITY TYPE
RMC .OHMM     0.25                 : RMC          - RESISTIVITY OF MUD CAKE
RMF .OHMM     0.25                 : RMF          - RESISTIVITY OF MUD FILTRATE
SUFT.C        15                   : SUFT         - SURFACE TEMPERATURE
~A  DEPTH       GR     PHID     PHIN     RESD
# ...
  308.676  102.928    0.275    0.482    3.261
  308.926  103.381    0.269    0.485    3.260
  309.176  104.473    0.256    0.488    3.247
  309.426  106.003    0.251    0.496    3.245
  309.676  106.758    0.253    0.511    3.241
  309.926  104.926    0.256    0.522    3.209
  310.176  102.091    0.246    0.526    3.147
  310.426  100.315    0.239    0.506    3.083
  310.676   96.478    0.238    0.498    3.041
  310.926   92.337    0.244    0.495    3.014
  311.176   88.913    0.258    0.484    3.028
  311.426   85.130    0.264    0.472    3.078
  311.676   84.217    0.255    0.464    3.198
  311.926   85.589    0.249    0.460    3.356
  312.176   88.160    0.243    0.459    3.448
  312.426   90.322    0.245    0.463    3.505
  312.676   86.366    0.260    0.467    3.487
  312.926   81.068    0.277    0.466    3.391
  313.176   76.863    0.292    0.464    3.140
  313.426   73.600    0.300    0.467    2.907
  313.676   72.015    0.301    0.474    2.775
  313.926   71.505    0.297    0.482    2.722
  314.176   72.207    0.295    0.486    2.716
  314.426   74.406    0.282    0.466    2.783
  314.676   76.137    0.269    0.442    2.980
  314.926   79.064    0.244    0.428    3.167
  315.176   82.115    0.233    0.434    3.205
  315.426   85.595    0.274    0.460    3.043
  315.676   88.614    0.289    0.475    2.911
  315.926   91.891    0.298    0.485    2.813
  316.176   94.008    0.303    0.476    2.873
  316.426   95.469    0.292    0.472    2.969
  316.676   96.696    0.284    0.468    3.025
  316.926   97.620    0.276    0.471    3.132
  317.176   98.167    0.269    0.481    3.184
  317.426   97.853    0.267    0.485    3.205
  317.676   94.707    0.273    0.484    3.097
  317.926   91.346    0.278    0.489    2.981
  318.176   89.538    0.269    0.496    3.035
  318.426   88.607    0.261    0.502    3.125
  318.676   91.587    0.254    0.491    3.262
  318.926   94.665    0.253    0.481    3.359
  319.176   91.649    0.259    0.473    3.464
  319.426   90.509    0.270    0.474    3.563
  319.676   91.651    0.267    0.474    3.642
  319.926   93.587    0.258    0.471    3.750
  320.176   95.872    0.254    0.466    3.689
  320.426   96.560    0.265    0.460    3.751
  320.676   96.484    0.254    0.456    3.837
  320.926   93.556    0.237    0.462    3.952
  321.176   89.525    0.244    0.469    4.048
  321.426   87.078    0.257    0.473    4.123
  321.676   86.939    0.255    0.467    4.095
  321.926   89.058    0.246    0.461    4.017
  322.176   92.244    0.240    0.456    3.877
  322.426   95.101    0.241    0.475    3.709
  322.676   97.949    0.245    0.491    3.597
  322.926   99.827    0.249    0.506    3.556
  323.176  100.982    0.249    0.515    3.619
  323.426  101.827    0.251    0.506    3.779
  323.676  101.085    0.248    0.493    4.019
  323.926   98.103    0.236    0.482    4.225
  324.176   95.280    0.224    0.478    4.397
  324.426   90.483    0.233    0.472    4.340
  324.676   89.026    0.241    0.456    4.321
  324.926   90.892    0.249    0.441    4.306
  325.176   92.228    0.245    0.428    4.340
  325.426   91.945    0.237    0.421    4.471
  325.676   88.907    0.236    0.411    4.678
  325.926   91.668    0.230    0.402    4.839
  326.176   93.642    0.218    0.394    5.068
  326.426   95.377    0.207    0.395    5.262
  326.676   96.151    0.204    0.399    5.429
  326.926   96.347    0.217    0.412    5.547
  327.176   96.625    0.227    0.431    5.612
  327.426   98.039    0.233    0.441    5.669
  327.676  100.600    0.239    0.439    5.644
  327.926  103.018    0.244    0.441    5.495
  328.176  104.680    0.244    0.447    5.288
  328.426  105.445    0.228    0.451    5.090
  328.676  105.062    0.212    0.473    4.842
  328.926  104.018    0.222    0.481    4.684
  329.176   98.897    0.223    0.482    4.545
  329.426   93.531    0.203    0.481    4.466
  329.676   88.997    0.216    0.477    4.450
  329.926   88.565    0.230    0.473    4.450
  330.176   88.778    0.236    0.472    4.411
  330.426   88.249    0.236    0.472    4.173
  330.676   86.498    0.249    0.467    3.981
  330.926   83.149    0.256    0.465    3.737
  331.176   80.690    0.262    0.467    3.561
  331.426   78.686    0.279    0.476    3.441
  331.676   77.369    0.285    0.482    3.424
  331.926   77.204    0.279    0.489    3.472
  332.176   78.319    0.273    0.494    3.531
  332.426   79.998    0.268    0.496    3.600
  332.676   81.562    0.264    0.505    3.619
  332.926   82.413    0.261    0.486    3.538
  333.176   81.617    0.262    0.471    3.351
  333.426   77.038    0.274    0.460    3.162
  333.676   71.764    0.284    0.451    2.969
  333.926   68.991    0.289    0.447    2.775
  334.176   66.532    0.297    0.442    2.605
  334.426   65.631    0.322    0.435    2.557
  334.676   66.853    0.317    0.432    2.658
  334.926   69.087    0.309    0.436    2.887
  335.176   73.264    0.297    0.440    3.124
  335.426   79.985    0.284    0.449    3.359
  335.676   84.690    0.264    0.452    3.605
  335.926   88.443    0.251    0.451    3.842
  336.176   91.355    0.241    0.448    4.006
  336.426   92.826    0.250    0.444    4.195
  336.676   92.433    0.252    0.440    4.329
  336.926   91.161    0.245    0.435    4.316
  337.176   87.735    0.239    0.432    4.000
  337.426   81.655    0.245    0.430    3.711
  337.676   76.228    0.258    0.427    3.392
  337.926   72.345    0.273    0.425    3.100
  338.176   68.766    0.291    0.443    2.937
  338.426   65.647    0.303    0.460    2.821
  338.676   63.984    0.308    0.471    2.751
  338.926   62.836    0.297    0.472    2.733
  339.176   62.651    0.289    0.461    2.736
  339.426   62.559    0.291    0.451    2.773
  339.676   61.312    0.303    0.441    2.807
  339.926   59.924    0.315    0.434    2.801
  340.176   59.661    0.311    0.428    2.726
  340.426   61.021    0.305    0.424    2.694
  340.676   64.407    0.299    0.422    2.728
  340.926   67.966    0.297    0.427    2.787
  341.176   72.666    0.302    0.437    2.869
  341.426   77.728    0.307    0.446    2.989
  341.676   81.895    0.294    0.459    3.095
  341.926   85.346    0.269    0.478    3.190
  342.176   90.273    0.251    0.492    3.346
  342.426   93.335    0.238    0.502    3.473
  342.676   93.787    0.247    0.515    3.602
  342.926   91.103    0.250    0.520    3.692
  343.176   87.904    0.243    0.513    3.750
  343.426   85.347    0.242    0.506    3.745
  343.676   82.564    0.243    0.503    3.691
  343.926   79.991    0.254    0.489    3.560
  344.176   76.428    0.273    0.473    3.373
  344.426   72.106    0.298    0.460    3.174
  344.676   68.689    0.315    0.455    3.019
  344.926   65.637    0.320    0.453    2.827
  345.176   63.343    0.309    0.454    2.678
  345.426   61.092    0.301    0.446    2.571
  345.676   59.015    0.298    0.450    2.479
  345.926   57.589    0.299    0.455    2.444
  346.176   57.807    0.301    0.445    2.396
  346.426   59.507    0.301    0.439    2.373
  346.676   62.469    0.311    0.435    2.362
  346.926   65.074    0.323    0.436    2.362
  347.176   66.880    0.329    0.440    2.374
  347.426   68.065    0.336    0.444    2.384
  347.676   65.490    0.342    0.450    2.386
  347.926   63.175    0.345    0.450    2.403
  348.176   64.900    0.347    0.449    2.420
  348.426   66.472    0.338    0.445    2.464
  348.676   67.778    0.331    0.445    2.500
  348.926   68.535    0.323    0.449    2.557
  349.176   68.802    0.317    0.457    2.614
  349.426   68.903    0.313    0.461    2.541
  349.676   69.630    0.318    0.467    2.561
  349.926   70.704    0.314    0.470    2.499
  350.176   70.586    0.313    0.468    2.558
  350.426   68.259    0.315    0.471    2.614
  350.676   64.958    0.319    0.476    2.674
  350.926   66.258    0.322    0.482    2.707
  351.176   68.147    0.321    0.484    2.732
  351.426   70.053    0.320    0.494    2.763
  351.676   71.892    0.325    0.508    2.758
  351.926   73.150    0.329    0.516    2.717
