~VERSION INFORMATION
 VERS.                 2.0:   CWLS LOG ASCII STANDARD -VERSION 2.0
 WRAP.                  NO:   ONE LINE PER DEPTH STEP
~WELL INFORMATION BLOCK
#MNEM.UNIT           DATA                    DESCRIPTION OF MNEMONIC
#---------    -------------------            -------------------------------
# Generated from Intellog Unique Number	CS_67_68/WELL/699
WELL.         ESSO RESOURCES CANADA          : Well_name    - WELL
LOC .         00/06-26-068-07W4/0            : Location     - LOCATION
UWI .         00/06-26-068-07W4/0            : Uwi          - UNIQUE WELL ID
ENTR.         SP                             : Entered      - ENTERED BY
SRVC.         SCHLUMBERGER                   : Scn          - SERVICE COMPANY
STRT.M        290                            : top_depth    - START DEPTH
STOP.M        515                            : bot_depth    - STOP DEPTH
STEP.M        0.25                           : increment    - STEP LENGTH
 NULL. -999.2500:NULL Value
~CURVE INFORMATION BLOCK
#MNEM UNIT       ERCB CURVE CODE    CURVE DESCRIPTION
#-----------   ------------------   ----------------------------------
DEPT.M        00 001 00 00         : DEPTH        - DEPTH
ILD .OHMM     00 120 00 00         : RESD         - DEEP RESISTIVITY (DIL)
DPHI.V/V      00 890 00 00         : PHID         - DENSITY POROSITY (LIMESTONE)
NPHI.V/V      00 330 00 00         : PHIN         - NEUTRON POROSITY (LIMESTONE)
GR  .API      00 310 00 00         : GR           - GAMMA RAY
~PARAMETER INFORMATION
#MNEM.UNIT           DATA             DESCRIPTION OF MNEMONIC
#---------         -----------     ------------------------------
GL  .M        632.88               : gl           - GROUND LEVEL ELEVATION
EREF.M        636.48               : kb           - ELEVATION OF DEPTH REFERENCE
DATM.M        632.88               : datum        - DATUM ELEVATION
TDD .M        526                  : tdd          - TOTAL DEPTH DRILLER
RUN .         ONE                  : Run          - RUN NUMBER
ENG .         BILL                 : Engineer     - RECORDING ENGINEER
WIT .         JIM                  : Witness      - WITNESSED BY
MUD .         GEL                  : Mud_type     - MUD TYPE
MATR.         LIMESTONE            : Logunit      - NEUTRON MATRIX
TMAX.C        26                   : BHT          - MAXIMUM RECORDED TEMPERATURE
BHTD.M        526                  : BHTDEP       - MAXIMUM RECORDED TEMPERATURE
MATR.         1                    : LOGUNIT      - NEUTRON MATRIX
RMT .C        25                   : MDTP         - TEMPERATURE OF MUD
NEUT.         1                    : NEUTRON      - NEUTRON TYPE
RESI.         0                    : RESIST       - RESISTIVITY TYPE
RMC .OHMM     0.25                 : RMC          - RESISTIVITY OF MUD CAKE
RMF .OHMM     0.25                 : RMF          - RESISTIVITY OF MUD FILTRATE
SUFT.C        15                   : SUFT         - SURFACE TEMPERATURE
~A  DEPTH     RESD     PHID     PHIN       GR
  290.000    2.876    0.286    0.384  113.035
  290.250    2.814    0.296    0.370  114.190
  290.500    2.823    0.307    0.373  107.082
  290.750    2.805    0.315    0.395  103.036
  291.000    2.849    0.300    0.386  107.985
  291.250    2.901    0.288    0.349  105.651
  291.500    2.964    0.281    0.335  101.176
  291.750    3.041    0.292    0.373  101.229
  292.000    3.155    0.280    0.409  103.180
  292.250    3.266    0.266    0.397  101.090
  292.500    3.400    0.259    0.381  104.448
  292.750    3.455    0.258    0.380  106.399
  293.000    3.498    0.259    0.392  103.392
  293.250    3.508    0.258    0.404  100.447
  293.500    3.518    0.245    0.387  102.764
  293.750    3.514    0.226    0.395  102.328
  294.000    3.591    0.192    0.362  102.382
  294.250    3.712    0.166    0.342  106.902
  294.500    3.757    0.197    0.331  109.098
  294.750    3.718    0.204    0.348  108.050
  295.000    3.539    0.213    0.416  104.859
  295.250    3.476    0.241    0.433  103.933
  295.500    3.420    0.245    0.434  109.556
  295.750    3.310    0.246    0.461  111.200
  296.000    3.227    0.248    0.443  106.357
  296.250    3.189    0.249    0.419  107.879
  296.500    3.209    0.254    0.401  113.869
  296.750    3.304    0.260    0.400  111.168
  297.000    3.326    0.263    0.422  104.734
  297.250    3.348    0.262    0.409  101.544
  297.500    3.377    0.252    0.387  102.883
  297.750    3.406    0.242    0.391  111.871
  298.000    3.455    0.244    0.403  110.210
  298.250    3.511    0.254    0.414  106.775
  298.500    3.540    0.255    0.422  106.217
  298.750    3.517    0.255    0.438  107.984
  299.000    3.467    0.256    0.423  101.305
  299.250    3.400    0.261    0.404   97.013
  299.500    3.358    0.270    0.404  104.777
  299.750    3.293    0.277    0.409  114.805
  300.000    3.253    0.272    0.411  114.737
  300.250    3.130    0.260    0.435   98.817
  300.500    3.052    0.257    0.454   91.159
  300.750    3.084    0.259    0.414   89.927
  301.000    3.223    0.264    0.389   94.447
  301.250    3.693    0.272    0.361   93.155
  301.500    4.470    0.204    0.344   85.008
  301.750    5.094    0.096    0.313   76.371
  302.000    5.517    0.141    0.377   70.426
  302.250    6.114    0.278    0.434   70.724
  302.500    6.425    0.332    0.387   72.491
  302.750    6.311    0.209    0.372   74.074
  303.000    5.904    0.174    0.360   78.962
  303.250    5.597    0.211    0.383   81.219
  303.500    5.457    0.282    0.395   82.924
  303.750    5.514    0.297    0.384   81.447
  304.000    5.687    0.294    0.418   77.523
  304.250    5.878    0.304    0.468   73.109
  304.500    5.861    0.316    0.450   71.754
  304.750    5.779    0.316    0.426   76.152
  305.000    5.732    0.292    0.430   78.164
  305.250    5.715    0.296    0.450   72.526
  305.500    5.721    0.306    0.433   65.969
  305.750    5.759    0.302    0.409   62.779
  306.000    5.840    0.304    0.394   67.545
  306.250    6.037    0.290    0.387   73.229
  306.500    6.179    0.234    0.382   85.399
  306.750    6.326    0.223    0.366   92.246
  307.000    6.503    0.241    0.356   93.339
  307.250    6.594    0.252    0.365   87.823
  307.500    6.790    0.263    0.388   93.262
  307.750    6.898    0.271    0.404   96.988
  308.000    6.866    0.286    0.416   92.511
  308.250    6.619    0.300    0.418   89.015
  308.500    6.441    0.309    0.429   86.376
  308.750    6.305    0.310    0.424   85.266
  309.000    6.287    0.305    0.388   84.585
  309.250    6.317    0.286    0.362   85.373
  309.500    6.382    0.271    0.343   93.566
  309.750    6.449    0.255    0.327   99.187
  310.000    6.505    0.239    0.339  101.260
  310.250    6.497    0.232    0.340  100.518
  310.500    6.504    0.228    0.331   99.408
  310.750    6.510    0.224    0.332   99.830
  311.000    6.528    0.226    0.331  102.208
  311.250    6.634    0.253    0.409  104.587
  311.500    6.741    0.272    0.439  100.173
  311.750    6.850    0.287    0.431   94.657
  312.000    6.935    0.306    0.422  101.565
  312.250    6.954    0.299    0.439  111.164
  312.500    6.988    0.309    0.424  103.262
  312.750    6.915    0.324    0.388   90.585
  313.000    6.519    0.315    0.367   83.418
  313.250    6.392    0.297    0.368   77.902
  313.500    6.314    0.303    0.371   70.427
  313.750    6.309    0.314    0.390   64.851
  314.000    6.327    0.310    0.405   68.576
  314.250    6.381    0.304    0.422   70.403
  314.500    6.388    0.307    0.401   65.745
  314.750    6.345    0.298    0.416   71.488
  315.000    6.314    0.295    0.444   75.949
  315.250    6.169    0.313    0.460   71.474
  315.500    6.071    0.328    0.445   66.263
  315.750    6.192    0.330    0.438   66.990
  316.000    6.140    0.319    0.405   74.326
  316.250    5.952    0.305    0.384   81.110
  316.500    5.750    0.295    0.374   85.019
  316.750    5.638    0.283    0.362   90.886
  317.000    5.600    0.275    0.386   95.225
  317.250    5.606    0.266    0.411  100.051
  317.500    5.622    0.293    0.412  103.960
  317.750    5.649    0.338    0.416  101.810
  318.000    5.697    0.352    0.451   85.156
  318.250    5.734    0.345    0.411   70.277
  318.500    5.750    0.342    0.374   52.153
  318.750    5.715    0.345    0.370   43.394
  319.000    5.698    0.351    0.380   46.263
  319.250    5.693    0.354    0.386   51.151
  319.500    5.730    0.355    0.370   57.382
  319.750    5.811    0.354    0.359   60.619
  320.000    6.006    0.353    0.362   63.244
  320.250    6.196    0.347    0.361   63.665
  320.500    6.330    0.336    0.355   64.757
  320.750    6.410    0.325    0.368   64.567
  321.000    6.404    0.315    0.392   64.803
  321.250    6.316    0.305    0.414   70.426
  321.500    6.227    0.303    0.396   71.764
  321.750    6.127    0.315    0.395   72.185
  322.000    6.064    0.313    0.402   75.482
  322.250    5.990    0.305    0.394   75.596
  322.500    5.918    0.318    0.389   69.040
  322.750    5.924    0.330    0.382   65.360
  323.000    5.887    0.318    0.391   68.535
  323.250    5.892    0.317    0.393   66.323
  323.500    5.920    0.322    0.371   61.236
  323.750    5.947    0.325    0.391   57.434
  324.000    6.031    0.329    0.387   56.936
  324.250    6.186    0.330    0.370   65.005
  324.500    6.381    0.328    0.363   69.710
  324.750    6.521    0.324    0.394   74.109
  325.000    6.601    0.323    0.411   77.651
  325.250    6.597    0.320    0.389   74.950
  325.500    6.602    0.312    0.379   73.535
  325.750    6.621    0.304    0.378   77.443
  326.000    6.627    0.306    0.372   77.007
  326.250    6.684    0.313    0.361   76.999
  326.500    6.743    0.311    0.352   80.969
  326.750    6.786    0.302    0.361   85.000
  327.000    6.831    0.294    0.387   84.013
  327.250    6.849    0.289    0.402   84.433
  327.500    6.909    0.306    0.397   85.099
  327.750    6.994    0.320    0.393   84.724
  328.000    7.106    0.322    0.397   83.920
  328.250    7.112    0.317    0.399   79.751
  328.500    6.948    0.293    0.417   74.112
  328.750    6.686    0.245    0.418   69.331
  329.000    6.398    0.273    0.400   73.911
  329.250    6.284    0.307    0.388   78.189
  329.500    6.244    0.319    0.413   80.812
  329.750    6.272    0.320    0.415   80.988
  330.000    6.338    0.323    0.394   82.021
  330.250    6.526    0.319    0.378   84.767
  330.500    6.668    0.314    0.399   88.859
  330.750    6.814    0.307    0.416   94.114
  331.000    6.964    0.298    0.397   98.635
  331.250    7.089    0.287    0.382  102.237
  331.500    7.217    0.278    0.384  100.700
  331.750    7.347    0.269    0.392   93.531
  332.000    7.495    0.271    0.382   90.586
  332.250    7.558    0.264    0.408   90.395
  332.500    7.622    0.245    0.429   90.020
  332.750    7.631    0.218    0.425   83.218
  333.000    7.579    0.222    0.416   79.233
  333.250    7.587    0.252    0.411   85.956
