~VERSION INFORMATION
 VERS.                 2.0:   CWLS LOG ASCII STANDARD -VERSION 2.0
 WRAP.                  NO:   ONE LINE PER DEPTH STEP
~WELL INFORMATION BLOCK
#MNEM.UNIT           DATA                    DESCRIPTION OF MNEMONIC
#---------    -------------------            -------------------------------
# Generated from Intellog Unique Number	CW_79_81/WELL/2453
WELL.         06-24-081-23W4                 : Well_name    - WELL
LOC .         00/06-24-081-23W4/0            : Location     - LOCATION
UWI .         00/06-24-081-23W4/0            : Uwi          - UNIQUE WELL ID
ENTR.         MAX                            : Entered      - ENTERED BY
SRVC.         WESTERN ATLAS                  : Scn          - SERVICE COMPANY
STRT.M        200                            : top_depth    - START DEPTH
STOP.M        452                            : bot_depth    - STOP DEPTH
STEP.M        0.25                           : increment    - STEP LENGTH
 NULL. -999.2500:NULL Value
~CURVE INFORMATION BLOCK
#MNEM UNIT       ERCB CURVE CODE    CURVE DESCRIPTION
#-----------   ------------------   ----------------------------------
DEPT.M        00 001 00 00         : DEPTH        - DEPTH
ILD .OHMM     00 120 00 00         : RESD         - DEEP RESISTIVITY (DIL)
NPHI.V/V      00 330 00 00         : PHIN         - NEUTRON POROSITY (SANDSTONE)
DPHI.V/V      00 890 00 00         : PHID         - DENSITY POROSITY (SANDSTONE)
GR  .API      00 310 00 00         : GR           - GAMMA RAY
CALI.MM       00 280 01 00         : CAL          - CALIPER
~PARAMETER INFORMATION
#MNEM.UNIT           DATA             DESCRIPTION OF MNEMONIC
#---------         -----------     ------------------------------
GL  .M        610                  : gl           - GROUND LEVEL ELEVATION
EREF.M        614.3                : kb           - ELEVATION OF DEPTH REFERENCE
DATM.M        610                  : datum        - DATUM ELEVATION
TDD .M        458.5                : tdd          - TOTAL DEPTH DRILLER
RUN .         ONE                  : Run          - RUN NUMBER
ENG .         BILL                 : Engineer     - RECORDING ENGINEER
WIT .         JIM                  : Witness      - WITNESSED BY
MUD .         GEL                  : Mud_type     - MUD TYPE
MATR.         SANDSTONE            : Logunit      - NEUTRON MATRIX
TMAX.C        28                   : BHT          - MAXIMUM RECORDED TEMPERATURE
BHTD.M        458.5                : BHTDEP       - MAXIMUM RECORDED TEMPERATURE
MATR.         1                    : LOGUNIT      - NEUTRON MATRIX
RMT .C        15                   : MDTP         - TEMPERATURE OF MUD
NEUT.         1                    : NEUTRON      - NEUTRON TYPE
RESI.         0                    : RESIST       - RESISTIVITY TYPE
RMC .OHMM     5.6                  : RMC          - RESISTIVITY OF MUD CAKE
RMF .OHMM     5                    : RMF          - RESISTIVITY OF MUD FILTRATE
SUFT.C        -20                  : SUFT         - SURFACE TEMPERATURE
~A  DEPTH     RESD     PHIN     PHID       GR      CAL
# ...
  419.000   22.885    0.278    0.087   88.037  208.796
  419.250   26.291    0.283    0.148   90.438  208.770
  419.500   29.930    0.288    0.169   98.094  208.741
  419.750   31.616    0.296    0.176  106.537  208.712
  420.000   30.426    0.305    0.184  110.569  208.586
  420.250   27.456    0.316    0.200  103.514  208.071
  420.500   24.838    0.320    0.221   99.722  207.625
  420.750   24.645    0.334    0.239  100.431  206.798
  421.000   26.540    0.320    0.259   94.618  205.668
  421.250   33.628    0.302    0.275   80.224  204.234
  421.500   52.933    0.290    0.282   61.662  202.798
  421.750   94.043    0.281    0.283   47.436  201.875
  422.000  132.616    0.290    0.279   35.589  201.432
  422.250  143.777    0.294    0.289   35.574  201.406
  422.500  141.120    0.295    0.287   39.725  201.682
  422.750  134.420    0.296    0.283   44.181  202.060
  423.000  128.520    0.296    0.280   46.523  202.338
  423.250  121.118    0.295    0.278   45.275  202.388
  423.500  112.963    0.296    0.277   42.742  202.784
  423.750  104.752    0.302    0.280   43.211  202.758
  424.000   94.365    0.317    0.280   47.486  203.034
  424.250   80.233    0.330    0.274   50.130  203.210
  424.500   65.895    0.331    0.266   49.933  203.184
  424.750   53.479    0.313    0.259   50.719  203.156
  425.000   48.748    0.303    0.261   54.731  203.129
  425.250   48.372    0.312    0.265   56.167  203.103
  425.500   46.659    0.323    0.265   55.972  203.379
  425.750   43.047    0.329    0.258   56.561  203.759
  426.000   38.430    0.326    0.241   59.747  204.038
  426.250   31.902    0.314    0.201   67.643  204.086
  426.500   23.968    0.294    0.135   72.159  204.481
  426.750   18.751    0.285    0.140   76.734  205.263
  427.000   16.407    0.300    0.152   81.855  205.441
  427.250   14.299    0.318    0.159   86.552  205.013
  427.500   12.126    0.327    0.156   89.979  204.280
  427.750    9.840    0.323    0.146   91.160  203.847
  428.000    8.194    0.318    0.135   89.886  203.823
  428.250    7.950    0.333    0.126   93.254  203.797
  428.500    7.934    0.332    0.115  103.690  203.771
  428.750    8.313    0.323    0.112  110.079  203.342
  429.000    9.529    0.309    0.121  108.373  202.712
  429.250   13.648    0.293    0.145   97.764  202.598
  429.500   15.847    0.282    0.144   78.617  202.154
  429.750   20.947    0.269    0.134   71.109  202.128
  430.000   22.902    0.269    0.125   79.188  202.104
  430.250   21.680    0.278    0.127   90.773  202.280
  430.500   18.854    0.297    0.142   99.881  202.555
  430.750   14.713    0.324    0.166  107.586  202.526
  431.000   12.072    0.321    0.196  112.354  202.499
  431.250   11.978    0.313    0.209  113.303  202.879
  431.500   14.070    0.301    0.230  104.649  202.956
  431.750   17.728    0.292    0.250   94.244  203.133
  432.000   23.111    0.287    0.263   84.866  203.409
  432.250   36.259    0.292    0.263   72.503  203.462
  432.500   42.772    0.299    0.258   63.928  203.855
  432.750   45.035    0.298    0.241   63.186  203.831
  433.000   46.139    0.300    0.227   64.983  204.408
  433.250   46.644    0.297    0.213   66.539  204.985
  433.500   47.237    0.286    0.197   67.370  205.262
  433.750   48.347    0.267    0.170   68.984  205.318
  434.000   46.860    0.270    0.153   67.456  205.713
  434.250   40.876    0.280    0.158   69.616  205.682
  434.500   27.879    0.288    0.173   72.502  205.961
  434.750   21.783    0.312    0.191   77.561  206.141
  435.000   19.788    0.341    0.207   84.615  206.116
  435.250   19.517    0.339    0.218   93.256  206.082
  435.500   19.663    0.324    0.225  100.287  206.055
  435.750   19.365    0.312    0.216   94.474  206.027
  436.000   18.011    0.307    0.203   91.741  205.704
  436.250   15.607    0.313    0.187   91.242  205.481
  436.500   12.976    0.325    0.171   92.555  205.353
  436.750   10.203    0.334    0.161   96.585  204.831
  437.000    7.950    0.333    0.164  101.100  204.390
  437.250    6.219    0.348    0.174  103.743  204.367
  437.500    5.700    0.370    0.173  105.480  204.036
  437.750    5.616    0.371    0.168  106.311  203.808
  438.000    5.760    0.351    0.161  106.055  203.786
  438.250    6.242    0.336    0.158  103.339  203.753
  438.500    6.964    0.332    0.167   98.289  203.728
  438.750    7.496    0.340    0.192   97.064  204.108
  439.000    7.897    0.365    0.208   99.646  204.786
  439.250    8.136    0.389    0.225  103.256  205.363
  439.500    8.194    0.414    0.255  104.872  205.639
  439.750    8.007    0.461    0.309  100.223  205.611
  440.000    7.701    0.457    0.284   95.169  205.584
  440.250    7.416    0.441    0.262   94.914  205.555
  440.500    7.223    0.447    0.245   93.752  205.833
  440.750    7.061    0.451    0.230   92.771  206.011
  441.000    6.903    0.445    0.218   92.876  205.988
  441.250    6.728    0.432    0.209   95.291  205.959
  441.500    6.622    0.419    0.208   97.797  205.932
  441.750    6.571    0.408    0.202  101.649  205.909
  442.000    6.519    0.410    0.187  106.950  205.882
  442.250    6.518    0.405    0.169  112.009  205.451
  442.500    6.577    0.390    0.157  115.558  204.820
  442.750    6.724    0.372    0.174  115.590  204.878
  443.000    6.989    0.357    0.209  109.786  205.271
  443.250    7.198    0.359    0.200  111.942  206.856
  443.500    7.495    0.360    0.185  115.373  207.839
  443.750    7.919    0.355    0.184  117.775  208.418
  444.000    8.555    0.345    0.199  117.518  208.695
  444.250    9.858    0.332    0.216  113.030  208.667
  444.500   11.536    0.324    0.233  109.993  208.640
  444.750   12.784    0.318    0.243  108.528  208.609
  445.000   13.951    0.313    0.243  104.708  207.677
  445.250   15.138    0.313    0.241   99.257  206.649
  445.500   16.405    0.318    0.242   93.139  205.921
  445.750   17.735    0.330    0.255   86.906  205.485
  446.000   18.007    0.329    0.261   83.619  205.461
  446.250   18.682    0.323    0.255   82.154  205.838
  446.500   19.490    0.322    0.254   84.858  205.915
  446.750   19.634    0.325    0.260   89.796  205.889
  447.000   18.829    0.326    0.265   93.465  205.962
  447.250   17.085    0.319    0.252   89.632  206.333
  447.500   15.340    0.305    0.228   83.824  206.303
  447.750   13.484    0.300    0.201   78.736  206.280
  448.000   11.863    0.309    0.198   76.728  206.259
  448.250   10.661    0.320    0.204   77.075  205.833
  448.500    9.809    0.326    0.210   78.025  204.901
  448.750    9.174    0.324    0.208   77.252  203.578
  449.000    9.172    0.318    0.201   79.503  203.134
  449.250   10.461    0.327    0.210   81.663  203.108
  449.500   12.133    0.335    0.220   80.922  203.080
  449.750   13.998    0.329    0.230   79.456  203.055
  450.000   15.768    0.315    0.242   78.353  203.031
  450.250   17.488    0.313    0.255   77.157  203.003
  450.500   18.756    0.320    0.251   74.879  202.976
  450.750   19.032    0.319    0.239   72.445  202.947
  451.000   19.205    0.319    0.232   72.008  202.925
  451.250   19.127    0.317    0.227   74.167  202.902
  451.500   18.873    0.315    0.221   77.475  202.875
  451.750   18.697    0.312    0.211   78.676  202.842
  452.000   18.547    0.310    0.197   79.919  202.818
