~VERSION INFORMATION
 VERS.                 2.0:   CWLS LOG ASCII STANDARD -VERSION 2.0
 WRAP.                  NO:   ONE LINE PER DEPTH STEP
~WELL INFORMATION BLOCK
#MNEM.UNIT           DATA                    DESCRIPTION OF MNEMONIC
#---------    -------------------            -------------------------------
# Generated from Intellog Unique Number	CS_77_79/WELL/905
WELL.         MESA HB THORNBURY              : Well_name    - WELL
LOC .         00/07-22-078-12W4/0            : Location     - LOCATION
UWI .         00/07-22-078-12W4/0            : Uwi          - UNIQUE WELL ID
ENTR.         JHS                            : Entered      - ENTERED BY
SRVC.         SCHLUMBERGER                   : Scn          - SERVICE COMPANY
STRT.M        256.032                        : top_depth    - START DEPTH
STOP.M        475.282                        : bot_depth    - STOP DEPTH
STEP.M        0.25                           : increment    - STEP LENGTH
 NULL. -999.2500:NULL Value
~CURVE INFORMATION BLOCK
#MNEM UNIT       ERCB CURVE CODE    CURVE DESCRIPTION
#-----------   ------------------   ----------------------------------
DEPT.M        00 001 00 00         : DEPTH        - DEPTH
RHOB.KG/M3    00 350 00 00         : DENS         - BULK DENSITY
GR  .API      00 310 00 00         : GR           - GAMMA RAY
DPHI.V/V      00 890 00 00         : PHID         - DENSITY POROSITY (SANDSTONE)
NPHI.V/V      00 330 00 00         : PHIN         - NEUTRON POROSITY (SANDSTONE)
ILD .OHMM     00 120 00 00         : RESD         - DEEP RESISTIVITY (DIL)
~PARAMETER INFORMATION
#MNEM.UNIT           DATA             DESCRIPTION OF MNEMONIC
#---------         -----------     ------------------------------
GL  .M        675.315              : gl           - GROUND LEVEL ELEVATION
EREF.M        679.094              : kb           - ELEVATION OF DEPTH REFERENCE
DATM.M        679.094              : datum        - DATUM ELEVATION
TDD .M        490.728              : tdd          - TOTAL DEPTH DRILLER
RUN .         ONE                  : Run          - RUN NUMBER
ENG .         BILL                 : Engineer     - RECORDING ENGINEER
WIT .         JIM                  : Witness      - WITNESSED BY
MUD .         GEL                  : Mud_type     - MUD TYPE
MATR.         SANDSTONE            : Logunit      - NEUTRON MATRIX
TMAX.C        19.4444              : BHT          - MAXIMUM RECORDED TEMPERATURE
BHTD.M        490.728              : BHTDEP       - MAXIMUM RECORDED TEMPERATURE
MATR.         1                    : LOGUNIT      - NEUTRON MATRIX
RMT .C        25                   : MDTP         - TEMPERATURE OF MUD
NEUT.         1                    : NEUTRON      - NEUTRON TYPE
RESI.         0                    : RESIST       - RESISTIVITY TYPE
RMC .OHMM     0.25                 : RMC          - RESISTIVITY OF MUD CAKE
RMF .OHMM     0.25                 : RMF          - RESISTIVITY OF MUD FILTRATE
SUFT.C        15                   : SUFT         - SURFACE TEMPERATURE
~A  DEPTH     DENS       GR     PHID     PHIN     RESD
# ...
  365.532    0.000  106.218    0.295    0.574    3.256
  365.782    0.000  105.355    0.270    0.556    3.411
  366.032   -0.000  100.055    0.258    0.542    3.500
  366.282   -0.000   97.365    0.273    0.545    3.778
  366.532   -0.000   95.281    0.293    0.557    3.968
  366.782    0.000   93.815    0.281    0.569    4.253
  367.032    0.000   93.766    0.271    0.534    4.387
  367.282   -0.000   97.106    0.258    0.497    4.443
  367.532   -0.000  102.784    0.239    0.499    4.484
  367.782   -0.000  104.929    0.244    0.523    4.745
  368.032    0.000  107.166    0.277    0.534    5.151
  368.282    0.000  104.079    0.263    0.519    5.405
  368.532    0.000   98.473    0.252    0.495    6.090
  368.782   -0.000   95.402    0.252    0.474    6.549
  369.032   -0.000   95.091    0.244    0.492    7.288
  369.282   -0.000   92.997    0.218    0.501    7.727
  369.532    0.000   88.736    0.247    0.474    8.133
  369.782    0.000   88.184    0.243    0.447    8.161
  370.032    0.000   86.484    0.251    0.455    8.172
  370.282   -0.000   83.166    0.265    0.464    8.096
  370.532   -0.000   85.216    0.255    0.444    7.880
  370.782    0.000   87.804    0.264    0.436    7.900
  371.032    0.000   87.144    0.268    0.437    7.899
  371.282    0.000   88.236    0.242    0.426    8.115
  371.532   -0.000   90.241    0.234    0.430    8.802
  371.782   -0.000   91.587    0.242    0.444    9.477
  372.032   -0.000   89.011    0.247    0.457    9.936
  372.282    0.000   86.146    0.238    0.472   10.114
  372.532    0.000   81.940    0.235    0.476    9.879
  372.782    0.000   76.182    0.218    0.442    9.597
  373.032   -0.000   70.157    0.193    0.331    8.650
  373.282   -0.000   69.827    0.150    0.297    8.131
  373.532    0.000   77.470    0.120    0.296    7.426
  373.782    0.000   89.293    0.081    0.378    7.290
  374.032    0.000   92.120    0.196    0.450    7.334
  374.282   -0.000   93.067    0.256    0.467    7.443
  374.532   -0.000   93.209    0.230    0.453    7.608
  374.782   -0.000   96.443    0.220    0.454    7.588
  375.032    0.000   95.701    0.219    0.442    7.364
  375.282    0.000   95.228    0.234    0.446    7.205
  375.532    0.000   92.319    0.239    0.456    7.066
  375.782   -0.000   87.916    0.240    0.458    6.965
  376.032   -0.000   88.459    0.221    0.444    6.821
  376.282   -0.000   93.393    0.218    0.435    6.845
  376.532    0.000   96.917    0.235    0.433    6.656
  376.782    0.000   98.377    0.245    0.450    6.332
  377.032   -0.000   97.166    0.259    0.454    5.938
  377.282   -0.000   93.836    0.275    0.456    5.425
  377.532   -0.000   90.330    0.246    0.465    4.195
  377.782    0.000   91.344    0.258    0.474    3.830
  378.032    0.000   95.092    0.232    0.484    3.309
  378.282    0.000   94.107    0.225    0.514    3.142
  378.532   -0.000   96.059    0.247    0.528    2.982
  378.782   -0.000  100.299    0.245    0.538    3.152
  379.032   -0.000  101.552    0.265    0.551    3.423
  379.282    0.000   99.945    0.271    0.541    3.828
  379.532    0.000   98.913    0.236    0.506    4.182
  379.782   -0.000   95.635    0.236    0.500    4.359
  380.032   -0.000   92.685    0.255    0.516    4.498
  380.282   -0.000   91.988    0.242    0.518    4.641
  380.532    0.000   93.722    0.239    0.499    4.874
  380.782    0.000   96.470    0.244    0.470    5.185
  381.032    0.000   98.231    0.260    0.439    5.505
  381.282   -0.000   99.404    0.232    0.455    5.852
  381.532   -0.000   98.543    0.229    0.479    6.417
  381.782   -0.000   97.618    0.231    0.470    7.200
  382.032    0.000   97.657    0.226    0.444    7.806
  382.282    0.000   97.383    0.232    0.428    7.802
  382.532    0.000   94.627    0.246    0.417    7.725
  382.782   -0.000   90.736    0.247    0.425    7.374
  383.032   -0.000   88.286    0.264    0.416    6.830
  383.282    0.000   89.209    0.286    0.409    6.446
  383.532    0.000   88.476    0.298    0.428    6.306
  383.782    0.000   91.359    0.271    0.453    6.470
  384.032   -0.000   95.333    0.277    0.456    6.908
  384.282   -0.000   96.865    0.245    0.469    7.347
  384.532   -0.000   96.023    0.243    0.443    7.992
  384.782    0.000   95.086    0.253    0.432    8.110
  385.032    0.000   94.534    0.250    0.437    8.118
  385.282    0.000   94.945    0.238    0.449    7.943
  385.532   -0.000   94.080    0.238    0.445    7.007
  385.782   -0.000   91.534    0.256    0.425    6.337
  386.032    0.000   88.352    0.261    0.413    5.825
  386.282    0.000   85.346    0.288    0.406    5.606
  386.532    0.000   85.088    0.279    0.431    5.635
  386.782   -0.000   83.041    0.248    0.450    5.942
  387.032   -0.000   80.388    0.230    0.450    6.250
  387.282   -0.000   77.541    0.241    0.439    6.902
  387.532    0.000   72.901    0.257    0.431    7.469
  387.782    0.000   69.318    0.285    0.433    7.416
  388.032    0.000   66.475    0.301    0.444    7.345
  388.282   -0.000   64.563    0.309    0.452    7.218
  388.532   -0.000   62.670    0.323    0.470    7.243
  388.782   -0.000   61.042    0.336    0.444    7.107
  389.032    0.000   59.830    0.320    0.430    7.213
  389.282    0.000   59.909    0.321    0.436    7.255
  389.532   -0.000   60.515    0.313    0.453    7.269
  389.782   -0.000   62.230    0.308    0.440    7.288
  390.032   -0.000   63.162    0.315    0.430    7.135
  390.282    0.000   62.517    0.294    0.432    7.164
  390.532    0.000   63.459    0.313    0.439    7.018
  390.782    0.000   64.429    0.316    0.436    7.041
  391.032   -0.000   64.056    0.332    0.439    7.048
  391.282   -0.000   61.690    0.327    0.447    7.057
  391.532   -0.000   59.432    0.313    0.445    7.067
  391.782    0.000   58.478    0.307    0.455    6.971
  392.032    0.000   62.481    0.320    0.451    6.906
  392.282    0.000   63.940    0.330    0.453    6.826
  392.532   -0.000   61.832    0.334    0.457    6.700
  392.782   -0.000   61.697    0.314    0.474    6.716
  393.032    0.000   62.747    0.308    0.471    6.723
  393.282    0.000   63.490    0.326    0.453    6.733
  393.532    0.000   63.446    0.327    0.459    6.743
  393.782   -0.000   64.462    0.326    0.467    6.639
  394.032   -0.000   67.450    0.333    0.461    6.633
  394.282   -0.000   70.389    0.316    0.455    6.634
  394.532    0.000   70.021    0.301    0.463    6.736
  394.782    0.000   66.649    0.316    0.474    6.965
  395.032    0.000   64.803    0.300    0.459    7.189
  395.282   -0.000   63.444    0.318    0.441    7.779
  395.532   -0.000   66.044    0.329    0.437    8.717
  395.782    0.000   67.404    0.321    0.451   10.042
  396.032    0.000   66.051    0.301    0.444   12.235
  396.282    0.000   64.863    0.234    0.375   14.384
  396.532   -0.000   63.929    0.107    0.344   16.595
  396.782   -0.000   62.664    0.064    0.307   18.454
  397.032   -0.000   60.454    0.037    0.280   19.953
  397.282    0.000   57.599    0.053    0.263   21.039
  397.532    0.000   54.379    0.035    0.276   20.193
  397.782    0.000   52.878    0.033    0.264   16.802
  398.032   -0.000   53.370    0.091    0.254   10.683
  398.282   -0.000   55.476    0.131    0.287    8.619
  398.532   -0.000   58.560    0.207    0.354    7.279
  398.782    0.000   62.421    0.259    0.405    6.622
  399.032    0.000   64.145    0.303    0.457    6.146
  399.282   -0.000   66.496    0.309    0.481    6.182
  399.532   -0.000   68.208    0.324    0.476    6.319
  399.782   -0.000   67.584    0.329    0.465    6.316
  400.032    0.000   65.498    0.319    0.473    6.320
  400.282    0.000   64.750    0.328    0.451    6.272
  400.532    0.000   65.589    0.328    0.435    6.223
  400.782   -0.000   66.601    0.308    0.435    6.132
  401.032   -0.000   67.441    0.308    0.438    6.131
  401.282   -0.000   67.423    0.328    0.416    6.008
  401.532    0.000   67.848    0.326    0.438    6.002
  401.782    0.000   68.977    0.317    0.460    6.108
