~VERSION INFORMATION
 VERS.                 2.0:   CWLS LOG ASCII STANDARD -VERSION 2.0
 WRAP.                  NO:   ONE LINE PER DEPTH STEP
~WELL INFORMATION BLOCK
#MNEM.UNIT           DATA                    DESCRIPTION OF MNEMONIC
#---------    -------------------            -------------------------------
# Generated from Intellog Unique Number	CW_82_90/WELL/3052
WELL.         I.O.E. BUFFALO RIVER 04-32     : Well_name    - WELL
LOC .         00/04-32-085-23W4/0            : Location     - LOCATION
UWI .         00/04-32-085-23W4/0            : Uwi          - UNIQUE WELL ID
ENTR.         JJ                             : Entered      - ENTERED BY
SRVC.         SCHLUMBERGER                   : Scn          - SERVICE COMPANY
DATE.         24 JAN 66                      : Date         - LOG DATE
STRT.M        213.36                         : top_depth    - START DEPTH
STOP.M        341.36                         : bot_depth    - STOP DEPTH
STEP.M        0.25                           : increment    - STEP LENGTH
 NULL. -999.2500:NULL Value
~CURVE INFORMATION BLOCK
#MNEM UNIT       ERCB CURVE CODE    CURVE DESCRIPTION
#-----------   ------------------   ----------------------------------
DEPT.M        00 001 00 00         : DEPTH        - DEPTH
CALI.MM       00 280 01 00         : CAL          - CALIPER
GR  .API      00 310 00 00         : GR           - GAMMA RAY
DELT.US/F     00 520 00 00         : DELT         - SONIC TRAVEL TIME
ILD .OHMM     00 120 00 00         : RESD         - DEEP RESISTIVITY (DIL)
~PARAMETER INFORMATION
#MNEM.UNIT           DATA             DESCRIPTION OF MNEMONIC
#---------         -----------     ------------------------------
GL  .M        550                  : gl           - GROUND LEVEL ELEVATION
EREF.M        554.736              : kb           - ELEVATION OF DEPTH REFERENCE
DATM.M        554.736              : datum        - DATUM ELEVATION
TDD .M        983.285              : tdd          - TOTAL DEPTH DRILLER
RUN .         ONE                  : Run          - RUN NUMBER
ENG .         BERRY/WOLFRAM        : Engineer     - RECORDING ENGINEER
WIT .         RYAN                 : Witness      - WITNESSED BY
BASE.         EDMONTON             : Branch       - HOME BASE OF LOGGING UNIT
MUD .         GEL                  : Mud_type     - MUD TYPE
MATR.         SANDSTONE            : Logunit      - NEUTRON MATRIX
TMAX.C        32.2222              : BHT          - MAXIMUM RECORDED TEMPERATURE
BHTD.M        982.675              : BHTDEP       - MAXIMUM RECORDED TEMPERATURE
RMT .C        17.7778              : MDTP         - TEMPERATURE OF MUD
MUDD.KG/M     1140                 : MWT          - MUD DENSITY
NEUT.         1                    : NEUTRON      - NEUTRON TYPE
RESI.         0                    : RESIST       - RESISTIVITY TYPE
RM  .OHMM     0.8                  : RM           - RESISTIVITY OF MUD
RMC .OHMM     0.83                 : RMC          - RESISTIVITY OF MUD CAKE
RMF .OHMM     0.54                 : RMF          - RESISTIVITY OF MUD FILTRATE
SUFT.C        5                    : SUFT         - SURFACE TEMPERATURE
~A  DEPTH      CAL       GR     DELT     RESD
  213.360  232.308   70.884  423.021   18.010
  213.610  234.484   71.754  428.910   19.798
  213.860  234.526   64.281  273.822   21.485
  214.110  230.955   52.431  218.949   21.752
  214.360  232.381   47.927  352.878   21.052
  214.610  230.834   53.533  379.736   20.140
  214.860  228.533   57.878  414.122   18.164
  215.110  232.204   64.691  439.635   15.960
  215.360  235.338   60.688  441.085   14.537
  215.610  237.510   64.686  449.596   13.633
  215.860  239.683   70.138  446.810   13.235
  216.110  241.007   63.723  443.423   12.846
  216.360  237.539   67.163  443.601   12.969
  216.610  240.352   67.388  443.640   13.420
  216.860  242.952   62.880  444.284   13.823
  217.110  239.282   71.253  446.610   14.236
  217.360  236.444   75.652  448.660   14.027
  217.610  235.111   67.070  449.916   13.202
  217.860  236.429   70.059  448.211   12.354
  218.110  239.457   73.705  453.895   11.145
  218.360  255.258   68.948  449.227   10.501
  218.610  261.586   64.141  440.198    9.739
  218.860  305.499   64.312  436.203    9.135
  219.110  285.637   68.358  429.725    7.922
  219.360  275.778   71.447  487.501    6.908
  219.610  297.120   65.986  543.260    5.221
  219.860  304.618   64.700  520.515    4.249
  220.110  263.884   56.773  534.200    3.693
  220.360  298.855   49.348  533.099    3.406
  220.610  344.576   50.074  585.967    3.461
  220.860  293.620   63.526  588.428    3.730
  221.110  275.564   74.013  575.562    4.388
  221.360  304.997   72.072  573.050    4.979
  221.610  320.907   63.591  611.065    5.761
  221.860  262.820   62.607  596.855    6.312
  222.110  239.654   67.307  579.083    6.909
  222.360  236.504   59.682  454.511    6.927
  222.610  240.170   65.541  451.796    6.697
  222.860  243.306   70.239  454.455    6.736
  223.110  242.400   67.494  471.232    7.722
  223.360  240.737   64.347  468.985    9.636
  223.610  238.651   58.634  460.623   11.628
  223.860  235.396   54.429  452.129   13.499
  224.110  232.146   58.377  450.623   14.569
  224.360  232.615   62.118  448.714   13.393
  224.610  234.573   61.687  444.722   12.237
  224.860  238.560   58.892  452.358   11.373
  225.110  240.732   59.367  461.468   10.527
  225.360  241.525   62.962  464.269    9.105
  225.610  246.579   68.665  473.516    7.805
  225.860  247.479   76.233  488.075    5.663
  226.110  241.665   74.444  503.906    4.775
  226.360  242.880   67.826  510.268    4.628
  226.610  353.766   63.721  528.857    5.490
  226.860  369.141   59.620  555.648    4.915
  227.110  342.465   57.477  583.382    4.993
  227.360  266.804   65.395  537.045    5.322
  227.610  243.426   67.431  544.680    4.520
  227.860  252.098   64.584  574.698    3.982
  228.110  294.838   64.051  537.434    3.836
  228.360  266.454   69.406  540.499    3.974
  228.610  298.655   65.706  551.630    4.301
  228.860  301.897   68.041  559.667    4.794
  229.110  281.284   68.215  542.502    5.514
  229.360  263.554   64.008  557.864    6.189
  229.610  260.619   67.601  518.315    6.578
  229.860  325.397   67.273  534.422    6.865
  230.110  315.753   61.912  560.070    7.461
  230.360  342.420   66.610  481.538    8.280
  230.610  244.402   68.744  475.058   10.338
  230.860  240.611   70.931  475.704   11.056
  231.110  239.705   68.234  431.719   10.661
  231.360  234.956   66.294  439.354    8.499
  231.610  236.818   67.373  445.374    5.904
  231.860  238.879   74.787  433.520    4.275
  232.110  246.376   70.836  420.118    4.340
  232.360  272.083   61.099  542.081    4.724
  232.610  308.436   54.379  564.840    5.731
  232.860  252.263   59.634  504.590    8.078
  233.110  235.278   63.732  498.782   10.729
  233.360  233.085   63.952  479.263   12.066
  233.610  231.859   68.805  445.763   10.746
  233.860  233.494   74.709  435.252    9.097
  234.110  238.551   66.685  433.137    7.491
  234.360  243.167   62.981  437.818    6.108
  234.610  249.922   67.580  428.180    5.324
  234.860  254.440   65.692  455.576    5.075
  235.110  256.726   64.404  449.770    6.783
  235.360  255.173   81.127  435.090    9.929
  235.610  256.399   76.670  458.587   12.562
  235.860  256.439   67.587  470.992   13.670
  236.110  249.982   60.617  401.806   13.484
  236.360  234.284   55.761  236.499   12.968
  236.610  237.617   53.114  292.799   11.934
  236.860  251.183   64.001  339.081    9.544
  237.110  255.490   62.164  389.532    7.488
  237.360  295.782   60.028  439.777    6.950
  237.610  334.266   61.005  451.511    7.665
  237.860  367.424   61.975  439.657    8.697
  238.110  303.266   58.677  455.020    8.510
  238.360  289.152   68.055  433.285    8.035
  238.610  283.552   75.824  431.713    7.761
  238.860  325.337   68.201  425.838    7.328
  239.110  330.923   64.348  443.755    6.666
  239.360  341.506   65.929  430.826    6.377
  239.610  334.639   66.305  452.845    6.459
  239.860  317.217   62.100  483.735    6.973
  240.110  301.290   57.391  484.311    7.442
  240.360  285.471   67.422  440.866    7.910
  240.610  280.087   70.614  405.553    8.567
  240.860  304.406   72.345  454.659    9.290
  241.110  282.092   73.625  452.681    9.718
  241.360  261.911   79.381  447.076   10.189
  241.610  251.308   71.252  341.727   10.413
  241.860  251.245   72.334  359.981   10.410
  242.110  248.952   76.226  356.658   10.018
  242.360  243.459   69.406  334.252    9.583
  242.610  253.405   75.916  365.411    9.108
  242.860  283.370   71.613  419.424    8.674
  243.110  318.024   67.559  452.398    8.075
  243.360  307.953   69.543  419.100    7.289
  243.610  300.117   77.665  451.135    6.301
  243.860  296.013   70.241  467.373    5.928
  244.110  284.560   71.167  473.999    6.604
  244.360  275.876   67.415  484.054    8.044
  244.610  269.532   66.783  474.013    9.460
  244.860  276.814   68.516  476.268   11.887
  245.110  302.201   74.875  503.465   15.057
  245.360  249.328   67.505  505.522   18.781
  245.610  236.493   60.984  387.333   21.188
  245.860  235.054   65.733  255.234   20.731
  246.110  235.101   71.641  266.162   17.744
  246.360  233.331   73.323  337.111   13.625
  246.610  230.286   72.891  428.495   10.823
  246.860  227.673   67.785  447.959    9.051
  247.110  226.868   64.135  482.612    7.013
  247.360  230.645   60.735  467.128    5.634
  247.610  239.949   62.767  440.955    4.887
  247.860  250.747   75.816  427.015    4.270
  248.110  258.250   88.616  433.439    4.204
  248.360  261.803   82.405  446.518    4.640
  248.610  264.084   80.106  444.941    5.295
  248.860  266.695   86.114  440.618    6.029
  249.110  270.572   79.196  447.245    6.937
  249.360  270.291   82.086  455.418    7.615
  249.610  252.343   82.560  469.302    8.166
  249.860  239.289   77.247  451.735    8.677
  250.110  242.855   77.067  449.489    9.214
  250.360  241.723   75.981  450.873    9.476
  250.610  257.210   70.822  464.491    9.679
  250.860  255.341   82.665  441.208    9.556
  251.110  264.114   85.101  452.874    9.306
  251.360  245.740   85.679  458.091    8.686
  251.610  252.178   90.075  394.345    7.573
  251.860  270.642   85.770  409.778    6.870
  252.110  285.595   77.542  437.242    6.786
  252.360  295.753   69.867  502.143    7.321
  252.610  283.341   63.701  546.204    7.546
  252.860  269.757   56.682  557.472    7.439
  253.110  272.258   50.565  558.785    9.165
  253.360  326.604   57.982  490.335   11.223
  253.610  335.698   63.891  502.474   12.537
  253.860  310.510   64.010  493.107   12.144
  254.110  292.352   69.667  512.235   11.462
  254.360  287.069   77.283  400.367   11.976
  254.610  282.641   83.995  404.575   11.564
  254.860  279.919   82.205  401.051   10.119
  255.110  304.778   85.395  408.417    8.716
  255.360  316.959   76.362  427.880    8.223
  255.610  349.052   68.738  445.129    8.363
  255.860  347.503   63.429  397.179    9.080
  256.110  285.580   68.429  427.802   10.175
  256.360  257.835   76.702  468.438   10.871
  256.610  243.938   76.825  464.041   12.185
