~VERSION INFORMATION
 VERS.                 2.0:   CWLS LOG ASCII STANDARD -VERSION 2.0
 WRAP.                  NO:   ONE LINE PER DEPTH STEP
~WELL INFORMATION BLOCK
#MNEM.UNIT           DATA                    DESCRIPTION OF MNEMONIC
#---------    -------------------            -------------------------------
# Generated from Intellog Unique Number	CN_94_101/WELL/3829
WELL.         08-23-096-18W4                 : Well_name    - WELL
LOC .         00/08-23-096-18W4/0            : Location     - LOCATION
UWI .         00/08-23-096-18W400            : Uwi          - UNIQUE WELL ID
ENTR.         T                              : Entered      - ENTERED BY
SRVC.         SCHLUMBERGER                   : Scn          - SERVICE COMPANY
DATE.         08/05/92                       : Date         - LOG DATE
STRT.M        270                            : top_depth    - START DEPTH
STOP.M        439.75                         : bot_depth    - STOP DEPTH
STEP.M        0.25                           : increment    - STEP LENGTH
 NULL. -999.2500:NULL Value
~CURVE INFORMATION BLOCK
#MNEM UNIT       ERCB CURVE CODE    CURVE DESCRIPTION
#-----------   ------------------   ----------------------------------
DEPT.M        00 001 00 00         : DEPTH        - DEPTH
GR  .API      00 310 00 00         : GR           - GAMMA RAY
CALI.MM       00 280 01 00         : CAL          - CALIPER
NPHI.V/V      00 330 00 00         : PHIN         - NEUTRON POROSITY (SANDSTONE)
DPHI.V/V      00 890 00 00         : PHID         - DENSITY POROSITY (SANDSTONE)
ILD .OHMM     00 120 00 00         : RESD         - DEEP RESISTIVITY (DIL)
~PARAMETER INFORMATION
#MNEM.UNIT           DATA             DESCRIPTION OF MNEMONIC
#---------         -----------     ------------------------------
GL  .M        685                  : gl           - GROUND LEVEL ELEVATION
EREF.M        689.4                : kb           - ELEVATION OF DEPTH REFERENCE
DATM.M        689.4                : datum        - DATUM ELEVATION
TDD .M        440                  : tdd          - TOTAL DEPTH DRILLER
RUN .         0.000000             : Run          - RUN NUMBER
MUD .         GEL                  : Mud_type     - MUD TYPE
MATR.         SANDSTONE            : Logunit      - NEUTRON MATRIX
TMAX.C        0                    : BHT          - MAXIMUM RECORDED TEMPERATURE
BHTD.M        229.972              : BHTDEP       - MAXIMUM RECORDED TEMPERATURE
RMT .C        -17.7778             : MDTP         - TEMPERATURE OF MUD
MUDD.KG/M     6900                 : MWT          - MUD DENSITY
NEUT.         1                    : NEUTRON      - NEUTRON TYPE
RESI.         0                    : RESIST       - RESISTIVITY TYPE
RM  .OHMM     0                    : RM           - RESISTIVITY OF MUD
RMC .OHMM     0                    : RMC          - RESISTIVITY OF MUD CAKE
RMF .OHMM     0                    : RMF          - RESISTIVITY OF MUD FILTRATE
SUFT.C        4                    : SUFT         - SURFACE TEMPERATURE
BTZC.MM       0                    : BITZC        - BIT SIZE CONSTANT
MDW .KG/M     0                    : MDW          - MUD WEIGHT
~A  DEPTH       GR      CAL     PHIN     PHID     RESD
# ...
  306.500  111.875  163.542    0.446    0.244    5.063
  306.750  111.250  163.542    0.416    0.246    5.361
  307.000  103.125  165.625    0.404    0.245    5.161
  307.250  101.875  165.625    0.420    0.240    5.260
  307.500  108.750  163.542    0.454    0.236    5.260
  307.750  108.125  165.625    0.448    0.244    5.260
  308.000  103.125  164.583    0.450    0.250    5.161
  308.250  102.500  164.583    0.466    0.258    5.161
  308.500  105.000  160.417    0.444    0.266    5.063
  308.750  107.500  162.500    0.423    0.271    5.161
  309.000  106.875  163.542    0.415    0.266    5.161
  309.250  106.250  162.500    0.409    0.264    5.260
  309.500  103.125  163.542    0.430    0.259    5.361
  309.750  100.000  162.500    0.434    0.260    5.361
  310.000  102.500  162.500    0.450    0.264    5.491
  310.250  104.375  163.542    0.480    0.260    5.597
  310.500  101.875  163.542    0.498    0.251    5.597
  310.750   93.750  163.542    0.483    0.230    5.491
  311.000   90.625  160.417    0.410    0.210    5.386
  311.250   90.625  163.542    0.423    0.221    5.184
  311.500   95.625  164.583    0.454    0.250    5.184
  311.750  104.375  164.583    0.465    0.253    5.086
  312.000  106.250  161.458    0.483    0.250    4.802
  312.250  107.500  161.458    0.488    0.249    4.802
  312.500  111.250  161.458    0.490    0.249    4.895
  312.750  106.875  161.458    0.481    0.248    4.711
  313.000  106.250  160.417    0.463    0.245    4.802
  313.250  107.500  164.583    0.463    0.244    4.895
  313.500  108.750  163.542    0.473    0.240    4.990
  313.750  108.750  164.583    0.466    0.241    5.086
  314.000  106.875  168.750    0.469    0.249    5.184
  314.250  103.125  169.792    0.476    0.249    5.284
  314.500  104.375  165.625    0.465    0.248    5.386
  314.750  106.875  163.542    0.453    0.254    5.491
  315.000  111.250  162.500    0.440    0.258    5.597
  315.250  108.125  162.500    0.441    0.256    5.705
  315.500  108.750  162.500    0.445    0.256    5.705
  315.750  108.125  161.458    0.456    0.270    5.386
  316.000  105.625  160.417    0.471    0.256    4.895
  316.250  105.000  159.375    0.479    0.258    4.448
  316.500  107.500  158.333    0.486    0.261    4.448
  316.750  110.625  160.417    0.490    0.259    4.364
  317.000  113.125  159.375    0.494    0.250    4.448
  317.250  101.875  159.375    0.443    0.178    4.622
  317.500   98.125  162.500    0.421    0.109    4.364
  317.750   95.000  162.500    0.423    0.125    4.121
  318.000  105.625  163.542    0.424    0.191    3.891
  318.250  118.125  167.708    0.488    0.236    3.891
  318.500  119.375  165.625    0.489    0.263    3.817
  318.750  114.375  166.667    0.453    0.258    3.745
  319.000  115.000  167.708    0.448    0.255    3.745
  319.250  116.250  168.750    0.449    0.246    3.817
  319.500  120.000  168.750    0.455    0.241    3.817
  319.750  123.125  168.750    0.460    0.239    3.817
  320.000  123.750  167.708    0.460    0.231    3.966
  320.250  121.250  164.583    0.490    0.220    4.121
  320.500  110.625  164.583    0.485    0.173    4.200
  320.750  101.875  165.625    0.475    0.128    4.200
  321.000  100.000  164.583    0.486    0.145    4.121
  321.250  110.625  168.750    0.506    0.205    3.966
  321.500  119.375  168.750    0.501    0.238    3.891
  321.750  118.750  168.750    0.475    0.259    3.817
  322.000  116.875  165.625    0.450    0.265    3.817
  322.250  111.250  166.667    0.405    0.265    4.042
  322.500  107.500  165.625    0.408    0.263    4.200
  322.750  110.000  161.458    0.428    0.248    4.200
  323.000  111.875  161.458    0.440    0.238    4.200
  323.250  113.125  161.458    0.451    0.236    4.200
  323.500  112.500  163.542    0.493    0.236    3.966
  323.750  108.750  168.750    0.493    0.229    3.891
  324.000  106.875  169.792    0.478    0.234    3.891
  324.250  106.250  170.833    0.475    0.239    3.966
  324.500  108.750  160.417    0.483    0.245    3.966
  324.750  112.500  165.625    0.490    0.246    3.966
  325.000  115.000  170.833    0.493    0.248    3.951
  325.250  111.250  163.542    0.471    0.246    3.951
  325.500  111.250  163.542    0.446    0.245    4.027
  325.750  110.625  164.583    0.453    0.255    4.104
  326.000  113.750  159.375    0.453    0.255    4.346
  326.250  117.500  161.458    0.436    0.244    4.184
  326.500  117.500  162.500    0.423    0.240    4.200
  326.750  114.375  160.417    0.426    0.241    4.200
  327.000  110.000  160.417    0.434    0.254    4.281
  327.250  107.500  159.375    0.440    0.259    4.200
  327.500  110.000  160.417    0.461    0.254    4.042
  327.750  120.625  160.417    0.499    0.234    3.966
  328.000  121.250  160.417    0.515    0.219    3.891
  328.250  111.250  161.458    0.508    0.186    3.891
  328.500  108.750  162.500    0.466    0.185    3.966
  328.750  112.500  162.500    0.473    0.203    3.891
  329.000  115.625  164.583    0.474    0.241    3.966
  329.250  115.000  162.500    0.463    0.249    4.042
  329.500  114.375  161.458    0.460    0.250    4.121
  329.750  113.750  161.458    0.449    0.254    4.448
  330.000  108.750  161.458    0.419    0.254    4.602
  330.250  105.625  161.458    0.421    0.249    4.781
  330.500  107.500  159.375    0.439    0.251    4.691
  330.750  110.000  160.417    0.448    0.255    4.430
  331.000  112.500  160.417    0.446    0.259    4.346
  331.250  116.875  159.375    0.455    0.260    3.876
  331.500  118.750  161.458    0.486    0.258    3.731
  331.750  113.125  164.583    0.478    0.268    3.876
  332.000  108.750  164.583    0.466    0.269    4.027
  332.250  105.625  167.708    0.476    0.263    4.264
  332.500  105.000  162.500    0.470    0.270    4.602
  332.750  104.375  159.375    0.443    0.288    4.874
  333.000  101.875  160.417    0.421    0.280    5.063
  333.250  101.875  160.417    0.424    0.274    4.895
  333.500  106.250  160.417    0.441    0.250    4.990
  333.750  110.000  161.458    0.436    0.225    5.086
  334.000  115.000  163.542    0.433    0.180    5.184
  334.250  117.500  159.375    0.474    0.169    5.284
  334.500  121.875  159.375    0.501    0.189    4.534
  334.750  128.125  160.417    0.501    0.201    4.448
  335.000  130.000  160.417    0.493    0.215    4.430
  335.250  130.625  163.542    0.496    0.225    4.346
  335.500  130.625  162.500    0.503    0.228    4.264
  335.750  125.000  163.542    0.499    0.214    4.346
  336.000  121.875  161.458    0.483    0.198    4.346
  336.250  120.000  162.500    0.483    0.185    4.430
  336.500  120.625  170.833    0.489    0.175    4.184
  336.750  123.125  165.625    0.476    0.185    4.027
  337.000  126.875  162.500    0.481    0.205    3.803
  337.250  125.000  162.500    0.535    0.241    3.457
  337.500  122.500  161.458    0.550    0.250    3.264
  337.750  124.375  162.500    0.543    0.254    3.083
  338.000  128.125  161.458    0.509    0.255    2.911
  338.250  126.250  161.458    0.513    0.260    2.802
  338.500  119.375  161.458    0.538    0.265    2.749
  338.750  116.250  162.500    0.545    0.271    2.646
  339.000  116.875  160.417    0.539    0.279    2.646
  339.250  117.500  158.333    0.523    0.284    2.646
  339.500  117.500  159.375    0.515    0.283    2.856
  339.750  111.875  156.250    0.493    0.285    3.327
  340.000  100.000  154.167    0.419    0.299    3.803
  340.250   86.875  162.500    0.393    0.314    4.967
  340.500   78.125  160.417    0.386    0.303    5.063
  340.750   78.125  161.458    0.396    0.296    6.246
  341.000   77.500  161.458    0.403    0.301    6.128
  341.250   77.500  160.417    0.408    0.301    6.012
  341.500   81.875  161.458    0.400    0.295    5.898
  341.750   85.625  162.500    0.404    0.285    5.677
  342.000   85.625  163.542    0.414    0.293    5.677
  342.250   83.750  162.500    0.418    0.295    5.570
  342.500   81.250  161.458    0.419    0.296    5.465
  342.750   81.250  161.458    0.420    0.289    5.361
