~VERSION INFORMATION
 VERS.                 2.0:   CWLS LOG ASCII STANDARD -VERSION 2.0
 WRAP.                  NO:   ONE LINE PER DEPTH STEP
~WELL INFORMATION BLOCK
#MNEM.UNIT           DATA                    DESCRIPTION OF MNEMONIC
#---------    -------------------            -------------------------------
# Generated from Intellog Unique Number	CW_76_78/WELL/2572
WELL.         BAYSEL WILLOW R                : Well_name    - WELL
LOC .         00/07-10-078-03W5/0            : Location     - LOCATION
UWI .         00/07-10-078-03W5/0            : Uwi          - UNIQUE WELL ID
ENTR.         MAX                            : Entered      - ENTERED BY
SRVC.         SCHLUMBERGER                   : Scn          - SERVICE COMPANY
STRT.M        365.76                         : top_depth    - START DEPTH
STOP.M        640.01                         : bot_depth    - STOP DEPTH
STEP.M        0.25                           : increment    - STEP LENGTH
 NULL. -999.2500:NULL Value
~CURVE INFORMATION BLOCK
#MNEM UNIT       ERCB CURVE CODE    CURVE DESCRIPTION
#-----------   ------------------   ----------------------------------
DEPT.M        00 001 00 00         : DEPTH        - DEPTH
ILD .OHMM     00 120 00 00         : RESD         - DEEP RESISTIVITY (DIL)
NPHI.V/V      00 330 00 00         : PHIN         - NEUTRON POROSITY (SANDSTONE)
DPHI.V/V      00 890 00 00         : PHID         - DENSITY POROSITY (SANDSTONE)
CALI.MM       00 280 01 00         : CAL          - CALIPER
GR  .API      00 310 00 00         : GR           - GAMMA RAY
~PARAMETER INFORMATION
#MNEM.UNIT           DATA             DESCRIPTION OF MNEMONIC
#---------         -----------     ------------------------------
GL  .M        660.197              : gl           - GROUND LEVEL ELEVATION
EREF.M        664.403              : kb           - ELEVATION OF DEPTH REFERENCE
DATM.M        660.197              : datum        - DATUM ELEVATION
TDD .M        658.063              : tdd          - TOTAL DEPTH DRILLER
RUN .         ONE                  : Run          - RUN NUMBER
ENG .         BILL                 : Engineer     - RECORDING ENGINEER
WIT .         JIM                  : Witness      - WITNESSED BY
MUD .         GEL                  : Mud_type     - MUD TYPE
MATR.         SANDSTONE            : Logunit      - NEUTRON MATRIX
TMAX.C        26.6667              : BHT          - MAXIMUM RECORDED TEMPERATURE
BHTD.M        658.063              : BHTDEP       - MAXIMUM RECORDED TEMPERATURE
RMT .C        15                   : MDTP         - TEMPERATURE OF MUD
MUDD.KG/M     9300                 : MWT          - MUD DENSITY
NEUT.         1                    : NEUTRON      - NEUTRON TYPE
RESI.         0                    : RESIST       - RESISTIVITY TYPE
RM  .OHMM     0.25                 : RM           - RESISTIVITY OF MUD
RMC .OHMM     0.25                 : RMC          - RESISTIVITY OF MUD CAKE
RMF .OHMM     3.74                 : RMF          - RESISTIVITY OF MUD FILTRATE
SUFT.C        -15                  : SUFT         - SURFACE TEMPERATURE
~A  DEPTH     RESD     PHIN     PHID      CAL       GR
# ...
  584.760    8.553    0.347    0.155  162.607   64.134
  585.010    9.022    0.353    0.153  162.607   67.796
  585.260    9.093    0.358    0.152  162.491   72.378
  585.510    8.524    0.379    0.165  162.437   77.271
  585.760    7.776    0.375    0.191  162.904   84.011
  586.010    7.291    0.382    0.192  163.364   88.593
  586.260    6.771    0.396    0.185  164.873   91.023
  586.510    6.697    0.405    0.176  166.376   93.150
  586.760    6.635    0.396    0.192  169.449   91.263
  587.010    6.510    0.372    0.212  167.296   90.927
  587.260    6.101    0.399    0.187  164.642  101.669
  587.510    5.719    0.463    0.206  167.708  111.488
  587.760    5.361    0.478    0.204  174.952  117.917
  588.010    4.937    0.481    0.201  183.759   99.722
  588.260    4.669    0.465    0.221  183.705   87.988
  588.510    4.623    0.421    0.245  181.565   78.408
  588.760    4.701    0.366    0.232  163.767   73.139
  589.010    4.870    0.375    0.194  164.233   84.189
  589.260    5.325    0.408    0.185  168.349   90.929
  589.510    5.718    0.420    0.176  172.465   93.360
  589.760    5.460    0.420    0.201  176.066   94.867
  590.010    5.307    0.424    0.188  178.097   86.211
  590.260    5.597    0.401    0.161  176.465   71.706
  590.510    6.823    0.368    0.148  175.889   66.133
  590.760    8.169    0.289    0.122  175.835   66.713
  591.010    9.869    0.237    0.084  175.259   73.145
  591.260   10.696    0.258    0.069  175.726   77.731
  591.510   12.348    0.272    0.102  176.186   86.010
  591.760   12.790    0.299    0.093  176.639   98.288
  592.010   11.356    0.325    0.108  177.641  105.032
  592.260    8.721    0.424    0.127  179.665  109.310
  592.510    6.175    0.440    0.153  183.253  108.043
  592.760    5.383    0.475    0.176  186.333  101.234
  593.010    4.327    0.454    0.150  184.180   93.813
  593.260    4.019    0.430    0.127  178.398   94.397
  593.510    3.768    0.463    0.099  182.507  106.371
  593.760    3.564    0.491    0.200  188.715  106.646
  594.010    3.528    0.489    0.186  201.171  102.904
  594.260    3.493    0.502    0.170  190.163  101.341
  594.510    3.273    0.531    0.175  194.272  102.224
  594.760    3.211    0.522    0.201  185.356  103.735
  595.010    3.296    0.496    0.213  176.947  106.166
  595.260    3.476    0.491    0.196  176.947  108.284
  595.510    3.666    0.529    0.235  175.789  110.099
  595.760    3.937    0.558    0.277  175.741  110.071
  596.010    4.228    0.580    0.292  176.722  105.110
  596.260    4.300    0.597    0.296  177.182   97.997
  596.510    4.334    0.568    0.332  176.613   95.498
  596.760    4.409    0.487    0.298  176.038   94.538
  597.010    4.402    0.357    0.227  175.455   87.118
  597.260    4.398    0.394    0.151  176.430   85.543
  597.510    4.514    0.448    0.229  178.460   87.353
  597.760    4.349    0.523    0.238  179.970   89.480
  598.010    3.967    0.491    0.204  180.965  101.758
  598.260    3.686    0.558    0.163  183.517  109.118
  598.510    3.393    0.585    0.234  188.147  117.705
  598.760    3.209    0.606    0.240  193.299  115.518
  599.010    3.206    0.575    0.266  195.857  111.480
  599.260    3.320    0.540    0.289  191.105  107.138
  599.510    3.320    0.513    0.282  190.008  102.792
  599.760    3.496    0.504    0.248  178.485  104.295
  600.010    3.757    0.492    0.225  191.463  103.032
  600.260    4.220    0.441    0.205  175.763   98.074
  600.510    4.491    0.362    0.173  167.875   95.883
  600.760    4.737    0.348    0.144  168.349   99.853
  601.010    5.133    0.349    0.148  169.852  101.976
  601.260    5.664    0.370    0.133  170.319  106.557
  601.510    5.607    0.421    0.138  173.385  118.219
  601.760    5.353    0.460    0.156  177.501  123.120
  602.010    5.063    0.469    0.205  182.145  125.239
  602.260    4.922    0.466    0.213  184.169  119.970
  602.510    4.828    0.457    0.189  178.380  111.010
  602.760    4.910    0.457    0.180  171.014  104.821
  603.010    5.131    0.429    0.199  174.087   96.473
  603.260    5.363    0.413    0.190  172.469   90.280
  603.510    5.607    0.453    0.212  173.972   92.403
  603.760    5.912    0.427    0.184  177.573   98.527
  604.010    5.852    0.391    0.179  173.341   96.644
  604.260    5.898    0.365    0.137  170.152   94.761
  604.510    6.109    0.332    0.126  170.098   94.117
  604.760    6.442    0.313    0.104  170.044   95.004
  605.010    6.917    0.297    0.097  169.989   97.123
  605.260    7.231    0.302    0.101  171.492  101.397
  605.510    7.355    0.314    0.115  172.994  102.600
  605.760    7.212    0.329    0.122  171.897  103.795
  606.010    7.011    0.347    0.125  171.843  104.995
  606.260    6.753    0.367    0.122  171.788  106.194
  606.510    6.506    0.408    0.160  170.170  105.234
  606.760    6.325    0.450    0.200  168.024  107.669
  607.010    6.261    0.428    0.244  168.477  110.099
  607.260    6.197    0.394    0.240  169.479  104.830
  607.510    6.189    0.376    0.165  167.332   91.556
  607.760    6.071    0.353    0.165  163.629   83.208
  608.010    5.955    0.344    0.178  164.610   81.945
  608.260    5.843    0.365    0.171  167.155   85.607
  608.510    5.627    0.419    0.174  168.665   91.116
  608.760    5.371    0.455    0.204  168.610   92.615
  609.010    5.128    0.446    0.244  168.549   91.963
  609.260    4.895    0.413    0.244  168.501   92.550
  609.510    4.895    0.394    0.207  164.256   92.203
  609.760    4.664    0.385    0.217  164.215   92.486
  610.010    4.496    0.374    0.215  163.619   95.225
  610.260    4.451    0.364    0.211  165.142   98.263
  610.510    4.568    0.361    0.205  167.166  101.309
  610.760    4.730    0.357    0.191  169.190  103.736
  611.010    4.988    0.355    0.190  170.185  103.712
  611.260    5.215    0.341    0.186  170.117  104.291
  611.510    5.702    0.335    0.179  170.591  105.183
  611.760    5.960    0.329    0.175  171.572  105.762
  612.010    6.062    0.328    0.166  173.081  106.034
  612.260    6.054    0.330    0.150  174.584  106.925
  612.510    5.886    0.353    0.142  175.044  110.283
  612.760    5.517    0.361    0.142  175.518  119.794
  613.010    5.173    0.382    0.133  175.978  125.303
  613.260    4.592    0.471    0.116  173.838  129.269
  613.510    4.228    0.460    0.169  173.262  132.623
  613.760    4.147    0.441    0.180  175.286  137.513
  614.010    4.217    0.427    0.155  177.838  140.555
  614.260    4.408    0.405    0.131  178.312  142.990
  614.510    4.821    0.386    0.128  178.765  141.726
  614.760    5.224    0.389    0.116  179.232  133.070
  615.010    5.124    0.413    0.102  179.699  128.420
  615.260    5.124    0.426    0.120  179.638  122.227
  615.510    4.928    0.418    0.119  179.055  117.885
  615.760    4.925    0.430    0.109  178.486  116.310
  616.010    5.055    0.415    0.144  178.432  108.578
  616.260    5.188    0.390    0.160  177.849  107.006
  616.510    5.229    0.379    0.157  178.824  105.431
  616.760    5.128    0.382    0.155  179.819  106.622
  617.010    4.637    0.410    0.136  181.842  113.674
  617.260    3.971    0.445    0.125  183.359  117.033
  617.510    3.461    0.486    0.118  182.783  119.463
  617.760    3.187    0.489    0.099  179.073  120.347
  618.010    2.882    0.475    0.071  178.490  124.936
  618.260    2.401    0.493    0.081  182.078  126.439
  618.510    2.094    0.507    0.152  184.122  125.791
  618.760    1.981    0.511    0.136  185.097  125.755
  619.010    1.857    0.495    0.136  186.085  126.343
  619.260    1.838    0.509    0.108  186.037  127.542
  619.510    1.838    0.507    0.169  185.441  131.200
  619.760    1.850    0.494    0.174  185.921  132.087
  620.010    2.195    0.482    0.179  186.388  131.443
  620.260    2.801    0.470    0.178  186.848  128.325
  620.510    3.263    0.466    0.154  187.830  127.677
  620.760    3.288    0.480    0.121  188.825  127.641
  621.010    3.285    0.508    0.130  190.842  131.611
