~VERSION INFORMATION
 VERS.                 2.0:   CWLS LOG ASCII STANDARD -VERSION 2.0
 WRAP.                  NO:   ONE LINE PER DEPTH STEP
~WELL INFORMATION BLOCK
#MNEM.UNIT           DATA                    DESCRIPTION OF MNEMONIC
#---------    -------------------            -------------------------------
# Generated from Intellog Unique Number	CS_73_76/WELL/2388
WELL.         07-24-075-13W4                 : Well_name    - WELL
LOC .         00/07-24-075-13W4/0            : Location     - LOCATION
UWI .         00/07-24-075-13W4/0            : Uwi          - UNIQUE WELL ID
ENTR.         SP                             : Entered      - ENTERED BY
SRVC.         SCHLUMBERGER                   : Scn          - SERVICE COMPANY
STRT.M        323.088                        : top_depth    - START DEPTH
STOP.M        548.338                        : bot_depth    - STOP DEPTH
STEP.M        0.25                           : increment    - STEP LENGTH
 NULL. -999.2500:NULL Value
~CURVE INFORMATION BLOCK
#MNEM UNIT       ERCB CURVE CODE    CURVE DESCRIPTION
#-----------   ------------------   ----------------------------------
DEPT.M        00 001 00 00         : DEPTH        - DEPTH
GR  .API      00 310 00 00         : GR           - GAMMA RAY
DPHI.V/V      00 890 00 00         : PHID         - DENSITY POROSITY (SANDSTONE)
NPHI.V/V      00 330 00 00         : PHIN         - NEUTRON POROSITY (SANDSTONE)
ILD .OHMM     00 120 00 00         : RESD         - DEEP RESISTIVITY (DIL)
~PARAMETER INFORMATION
#MNEM.UNIT           DATA             DESCRIPTION OF MNEMONIC
#---------         -----------     ------------------------------
GL  .M        698.602              : gl           - GROUND LEVEL ELEVATION
EREF.M        702.869              : kb           - ELEVATION OF DEPTH REFERENCE
DATM.M        698.602              : datum        - DATUM ELEVATION
TDD .M        554.126              : tdd          - TOTAL DEPTH DRILLER
RUN .         ONE                  : Run          - RUN NUMBER
ENG .         BILL                 : Engineer     - RECORDING ENGINEER
WIT .         JIM                  : Witness      - WITNESSED BY
MUD .         GEL                  : Mud_type     - MUD TYPE
MATR.         SANDSTONE            : Logunit      - NEUTRON MATRIX
TMAX.C        18.8889              : BHT          - MAXIMUM RECORDED TEMPERATURE
BHTD.M        554.126              : BHTDEP       - MAXIMUM RECORDED TEMPERATURE
MATR.         1                    : LOGUNIT      - NEUTRON MATRIX
RMT .C        25                   : MDTP         - TEMPERATURE OF MUD
NEUT.         1                    : NEUTRON      - NEUTRON TYPE
RESI.         0                    : RESIST       - RESISTIVITY TYPE
RMC .OHMM     0.25                 : RMC          - RESISTIVITY OF MUD CAKE
RMF .OHMM     0.25                 : RMF          - RESISTIVITY OF MUD FILTRATE
SUFT.C        15                   : SUFT         - SURFACE TEMPERATURE
~A  DEPTH       GR     PHID     PHIN     RESD
  323.088   91.064    0.271    0.481    3.540
  323.338   89.492    0.277    0.485    3.651
  323.588   88.794    0.281    0.486    3.651
  323.838   91.535    0.278    0.481    3.602
  324.088   93.540    0.277    0.481    3.483
  324.338   96.284    0.273    0.477    3.534
  324.588   96.283    0.282    0.485    3.648
  324.838   93.018    0.279    0.488    3.692
  325.088   90.632    0.278    0.481    3.733
  325.338   87.712    0.280    0.485    3.804
  325.588   85.915    0.273    0.480    3.690
  325.838   89.815    0.265    0.465    3.654
  326.088   90.420    0.256    0.461    3.542
  326.338   91.887    0.268    0.465    3.437
  326.588   94.370    0.257    0.462    3.332
  326.838   93.932    0.269    0.471    3.364
  327.088   91.278    0.261    0.463    3.465
  327.338   90.834    0.262    0.465    3.633
  327.588   89.590    0.263    0.468    3.746
  327.838   88.409    0.278    0.481    3.857
  328.088   87.939    0.285    0.494    3.740
  328.338   86.893    0.280    0.489    3.537
  328.588   85.834    0.289    0.497    3.512
  328.838   80.670    0.294    0.502    3.639
  329.088   78.547    0.286    0.493    4.248
  329.338   73.412    0.286    0.486    5.059
  329.588   54.251    0.288    0.492    6.747
  329.838   39.725    0.307    0.509    9.823
  330.088   31.907    0.340    0.534   14.454
  330.338   30.904    0.378    0.563   17.110
  330.588   32.572    0.392    0.600   17.379
  330.838   35.131    0.384    0.592   15.824
  331.088   37.453    0.374    0.578   14.364
  331.338   45.793    0.364    0.566   12.759
  331.588   49.942    0.354    0.558   12.296
  331.838   52.213    0.350    0.551   11.111
  332.088   51.867    0.356    0.561   11.064
  332.338   52.828    0.362    0.568   11.041
  332.588   54.550    0.366    0.572   11.327
  332.838   54.230    0.358    0.564   11.669
  333.088   53.691    0.351    0.560   11.752
  333.338   51.097    0.344    0.551   12.347
  333.588   46.120    0.322    0.533   12.527
  333.838   44.349    0.308    0.511   12.554
  334.088   48.879    0.272    0.490   12.270
  334.338   55.297    0.238    0.448   11.731
  334.588   59.813    0.286    0.489   11.031
  334.838   61.926    0.309    0.513   10.373
  335.088   64.955    0.312    0.506    9.589
  335.338   72.179    0.303    0.502    9.034
  335.588   78.542    0.274    0.488    8.504
  335.838   87.304    0.248    0.458    7.910
  336.088   92.938    0.243    0.449    7.438
  336.338   94.499    0.243    0.448    7.094
  336.588   94.178    0.247    0.452    6.672
  336.838   93.132    0.247    0.454    6.460
  337.088   92.159    0.236    0.443    6.771
  337.338   89.841    0.256    0.457    7.393
  337.588   84.346    0.275    0.478    8.071
  337.838   73.648    0.297    0.493    8.807
  338.088   65.326    0.326    0.518    9.522
  338.338   67.100    0.356    0.550   10.199
  338.588   69.433    0.355    0.558   10.626
  338.838   73.241    0.342    0.548   10.945
  339.088   75.833    0.332    0.540   10.938
  339.338   77.422    0.330    0.538   10.742
  339.588   78.296    0.326    0.532   10.548
  339.838   78.577    0.314    0.519   10.907
  340.088   84.610    0.304    0.508   11.354
  340.338   86.767    0.293    0.494   11.809
  340.588   73.818    0.280    0.482   12.389
  340.838   64.397    0.270    0.471   12.494
  341.088   58.064    0.260    0.469   12.601
  341.338   55.028    0.269    0.479   12.223
  341.588   49.722    0.279    0.485   11.949
  341.838   45.919    0.289    0.495   11.492
  342.088   45.607    0.304    0.509   11.027
  342.338   51.006    0.304    0.501   10.313
  342.588   54.635    0.274    0.479    9.588
  342.838   62.206    0.262    0.463    8.973
  343.088   67.164    0.241    0.444    8.163
  343.338   74.375    0.237    0.442    7.449
  343.588   82.565    0.251    0.457    7.171
  343.838   90.080    0.259    0.466    6.463
  344.088   95.809    0.247    0.455    6.017
  344.338  100.330    0.236    0.446    5.619
  344.588  101.748    0.221    0.437    5.395
  344.838  100.834    0.202    0.422    5.294
  345.088  104.889    0.192    0.403    5.273
  345.338  107.658    0.197    0.404    5.107
  345.588  107.936    0.208    0.410    4.903
  345.838  106.989    0.210    0.415    4.608
  346.088  106.592    0.224    0.424    4.342
  346.338  102.328    0.235    0.437    4.012
  346.588  100.516    0.234    0.438    3.713
  346.838  102.716    0.238    0.442    3.489
  347.088  104.667    0.229    0.438    3.417
  347.338  109.060    0.221    0.432    3.272
  347.588  115.498    0.232    0.442    3.249
  347.838  111.359    0.246    0.450    3.545
  348.088  106.228    0.240    0.443    4.168
  348.338  101.032    0.246    0.445    4.944
  348.588   96.392    0.267    0.469    6.069
  348.838   87.411    0.287    0.485    7.574
  349.088   84.471    0.287    0.491    8.647
  349.338   88.356    0.292    0.492    9.560
  349.588   90.734    0.293    0.494    9.810
  349.838   87.048    0.284    0.488    9.711
  350.088   83.409    0.285    0.491    9.625
  350.338   80.988    0.289    0.493    9.604
  350.588   78.352    0.293    0.499    9.874
  350.838   75.097    0.300    0.503   10.168
  351.088   73.766    0.307    0.515   10.375
  351.338   72.841    0.319    0.522    9.838
  351.588   75.765    0.305    0.509    8.919
  351.838   83.067    0.297    0.495    7.750
  352.088   91.017    0.279    0.479    6.873
  352.338   98.469    0.257    0.461    6.867
  352.588  101.999    0.251    0.456    7.358
  352.838   99.771    0.265    0.468    8.062
  353.088   96.584    0.270    0.473    8.827
  353.338   96.580    0.278    0.487    9.321
  353.588   95.026    0.294    0.496    9.604
  353.838   91.530    0.281    0.486   10.082
  354.088   87.505    0.274    0.480   10.108
  354.338   83.246    0.284    0.486    9.902
  354.588   78.995    0.288    0.491    9.494
  354.838   75.978    0.298    0.503    8.920
  355.088   83.184    0.293    0.497    8.553
  355.338   85.685    0.271    0.487    8.313
  355.588   89.278    0.261    0.471    7.894
  355.838   92.579    0.273    0.476    7.538
  356.088   94.790    0.282    0.485    7.312
  356.338   93.106    0.268    0.485    7.122
  356.588   92.125    0.260    0.470    7.596
  356.838   93.851    0.254    0.462    8.191
  357.088   86.027    0.262    0.466    8.870
  357.338   71.625    0.265    0.473    9.836
  357.588   60.555    0.264    0.474   11.021
  357.838   53.330    0.269    0.469   12.285
  358.088   47.812    0.295    0.497   12.862
  358.338   40.925    0.316    0.513   13.540
  358.588   36.719    0.332    0.546   13.918
  358.838   38.109    0.348    0.557   14.178
  359.088   41.416    0.356    0.556   14.459
  359.338   36.474    0.349    0.556   14.676
  359.588   33.487    0.356    0.561   14.693
  359.838   35.358    0.351    0.560   14.696
  360.088   40.253    0.347    0.555   14.690
  360.338   45.917    0.345    0.557   14.683
  360.588   47.867    0.349    0.561   14.679
  360.838   46.241    0.357    0.562   14.470
  361.088   44.471    0.350    0.557   14.321
  361.338   43.043    0.342    0.550   14.134
  361.588   46.060    0.334    0.545   13.751
  361.838   46.335    0.336    0.544   12.714
  362.088   52.667    0.335    0.541   11.229
  362.338   58.381    0.326    0.531    9.925
  362.588   62.504    0.318    0.519    9.008
  362.838   67.987    0.307    0.509    8.076
  363.088   73.465    0.298    0.506    7.460
  363.338   74.476    0.301    0.507    6.724
  363.588   79.967    0.293    0.498    6.108
  363.838   83.822    0.276    0.485    5.776
  364.088   87.574    0.275    0.478    5.841
  364.338   88.887    0.287    0.487    5.940
  364.588   90.891    0.282    0.483    6.090
  364.838   88.860    0.272    0.480    6.263
  365.088   86.445    0.282    0.482    6.571
  365.338   90.942    0.286    0.488    6.907
  365.588   92.378    0.277    0.482    7.210
  365.838   86.993    0.282    0.486    7.521
  366.088   83.051    0.296    0.499    7.846
  366.338   80.786    0.291    0.495    8.338
