~VERSION INFORMATION
 VERS.                 2.0:   CWLS LOG ASCII STANDARD -VERSION 2.0
 WRAP.                  NO:   ONE LINE PER DEPTH STEP
~WELL INFORMATION BLOCK
#MNEM.UNIT           DATA                    DESCRIPTION OF MNEMONIC
#---------    -------------------            -------------------------------
# Generated from Intellog Unique Number	CS_69_70/WELL/850
NULL.         -999.25                        : NULL_VALUE
WELL.         KISSINGER POETROLEUMS          : Well_name    - WELL              
LOC .         00/07-35-070-11W4/0            : Location     - LOCATION          
UWI .         00/07-35-070-11W4/0            : Uwi          - UNIQUE WELL ID    
ENTR.         SP                             : Entered      - ENTERED BY        
SRVC.         SCHLUMBERGER                   : Scn          - SERVICE COMPANY   
STRT.M        290                            : top_depth    - START DEPTH       
STOP.M        515                            : bot_depth    - STOP DEPTH        
STEP.M        0.25                           : increment    - STEP LENGTH       
~CURVE INFORMATION BLOCK
#MNEM UNIT       ERCB CURVE CODE    CURVE DESCRIPTION
#-----------   ------------------   ----------------------------------
DEPT.M        00 001 00 00         : DEPTH        - DEPTH                       
ILD .OHMM     00 120 00 00         : RESD         - DEEP RESISTIVITY (DIL)      
DPHI.V/V      00 890 00 00         : PHID         - DENSITY POROSITY (LIMESTONE)
NPHI.V/V      00 330 00 00         : PHIN         - NEUTRON POROSITY (LIMESTONE)
GR  .API      00 310 00 00         : GR           - GAMMA RAY                   
~PARAMETER INFORMATION       
#MNEM.UNIT           DATA             DESCRIPTION OF MNEMONIC
#---------         -----------     ------------------------------
GL  .M        622                  : gl           - GROUND LEVEL ELEVATION      
EREF.M        625.35               : kb           - ELEVATION OF DEPTH REFERENCE
DATM.M        622                  : datum        - DATUM ELEVATION             
TDD .M        515                  : tdd          - TOTAL DEPTH DRILLER         
RUN .         ONE                  : Run          - RUN NUMBER                  
ENG .         BILL                 : Engineer     - RECORDING ENGINEER          
WIT .         JIM                  : Witness      - WITNESSED BY                
MUD .         GEL                  : Mud_type     - MUD TYPE                    
MATR.         LIMESTONE            : Logunit      - NEUTRON MATRIX              
TMAX.C        18                   : BHT          - MAXIMUM RECORDED TEMPERATURE
BHTD.M        515                  : BHTDEP       - MAXIMUM RECORDED TEMPERATURE
MATR.         1                    : LOGUNIT      - NEUTRON MATRIX              
RMT .C        25                   : MDTP         - TEMPERATURE OF MUD          
NEUT.         1                    : NEUTRON      - NEUTRON TYPE                
RESI.         0                    : RESIST       - RESISTIVITY TYPE            
RMC .OHMM     0.25                 : RMC          - RESISTIVITY OF MUD CAKE     
RMF .OHMM     0.25                 : RMF          - RESISTIVITY OF MUD FILTRATE 
SUFT.C        15                   : SUFT         - SURFACE TEMPERATURE         
~A  DEPTH     RESD     PHID     PHIN       GR
# ...
  464.000    5.315    0.230    0.355  124.657
  464.250    5.393    0.233    0.340  108.760
  464.500    5.416    0.300    0.333  100.303
  464.750    5.214    0.319    0.341   96.020
  465.000    4.803    0.306    0.335   95.245
  465.250    4.537    0.281    0.335   98.464
  465.500    4.392    0.265    0.344  100.592
  465.750    4.398    0.269    0.345  102.056
  466.000    4.525    0.258    0.337  102.553
  466.250    4.836    0.245    0.335  103.712
  466.500    5.179    0.242    0.341  105.964
  466.750    5.522    0.234    0.324  107.971
  467.000    5.857    0.221    0.313  110.947
  467.250    6.160    0.211    0.317  114.226
  467.500    6.487    0.207    0.326  115.445
  467.750    6.718    0.236    0.330  113.824
  468.000    6.924    0.264    0.336  107.122
  468.250    7.027    0.301    0.334   97.577
  468.500    6.793    0.248    0.325  100.795
  468.750    6.335    0.229    0.313  104.678
  469.000    6.004    0.212    0.307  106.503
  469.250    6.307    0.216    0.320  105.369
  469.500    6.843    0.215    0.332  103.626
  469.750    7.386    0.219    0.336  101.277
  470.000    7.553    0.246    0.328   96.330
  470.250    7.287    0.279    0.322   92.348
  470.500    6.796    0.254    0.320   88.731
  470.750    6.370    0.244    0.325   88.925
  471.000    5.887    0.235    0.335   92.807
  471.250    5.589    0.218    0.333   97.901
  471.500    5.379    0.209    0.332   99.787
  471.750    5.346    0.204    0.333  101.252
  472.000    5.264    0.214    0.338  103.440
  472.250    5.142    0.234    0.344  105.568
  472.500    4.892    0.248    0.349  109.574
  472.750    4.594    0.259    0.358  113.455
  473.000    4.199    0.263    0.372  116.189
  473.250    3.989    0.202    0.383  119.469
  473.500    3.988    0.116    0.399  124.379
  473.750    4.892    0.136    0.406  130.682
  474.000    5.964    0.183    0.409  133.959
  474.250    7.534    0.234    0.392  123.264
  474.500    8.214    0.313    0.385  104.646
  474.750    8.516    0.342    0.377   94.618
  475.000    8.042    0.324    0.362   83.742
  475.250    6.662    0.314    0.354   73.954
  475.500    5.618    0.327    0.344   70.276
  475.750    4.783    0.339    0.338   68.413
  476.000    3.860    0.336    0.334   70.483
  476.250    3.185    0.330    0.333   75.273
  476.500    2.854    0.326    0.337   79.882
  476.750    2.709    0.322    0.351   81.527
  477.000    2.707    0.319    0.355   81.962
  477.250    2.785    0.318    0.352   82.095
  477.500    2.872    0.313    0.345   81.987
  477.750    3.046    0.299    0.341   82.422
  478.000    3.173    0.292    0.334   85.093
  478.250    3.420    0.290    0.329   90.246
  478.500    3.635    0.275    0.323   95.521
  478.750    3.986    0.260    0.327  101.162
  479.000    4.320    0.241    0.345  105.225
  479.250    4.440    0.217    0.351  108.561
  479.500    4.774    0.206    0.360  112.626
  479.750    4.893    0.195    0.372  115.057
  480.000    5.132    0.191    0.376  117.609
  480.250    5.211    0.196    0.363  119.376
  480.500    5.313    0.204    0.353  120.537
  480.750    5.312    0.220    0.344  122.060
  481.000    5.214    0.230    0.348  124.733
  481.250    5.317    0.219    0.341  124.684
  481.500    5.459    0.209    0.339  118.526
  481.750    5.498    0.224    0.337  109.767
  482.000    5.424    0.242    0.321   96.353
  482.250    5.198    0.244    0.310   90.919
  482.500    5.004    0.230    0.306   87.241
  482.750    4.979    0.218    0.308   91.064
  483.000    4.977    0.208    0.321   94.464
  483.250    5.008    0.221    0.343   97.681
  483.500    5.094    0.269    0.370  101.502
  483.750    5.301    0.336    0.411  108.289
  484.000    5.540    0.370    0.419  113.382
  484.250    5.746    0.411    0.396  113.696
  484.500    5.921    0.205    0.340  105.606
  484.750    5.992    0.225    0.322  100.533
  485.000    5.918    0.226    0.316   92.440
  485.250    5.748    0.245    0.325   85.920
  485.500    5.466    0.265    0.340   81.394
  485.750    5.087    0.268    0.335   83.524
  486.000    4.837    0.261    0.332   91.761
  486.250    4.731    0.235    0.328   96.068
  486.500    4.818    0.210    0.325  103.217
  486.750    5.121    0.189    0.351  109.822
  487.000    5.392    0.179    0.376  113.222
  487.250    5.711    0.177    0.353  110.815
  487.500    6.022    0.253    0.333  103.930
  487.750    5.724    0.275    0.335   94.022
  488.000    4.849    0.291    0.339   88.287
  488.250    3.981    0.308    0.337   81.404
  488.500    3.202    0.323    0.336   75.367
  488.750    2.439    0.321    0.341   67.939
  489.000    2.366    0.296    0.335   61.418
  489.250    2.661    0.281    0.325   66.087
  489.500    4.142    0.257    0.256   80.918
  489.750    8.076    0.241    0.217   90.850
  490.000   10.880    0.213    0.187  102.294
  490.250   12.706    0.018    0.166   86.821
  490.500   12.527    0.043    0.172   73.102
  490.750   11.412    0.055    0.202   64.101
  491.000   10.432    0.043    0.219   74.517
  491.250    9.405    0.035    0.246   89.469
  491.500    9.042    0.053    0.265  100.369
  491.750    9.145    0.064    0.256  101.711
  492.000    9.192    0.075    0.264  103.299
  492.250    9.190    0.077    0.270  104.156
  492.500    9.108    0.069    0.286  105.017
  492.750    8.866    0.064    0.290  105.329
  493.000    8.584    0.061    0.282  106.306
  493.250    8.302    0.065    0.277  108.015
  493.500    8.004    0.069    0.282  109.417
  493.750    7.665    0.070    0.286  110.878
  494.000    7.455    0.076    0.296  112.768
  494.250    7.229    0.086    0.307  114.171
  494.500    7.043    0.090    0.312  115.514
  494.750    6.889    0.094    0.319  113.829
  495.000    6.727    0.096    0.319  110.938
  495.250    6.598    0.058    0.318  106.049
  495.500    6.388    0.030    0.322  107.997
  495.750    6.218    0.045    0.318  110.552
  496.000    6.056    0.088    0.325  112.257
  496.250    5.934    0.099    0.332  113.478
  496.500    5.828    0.097    0.340  114.638
  496.750    5.739    0.113    0.342  115.738
  497.000    5.649    0.099    0.335  117.141
  497.250    5.583    0.094    0.334  118.363
  497.500    5.549    0.097    0.327  118.314
  497.750    5.572    0.091    0.321  118.268
  498.000    5.635    0.079    0.332  118.461
  498.250    5.681    0.116    0.341  118.531
  498.500    5.711    0.138    0.348  119.268
  498.750    5.766    0.135    0.338  119.885
  499.000    5.796    0.115    0.323  120.381
  499.250    5.827    0.099    0.317  120.332
  499.500    5.849    0.090    0.320  119.679
  499.750    5.879    0.092    0.324  119.207
  500.000    5.918    0.097    0.329  119.218
  500.250    5.964    0.092    0.334  119.230
  500.500    6.003    0.087    0.331  119.908
  500.750    6.017    0.085    0.330  120.101
  501.000    6.016    0.089    0.332  119.024
  501.250    6.014    0.099    0.335  118.188
  501.500    5.989    0.106    0.339  117.958
  501.750    5.955    0.098    0.337  118.576
  502.000    5.929    0.090    0.330  119.314
  502.250    5.904    0.085    0.324  120.293
  502.500    5.862    0.079    0.320  120.909
  502.750    5.829    0.074    0.330  120.377
  503.000    5.771    0.102    0.331  119.118
  503.250    5.665    0.094    0.329  118.344
  503.500    5.591    0.084    0.324  118.597
  503.750    5.493    0.078    0.323  119.154
  504.000    5.436    0.074    0.326  119.225
  504.250    5.362    0.072    0.334  117.363
  504.500    5.344    0.075    0.338  116.709
  504.750    5.295    0.088    0.331  117.205
  505.000    5.229    0.102    0.329  118.247
  505.250    5.155    0.092    0.328  119.103
  505.500    5.146    0.093    0.331  120.027
  505.750    5.096    0.103    0.334  120.399
  506.000    5.053    0.107    0.335  120.772
  506.250    5.021    0.109    0.336  121.026
  506.500    5.035    0.098    0.337  120.795
  506.750    5.009    0.083    0.346  121.292
  507.000    4.935    0.075    0.359  121.304
  507.250    4.894    0.086    0.365  120.226
