~VERSION INFORMATION
 VERS.                 2.0:   CWLS LOG ASCII STANDARD -VERSION 2.0
 WRAP.                  NO:   ONE LINE PER DEPTH STEP
~WELL INFORMATION BLOCK
#MNEM.UNIT           DATA                    DESCRIPTION OF MNEMONIC
#---------    -------------------            -------------------------------
# Generated from Intellog Unique Number	CS_73_76/WELL/2169
WELL.         CANADA CITIES SERVICE LTD      : Well_name    - WELL
LOC .         00/06-26-074-03W4/0            : Location     - LOCATION
UWI .         00/06-26-074-03W4/0            : Uwi          - UNIQUE WELL ID
ENTR.         SP                             : Entered      - ENTERED BY
SRVC.         SCHLUMBERGER                   : Scn          - SERVICE COMPANY
STRT.M        310                            : top_depth    - START DEPTH
STOP.M        555                            : bot_depth    - STOP DEPTH
STEP.M        0.25                           : increment    - STEP LENGTH
 NULL. -999.2500:NULL Value
~CURVE INFORMATION BLOCK
#MNEM UNIT       ERCB CURVE CODE    CURVE DESCRIPTION
#-----------   ------------------   ----------------------------------
DEPT.M        00 001 00 00         : DEPTH        - DEPTH
ILD .OHMM     00 120 00 00         : RESD         - DEEP RESISTIVITY (DIL)
DPHI.V/V      00 890 00 00         : PHID         - DENSITY POROSITY (LIMESTONE)
NPHI.V/V      00 330 00 00         : PHIN         - NEUTRON POROSITY (LIMESTONE)
GR  .API      00 310 00 00         : GR           - GAMMA RAY
~PARAMETER INFORMATION
#MNEM.UNIT           DATA             DESCRIPTION OF MNEMONIC
#---------         -----------     ------------------------------
GL  .M        657.2                : gl           - GROUND LEVEL ELEVATION
EREF.M        660.66               : kb           - ELEVATION OF DEPTH REFERENCE
DATM.M        657.2                : datum        - DATUM ELEVATION
TDD .M        570                  : tdd          - TOTAL DEPTH DRILLER
RUN .         ONE                  : Run          - RUN NUMBER
ENG .         BILL                 : Engineer     - RECORDING ENGINEER
WIT .         JIM                  : Witness      - WITNESSED BY
MUD .         GEL                  : Mud_type     - MUD TYPE
MATR.         LIMESTONE            : Logunit      - NEUTRON MATRIX
TMAX.C        10                   : BHT          - MAXIMUM RECORDED TEMPERATURE
BHTD.M        570                  : BHTDEP       - MAXIMUM RECORDED TEMPERATURE
MATR.         1                    : LOGUNIT      - NEUTRON MATRIX
RMT .C        25                   : MDTP         - TEMPERATURE OF MUD
NEUT.         1                    : NEUTRON      - NEUTRON TYPE
RESI.         0                    : RESIST       - RESISTIVITY TYPE
RMC .OHMM     0.25                 : RMC          - RESISTIVITY OF MUD CAKE
RMF .OHMM     0.25                 : RMF          - RESISTIVITY OF MUD FILTRATE
SUFT.C        15                   : SUFT         - SURFACE TEMPERATURE
~A  DEPTH     RESD     PHID     PHIN       GR
# ...
  440.500    3.078    0.318    0.473   59.273
  440.750    3.022    0.322    0.469   59.253
  441.000    3.081    0.321    0.486   58.631
  441.250    3.083    0.325    0.498   58.008
  441.500    3.203    0.323    0.492   58.600
  441.750    3.327    0.327    0.479   56.759
  442.000    3.587    0.271    0.472   56.136
  442.250    4.016    0.200    0.446   53.080
  442.500    4.411    0.093    0.323   50.639
  442.750    4.668    0.098    0.227   49.407
  443.000    4.941    0.129    0.311   53.640
  443.250    4.763    0.241    0.366   59.689
  443.500    4.261    0.283    0.418   62.108
  443.750    3.605    0.320    0.445   62.699
  444.000    3.474    0.325    0.464   63.889
  444.250    3.227    0.313    0.472   64.488
  444.500    3.054    0.300    0.478   65.071
  444.750    2.999    0.298    0.478   65.061
  445.000    3.058    0.300    0.472   64.437
  445.250    3.060    0.282    0.469   65.025
  445.500    3.119    0.252    0.467   67.437
  445.750    3.302    0.226    0.451   73.487
  446.000    3.429    0.211    0.455   77.118
  446.250    3.562    0.205    0.447   79.533
  446.500    3.771    0.233    0.456   80.124
  446.750    3.773    0.222    0.463   80.105
  447.000    3.847    0.209    0.475   75.836
  447.250    3.849    0.224    0.494   74.001
  447.500    3.781    0.234    0.484   75.194
  447.750    3.782    0.236    0.485   74.572
  448.000    3.648    0.241    0.490   73.338
  448.250    3.582    0.246    0.478   73.321
  448.500    3.518    0.257    0.468   74.525
  448.750    3.455    0.258    0.473   76.937
  449.000    3.393    0.253    0.482   79.344
  449.250    3.334    0.258    0.501   79.333
  449.500    3.398    0.268    0.511   79.924
  449.750    3.465    0.264    0.495   80.514
  450.000    3.532    0.247    0.484   83.532
  450.250    3.470    0.241    0.481   83.516
  450.500    3.346    0.250    0.473   80.460
  450.750    3.286    0.268    0.462   79.233
  451.000    3.287    0.268    0.449   76.784
  451.250    3.290    0.247    0.444   74.338
  451.500    3.292    0.229    0.455   74.931
  451.750    3.356    0.206    0.460   77.951
  452.000    3.422    0.194    0.467   79.755
  452.250    3.424    0.203    0.477   77.918
  452.500    3.121    0.203    0.484   77.294
  452.750    2.591    0.227    0.496   77.882
  453.000    2.319    0.251    0.520   78.472
  453.250    2.114    0.246    0.545   79.062
  453.500    2.037    0.246    0.565   79.047
  453.750    1.963    0.261    0.571   78.419
  454.000    1.929    0.248    0.550   78.406
  454.250    1.930    0.249    0.533   75.958
  454.500    1.968    0.241    0.545   76.550
  454.750    2.006    0.246    0.565   77.135
  455.000    2.085    0.233    0.537   78.338
  455.250    2.086    0.221    0.526   79.539
  455.500    2.126    0.226    0.522   81.949
  455.750    2.251    0.234    0.534   84.359
  456.000    2.338    0.246    0.548   84.951
  456.250    2.569    0.242    0.546   81.287
  456.500    2.718    0.214    0.519   79.455
  456.750    2.823    0.203    0.498   73.971
  457.000    2.988    0.236    0.486   72.135
  457.250    3.103    0.256    0.454   67.256
  457.500    3.165    0.272    0.436   63.598
  457.750    3.166    0.276    0.452   61.762
  458.000    2.996    0.285    0.458   62.353
  458.250    2.998    0.268    0.409   64.154
  458.500    3.000    0.230    0.400   68.390
  458.750    3.175    0.227    0.409   78.084
  459.000    3.237    0.200    0.432   85.353
  459.250    3.121    0.194    0.469   91.412
  459.500    3.008    0.192    0.494   91.391
  459.750    2.955    0.196    0.503   90.160
  460.000    3.012    0.201    0.508   88.326
  460.250    3.188    0.213    0.486   86.490
  460.500    3.250    0.221    0.467   83.437
  460.750    3.377    0.238    0.479   80.385
  461.000    3.443    0.213    0.468   82.187
  461.250    3.381    0.192    0.464   85.817
  461.500    3.383    0.198    0.473   88.229
  461.750    3.262    0.209    0.488   91.248
  462.000    3.087    0.221    0.514   94.265
  462.250    2.975    0.230    0.530   91.822
  462.500    2.869    0.221    0.543   88.767
  462.750    2.817    0.208    0.531   89.357
  463.000    2.819    0.223    0.498   89.949
  463.250    2.984    0.225    0.512   85.070
  463.500    3.157    0.219    0.525   79.591
  463.750    3.535    0.229    0.496   75.327
  464.000    3.740    0.220    0.447   73.486
  464.250    3.958    0.208    0.434   74.683
  464.500    4.111    0.213    0.435   72.238
  464.750    4.271    0.223    0.402   68.576
  465.000    4.355    0.234    0.405   66.739
  465.250    4.358    0.237    0.399   66.117
  465.500    4.444    0.241    0.395   66.102
  465.750    4.529    0.243    0.405   65.478
  466.000    4.618    0.230    0.410   66.674
  466.250    4.708    0.231    0.409   67.266
  466.500    4.711    0.224    0.400   69.070
  466.750    4.716    0.203    0.394   67.231
  467.000    4.631    0.180    0.399   65.394
  467.250    4.464    0.189    0.400   62.340
  467.500    4.146    0.192    0.392   61.109
  467.750    3.851    0.240    0.398   61.701
  468.000    3.782    0.258    0.414   66.538
  468.250    3.645    0.262    0.438   70.164
  468.500    3.580    0.256    0.441   72.578
  468.750    3.584    0.248    0.423   75.598
  469.000    3.653    0.253    0.421   77.403
  469.250    3.724    0.247    0.421   76.173
  469.500    3.797    0.252    0.418   74.335
  469.750    3.871    0.251    0.415   73.103
  470.000    4.021    0.244    0.405   74.906
  470.250    4.177    0.235    0.402   73.673
  470.500    4.339    0.241    0.402   70.011
  470.750    4.507    0.246    0.392   67.570
  471.000    4.595    0.256    0.395   63.908
  471.250    4.774    0.252    0.404   61.466
  471.500    4.776    0.249    0.416   59.627
  471.750    4.871    0.257    0.389   65.682
  472.000    4.966    0.250    0.374   79.630
  472.250    5.062    0.238    0.380   87.509
  472.500    5.161    0.223    0.398   89.921
  472.750    5.362    0.165    0.404   91.116
  473.000    5.466    0.168    0.414   91.707
  473.250    5.679    0.178    0.405   91.690
  473.500    5.789    0.156    0.409   93.497
  473.750    6.014    0.162    0.408   92.263
  474.000    6.246    0.164    0.386   90.427
  474.250    6.368    0.160    0.379   89.196
  474.500    6.492    0.155    0.371   91.001
  474.750    6.497    0.149    0.374   94.628
  475.000    6.751    0.150    0.385   89.754
  475.250    6.753    0.153    0.387   83.057
  475.500    6.758    0.156    0.375   80.004
  475.750    6.764    0.148    0.362   81.202
  476.000    6.769    0.142    0.365   84.822
  476.250    6.773    0.172    0.386   86.635
  476.500    6.776    0.164    0.397   90.866
  476.750    6.783    0.155    0.402   92.065
  477.000    6.787    0.152    0.415   90.222
  477.250    6.790    0.155    0.380   87.779
  477.500    6.547    0.154    0.355   82.907
  477.750    6.194    0.151    0.350   79.248
  478.000    5.542    0.170    0.352   79.837
  478.250    4.959    0.220    0.355   74.960
  478.500    4.691    0.245    0.355   69.481
  478.750    4.276    0.265    0.356   64.608
  479.000    4.045    0.267    0.356   61.553
  479.250    3.827    0.250    0.340   73.680
  479.500    3.761    0.219    0.338   80.345
  479.750    3.694    0.231    0.343   72.433
  480.000    3.696    0.254    0.347   66.344
  480.250    3.629    0.267    0.345   59.645
  480.500    3.499    0.268    0.345   56.596
  480.750    3.436    0.277    0.352   62.650
  481.000    3.314    0.260    0.354   71.133
  481.250    3.316    0.264    0.358   70.509
  481.500    3.444    0.254    0.346   65.029
  481.750    3.512    0.241    0.337   60.760
  482.000    3.717    0.238    0.339   58.314
  482.250    3.515    0.239    0.341   57.084
  482.500    3.584    0.253    0.345   54.641
  482.750    3.654    0.254    0.346   49.766
  483.000    3.726    0.249    0.346   47.320
  483.250    3.799    0.246    0.345   49.732
  483.500    3.947    0.244    0.343   54.574
  483.750    4.024    0.240    0.342   61.843
