~VERSION INFORMATION
 VERS.                 2.0:   CWLS LOG ASCII STANDARD -VERSION 2.0
 WRAP.                  NO:   ONE LINE PER DEPTH STEP
~WELL INFORMATION BLOCK
#MNEM.UNIT           DATA                    DESCRIPTION OF MNEMONIC
#---------    -------------------            -------------------------------
# Generated from Intellog Unique Number	CS_67_68/WELL/702
WELL.         FISHER CREEK                   : Well_name    - WELL
LOC .         00/06-29-068-04W4/0            : Location     - LOCATION
UWI .         00/06-29-068-04W4/0            : Uwi          - UNIQUE WELL ID
ENTR.         SP                             : Entered      - ENTERED BY
SRVC.         SCHLUMBERGER                   : Scn          - SERVICE COMPANY
STRT.M        350                            : top_depth    - START DEPTH
STOP.M        585                            : bot_depth    - STOP DEPTH
STEP.M        0.25                           : increment    - STEP LENGTH
 NULL. -999.2500:NULL Value
~CURVE INFORMATION BLOCK
#MNEM UNIT       ERCB CURVE CODE    CURVE DESCRIPTION
#-----------   ------------------   ----------------------------------
DEPT.M        00 001 00 00         : DEPTH        - DEPTH
ILD .OHMM     00 120 00 00         : RESD         - DEEP RESISTIVITY (DIL)
DPHI.V/V      00 890 00 00         : PHID         - DENSITY POROSITY (LIMESTONE)
NPHI.V/V      00 330 00 00         : PHIN         - NEUTRON POROSITY (LIMESTONE)
GR  .API      00 310 00 00         : GR           - GAMMA RAY
~PARAMETER INFORMATION
#MNEM.UNIT           DATA             DESCRIPTION OF MNEMONIC
#---------         -----------     ------------------------------
GL  .M        710.98               : gl           - GROUND LEVEL ELEVATION
EREF.M        714.48               : kb           - ELEVATION OF DEPTH REFERENCE
DATM.M        710.98               : datum        - DATUM ELEVATION
TDD .M        589                  : tdd          - TOTAL DEPTH DRILLER
RUN .         ONE                  : Run          - RUN NUMBER
ENG .         BILL                 : Engineer     - RECORDING ENGINEER
WIT .         JIM                  : Witness      - WITNESSED BY
MUD .         GEL                  : Mud_type     - MUD TYPE
MATR.         LIMESTONE            : Logunit      - NEUTRON MATRIX
TMAX.C        29                   : BHT          - MAXIMUM RECORDED TEMPERATURE
BHTD.M        589                  : BHTDEP       - MAXIMUM RECORDED TEMPERATURE
MATR.         1                    : LOGUNIT      - NEUTRON MATRIX
RMT .C        25                   : MDTP         - TEMPERATURE OF MUD
NEUT.         1                    : NEUTRON      - NEUTRON TYPE
RESI.         0                    : RESIST       - RESISTIVITY TYPE
RMC .OHMM     0.25                 : RMC          - RESISTIVITY OF MUD CAKE
RMF .OHMM     0.25                 : RMF          - RESISTIVITY OF MUD FILTRATE
SUFT.C        15                   : SUFT         - SURFACE TEMPERATURE
~A  DEPTH     RESD     PHID     PHIN       GR
# ...
  437.000    6.740    0.328    0.458   70.739
  437.250    6.820    0.340    0.443   66.999
  437.500    6.953    0.342    0.431   65.160
  437.750    7.103    0.338    0.425   66.388
  438.000    7.202    0.331    0.424   67.984
  438.250    7.261    0.325    0.428   69.887
  438.500    7.185    0.322    0.431   71.053
  438.750    7.083    0.318    0.433   70.993
  439.000    7.036    0.317    0.438   70.320
  439.250    7.000    0.328    0.436   69.034
  439.500    6.992    0.337    0.429   68.237
  439.750    6.998    0.329    0.425   67.564
  440.000    7.028    0.328    0.425   67.443
  440.250    7.073    0.332    0.434   67.751
  440.500    7.077    0.328    0.440   66.771
  440.750    7.055    0.323    0.427   64.748
  441.000    7.034    0.319    0.418   67.141
  441.250    6.999    0.317    0.418   68.185
  441.500    6.952    0.324    0.444   67.757
  441.750    6.943    0.330    0.453   66.287
  442.000    6.922    0.332    0.454   65.981
  442.250    6.914    0.322    0.459   67.087
  442.500    6.906    0.319    0.467   67.824
  442.750    6.924    0.329    0.461   67.948
  443.000    6.967    0.338    0.450   67.091
  443.250    7.025    0.328    0.444   66.479
  443.500    7.029    0.328    0.438   67.093
  443.750    6.969    0.325    0.441   71.387
  444.000    6.895    0.309    0.439   76.172
  444.250    6.760    0.298    0.433   80.527
  444.500    6.601    0.298    0.433   84.331
  444.750    6.459    0.284    0.446   87.828
  445.000    6.391    0.270    0.462   91.263
  445.250    6.383    0.258    0.475   93.840
  445.500    6.400    0.255    0.489   95.068
  445.750    6.381    0.254    0.495   95.805
  446.000    6.325    0.250    0.483   95.868
  446.250    6.189    0.249    0.474   94.029
  446.500    6.044    0.265    0.464   91.210
  446.750    5.936    0.263    0.460   93.603
  447.000    5.930    0.255    0.459   95.996
  447.250    5.966    0.246    0.462   97.591
  447.500    6.027    0.239    0.476   97.409
  447.750    6.122    0.235    0.477   95.938
  448.000    6.184    0.234    0.471   97.841
  448.250    6.142    0.235    0.470  100.908
  448.500    6.078    0.239    0.477  102.013
  448.750    5.880    0.237    0.480  100.788
  449.000    5.678    0.262    0.483   95.270
  449.250    5.463    0.275    0.495   95.027
  449.500    5.326    0.286    0.508   95.090
  449.750    5.299    0.276    0.511   95.336
  450.000    5.273    0.261    0.502   96.993
  450.250    5.356    0.254    0.492  100.490
  450.500    5.261    0.267    0.479  103.373
  450.750    5.005    0.260    0.471  106.012
  451.000    4.493    0.250    0.461  107.791
  451.250    4.094    0.244    0.457  109.264
  451.500    3.682    0.253    0.455  110.676
  451.750    3.220    0.245    0.464  107.550
  452.000    2.632    0.236    0.483  107.061
  452.250    2.230    0.310    0.542  108.350
  452.500    2.178    0.366    0.559  109.945
  452.750    2.613    0.292    0.525  109.088
  453.000    3.147    0.259    0.505  107.986
  453.250    3.673    0.243    0.489  108.539
  453.500    4.013    0.226    0.476  109.767
  453.750    4.177    0.217    0.476  110.381
  454.000    4.323    0.222    0.467  106.703
  454.250    4.424    0.231    0.454  101.553
  454.500    4.460    0.238    0.443   99.408
  454.750    4.446    0.269    0.482  101.188
  455.000    4.392    0.318    0.509  102.232
  455.250    4.217    0.275    0.518  102.233
  455.500    3.794    0.253    0.504  101.928
  455.750    3.482    0.280    0.498  100.335
  456.000    3.179    0.313    0.503   98.619
  456.250    2.941    0.348    0.519   95.738
  456.500    2.840    0.349    0.535   93.287
  456.750    3.757    0.331    0.527   90.528
  457.000    4.585    0.322    0.501   88.628
  457.250    5.094    0.319    0.474   87.648
  457.500    5.588    0.310    0.464   87.527
  457.750    5.816    0.306    0.460   87.161
  458.000    5.941    0.309    0.463   85.077
  458.250    6.013    0.320    0.466   81.031
  458.500    6.016    0.325    0.476   77.291
  458.750    5.999    0.325    0.485   74.594
  459.000    6.025    0.327    0.476   73.676
  459.250    6.063    0.330    0.468   74.045
  459.500    6.090    0.332    0.459   74.475
  459.750    6.128    0.343    0.455   74.784
  460.000    6.155    0.345    0.458   74.540
  460.250    6.136    0.344    0.454   74.112
  460.500    6.005    0.342    0.452   70.372
  460.750    5.908    0.345    0.459   69.576
  461.000    5.769    0.349    0.474   71.478
  461.250    5.752    0.341    0.476   73.626
  461.500    5.843    0.331    0.474   73.934
  461.750    5.869    0.330    0.479   73.568
  462.000    5.884    0.334    0.491   72.710
  462.250    5.943    0.334    0.485   73.018
  462.500    6.197    0.335    0.475   72.529
  462.750    6.747    0.345    0.464   69.709
  463.000    7.373    0.351    0.455   67.442
  463.250    7.745    0.347    0.467   68.976
  463.500    8.077    0.339    0.483   70.695
  463.750    8.173    0.336    0.495   70.880
  464.000    6.924    0.341    0.482   69.287
  464.250    6.181    0.340    0.471   68.491
  464.500    5.664    0.338    0.460   73.337
  464.750    5.480    0.336    0.453   76.159
  465.000    5.372    0.333    0.446   79.901
  465.250    5.277    0.324    0.452   83.153
  465.500    5.289    0.308    0.473   86.159
  465.750    5.353    0.312    0.481   88.552
  466.000    5.387    0.307    0.483   89.657
  466.250    5.350    0.291    0.485   90.701
  466.500    5.284    0.278    0.488   90.948
  466.750    5.268    0.303    0.500   89.968
  467.000    5.351    0.310    0.506   87.210
  467.250    5.507    0.315    0.510   86.107
  467.500    5.626    0.318    0.495   85.066
  467.750    5.651    0.320    0.478   83.105
  468.000    5.623    0.321    0.471   80.224
  468.250    5.512    0.311    0.465   82.249
  468.500    5.186    0.304    0.471   86.114
  468.750    4.869    0.294    0.477   89.242
  469.000    4.589    0.285    0.482   92.862
  469.250    4.325    0.278    0.491   94.948
  469.500    3.980    0.269    0.506   95.869
  469.750    3.974    0.263    0.517   96.116
  470.000    4.082    0.266    0.521   94.032
  470.250    4.378    0.285    0.522   92.501
  470.500    4.463    0.302    0.513   92.931
  470.750    4.384    0.299    0.500   94.282
  471.000    4.362    0.296    0.486   95.509
  471.250    4.506    0.270    0.475   96.799
  471.500    4.824    0.241    0.473   97.720
  471.750    5.001    0.271    0.484   99.070
  472.000    4.532    0.300    0.504  100.850
  472.250    3.782    0.310    0.521  102.936
  472.500    3.289    0.291    0.533  105.391
  472.750    2.760    0.281    0.543  106.864
  473.000    2.459    0.282    0.554  108.214
  473.250    2.191    0.282    0.547  108.890
  473.500    2.185    0.272    0.537  108.707
  473.750    2.274    0.268    0.532  108.770
  474.000    2.453    0.265    0.530  109.569
  474.250    2.577    0.265    0.529  110.490
  474.500    2.697    0.269    0.530  111.779
  474.750    2.817    0.275    0.533  112.884
  475.000    2.921    0.270    0.537  112.150
  475.250    2.896    0.273    0.545  104.608
  475.500    3.366    0.278    0.533   91.056
  475.750    4.209    0.280    0.518   81.062
  476.000    5.204    0.277    0.504   79.040
  476.250    6.198    0.274    0.492   78.980
  476.500    7.396    0.270    0.480   79.410
  476.750    8.516    0.280    0.468   78.921
  477.000    9.464    0.288    0.464   76.040
  477.250   10.132    0.294    0.462   72.730
  477.500   10.866    0.301    0.458   68.070
  477.750   11.653    0.311    0.455   65.619
  478.000   12.639    0.321    0.454   63.842
  478.250   13.631    0.315    0.465   63.414
  478.500   14.482    0.321    0.469   63.415
  478.750   15.073    0.327    0.462   63.600
  479.000   15.425    0.334    0.459   63.786
  479.250   16.176    0.340    0.464   61.948
  479.500   17.447    0.337    0.462   61.826
  479.750   18.605    0.335    0.455   61.705
  480.000   19.255    0.336    0.449   62.135
  480.250   19.269    0.331    0.445   63.302
