~VERSION INFORMATION
 VERS.                 2.0:   CWLS LOG ASCII STANDARD -VERSION 2.0
 WRAP.                  NO:   ONE LINE PER DEPTH STEP
~WELL INFORMATION BLOCK
#MNEM.UNIT           DATA                    DESCRIPTION OF MNEMONIC
#---------    -------------------            -------------------------------
# Generated from Intellog Unique Number	CS_73_76/WELL/772
WELL.         BOW VALLEY INDUSTRIES LTD      : Well_name    - WELL
LOC .         00/07-27-073-18W4/0            : Location     - LOCATION
UWI .         00/07-27-073-18W4/0            : Uwi          - UNIQUE WELL ID
ENTR.         SP                             : Entered      - ENTERED BY
SRVC.         SCHLUMBERGER                   : Scn          - SERVICE COMPANY
STRT.M        204.216                        : top_depth    - START DEPTH
STOP.M        444.716                        : bot_depth    - STOP DEPTH
STEP.M        0.25                           : increment    - STEP LENGTH
 NULL. -999.2500:NULL Value
~CURVE INFORMATION BLOCK
#MNEM UNIT       ERCB CURVE CODE    CURVE DESCRIPTION
#-----------   ------------------   ----------------------------------
DEPT.M        00 001 00 00         : DEPTH        - DEPTH
GR  .API      00 310 00 00         : GR           - GAMMA RAY
DPHI.V/V      00 890 00 00         : PHID         - DENSITY POROSITY (SANDSTONE)
NPHI.V/V      00 330 00 00         : PHIN         - NEUTRON POROSITY (SANDSTONE)
ILD .OHMM     00 120 00 00         : RESD         - DEEP RESISTIVITY (DIL)
~PARAMETER INFORMATION
#MNEM.UNIT           DATA             DESCRIPTION OF MNEMONIC
#---------         -----------     ------------------------------
GL  .M        582.168              : gl           - GROUND LEVEL ELEVATION
EREF.M        585.216              : kb           - ELEVATION OF DEPTH REFERENCE
DATM.M        582.168              : datum        - DATUM ELEVATION
TDD .M        443.789              : tdd          - TOTAL DEPTH DRILLER
RUN .         ONE                  : Run          - RUN NUMBER
ENG .         BILL                 : Engineer     - RECORDING ENGINEER
WIT .         JIM                  : Witness      - WITNESSED BY
MUD .         GEL                  : Mud_type     - MUD TYPE
MATR.         SANDSTONE            : Logunit      - NEUTRON MATRIX
TMAX.C        22.2222              : BHT          - MAXIMUM RECORDED TEMPERATURE
BHTD.M        443.179              : BHTDEP       - MAXIMUM RECORDED TEMPERATURE
MATR.         1                    : LOGUNIT      - NEUTRON MATRIX
RMT .C        25                   : MDTP         - TEMPERATURE OF MUD
NEUT.         1                    : NEUTRON      - NEUTRON TYPE
RESI.         0                    : RESIST       - RESISTIVITY TYPE
RMC .OHMM     0.25                 : RMC          - RESISTIVITY OF MUD CAKE
RMF .OHMM     0.25                 : RMF          - RESISTIVITY OF MUD FILTRATE
SUFT.C        15                   : SUFT         - SURFACE TEMPERATURE
~A  DEPTH       GR     PHID     PHIN     RESD
# ...
  291.216   61.431    0.231    0.417    7.473
  291.466   64.119    0.229    0.416    6.885
  291.716   65.309    0.234    0.442    6.485
  291.966   65.884    0.236    0.458    5.804
  292.216   64.626    0.252    0.472    5.608
  292.466   60.846    0.264    0.485    5.728
  292.716   58.559    0.279    0.487    6.046
  292.966   59.293    0.265    0.479    6.595
  293.216   57.954    0.243    0.477    7.290
  293.466   56.906    0.233    0.483    7.763
  293.716   56.696    0.255    0.490    8.050
  293.966   57.277    0.273    0.482    8.318
  294.216   57.265    0.279    0.466    7.926
  294.466   58.058    0.259    0.445    7.572
  294.716   59.042    0.242    0.428    7.119
  294.966   59.817    0.222    0.443    6.535
  295.216   59.752    0.234    0.463    6.162
  295.466   58.466    0.239    0.478    5.745
  295.716   52.628    0.245    0.495    5.258
  295.966   46.952    0.270    0.506    5.216
  296.216   41.451    0.289    0.476    5.407
  296.466   37.050    0.314    0.457    6.033
  296.716   31.898    0.304    0.439    6.769
  296.966   29.991    0.293    0.432    7.192
  297.216   31.259    0.290    0.420    7.628
  297.466   31.608    0.297    0.410    7.861
  297.716   33.332    0.303    0.398    7.807
  297.966   34.242    0.307    0.403    7.753
  298.216   34.267    0.304    0.409    7.858
  298.466   33.596    0.301    0.413    8.214
  298.716   32.979    0.311    0.414    8.181
  298.966   33.018    0.304    0.408    8.185
  299.216   33.022    0.303    0.399    8.230
  299.466   33.005    0.305    0.395    8.337
  299.716   33.600    0.308    0.393    8.339
  299.966   34.239    0.315    0.398    8.340
  300.216   35.353    0.317    0.407    8.330
  300.466   36.724    0.310    0.412    8.516
  300.716   38.023    0.310    0.419    8.524
  300.966   38.539    0.313    0.428    8.648
  301.216   38.523    0.312    0.416    8.770
  301.466   38.515    0.308    0.406    8.675
  301.716   39.004    0.310    0.406    8.833
  301.966   39.126    0.318    0.413    8.839
  302.216   39.146    0.323    0.423    8.658
  302.466   39.151    0.319    0.425    8.660
  302.716   39.154    0.312    0.419    8.618
  302.966   39.157    0.320    0.421    8.500
  303.216   39.183    0.329    0.423    8.502
  303.466   39.310    0.325    0.413    8.503
  303.716   39.235    0.318    0.405    8.501
  303.966   38.898    0.312    0.397    8.424
  304.216   38.645    0.309    0.398    8.350
  304.466   39.217    0.307    0.405    8.347
  304.716   39.438    0.307    0.412    8.352
  304.966   39.786    0.309    0.427    8.356
  305.216   39.865    0.315    0.421    8.512
  305.466   39.161    0.318    0.431    8.454
  305.716   38.595    0.317    0.434    8.351
  305.966   37.849    0.316    0.425    8.200
  306.216   39.609    0.314    0.419    8.036
  306.466   40.440    0.315    0.412    7.907
  306.716   40.430    0.318    0.408    7.915
  306.966   40.408    0.323    0.417    7.738
  307.216   40.963    0.326    0.425    7.752
  307.466   41.031    0.319    0.416    7.755
  307.716   41.046    0.301    0.407    7.764
  307.966   41.123    0.301    0.413    7.902
  308.216   40.484    0.303    0.411    7.845
  308.466   39.208    0.309    0.409    7.753
  308.716   39.268    0.310    0.407    7.768
  308.966   39.333    0.306    0.410    7.595
  309.216   41.040    0.315    0.415    7.611
  309.466   41.099    0.321    0.419    7.608
  309.716   40.286    0.321    0.429    7.585
  309.966   39.855    0.323    0.441    7.459
  310.216   39.929    0.324    0.451    7.629
  310.466   39.229    0.324    0.445    7.631
  310.716   38.807    0.323    0.437    7.766
  310.966   37.804    0.317    0.427    7.809
  311.216   36.827    0.315    0.433    8.063
  311.466   38.375    0.318    0.442    8.452
  311.716   39.738    0.313    0.445    8.553
  311.966   40.499    0.309    0.437    8.846
  312.216   40.816    0.311    0.434    8.960
  312.466   39.744    0.314    0.432    9.052
  312.716   38.700    0.314    0.428    9.188
  312.966   38.335    0.314    0.421    9.190
  313.216   38.011    0.314    0.412    9.201
  313.466   36.951    0.313    0.406    8.892
  313.716   35.941    0.320    0.403    8.855
  313.966   34.889    0.322    0.415    8.836
  314.216   33.825    0.318    0.428    8.680
  314.466   33.140    0.317    0.432    8.696
  314.716   33.214    0.324    0.427    8.517
  314.966   33.647    0.322    0.423    8.379
  315.216   33.683    0.318    0.423    8.206
  315.466   32.630    0.321    0.424    8.069
  315.716   32.618    0.319    0.424    7.825
  315.966   32.509    0.316    0.439    7.581
  316.216   31.967    0.316    0.442    7.488
  316.466   32.644    0.318    0.450    7.331
  316.716   33.377    0.333    0.445    7.349
  316.966   33.879    0.345    0.440    7.230
  317.216   33.864    0.346    0.444    7.201
  317.466   33.858    0.340    0.455    7.353
  317.716   34.317    0.345    0.464    7.330
  317.966   34.255    0.337    0.475    7.497
  318.216   33.879    0.330    0.468    7.486
  318.466   33.873    0.327    0.455    7.352
  318.716   33.844    0.323    0.449    7.195
  318.966   34.475    0.315    0.465    7.219
  319.216   34.877    0.325    0.471    7.067
  319.466   35.318    0.327    0.468    7.079
  319.716   36.342    0.328    0.473    7.081
  319.966   37.267    0.325    0.470    7.094
  320.216   38.234    0.329    0.468    6.941
  320.466   39.807    0.345    0.475    6.955
  320.716   40.181    0.345    0.476    7.002
  320.966   41.267    0.343    0.474    7.080
  321.216   41.878    0.341    0.471    7.165
  321.466   41.849    0.338    0.477    7.360
  321.716   41.855    0.331    0.474    7.486
  321.966   42.261    0.323    0.464    7.862
  322.216   42.597    0.319    0.457    8.269
  322.466   43.062    0.323    0.445    8.819
  322.716   43.757    0.312    0.439    9.379
  322.966   43.696    0.280    0.419   10.244
  323.216   43.755    0.242    0.399   11.424
  323.466   43.094    0.179    0.323   12.619
  323.716   42.467    0.096    0.230   13.976
  323.966   42.033    0.029    0.196   15.373
  324.216   41.906    0.070    0.223   15.888
  324.466   42.536    0.101    0.251   15.557
  324.716   45.764    0.223    0.298   14.601
  324.966   48.305    0.269    0.359   12.449
  325.216   48.653    0.287    0.404   10.179
  325.466   47.406    0.296    0.434    8.787
  325.716   46.000    0.300    0.448    8.170
  325.966   44.494    0.312    0.458    7.803
  326.216   43.164    0.321    0.463    7.563
  326.466   41.896    0.315    0.463    7.516
  326.716   41.936    0.313    0.457    7.757
  326.966   42.120    0.307    0.453    7.976
  327.216   43.165    0.292    0.445    8.582
  327.466   43.084    0.310    0.432    9.560
  327.716   43.865    0.052    0.381   11.116
  327.966   43.169    0.029    0.285   12.652
  328.216   41.866    0.030    0.253   16.188
  328.466   40.096    0.040    0.235   19.460
  328.716   38.985    0.032    0.220   32.490
  328.966   38.651    0.036    0.201   44.827
  329.216   37.578    0.029    0.177   55.073
  329.466   36.585    0.023    0.160   69.649
  329.716   35.755    0.012    0.142   82.726
  329.966   36.510    0.000    0.134   77.437
  330.216   36.473    0.003    0.133   78.176
  330.466   36.493   -0.000    0.134   79.112
  330.716   36.495   -0.000    0.139   80.961
  330.966   37.550    0.000    0.144   86.103
  331.216   38.839    0.004    0.168   60.077
  331.466   41.283    0.028    0.194   35.550
  331.716   44.704    0.072    0.281   24.565
  331.966   46.926    0.112    0.362   17.627
  332.216   52.714    0.232    0.405   14.207
  332.466   53.604    0.283    0.445   11.859
  332.716   52.733    0.304    0.467   10.427
  332.966   50.635    0.303    0.480    9.522
  333.216   49.943    0.296    0.489    8.722
  333.466   49.328    0.289    0.496    8.390
  333.716   50.414    0.291    0.478    7.997
  333.966   51.597    0.296    0.469    7.576
  334.216   52.993    0.299    0.462    7.518
  334.466   54.640    0.304    0.452    7.234
