~VERSION INFORMATION
 VERS.                 2.0:   CWLS LOG ASCII STANDARD -VERSION 2.0
 WRAP.                  NO:   ONE LINE PER DEPTH STEP
~WELL INFORMATION BLOCK
#MNEM.UNIT           DATA                    DESCRIPTION OF MNEMONIC
#---------    -------------------            -------------------------------
# Generated from Intellog Unique Number	CS_77_79/WELL/901
WELL.         CWWE WINEFRED                  : Well_name    - WELL
LOC .         00/07-19-078-03W4/0            : Location     - LOCATION
UWI .         00/07-19-078-03W4/0            : Uwi          - UNIQUE WELL ID
ENTR.         JHS                            : Entered      - ENTERED BY
SRVC.         SCHLUMBERGER                   : Scn          - SERVICE COMPANY
STRT.M        135                            : top_depth    - START DEPTH
STOP.M        415                            : bot_depth    - STOP DEPTH
STEP.M        0.25                           : increment    - STEP LENGTH
 NULL. -999.2500:NULL Value
~CURVE INFORMATION BLOCK
#MNEM UNIT       ERCB CURVE CODE    CURVE DESCRIPTION
#-----------   ------------------   ----------------------------------
DEPT.M        00 001 00 00         : DEPTH        - DEPTH
DPHI.V/V      00 890 00 00         : PHID         - DENSITY POROSITY (LIMESTONE)
NPHI.V/V      00 330 00 00         : PHIN         - NEUTRON POROSITY (LIMESTONE)
GR  .API      00 310 00 00         : GR           - GAMMA RAY
ILD .OHMM     00 120 00 00         : RESD         - DEEP RESISTIVITY (DIL)
RHOB.KG/M3    00 350 00 00         : DENS         - BULK DENSITY
~PARAMETER INFORMATION
#MNEM.UNIT           DATA             DESCRIPTION OF MNEMONIC
#---------         -----------     ------------------------------
GL  .M        556.2                : gl           - GROUND LEVEL ELEVATION
EREF.M        560.15               : kb           - ELEVATION OF DEPTH REFERENCE
DATM.M        560.15               : datum        - DATUM ELEVATION
TDD .M        423                  : tdd          - TOTAL DEPTH DRILLER
RUN .         ONE                  : Run          - RUN NUMBER
ENG .         BILL                 : Engineer     - RECORDING ENGINEER
WIT .         JIM                  : Witness      - WITNESSED BY
MUD .         GEL                  : Mud_type     - MUD TYPE
MATR.         LIMESTONE            : Logunit      - NEUTRON MATRIX
TMAX.C        24                   : BHT          - MAXIMUM RECORDED TEMPERATURE
BHTD.M        423                  : BHTDEP       - MAXIMUM RECORDED TEMPERATURE
MATR.         1                    : LOGUNIT      - NEUTRON MATRIX
RMT .C        25                   : MDTP         - TEMPERATURE OF MUD
NEUT.         1                    : NEUTRON      - NEUTRON TYPE
RESI.         0                    : RESIST       - RESISTIVITY TYPE
RMC .OHMM     0.25                 : RMC          - RESISTIVITY OF MUD CAKE
RMF .OHMM     0.25                 : RMF          - RESISTIVITY OF MUD FILTRATE
SUFT.C        15                   : SUFT         - SURFACE TEMPERATURE
~A  DEPTH     PHID     PHIN       GR     RESD     DENS
# ...
  244.500    0.333    0.416   59.392    9.485    0.000
  244.750    0.335    0.419   58.771   11.694    0.000
  245.000    0.337    0.428   60.039   13.365    0.000
  245.250    0.340    0.430   58.792   14.159    0.000
  245.500    0.345    0.434   55.662   14.181    0.000
  245.750    0.346    0.437   57.555   13.664    0.000
  246.000    0.343    0.439   61.957   13.683    0.000
  246.250    0.341    0.434   63.849   13.697    0.000
  246.500    0.341    0.432   61.349   13.977    0.000
  246.750    0.345    0.432   57.593   13.992    0.000
  247.000    0.346    0.454   56.974   14.006    0.000
  247.250    0.341    0.457   59.496   14.287    0.000
  247.500    0.333    0.450   61.386   14.303    0.000
  247.750    0.329    0.444   61.397   14.594    0.000
  248.000    0.338    0.447   59.524   14.889    0.000
  248.250    0.351    0.464   59.531   15.480    0.000
  248.500    0.356    0.404   59.542   16.406    0.000
  248.750    0.318    0.334   57.040   18.397    0.000
  249.000    0.141    0.288   41.987   20.245    0.000
  249.250    0.045    0.256   35.721   22.276    0.000
  249.500    0.063    0.245   42.008   24.059    0.000
  249.750    0.228    0.262   46.408   23.632    0.000
  250.000    0.289    0.300   53.950   22.349    0.000
  250.250    0.337    0.355   58.979   19.599    0.000
  250.500    0.337    0.467   64.011   16.865    0.000
  250.750    0.332    0.460   63.392   14.242    0.000
  251.000    0.321    0.453   64.658   13.220    0.000
  251.250    0.316    0.457   65.924   12.743    0.000
  251.500    0.313    0.466   65.306   12.517    0.000
  251.750    0.319    0.451   64.061   12.531    0.000
  252.000    0.321    0.432   62.812   12.786    0.000
  252.250    0.319    0.419   62.197   12.800    0.000
  252.500    0.324    0.422   62.832   12.815    0.000
  252.750    0.332    0.446   62.841   12.589    0.000
  253.000    0.327    0.434   62.222   12.135    0.000
  253.250    0.314    0.421   62.233   11.477    0.000
  253.500    0.295    0.411   61.613   10.451    0.000
  253.750    0.272    0.410   72.921    8.993    0.000
  254.000    0.252    0.436   89.876    7.886    0.000
  254.250    0.236    0.462   99.927    6.534    0.000
  254.500    0.228    0.470   98.682    5.019    0.000
  254.750    0.225    0.469   94.926    4.159    0.000
  255.000    0.230    0.469   98.701    3.860    0.000
  255.250    0.238    0.494  100.593    3.720    0.000
  255.500    0.247    0.510   97.466    3.520    0.000
  255.750    0.247    0.518   93.708    3.393    0.000
  256.000    0.244    0.527   89.951    3.269    0.000
  256.250    0.247    0.528   91.219    3.094    0.000
  256.500    0.253    0.516   92.481    3.039    0.000
  256.750    0.252    0.509   95.001    3.102    0.000
  257.000    0.244    0.539   95.639    3.104    0.000
  257.250    0.238    0.576   95.647    3.166    0.000
  257.500    0.237    0.597   98.169    3.232    0.000
  257.750    0.239    0.599  101.315    3.296    0.000
  258.000    0.243    0.555  106.345    3.364    0.000
  258.250    0.249    0.521  106.358    3.432    0.000
  258.500    0.239    0.539  102.602    3.435    0.000
  258.750    0.231    0.528  102.608    3.438    0.000
  259.000    0.227    0.527  100.737    3.443    0.000
  259.250    0.232    0.543   96.352    3.513    0.000
  259.500    0.237    0.572   93.222    3.583    0.000
  259.750    0.247    0.597   93.235    3.655    0.000
  260.000    0.256    0.595   95.126    4.023    0.000
  260.250    0.254    0.521   97.018    4.426    0.000
  260.500    0.250    0.488   93.261    5.158    0.000
  260.750    0.261    0.477   86.371    5.360    0.000
  261.000    0.283    0.474   83.868    5.898    0.000
  261.250    0.295    0.470   81.993    6.742    0.000
  261.500    0.312    0.464   78.238    7.422    0.000
  261.750    0.308    0.467   74.481    7.865    0.000
  262.000    0.293    0.476   71.351    8.178    0.000
  262.250    0.288    0.485   70.106    8.338    0.000
  262.500    0.291    0.478   74.509    8.671    0.000
  262.750    0.291    0.462   73.263    9.017    0.000
  263.000    0.259    0.439   69.505    9.552    0.000
  263.250    0.167    0.370   68.261   10.313    0.000
  263.500    0.141    0.350   65.760   11.569    0.000
  263.750    0.092    0.313   58.865   12.490    0.000
  264.000    0.065    0.291   51.345   13.489    0.000
  264.250    0.133    0.296   55.118   14.024    0.000
  264.500    0.262    0.329   65.171   14.045    0.000
  264.750    0.289    0.368   68.950   13.793    0.000
  265.000    0.299    0.383   67.701   14.344    0.000
  265.250    0.244    0.361   66.453   14.909    0.000
  265.500    0.092    0.286   65.835   16.106    0.000
  265.750    0.065    0.267   60.196   16.124    0.000
  266.000    0.069    0.257   63.345   15.540    0.000
  266.250    0.190    0.287   69.002   14.425    0.000
  266.500    0.244    0.393   67.132   13.139    0.000
  266.750    0.261    0.399   69.650   12.191    0.000
  267.000    0.278    0.401   74.679   11.315    0.000
  267.250    0.260    0.400   74.692   10.503    0.000
  267.500    0.247    0.389   72.190   10.318    0.000
  267.750    0.251    0.387   75.336   10.329    0.000
  268.000    0.268    0.403   76.601   10.344    0.000
  268.250    0.288    0.406   75.354   10.351    0.000
  268.500    0.294    0.394   74.735   10.560    0.000
  268.750    0.288    0.391   76.631   10.570    0.000
  269.000    0.291    0.409   76.638   10.585    0.000
  269.250    0.298    0.452   69.744   10.597    0.000
  269.500    0.307    0.468   65.987   10.606    0.000
  269.750    0.299    0.443   72.900   10.034    0.000
  270.000    0.283    0.430   78.561    9.673    0.000
  270.250    0.268    0.420   81.078    9.322    0.000
  270.500    0.253    0.428   82.970    8.821    0.000
  270.750    0.246    0.459   81.726    8.503    0.000
  271.000    0.246    0.473   85.502    8.196    0.000
  271.250    0.242    0.476   86.768    7.898    0.000
  271.500    0.237    0.471   86.775    7.907    0.000
  271.750    0.237    0.453   85.531    8.226    0.000
  272.000    0.248    0.437   86.166    8.389    0.000
  272.250    0.247    0.423   83.667    8.725    0.000
  272.500    0.237    0.405   85.558    9.070    0.000
  272.750    0.238    0.390   82.428    9.080    0.000
  273.000    0.259    0.400   78.674    8.750    0.000
  273.250    0.270    0.418   82.449    7.969    0.000
  273.500    0.258    0.434   85.597    7.258    0.000
  273.750    0.255    0.445   87.487    6.864    0.000
  274.000    0.264    0.442   85.615    6.374    0.000
  274.250    0.263    0.440   82.485    6.028    0.000
  274.500    0.255    0.450   85.007    5.595    0.000
  274.750    0.244    0.477   85.644    5.192    0.000
  275.000    0.260    0.496   84.398    4.911    0.000
  275.250    0.280    0.554   87.547    4.559    0.000
  275.500    0.286    0.551   92.575    4.312    0.000
  275.750    0.280    0.539   96.978    4.002    0.000
  276.000    0.275    0.540   93.849    3.715    0.000
  276.250    0.264    0.530   90.721    3.580    0.000
  276.500    0.253    0.550   95.123    3.323    0.000
  276.750    0.249    0.571   97.016    3.143    0.000
  277.000    0.253    0.520   92.006    3.147 2278.180
  277.250    0.265    0.497   87.622    3.398 2257.100
  277.500    0.283    0.492   84.491    3.810 2225.470
  277.750    0.304    0.481   81.364    4.439 2189.630
  278.000    0.304    0.467   85.139    4.885 2189.660
  278.250    0.293    0.456   88.288    5.175 2208.690
  278.500    0.288    0.452   87.041    5.589 2217.170
  278.750    0.310    0.465   80.147    5.810 2179.210
  279.000    0.330    0.467   74.507    6.275 2145.460
  279.250    0.314    0.440   69.496    6.774 2172.950
  279.500    0.323    0.428   68.879    7.317 2158.210
  279.750    0.326    0.421   74.538    7.605 2151.900
  280.000    0.305    0.424   78.311    7.614 2187.830
  280.250    0.277    0.455   82.717    7.340 2236.420
  280.500    0.245    0.455   85.862    7.212 2291.340
  280.750    0.232    0.452   85.873    7.083 2312.490
