~VERSION INFORMATION
 VERS.                 2.0:   CWLS LOG ASCII STANDARD -VERSION 2.0
 WRAP.                  NO:   ONE LINE PER DEPTH STEP
~WELL INFORMATION BLOCK
#MNEM.UNIT           DATA                    DESCRIPTION OF MNEMONIC
#---------    -------------------            -------------------------------
# Generated from Intellog Unique Number	CS_73_76/WELL/689
WELL.         SULPETRO BRENDA CLYDE LAKE     : Well_name    - WELL
LOC .         00/06-32-073-09W4/0            : Location     - LOCATION
UWI .         00/06-32-073-09W4/0            : Uwi          - UNIQUE WELL ID
ENTR.         SP                             : Entered      - ENTERED BY
SRVC.         SCHLUMBERGER                   : Scn          - SERVICE COMPANY
STRT.M        285                            : top_depth    - START DEPTH
STOP.M        475                            : bot_depth    - STOP DEPTH
STEP.M        0.25                           : increment    - STEP LENGTH
 NULL. -999.2500:NULL Value
~CURVE INFORMATION BLOCK
#MNEM UNIT       ERCB CURVE CODE    CURVE DESCRIPTION
#-----------   ------------------   ----------------------------------
DEPT.M        00 001 00 00         : DEPTH        - DEPTH
ILD .OHMM     00 120 00 00         : RESD         - DEEP RESISTIVITY (DIL)
DPHI.V/V      00 890 00 00         : PHID         - DENSITY POROSITY (LIMESTONE)
NPHI.V/V      00 330 00 00         : PHIN         - NEUTRON POROSITY (LIMESTONE)
GR  .API      00 310 00 00         : GR           - GAMMA RAY
~PARAMETER INFORMATION
#MNEM.UNIT           DATA             DESCRIPTION OF MNEMONIC
#---------         -----------     ------------------------------
GL  .M        656.52               : gl           - GROUND LEVEL ELEVATION
EREF.M        659.42               : kb           - ELEVATION OF DEPTH REFERENCE
DATM.M        656.52               : datum        - DATUM ELEVATION
TDD .M        486.9                : tdd          - TOTAL DEPTH DRILLER
RUN .         ONE                  : Run          - RUN NUMBER
ENG .         BILL                 : Engineer     - RECORDING ENGINEER
WIT .         JIM                  : Witness      - WITNESSED BY
MUD .         GEL                  : Mud_type     - MUD TYPE
MATR.         LIMESTONE            : Logunit      - NEUTRON MATRIX
TMAX.C        29                   : BHT          - MAXIMUM RECORDED TEMPERATURE
BHTD.M        486.9                : BHTDEP       - MAXIMUM RECORDED TEMPERATURE
MATR.         1                    : LOGUNIT      - NEUTRON MATRIX
RMT .C        25                   : MDTP         - TEMPERATURE OF MUD
NEUT.         1                    : NEUTRON      - NEUTRON TYPE
RESI.         0                    : RESIST       - RESISTIVITY TYPE
RMC .OHMM     0.25                 : RMC          - RESISTIVITY OF MUD CAKE
RMF .OHMM     0.25                 : RMF          - RESISTIVITY OF MUD FILTRATE
SUFT.C        15                   : SUFT         - SURFACE TEMPERATURE
~A  DEPTH     RESD     PHID     PHIN       GR
# ...
  372.000    9.373    0.248    0.433   86.942
  372.250    9.555    0.251    0.412   80.168
  372.500    9.559    0.259    0.392   82.006
  372.750    9.208    0.260    0.372   87.528
  373.000    7.481    0.254    0.359   89.368
  373.250    5.852    0.249    0.356   94.277
  373.500    4.937    0.251    0.353  102.875
  373.750    3.936    0.243    0.364  112.088
  374.000    3.385    0.235    0.443  117.611
  374.250    3.080    0.233    0.487  120.677
  374.500    2.803    0.227    0.481  122.513
  374.750    2.701    0.211    0.459  122.504
  375.000    2.651    0.198    0.433  121.884
  375.250    2.755    0.219    0.407  121.259
  375.500    3.030    0.234    0.438  118.791
  375.750    3.332    0.234    0.474  117.555
  376.000    4.028    0.216    0.516  116.932
  376.250    4.514    0.202    0.489  113.236
  376.500    5.667    0.202    0.448  104.622
  376.750    6.351    0.217    0.416   98.466
  377.000    6.985    0.222    0.428   94.770
  377.250    7.397    0.228    0.432   92.304
  377.500    7.542    0.233    0.402   90.451
  377.750    7.544    0.241    0.383   87.983
  378.000    7.549    0.244    0.383   86.133
  378.250    7.696    0.249    0.391   88.582
  378.500    7.998    0.227    0.386   95.338
  378.750    8.153    0.202    0.396  102.706
  379.000    8.312    0.216    0.410   97.166
  379.250    8.476    0.232    0.430   90.396
  379.500    8.479    0.247    0.462   86.700
  379.750    8.325    0.260    0.412   84.847
  380.000    8.329    0.265    0.386   84.838
  380.250    8.332    0.254    0.388   85.444
  380.500    8.336    0.235    0.367   89.125
  380.750    8.340    0.224    0.352   96.492
  381.000    8.343    0.216    0.369   98.331
  381.250    8.347    0.198    0.399   98.322
  381.500    8.350    0.188    0.427   98.312
  381.750    8.196    0.178    0.406  100.762
  382.000    8.200    0.183    0.393  102.602
  382.250    7.752    0.190    0.371  104.437
  382.500    7.754    0.195    0.375  102.584
  382.750    7.613    0.204    0.429  101.348
  383.000    7.474    0.208    0.450   98.266
  383.250    7.477    0.205    0.427   95.185
  383.500    7.339    0.204    0.373   98.248
  383.750    7.345    0.202    0.345  100.698
  384.000    7.348    0.199    0.367  102.537
  384.250    7.214    0.194    0.384  106.831
  384.500    7.080    0.188    0.395  105.591
  384.750    6.950    0.184    0.377  104.357
  385.000    6.823    0.189    0.371  101.271
  385.250    6.826    0.193    0.391  100.651
  385.500    6.829    0.194    0.437  101.259
  385.750    6.704    0.194    0.412  103.711
  386.000    6.582    0.183    0.391  103.701
  386.250    6.585    0.178    0.419  104.307
  386.500    6.465    0.173    0.438  107.372
  386.750    6.467    0.172    0.425  110.438
  387.000    6.348    0.173    0.399  112.274
  387.250    6.233    0.175    0.412  110.420
  387.500    6.003    0.175    0.431  106.723
  387.750    5.567    0.176    0.454  105.489
  388.000    4.610    0.181    0.430  106.095
  388.250    4.040    0.183    0.396  110.391
  388.500    3.409    0.209    0.377  117.145
  388.750    3.044    0.222    0.383  122.669
  389.000    2.770    0.227    0.413  117.126
  389.250    2.521    0.218    0.443  118.965
  389.500    2.475    0.218    0.467  120.802
  389.750    2.621    0.222    0.488  115.258
  390.000    2.828    0.208    0.530  114.023
  390.250    3.420    0.192    0.450  116.474
  390.500    3.620    0.185    0.418  112.161
  390.750    4.214    0.179    0.403  109.080
  391.000    4.814    0.176    0.411  109.073
  391.250    5.194    0.180    0.427  105.991
  391.500    5.502    0.189    0.435  100.451
  391.750    5.608    0.201    0.417   98.599
  392.000    5.718    0.215    0.396   99.206
  392.250    5.942    0.228    0.394  100.426
  392.500    6.057    0.221    0.395   99.189
  392.750    6.060    0.211    0.380  100.408
  393.000    6.178    0.200    0.371  102.859
  393.250    6.299    0.197    0.431   98.547
  393.500    6.423    0.225    0.445   93.008
  393.750    6.548    0.242    0.420   90.543
  394.000    6.803    0.248    0.390   97.911
  394.250    7.204    0.226    0.406   94.215
  394.500    7.208    0.144    0.330   85.600
  394.750    7.077    0.115    0.269   76.987
  395.000    7.080    0.186    0.220   73.289
  395.250    6.949    0.233    0.316   77.585
  395.500    6.695    0.247    0.357   83.108
  395.750    6.571    0.247    0.369   86.174
  396.000    6.574    0.241    0.378   81.250
  396.250    6.578    0.236    0.395   80.008
  396.500    6.580    0.247    0.422   83.692
  396.750    6.584    0.246    0.374   91.060
  397.000    6.587    0.214    0.343   96.585
  397.250    6.589    0.188    0.362  100.880
  397.500    6.592    0.195    0.379   97.798
  397.750    6.472    0.203    0.393   95.945
  398.000    6.474    0.209    0.399   97.782
  398.250    6.477    0.200    0.420  103.919
  398.500    6.481    0.192    0.442  100.224
  398.750    6.484    0.201    0.429   95.914
  399.000    6.365    0.215    0.399   92.217
  399.250    6.249    0.202    0.390   98.355
  399.500    6.133    0.199    0.398  102.035
  399.750    5.799    0.200    0.379  101.413
  400.000    5.691    0.214    0.378   98.944
  400.250    5.589    0.221    0.376   98.324
  400.500    5.806    0.216    0.384  100.159
  400.750    5.808    0.202    0.378  102.611
  401.000    5.921    0.184    0.399   99.528
  401.250    6.272    0.214    0.418   93.373
  401.500    6.516    0.230    0.429   88.448
  401.750    7.442    0.249    0.393   82.908
  402.000    8.029    0.265    0.351   77.981
  402.250    8.831    0.176    0.331   77.357
  402.500    8.834    0.198    0.315   78.578
  402.750    8.196    0.226    0.344   80.416
  403.000    7.746    0.259    0.418   80.407
  403.250    7.321    0.285    0.466   76.095
  403.500    9.369    0.260    0.491   74.246
  403.750   10.499    0.182    0.298   69.932
  404.000   11.546    0.055    0.148   65.621
  404.250   11.771    0.050    0.173   64.999
  404.500   11.127    0.102    0.234   74.826
  404.750    9.040    0.141    0.322   79.123
  405.000    8.073    0.188    0.406   81.572
  405.250    7.209    0.241    0.413   85.865
  405.500    6.687    0.259    0.423   87.705
  405.750    6.565    0.251    0.434   91.384
  406.000    6.567    0.245    0.443   95.675
  406.250    6.697    0.254    0.444   95.671
  406.500    6.827    0.243    0.445   91.972
  406.750    6.963    0.242    0.430   89.505
  407.000    6.457    0.237    0.402   88.271
  407.250    6.583    0.237    0.385   86.416
  407.500    6.711    0.238    0.368   85.181
  407.750    6.714    0.240    0.373   83.328
  408.000    6.846    0.233    0.382   83.933
  408.250    6.980    0.228    0.374   91.917
  408.500    6.982    0.223    0.382   96.214
  408.750    7.256    0.216    0.395   93.745
  409.000    7.258    0.212    0.407   91.893
  409.250    6.732    0.220    0.395   92.501
  409.500    6.012    0.207    0.373   96.180
  409.750    4.884    0.201    0.365  101.090
  410.000    4.445    0.195    0.390  106.001
  410.250    4.282    0.204    0.412  109.065
  410.500    4.534    0.207    0.422  104.140
  410.750    5.179    0.212    0.354   99.212
  411.000    5.484    0.225    0.347   93.671
  411.250    5.919    0.222    0.348   91.207
  411.500    6.035    0.200    0.351  104.109
  411.750    5.923    0.185    0.365  106.558
  412.000    5.599    0.175    0.395  107.779
  412.250    5.292    0.163    0.407  110.228
  412.500    5.098    0.158    0.421  110.835
  412.750    5.005    0.168    0.443  110.829
  413.000    5.007    0.174    0.462  105.287
  413.250    5.302    0.177    0.451  102.823
  413.500    5.942    0.142    0.352   98.510
  413.750    6.412    0.103    0.326   96.045
  414.000    7.187    0.116    0.315   92.962
  414.250    7.468    0.150    0.331   94.183
  414.500    7.612    0.177    0.379   98.479
  414.750    7.334    0.185    0.405  103.387
  415.000    7.066    0.173    0.426  105.837
  415.250    6.935    0.184    0.425  104.600
