~VERSION INFORMATION
 VERS.                 2.0:   CWLS LOG ASCII STANDARD -VERSION 2.0
 WRAP.                  NO:   ONE LINE PER DEPTH STEP
~WELL INFORMATION BLOCK
#MNEM.UNIT           DATA                    DESCRIPTION OF MNEMONIC
#---------    -------------------            -------------------------------
# Generated from Intellog Unique Number	CS_69_70/WELL/843
WELL.         GOLDEN EAGLE OIL & GAS         : Well_name    - WELL
LOC .         00/07-24-069-17W4/0            : Location     - LOCATION
UWI .         00/07-24-069-17W4/0            : Uwi          - UNIQUE WELL ID
ENTR.         SP                             : Entered      - ENTERED BY
SRVC.         SCHLUMBERGER                   : Scn          - SERVICE COMPANY
STRT.M        275                            : top_depth    - START DEPTH
STOP.M        445                            : bot_depth    - STOP DEPTH
STEP.M        0.25                           : increment    - STEP LENGTH
 NULL. -999.2500:NULL Value
~CURVE INFORMATION BLOCK
#MNEM UNIT       ERCB CURVE CODE    CURVE DESCRIPTION
#-----------   ------------------   ----------------------------------
DEPT.M        00 001 00 00         : DEPTH        - DEPTH
GR  .API      00 310 00 00         : GR           - GAMMA RAY
NPHI.V/V      00 330 00 00         : PHIN         - NEUTRON POROSITY (LIMESTONE)
DPHI.V/V      00 890 00 00         : PHID         - DENSITY POROSITY (LIMESTONE)
ILD .OHMM     00 120 00 00         : RESD         - DEEP RESISTIVITY (DIL)
~PARAMETER INFORMATION
#MNEM.UNIT           DATA             DESCRIPTION OF MNEMONIC
#---------         -----------     ------------------------------
GL  .M        550.5                : gl           - GROUND LEVEL ELEVATION
EREF.M        553.4                : kb           - ELEVATION OF DEPTH REFERENCE
DATM.M        550.5                : datum        - DATUM ELEVATION
TDD .M        480                  : tdd          - TOTAL DEPTH DRILLER
RUN .         ONE                  : Run          - RUN NUMBER
ENG .         BILL                 : Engineer     - RECORDING ENGINEER
WIT .         JIM                  : Witness      - WITNESSED BY
MUD .         GEL                  : Mud_type     - MUD TYPE
MATR.         LIMESTONE            : Logunit      - NEUTRON MATRIX
TMAX.C        22.2                 : BHT          - MAXIMUM RECORDED TEMPERATURE
BHTD.M        480                  : BHTDEP       - MAXIMUM RECORDED TEMPERATURE
MATR.         1                    : LOGUNIT      - NEUTRON MATRIX
RMT .C        25                   : MDTP         - TEMPERATURE OF MUD
NEUT.         1                    : NEUTRON      - NEUTRON TYPE
RESI.         0                    : RESIST       - RESISTIVITY TYPE
RMC .OHMM     0.25                 : RMC          - RESISTIVITY OF MUD CAKE
RMF .OHMM     0.25                 : RMF          - RESISTIVITY OF MUD FILTRATE
SUFT.C        15                   : SUFT         - SURFACE TEMPERATURE
~A  DEPTH       GR     PHIN     PHID     RESD
# ...
  318.500   84.133    0.490    0.284    3.697
  318.750   88.372    0.513    0.252    3.602
  319.000   88.684    0.454    0.255    3.375
  319.250   83.721    0.454    0.261    3.245
  319.500   77.163    0.451    0.258    3.138
  319.750   71.402    0.435    0.247    3.052
  320.000   67.419    0.426    0.242    2.930
  320.250   68.774    0.430    0.242    2.860
  320.500   72.463    0.443    0.260    2.781
  320.750   72.038    0.451    0.280    2.751
  321.000   67.933    0.437    0.286    2.741
  321.250   63.829    0.427    0.292    2.762
  321.500   61.504    0.424    0.297    2.858
  321.750   62.797    0.432    0.296    3.127
  322.000   65.072    0.447    0.289    3.759
  322.250   64.281    0.462    0.272    5.161
  322.500   60.544    0.249    0.109    7.247
  322.750   56.195    0.205    0.059   10.272
  323.000   53.991    0.189    0.030   14.156
  323.250   55.469    0.183    0.013   16.023
  323.500   64.249    0.158    0.003   11.353
  323.750   71.984    0.231    0.122    7.407
  324.000   78.248    0.305    0.172    5.785
  324.250   81.566    0.457    0.227    4.106
  324.500   82.308    0.476    0.252    3.066
  324.750   81.762    0.463    0.258    3.067
  325.000   81.768    0.449    0.254    3.143
  325.250   82.510    0.439    0.248    3.228
  325.500   83.006    0.432    0.244    3.265
  325.750   83.380    0.427    0.228    3.340
  326.000   83.815    0.436    0.218    3.423
  326.250   91.245    0.465    0.208    3.522
  326.500   96.281    0.488    0.198    3.630
  326.750   97.882    0.471    0.203    3.706
  327.000   98.072    0.437    0.221    3.749
  327.250   93.108    0.425    0.235    3.785
  327.500   85.751    0.440    0.246    3.808
  327.750   76.678    0.456    0.255    3.794
  328.000   72.388    0.468    0.259    3.802
  328.250   75.278    0.456    0.249    3.803
  328.500   81.665    0.450    0.236    3.783
  328.750   87.191    0.455    0.208    3.714
  329.000   92.412    0.468    0.190    3.666
  329.250   94.812    0.480    0.185    3.592
  329.500   95.246    0.488    0.200    3.474
  329.750   95.252    0.495    0.208    3.391
  330.000   95.687    0.502    0.217    3.354
  330.250   95.508    0.509    0.226    3.374
  330.500   94.287    0.498    0.224    3.458
  330.750   96.808    0.471    0.212    3.693
  331.000  102.274    0.478    0.204    3.952
  331.250   99.397    0.480    0.212    4.213
  331.500   95.537    0.465    0.205    4.517
  331.750   94.010    0.452    0.198    4.788
  332.000   94.137    0.464    0.192    4.889
  332.250   93.039    0.443    0.190    4.945
  332.500   93.597    0.428    0.195    4.974
  332.750   96.854    0.413    0.199    4.847
  333.000   92.381    0.425    0.198    4.406
  333.250   85.271    0.443    0.222    3.976
  333.500   80.614    0.453    0.243    3.787
  333.750   76.754    0.434    0.262    3.669
  334.000   78.724    0.419    0.258    3.569
  334.250   80.079    0.414    0.256    3.523
  334.500   81.312    0.418    0.256    3.564
  334.750   82.667    0.429    0.241    3.757
  335.000   84.206    0.438    0.224    3.975
  335.250   87.096    0.446    0.213    4.190
  335.500   88.942    0.447    0.201    4.302
  335.750   84.960    0.442    0.196    4.328
  336.000   80.487    0.437    0.197    4.362
  336.250   77.241    0.448    0.207    4.363
  336.500   76.145    0.461    0.207    4.356
  336.750   76.578    0.467    0.214    4.348
  337.000   78.731    0.455    0.223    4.341
  337.250   82.540    0.444    0.228    4.318
  337.500   82.669    0.439    0.219    4.279
  337.750   80.957    0.453    0.214    4.248
  338.000   82.252    0.462    0.208    4.186
  338.250   84.711    0.465    0.215    4.140
  338.500   87.109    0.455    0.223    4.102
  338.750   89.324    0.445    0.216    4.057
  339.000   90.556    0.433    0.209    3.983
  339.250   85.594    0.448    0.213    3.874
  339.500   77.809    0.459    0.221    3.803
  339.750   76.095    0.449    0.225    3.754
  340.000   77.082    0.454    0.232    3.678
  340.250   77.579    0.442    0.242    3.652
  340.500   78.198    0.432    0.243    3.652
  340.750   82.868    0.440    0.237    3.653
  341.000   86.431    0.434    0.231    3.668
  341.250   90.364    0.416    0.221    3.683
  341.500   92.884    0.405    0.213    3.732
  341.750   93.074    0.418    0.208    3.847
  342.000   90.503    0.434    0.212    4.002
  342.250   88.607    0.427    0.213    4.133
  342.500   87.815    0.411    0.218    4.180
  342.750   88.559    0.404    0.229    4.213
  343.000   88.563    0.419    0.233    4.206
  343.250   87.525    0.434    0.235    4.129
  343.500   89.249    0.444    0.234    4.068
  343.750   94.531    0.452    0.229    3.994
  344.000   99.813    0.458    0.224    3.892
  344.250  100.494    0.463    0.225    3.777
  344.500   99.027    0.456    0.222    3.592
  344.750   93.635    0.440    0.211    3.365
  345.000   86.032    0.425    0.218    3.182
  345.250   80.516    0.427    0.244    3.025
  345.500   70.276    0.436    0.272    2.850
  345.750   68.688    0.440    0.289    2.772
  346.000   68.816    0.455    0.294    2.721
  346.250   68.269    0.440    0.295    2.721
  346.500   66.925    0.437    0.295    2.727
  346.750   69.570    0.451    0.280    2.713
  347.000   72.275    0.458    0.282    2.678
  347.250   69.336    0.451    0.294    2.614
  347.500   65.231    0.449    0.298    2.523
  347.750   61.310    0.436    0.291    2.472
  348.000   57.328    0.429    0.293    2.413
  348.250   57.579    0.421    0.301    2.369
  348.500   58.382    0.419    0.300    2.361
  348.750   61.947    0.421    0.294    2.388
  349.000   66.677    0.439    0.292    2.439
  349.250   69.750    0.457    0.284    2.533
  349.500   69.817    0.455    0.278    2.552
  349.750   68.963    0.443    0.285    2.630
  350.000   70.687    0.434    0.289    2.691
  350.250   71.797    0.424    0.283    2.753
  350.500   69.901    0.410    0.275    2.779
  350.750   70.582    0.417    0.272    2.806
  351.000   73.041    0.430    0.270    2.802
  351.250   73.293    0.439    0.268    2.787
  351.500   70.353    0.432    0.269    2.777
  351.750   67.721    0.430    0.271    2.772
  352.000   66.685    0.418    0.276    2.783
  352.250   66.874    0.403    0.264    2.789
  352.500   66.696    0.413    0.269    2.827
  352.750   66.885    0.433    0.274    2.914
  353.000   69.776    0.443    0.270    2.964
  353.250   72.296    0.447    0.253    3.015
  353.500   75.063    0.428    0.244    3.096
  353.750   79.057    0.405    0.241    3.173
  354.000   83.663    0.426    0.246    3.168
  354.250   88.393    0.424    0.233    3.133
  354.500   93.981    0.397    0.204    3.111
  354.750   97.729    0.404    0.172    3.082
  355.000   96.325    0.421    0.196    3.072
  355.250   90.501    0.437    0.217    3.072
  355.500   87.931    0.445    0.235    3.114
  355.750   90.145    0.448    0.248    3.179
  356.000   87.144    0.457    0.232    3.265
  356.250   84.207    0.456    0.236    3.358
  356.500   82.984    0.446    0.250    3.462
  356.750   84.340    0.440    0.240    3.548
  357.000   86.739    0.442    0.222    3.629
  357.250   89.628    0.449    0.203    3.706
  357.500   90.185    0.451    0.201    3.714
  357.750   87.308    0.456    0.199    3.743
  358.000   88.111    0.468    0.196    3.765
  358.250   88.975    0.474    0.190    3.766
  358.500   86.712    0.473    0.194    3.724
  358.750   86.288    0.467    0.205    3.690
  359.000   85.006    0.484    0.225    3.637
  359.250   81.207    0.476    0.239    3.497
  359.500   80.538    0.442    0.256    3.257
  359.750   79.747    0.423    0.251    3.017
  360.000   77.052    0.453    0.257    2.848
  360.250   72.396    0.474    0.277    2.759
  360.500   69.211    0.462    0.300    2.698
  360.750   65.904    0.463    0.312    2.740
  361.000   64.929    0.478    0.306    2.894
  361.250   68.493    0.480    0.306    3.184
  361.500   71.260    0.480    0.286    3.465
  361.750   72.553    0.457    0.256    3.750
