~VERSION INFORMATION
 VERS.                 2.0:   CWLS LOG ASCII STANDARD -VERSION 2.0
 WRAP.                  NO:   ONE LINE PER DEPTH STEP
~WELL INFORMATION BLOCK
#MNEM.UNIT           DATA                    DESCRIPTION OF MNEMONIC
#---------    -------------------            -------------------------------
# Generated from Intellog Unique Number	CS_77_79/WELL/879
WELL.         HB THORNBURY EV                : Well_name    - WELL
LOC .         00/06-20-078-11W4/0            : Location     - LOCATION
UWI .         00/06-20-078-11W4/0            : Uwi          - UNIQUE WELL ID
ENTR.         JHS                            : Entered      - ENTERED BY
SRVC.         SCHLUMBERGER                   : Scn          - SERVICE COMPANY
STRT.M        259.080                        : top_depth    - START DEPTH
STOP.M        493.580                        : bot_depth    - STOP DEPTH
STEP.M        0.25                           : increment    - STEP LENGTH
 NULL. -999.2500:NULL Value
~CURVE INFORMATION BLOCK
#MNEM UNIT       ERCB CURVE CODE    CURVE DESCRIPTION
#-----------   ------------------   ----------------------------------
DEPT.M        00 001 00 00         : DEPTH        - DEPTH
RHOB.KG/M3    00 350 00 00         : DENS         - BULK DENSITY
GR  .API      00 310 00 00         : GR           - GAMMA RAY
DPHI.V/V      00 890 00 00         : PHID         - DENSITY POROSITY (SANDSTONE)
NPHI.V/V      00 330 00 00         : PHIN         - NEUTRON POROSITY (SANDSTONE)
ILD .OHMM     00 120 00 00         : RESD         - DEEP RESISTIVITY (DIL)
~PARAMETER INFORMATION
#MNEM.UNIT           DATA             DESCRIPTION OF MNEMONIC
#---------         -----------     ------------------------------
GL  .M        704.088              : gl           - GROUND LEVEL ELEVATION
EREF.M        721.462              : kb           - ELEVATION OF DEPTH REFERENCE
DATM.M        721.462              : datum        - DATUM ELEVATION
TDD .M        498.348              : tdd          - TOTAL DEPTH DRILLER
RUN .         ONE                  : Run          - RUN NUMBER
ENG .         BILL                 : Engineer     - RECORDING ENGINEER
WIT .         JIM                  : Witness      - WITNESSED BY
MUD .         GEL                  : Mud_type     - MUD TYPE
MATR.         SANDSTONE            : Logunit      - NEUTRON MATRIX
TMAX.C        60                   : BHT          - MAXIMUM RECORDED TEMPERATURE
BHTD.M        498.348              : BHTDEP       - MAXIMUM RECORDED TEMPERATURE
MATR.         1                    : LOGUNIT      - NEUTRON MATRIX
RMT .C        25                   : MDTP         - TEMPERATURE OF MUD
NEUT.         1                    : NEUTRON      - NEUTRON TYPE
RESI.         0                    : RESIST       - RESISTIVITY TYPE
RMC .OHMM     0.25                 : RMC          - RESISTIVITY OF MUD CAKE
RMF .OHMM     0.25                 : RMF          - RESISTIVITY OF MUD FILTRATE
SUFT.C        15                   : SUFT         - SURFACE TEMPERATURE
~A  DEPTH     DENS       GR     PHID     PHIN     RESD
# ...
  332.080    0.000   39.963    0.363    0.445   26.069
  332.330    0.000   40.313    0.352    0.441   26.148
  332.580    0.000   41.472    0.356    0.458   25.578
  332.830    0.000   42.953    0.364    0.463   25.642
  333.080    0.000   42.469    0.363    0.451   25.445
  333.330    0.000   39.686    0.370    0.424   24.730
  333.580    0.000   38.752    0.375    0.426   24.404
  333.830   -0.000   40.108    0.388    0.443   23.726
  334.080   -0.000   43.865    0.386    0.460   22.575
  334.330    0.000   48.332    0.377    0.454   22.355
  334.580    0.000   51.523    0.370    0.447   21.812
  334.830    0.000   53.851    0.371    0.455   21.419
  335.080   -0.000   54.911    0.373    0.466   21.049
  335.330   -0.000   54.051    0.378    0.485   21.178
  335.580    0.000   52.665    0.390    0.465   21.483
  335.830    0.000   51.644    0.378    0.465   21.733
  336.080    0.000   51.492    0.366    0.478   21.893
  336.330   -0.000   50.931    0.374    0.477   21.919
  336.580   -0.000   49.605    0.374    0.479   21.933
  336.830   -0.000   49.099    0.375    0.489   21.961
  337.080    0.000   48.980    0.379    0.499   21.593
  337.330    0.000   50.637    0.385    0.465   22.024
  337.580    0.000   50.831    0.386    0.456   21.986
  337.830   -0.000   48.769    0.366    0.452   22.001
  338.080   -0.000   47.694    0.367    0.447   22.012
  338.330    0.000   46.700    0.372    0.451   22.025
  338.580    0.000   46.020    0.378    0.459   22.045
  338.830    0.000   46.880    0.372    0.440   22.057
  339.080   -0.000   47.889    0.362    0.436   22.067
  339.330   -0.000   47.834    0.378    0.446   22.083
  339.580   -0.000   48.500    0.364    0.453   22.098
  339.830    0.000   47.424    0.351    0.451   22.108
  340.080    0.000   46.464    0.369    0.450   22.124
  340.330    0.000   45.529    0.359    0.449   22.140
  340.580   -0.000   45.096    0.356    0.445   22.154
  340.830   -0.000   43.668    0.352    0.446   22.168
  341.080   -0.000   41.959    0.370    0.455   22.179
  341.330    0.000   42.157    0.372    0.458   22.196
  341.580    0.000   45.435    0.372    0.451   22.209
  341.830   -0.000   48.467    0.366    0.447   22.222
  342.080   -0.000   51.832    0.367    0.456   22.192
  342.330   -0.000   52.957    0.369    0.457   22.704
  342.580    0.000   53.384    0.377    0.446   22.684
  342.830    0.000   54.644    0.363    0.450   22.929
  343.080    0.000   55.892    0.362    0.450   23.180
  343.330   -0.000   56.891    0.357    0.450   23.555
  343.580   -0.000   57.874    0.336    0.458   24.077
  343.830   -0.000   58.853    0.337    0.441   24.044
  344.080    0.000   60.708    0.338    0.455   24.060
  344.330    0.000   64.118    0.338    0.465   24.111
  344.580    0.000   67.850    0.335    0.466   23.648
  344.830   -0.000   72.430    0.333    0.474   23.430
  345.080   -0.000   77.355    0.322    0.464   22.811
  345.330    0.000   81.027    0.328    0.460   22.462
  345.580    0.000   80.843    0.322    0.462   22.225
  345.830    0.000   78.211    0.297    0.470   23.102
  346.080   -0.000   73.681    0.268    0.474   26.997
  346.330   -0.000   69.303    0.194    0.379   34.781
  346.580   -0.000   67.282    0.135    0.329   48.364
  346.830    0.000   67.293    0.080    0.282   67.836
  347.080    0.000   67.445    0.050    0.242   85.941
  347.330    0.000   69.166    0.046    0.236   84.310
  347.580   -0.000   70.711    0.054    0.254   50.051
  347.830   -0.000   71.345    0.116    0.338   34.797
  348.080    0.000   70.935    0.226    0.430   25.744
  348.330    0.000   68.792    0.314    0.475   21.703
  348.580    0.000   65.517    0.328    0.486   19.413
  348.830   -0.000   60.995    0.324    0.461   19.484
  349.080   -0.000   57.689    0.291    0.391   22.744
  349.330   -0.000   53.548    0.249    0.356   27.734
  349.580    0.000   49.038    0.197    0.256   36.729
  349.830    0.000   46.693    0.054    0.195   57.066
  350.080    0.000   44.479    0.001    0.141   82.524
  350.330   -0.000   44.124   -0.000    0.133  113.177
  350.580   -0.000   43.986   -0.000    0.133  126.152
  350.830   -0.000   43.970   -0.000    0.136  135.767
  351.080    0.000   43.977    0.000    0.141  138.093
  351.330    0.000   44.006    0.000    0.142  140.539
  351.580   -0.000   43.441    0.007    0.139  138.530
  351.830   -0.000   43.119    0.005    0.134  134.541
  352.080   -0.000   43.471   -0.000    0.127  130.578
  352.330    0.000   44.501    0.001    0.124  128.980
  352.580    0.000   46.779    0.003    0.125  125.624
  352.830    0.000   48.343   -0.000    0.129  119.355
  353.080   -0.000   50.185    0.019    0.145  108.450
  353.330   -0.000   54.212    0.048    0.162   83.601
  353.580   -0.000   58.051    0.064    0.189   58.751
  353.830    0.000   63.194    0.110    0.207   34.476
  354.080    0.000   65.930    0.193    0.297   22.841
  354.330   -0.000   66.839    0.268    0.359   17.117
  354.580   -0.000   66.823    0.370    0.457   14.881
  354.830   -0.000   66.738    0.372    0.497   14.132
  355.080    0.000   65.741    0.369    0.505   13.732
  355.330    0.000   63.757    0.368    0.507   13.592
  355.580    0.000   62.606    0.372    0.495   13.464
  355.830   -0.000   63.635    0.367    0.479   13.033
  356.080   -0.000   65.661    0.374    0.478   13.021
  356.330   -0.000   66.894    0.372    0.498   13.024
  356.580    0.000   67.360    0.374    0.507   13.033
  356.830    0.000   67.530    0.379    0.500   13.039
  357.080    0.000   66.893    0.389    0.494   13.048
  357.330   -0.000   66.936    0.390    0.492   13.059
  357.580   -0.000   67.081    0.384    0.501   13.079
  357.830    0.000   67.532    0.388    0.491   12.846
  358.080    0.000   67.899    0.384    0.494   12.358
  358.330    0.000   68.184    0.375    0.520   11.636
  358.580   -0.000   69.373    0.366    0.521   10.760
  358.830   -0.000   68.071    0.369    0.512   10.437
  359.080   -0.000   67.495    0.381    0.530    9.911
  359.330    0.000   67.591    0.383    0.541    9.619
  359.580    0.000   68.151    0.378    0.536    9.590
  359.830    0.000   71.951    0.380    0.511    9.792
  360.080   -0.000   78.579    0.392    0.508    9.792
  360.330   -0.000   82.475    0.396    0.515    9.432
  360.580    0.000   87.933    0.400    0.505    8.018
  360.830    0.000   92.508    0.377    0.535    6.082
  361.080    0.000   94.308    0.378    0.573    4.891
  361.330   -0.000   93.032    0.346    0.528    4.631
  361.580   -0.000   87.864    0.323    0.518    4.855
  361.830   -0.000   81.056    0.310    0.507    6.125
  362.080    0.000   75.082    0.326    0.492    8.392
  362.330    0.000   74.995    0.337    0.490    9.841
  362.580    0.000   77.505    0.327    0.491   10.627
  362.830   -0.000   83.745    0.330    0.501   10.103
  363.080   -0.000   93.430    0.322    0.551    6.089
  363.330   -0.000   98.360    0.308    0.584    4.126
  363.580    0.000  102.463    0.292    0.610    3.119
  363.830    0.000  102.316    0.292    0.585    2.615
  364.080   -0.000   98.336    0.296    0.592    2.671
  364.330   -0.000   96.034    0.306    0.595    2.821
  364.580   -0.000   91.691    0.322    0.542    3.677
  364.830    0.000   88.740    0.336    0.505    5.678
  365.080    0.000   88.793    0.320    0.491    7.089
  365.330    0.000   87.281    0.325    0.506    8.178
  365.580   -0.000   85.260    0.318    0.525    8.746
  365.830   -0.000   85.305    0.306    0.534    8.014
  366.080   -0.000   87.037    0.296    0.509    6.961
  366.330    0.000   91.527    0.264    0.494    6.081
  366.580    0.000   94.638    0.251    0.499    5.688
  366.830    0.000   95.312    0.252    0.510    5.524
  367.080   -0.000   94.910    0.253    0.519    5.316
  367.330   -0.000   94.599    0.258    0.517    5.349
  367.580    0.000   94.100    0.248    0.524    5.531
  367.830    0.000   95.227    0.255    0.535    5.532
  368.080    0.000   98.597    0.242    0.542    5.515
  368.330   -0.000   96.796    0.250    0.567    5.178
