~VERSION INFORMATION
 VERS.                 2.0:   CWLS LOG ASCII STANDARD -VERSION 2.0
 WRAP.                  NO:   ONE LINE PER DEPTH STEP
~WELL INFORMATION BLOCK
#MNEM.UNIT           DATA                    DESCRIPTION OF MNEMONIC
#---------    -------------------            -------------------------------
# Generated from Intellog Unique Number	CW_73_75/WELL/2723
WELL.         TRICENT ET AL MITSUE 02-26     : Well_name    - WELL
LOC .         00/02-26-073-05W5/0            : Location     - LOCATION
UWI .         00/02-26-073-05W5/0            : Uwi          - UNIQUE WELL ID
ENTR.         JAYE                           : Entered      - ENTERED BY
SRVC.         SCHLUMBERGER                   : Scn          - SERVICE COMPANY
DATE.         23 MAR 82                      : Date         - LOG DATE
STRT.M        350                            : top_depth    - START DEPTH
STOP.M        590                            : bot_depth    - STOP DEPTH
STEP.M        0.25                           : increment    - STEP LENGTH
 NULL. -999.2500:NULL Value
~CURVE INFORMATION BLOCK
#MNEM UNIT       ERCB CURVE CODE    CURVE DESCRIPTION
#-----------   ------------------   ----------------------------------
DEPT.M        00 001 00 00         : DEPTH        - DEPTH
DPHI.V/V      00 890 00 00         : PHID         - DENSITY POROSITY (SANDSTONE)
NPHI.V/V      00 330 00 00         : PHIN         - NEUTRON POROSITY (SANDSTONE)
GR  .API      00 310 00 00         : GR           - GAMMA RAY
CALI.MM       00 280 01 00         : CAL          - CALIPER
ILD .OHMM     00 120 00 00         : RESD         - DEEP RESISTIVITY (DIL)
~PARAMETER INFORMATION
#MNEM.UNIT           DATA             DESCRIPTION OF MNEMONIC
#---------         -----------     ------------------------------
GL  .M        576                  : gl           - GROUND LEVEL ELEVATION
EREF.M        583                  : kb           - ELEVATION OF DEPTH REFERENCE
DATM.M        576                  : datum        - DATUM ELEVATION
TDD .M        1695                 : tdd          - TOTAL DEPTH DRILLER
RUN .         ONE                  : Run          - RUN NUMBER
ENG .         HEATH                : Engineer     - RECORDING ENGINEER
WIT .         MACKASEY             : Witness      - WITNESSED BY
BASE.         EDM                  : Branch       - HOME BASE OF LOGGING UNIT
MUD .         GEL CHEM             : Mud_type     - MUD TYPE
MATR.         SANDSTONE            : Logunit      - NEUTRON MATRIX
TMAX.C        46.1                 : BHT          - MAXIMUM RECORDED TEMPERATURE
BHTD.M        1695.8               : BHTDEP       - MAXIMUM RECORDED TEMPERATURE
RMT .C        17.7                 : MDTP         - TEMPERATURE OF MUD
MUDD.KG/M     1090                 : MWT          - MUD DENSITY
NEUT.         1                    : NEUTRON      - NEUTRON TYPE
RESI.         0                    : RESIST       - RESISTIVITY TYPE
RM  .OHMM     1.08                 : RM           - RESISTIVITY OF MUD
RMC .OHMM     0                    : RMC          - RESISTIVITY OF MUD CAKE
RMF .OHMM     0.79                 : RMF          - RESISTIVITY OF MUD FILTRATE
SUFT.C        0                    : SUFT         - SURFACE TEMPERATURE
~A  DEPTH     PHID     PHIN       GR      CAL     RESD
  350.000    0.287    0.477   97.174  327.060    2.891
  350.250    0.285    0.486  101.748  325.095    2.856
  350.500    0.297    0.473  105.394  329.316    2.837
  350.750    0.295    0.482  103.658  328.485    2.807
  351.000    0.280    0.474  100.747  313.118    2.726
  351.250    0.269    0.459   96.351  305.483    2.559
  351.500    0.296    0.457   95.111  308.054    2.340
  351.750    0.312    0.510   96.530  310.625    2.167
  352.000    0.333    0.552   99.866  306.495    2.069
  352.250    0.355    0.543  102.584  302.778    1.961
  352.500    0.366    0.550  105.673  295.967    1.879
  352.750    0.348    0.556  108.948  289.467    1.808
  353.000    0.336    0.551  114.759  285.543    1.759
  353.250    0.327    0.535  112.961  282.134    1.705
  353.500    0.345    0.526  113.328  278.932    1.671
  353.750    0.349    0.537  114.377  275.936    1.639
  354.000    0.352    0.569  113.569  272.322    1.636
  354.250    0.354    0.587  111.771  267.574    1.647
  354.500    0.359    0.602  109.107  267.259    1.673
  354.750    0.359    0.598  105.393  266.221    1.700
  355.000    0.349    0.582  105.327  264.154    1.724
  355.250    0.337    0.566  111.756  266.312    1.751
  355.500    0.326    0.550  112.185  270.944    1.779
  355.750    0.339    0.541  110.882  274.031    1.801
  356.000    0.338    0.534  109.270  276.087    1.816
  356.250    0.334    0.535  108.030  278.556    1.831
  356.500    0.335    0.554  107.531  282.570    1.853
  356.750    0.338    0.591  107.466  282.563    1.879
  357.000    0.342    0.589  110.246  275.341    1.931
  357.250    0.341    0.560  111.788  281.521    1.999
  357.500    0.338    0.546  110.300  277.287    2.054
  357.750    0.331    0.561  107.327  269.137    2.103
  358.000    0.325    0.574  104.849  271.295    2.132
  358.250    0.325    0.574  103.175  275.929    2.158
  358.500    0.327    0.522  102.924  277.778    2.172
  358.750    0.323    0.552  103.416  276.844    2.125
  359.000    0.312    0.573  105.515  273.539    2.021
  359.250    0.310    0.593  110.460  273.739    1.930
  359.500    0.322    0.571  109.033  272.083    1.920
  359.750    0.323    0.547  106.122  264.448    2.015
  360.000    0.321    0.538  106.984  262.999    2.141
  360.250    0.320    0.531  112.424  275.364    2.246
  360.500    0.312    0.526  118.173  280.925    2.343
  360.750    0.309    0.536  108.334  265.557    2.380
  361.000    0.301    0.546  109.815  256.273    2.378
  361.250    0.295    0.550  114.698  258.020    2.344
  361.500    0.288    0.533  116.117  252.137    2.319
  361.750    0.285    0.560  119.083  244.193    2.287
  362.000    0.288    0.581  125.883  227.486    2.297
  362.250    0.292    0.565  116.662  224.902    2.369
  362.500    0.303    0.547  111.463  239.225    2.471
  362.750    0.312    0.527  116.779  250.457    2.530
  363.000    0.308    0.525  118.136  255.399    2.531
  363.250    0.311    0.532  114.112  250.443    2.477
  363.500    0.315    0.536  111.819  247.551    2.379
  363.750    0.308    0.541  115.713  246.205    2.336
  364.000    0.303    0.554  114.039  246.405    2.373
  364.250    0.319    0.536  109.272  245.986    2.566
  364.500    0.311    0.511  105.124  250.517    2.737
  364.750    0.298    0.469  100.976  260.923    2.920
  365.000    0.289    0.449  100.477  261.844    3.029
  365.250    0.285    0.457  102.577  257.199    3.031
  365.500    0.283    0.472  104.429  259.873    3.011
  365.750    0.281    0.492  104.302  264.197    3.008
  366.000    0.275    0.499  102.380  267.799    3.050
  366.250    0.286    0.485  100.335  269.751    3.205
  366.500    0.319    0.502   94.579  273.972    3.362
  366.750    0.335    0.448   89.008  286.646    3.474
  367.000    0.311    0.401   76.634  309.114    3.431
  367.250    0.284    0.421   83.929  313.644    3.215
  367.500    0.258    0.441   92.214  300.648    3.029
  367.750    0.266    0.467   97.653  294.456    2.775
  368.000    0.259    0.472  101.113  287.646    2.518
  368.250    0.254    0.475   99.563  276.506    2.320
  368.500    0.351    0.511   94.055  270.623    2.198
  368.750    0.413    0.557   89.226  300.205    2.131
  369.000    0.438    0.578   92.563  340.611    2.117
  369.250    0.374    0.508   95.404  339.059    2.131
  369.500    0.341    0.492   92.740  294.825    2.152
  369.750    0.307    0.514   89.768  279.355    2.224
  370.000    0.300    0.539   92.857  278.216    2.285
  370.250    0.395    0.534   95.637  292.230    2.334
  370.500    0.448    0.568   88.953  317.688    2.350
  370.750    0.578    0.583   88.021  350.980    2.369
  371.000    0.470    0.523   95.193  379.943    2.403
  371.250    0.413    0.510   96.550  336.535    2.450
  371.500    0.375    0.517   92.093  314.467    2.725
  371.750    0.408    0.523   91.594  325.491    2.968
  372.000    0.372    0.502   99.817  344.866    3.281
  372.250    0.314    0.460   98.019  354.139    3.869
  372.500    0.283    0.445   91.150  343.926    4.245
  372.750    0.267    0.449   85.641  268.560    4.819
  373.000    0.263    0.451   83.534  250.925    5.309
  373.250    0.254    0.453   85.077  238.960    5.050
  373.500    0.241    0.460   85.692  238.851    4.822
  373.750    0.252    0.481   90.266  243.999    4.691
  374.000    0.272    0.479   86.179  252.859    4.624
  374.250    0.293    0.469   80.732  259.554    4.602
  374.500    0.297    0.460   78.316  238.619    4.649
  374.750    0.286    0.455   81.591  235.727    4.732
  375.000    0.274    0.461   89.567  240.463    4.946
  375.250    0.264    0.465   83.563  244.993    5.217
  375.500    0.250    0.461   76.075  242.719    5.381
  375.750    0.243    0.452   75.947  239.619    5.284
  376.000    0.271    0.431   82.067  238.685    4.715
  376.250    0.300    0.420   91.094  241.566    3.983
  376.500    0.309    0.485  102.472  251.456    3.180
  376.750    0.344    0.533  110.571  262.894    2.587
  377.000    0.354    0.551  120.526  274.950    2.527
  377.250    0.345    0.536  118.605  252.572    2.956
  377.500    0.343    0.515  116.931  244.422    3.538
  377.750    0.362    0.508  111.608  270.704    4.009
  378.000    0.406    0.533   99.233  300.389    4.780
  378.250    0.437    0.557   77.147  287.084    5.386
  378.500    0.347    0.382   66.133  261.510    5.944
  378.750    0.300    0.375   60.809  241.505    6.283
  379.000    0.309    0.381   60.558  228.096    6.194
  379.250    0.324    0.401   59.689  222.111    5.825
  379.500    0.330    0.398   57.211  220.971    5.562
  379.750    0.326    0.397   53.743  221.892    5.463
  380.000    0.325    0.428   52.812  224.979    5.386
  380.250    0.319    0.455   54.849  226.622    5.358
  380.500    0.313    0.448   59.733  227.441    5.403
  380.750    0.297    0.410   64.244  227.641    5.511
  381.000    0.289    0.410   63.869  227.118    5.515
  381.250    0.288    0.410   58.917  226.391    5.335
  381.500    0.293    0.397   57.924  226.282    5.190
  381.750    0.297    0.397   64.167  226.997    4.983
  382.000    0.300    0.422   73.133  229.465    4.548
  382.250    0.298    0.418   83.273  231.624    4.569
  382.500    0.283    0.414   89.702  233.576    4.757
  382.750    0.262    0.428   93.967  236.663    5.038
  383.000    0.246    0.446  100.582  240.472    5.335
  383.250    0.237    0.437  100.640  242.733    5.606
  383.500    0.254    0.421   94.698  241.592    5.947
  383.750    0.262    0.420   89.621  239.422    6.405
  384.000    0.260    0.415   86.216  236.736    6.744
  384.250    0.282    0.416   84.295  232.502    7.008
  384.500    0.292    0.391   81.323  228.785    6.780
  384.750    0.275    0.356   87.319  225.892    5.496
  385.000    0.250    0.428   98.263  227.226    4.625
  385.250    0.254    0.472  106.857  234.230    3.937
  385.500    0.343    0.548  109.327  267.420    3.114
  385.750    0.398    0.570  111.118  288.341    2.635
  386.000    0.377    0.590  115.135  287.923    2.579
  386.250    0.305    0.603  117.915  265.237    2.767
