~VERSION INFORMATION
 VERS.                 2.0:   CWLS LOG ASCII STANDARD -VERSION 2.0
 WRAP.                  NO:   ONE LINE PER DEPTH STEP
~WELL INFORMATION BLOCK
#MNEM.UNIT           DATA                    DESCRIPTION OF MNEMONIC
#---------    -------------------            -------------------------------
# Generated from Intellog Unique Number	CW_73_75/WELL/620
WELL.         ANG ET AL FRANCIS 06-36        : Well_name    - WELL
LOC .         00/06-36-074-22W4/0            : Location     - LOCATION
UWI .         00/06-36-074-22W4/0            : Uwi          - UNIQUE WELL ID
ENTR.         JAYE                           : Entered      - ENTERED BY
SRVC.         SCHLUMBERGER                   : Scn          - SERVICE COMPANY
DATE.         27 MAR 88                      : Date         - LOG DATE
STRT.M        350                            : top_depth    - START DEPTH
STOP.M        560                            : bot_depth    - STOP DEPTH
STEP.M        0.25                           : increment    - STEP LENGTH
 NULL. -999.2500:NULL Value
~CURVE INFORMATION BLOCK
#MNEM UNIT       ERCB CURVE CODE    CURVE DESCRIPTION
#-----------   ------------------   ----------------------------------
DEPT.M        00 001 00 00         : DEPTH        - DEPTH
ILD .OHMM     00 120 00 00         : RESD         - DEEP RESISTIVITY (DIL)
DPHI.V/V      00 890 00 00         : PHID         - DENSITY POROSITY (SANDSTONE)
NPHI.V/V      00 330 00 00         : PHIN         - NEUTRON POROSITY (SANDSTONE)
GR  .API      00 310 00 00         : GR           - GAMMA RAY
CALI.MM       00 280 01 00         : CAL          - CALIPER
~PARAMETER INFORMATION
#MNEM.UNIT           DATA             DESCRIPTION OF MNEMONIC
#---------         -----------     ------------------------------
GL  .M        656.8                : gl           - GROUND LEVEL ELEVATION
EREF.M        660                  : kb           - ELEVATION OF DEPTH REFERENCE
DATM.M        656.8                : datum        - DATUM ELEVATION
TDD .M        620                  : tdd          - TOTAL DEPTH DRILLER
RUN .         ONE                  : Run          - RUN NUMBER
ENG .         POWELL               : Engineer     - RECORDING ENGINEER
WIT .         LIEHTENBELT          : Witness      - WITNESSED BY
BASE.         EDM                  : Branch       - HOME BASE OF LOGGING UNIT
MUD .         GEL CHEM             : Mud_type     - MUD TYPE
MATR.         SANDSTONE            : Logunit      - NEUTRON MATRIX
TMAX.C        47                   : BHT          - MAXIMUM RECORDED TEMPERATURE
BHTD.M        619.5                : BHTDEP       - MAXIMUM RECORDED TEMPERATURE
RMT .C        18                   : MDTP         - TEMPERATURE OF MUD
MUDD.KG/M     1170                 : MWT          - MUD DENSITY
NEUT.         1                    : NEUTRON      - NEUTRON TYPE
RESI.         0                    : RESIST       - RESISTIVITY TYPE
RM  .OHMM     1.26                 : RM           - RESISTIVITY OF MUD
RMC .OHMM     0                    : RMC          - RESISTIVITY OF MUD CAKE
RMF .OHMM     3.44                 : RMF          - RESISTIVITY OF MUD FILTRATE
SUFT.C        0                    : SUFT         - SURFACE TEMPERATURE
~A  DEPTH     RESD     PHID     PHIN       GR      CAL
# ...
  423.000    6.264    0.270    0.425   55.115  159.936
  423.250    5.817    0.209    0.329   53.802  161.204
  423.500    5.454    0.170    0.317   55.178  163.089
  423.750    5.261    0.196    0.357   58.569  162.837
  424.000    5.134    0.301    0.397   61.593  162.176
  424.250    5.066    0.309    0.469   65.963  161.620
  424.500    5.009    0.300    0.463   70.088  161.362
  424.750    5.048    0.290    0.453   70.852  161.207
  425.000    5.253    0.290    0.467   66.729  161.261
  425.250    5.572    0.298    0.474   61.627  161.514
  425.500    5.821    0.304    0.464   59.823  161.260
  425.750    6.139    0.298    0.460   59.855  161.104
  426.000    6.198    0.265    0.453   61.109  161.054
  426.250    6.128    0.145    0.425   65.292  161.819
  426.500    5.855    0.101    0.297   70.640  162.685
  426.750    5.438    0.133    0.375   76.719  165.586
  427.000    5.336    0.200    0.428   79.014  166.353
  427.250    5.554    0.230    0.443   78.375  165.696
  427.500    5.824    0.235    0.448   77.730  165.437
  427.750    6.154    0.231    0.438   75.133  165.495
  428.000    6.779    0.224    0.447   74.063  165.438
  428.250    7.684    0.231    0.462   72.569  165.589
  428.500    8.385    0.250    0.474   71.500  165.643
  428.750    8.151    0.266    0.467   69.819  165.690
  429.000    7.470    0.283    0.490   66.425  165.749
  429.250    6.756    0.300    0.501   66.397  165.589
  429.500    6.168    0.290    0.477   60.314  165.237
  429.750    5.632    0.288    0.469   53.808  164.987
  430.000    5.260    0.293    0.447   49.194  165.045
  430.250    5.055    0.286    0.441   46.233  165.184
  430.500    4.886    0.277    0.434   45.897  165.244
  430.750    4.794    0.286    0.444   43.849  165.186
  431.000    4.695    0.292    0.450   42.720  165.247
  431.250    4.651    0.287    0.454   43.726  165.391
  431.500    4.582    0.289    0.446   45.592  165.554
  431.750    4.539    0.299    0.437   47.518  165.391
  432.000    4.505    0.299    0.428   46.936  165.135
  432.250    4.479    0.304    0.429   45.560  164.585
  432.500    4.454    0.295    0.434   45.652  164.229
  432.750    4.455    0.299    0.440   47.151  163.972
  433.000    4.421    0.311    0.436   46.998  163.411
  433.250    4.413    0.306    0.430   46.786  163.053
  433.500    4.388    0.298    0.438   47.241  162.699
  433.750    4.414    0.296    0.451   47.517  162.542
  434.000    4.422    0.302    0.458   44.860  162.190
  434.250    4.423    0.306    0.449   45.135  161.931
  434.500    4.423    0.296    0.433   42.842  161.777
  434.750    4.440    0.295    0.424   42.264  161.829
  435.000    4.457    0.290    0.438   43.883  161.680
  435.250    4.441    0.274    0.438   43.241  161.746
  435.500    4.432    0.278    0.428   41.378  161.993
  435.750    4.416    0.293    0.437   40.369  162.135
  436.000    4.391    0.298    0.431   40.399  162.186
  436.250    4.391    0.303    0.437   41.412  162.142
  436.500    4.359    0.312    0.449   42.600  161.986
  436.750    4.359    0.306    0.456   44.160  161.732
  437.000    4.334    0.298    0.461   44.373  161.577
  437.250    4.351    0.287    0.445   43.672  161.221
  437.500    4.368    0.294    0.432   43.822  160.967
  437.750    4.402    0.301    0.443   44.588  161.026
  438.000    4.419    0.297    0.445   45.595  160.878
  438.250    4.436    0.300    0.432   45.504  160.816
  438.500    4.504    0.289    0.439   46.389  160.768
  438.750    4.547    0.292    0.451   47.829  160.523
  439.000    4.608    0.302    0.436   48.165  160.462
  439.250    4.670    0.304    0.433   48.500  160.517
  439.500    4.724    0.305    0.425   49.384  160.672
  439.750    4.796    0.308    0.424   49.784  160.717
  440.000    4.833    0.309    0.431   49.571  160.869
  440.250    4.861    0.300    0.439   52.167  161.025
  440.500    4.880    0.299    0.444   55.132  161.174
  440.750    4.936    0.296    0.443   56.384  161.026
  441.000    4.974    0.294    0.438   56.352  160.777
  441.250    4.993    0.293    0.446   55.406  160.724
  441.500    5.032    0.292    0.449   56.171  160.776
  441.750    5.051    0.275    0.448   61.150  161.131
  442.000    5.051    0.266    0.450   65.153  161.389
  442.250    5.071    0.287    0.459   63.839  161.638
  442.500    5.071    0.290    0.440   63.626  161.697
  442.750    5.033    0.286    0.438   64.328  161.637
  443.000    4.986    0.274    0.443   66.072  161.190
  443.250    4.911    0.263    0.441   70.013  161.132
  443.500    4.810    0.252    0.455   77.069  161.382
  443.750    4.702    0.238    0.468   96.348  161.542
  444.000    4.571    0.209    0.484   93.812  161.486
  444.250    4.401    0.228    0.496   91.584  162.357
  444.500    4.237    0.240    0.478   88.131  163.319
  444.750    4.026    0.222    0.465   84.621  163.169
  445.000    3.861    0.199    0.455   85.568  162.606
  445.250    3.789    0.164    0.461   86.267  166.731
  445.500    3.747    0.179    0.479   86.725  169.341
  445.750    3.733    0.180    0.492   86.513  169.796
  446.000    3.870    0.177    0.505   87.766  169.639
  446.250    4.058    0.208    0.519   89.386  169.792
  446.500    4.304    0.216    0.518   92.654  170.461
  446.750    4.548    0.225    0.499   90.117  171.017
  447.000    4.733    0.232    0.485   86.423  171.065
  447.250    4.852    0.234    0.472   85.535  170.401
  447.500    4.843    0.245    0.458   85.505  168.415
  447.750    4.734    0.231    0.458   84.070  165.514
  448.000    4.602    0.212    0.459   80.862  164.443
  448.250    4.490    0.232    0.446   77.410  168.160
  448.500    4.348    0.236    0.452   75.731  169.638
  448.750    4.282    0.246    0.472   70.260  167.149
  449.000    4.226    0.278    0.464   63.447  164.754
  449.250    4.100    0.317    0.441   58.711  163.173
  449.500    3.910    0.321    0.419   57.888  161.501
  449.750    3.687    0.328    0.412   58.777  160.531
  450.000    3.604    0.318    0.427   61.067  159.976
  450.250    3.780    0.316    0.450   63.601  159.920
  450.500    3.979    0.311    0.467   66.874  160.477
  450.750    4.276    0.295    0.464   69.589  162.566
  451.000    4.536    0.273    0.474   71.026  163.741
  451.250    4.793    0.284    0.492   68.245  163.795
  451.500    4.950    0.294    0.496   62.105  163.327
  451.750    5.084    0.296    0.475   59.996  162.668
  452.000    5.261    0.303    0.473   61.190  162.412
  452.250    5.402    0.310    0.472   62.749  162.468
  452.500    5.559    0.310    0.457   65.284  162.619
  452.750    5.655    0.306    0.444   66.475  163.078
  453.000    5.591    0.263    0.426   67.788  164.964
  453.250    5.466    0.227    0.418   71.364  167.253
  453.500    5.333    0.229    0.426   69.563  167.203
  453.750    5.194    0.239    0.436   71.058  165.013
  454.000    5.048    0.244    0.441   75.122  163.944
  454.250    4.926    0.213    0.457   79.614  164.710
  454.500    4.842    0.215    0.471   81.234  166.392
  454.750    4.788    0.233    0.477   79.800  167.359
  455.000    4.725    0.233    0.468   78.608  167.817
  455.250    4.690    0.243    0.439   79.064  167.561
  455.500    4.602    0.236    0.436   80.196  167.510
  455.750    4.567    0.233    0.446   80.532  168.176
  456.000    4.516    0.234    0.438   79.279  168.737
  456.250    4.474    0.267    0.431   75.154  168.274
  456.500    4.432    0.294    0.432   71.886  165.679
  456.750    4.398    0.304    0.437   71.430  163.185
  457.000    4.357    0.292    0.430   70.786  162.218
  457.250    4.300    0.283    0.432   66.234  161.964
  457.500    4.260    0.305    0.449   62.112  161.813
  457.750    4.236    0.316    0.440   59.757  161.758
  458.000    4.180    0.318    0.420   59.302  162.015
  458.250    4.172    0.320    0.441   60.124  162.267
  458.500    4.157    0.326    0.441   62.111  162.117
  458.750    4.157    0.327    0.432   61.471  162.373
  459.000    4.181    0.323    0.424   58.690  162.629
  459.250    4.229    0.322    0.428   56.337  162.377
