~VERSION INFORMATION
 VERS.                 2.0:   CWLS LOG ASCII STANDARD -VERSION 2.0
 WRAP.                  NO:   ONE LINE PER DEPTH STEP
~WELL INFORMATION BLOCK
#MNEM.UNIT           DATA                    DESCRIPTION OF MNEMONIC
#---------    -------------------            -------------------------------
# Generated from Intellog Unique Number	CS_73_76/WELL/608
WELL.         CAVALIER ENERGY INC.           : Well_name    - WELL
LOC .         00/06-06-073-14W4/0            : Location     - LOCATION
UWI .         00/06-06-073-14W4/0            : Uwi          - UNIQUE WELL ID
ENTR.         SP                             : Entered      - ENTERED BY
SRVC.         SCHLUMBERGER                   : Scn          - SERVICE COMPANY
STRT.M        283.464                        : top_depth    - START DEPTH
STOP.M        464.964                        : bot_depth    - STOP DEPTH
STEP.M        0.25                           : increment    - STEP LENGTH
 NULL. -999.2500:NULL Value
~CURVE INFORMATION BLOCK
#MNEM UNIT       ERCB CURVE CODE    CURVE DESCRIPTION
#-----------   ------------------   ----------------------------------
DEPT.M        00 001 00 00         : DEPTH        - DEPTH
GR  .API      00 310 00 00         : GR           - GAMMA RAY
DPHI.V/V      00 890 00 00         : PHID         - DENSITY POROSITY (SANDSTONE)
NPHI.V/V      00 330 00 00         : PHIN         - NEUTRON POROSITY (SANDSTONE)
ILD .OHMM     00 120 00 00         : RESD         - DEEP RESISTIVITY (DIL)
~PARAMETER INFORMATION
#MNEM.UNIT           DATA             DESCRIPTION OF MNEMONIC
#---------         -----------     ------------------------------
GL  .M        606.552              : gl           - GROUND LEVEL ELEVATION
EREF.M        609.6                : kb           - ELEVATION OF DEPTH REFERENCE
DATM.M        606.552              : datum        - DATUM ELEVATION
TDD .M        479.146              : tdd          - TOTAL DEPTH DRILLER
RUN .         ONE                  : Run          - RUN NUMBER
ENG .         BILL                 : Engineer     - RECORDING ENGINEER
WIT .         JIM                  : Witness      - WITNESSED BY
MUD .         GEL                  : Mud_type     - MUD TYPE
MATR.         SANDSTONE            : Logunit      - NEUTRON MATRIX
TMAX.C        18.8889              : BHT          - MAXIMUM RECORDED TEMPERATURE
BHTD.M        573.024              : BHTDEP       - MAXIMUM RECORDED TEMPERATURE
MATR.         1                    : LOGUNIT      - NEUTRON MATRIX
RMT .C        25                   : MDTP         - TEMPERATURE OF MUD
NEUT.         1                    : NEUTRON      - NEUTRON TYPE
RESI.         0                    : RESIST       - RESISTIVITY TYPE
RMC .OHMM     0.25                 : RMC          - RESISTIVITY OF MUD CAKE
RMF .OHMM     0.25                 : RMF          - RESISTIVITY OF MUD FILTRATE
SUFT.C        15                   : SUFT         - SURFACE TEMPERATURE
~A  DEPTH       GR     PHID     PHIN     RESD
  283.464  128.115    0.291    0.557    3.254
  283.714  126.385    0.283    0.535    3.294
  283.964  123.484    0.276    0.504    3.544
  284.214  123.658    0.267    0.478    3.650
  284.464  126.599    0.266    0.475    3.639
  284.714  125.608    0.253    0.486    3.729
  284.964  124.523    0.273    0.501    3.800
  285.214  125.615    0.282    0.506    3.685
  285.464  129.201    0.257    0.512    3.563
  285.714  131.802    0.262    0.517    3.518
  285.964  130.987    0.274    0.517    3.318
  286.214  127.056    0.282    0.520    3.244
  286.464  126.250    0.272    0.524    3.286
  286.714  122.658    0.264    0.498    3.487
  286.964  120.325    0.287    0.481    3.637
  287.214  117.756    0.272    0.467    3.635
  287.464  113.240    0.286    0.464    3.627
  287.714  112.975    0.263    0.489    3.489
  287.964  110.821    0.283    0.511    3.361
  288.214  111.188    0.296    0.535    3.236
  288.464  111.254    0.303    0.553    3.244
  288.714  107.745    0.350    0.567    3.519
  288.964  100.048    0.390    0.573    4.050
  289.214   91.254    0.414    0.562    4.444
  289.464   84.746    0.365    0.516    5.001
  289.714   83.663    0.323    0.442    5.621
  289.964   84.465    0.335    0.434    5.964
  290.214   81.718    0.347    0.451    5.853
  290.464   78.195    0.348    0.453    5.782
  290.714   79.883    0.352    0.438    5.650
  290.964   81.701    0.347    0.436    5.519
  291.214   76.346    0.355    0.446    5.388
  291.464   70.389    0.364    0.445    5.251
  291.714   70.241    0.370    0.427    5.217
  291.964   75.422    0.372    0.435    5.217
  292.214   80.235    0.371    0.444    5.241
  292.464   82.662    0.359    0.439    5.377
  292.714   83.541    0.347    0.435    5.556
  292.964   86.926    0.345    0.419    5.801
  293.214   90.723    0.339    0.411    5.925
  293.464   97.302    0.328    0.414    6.113
  293.714  101.551    0.309    0.420    6.177
  293.964  105.014    0.271    0.417    6.244
  294.214  113.555    0.265    0.411    6.249
  294.464  120.334    0.265    0.419    6.145
  294.714  129.510    0.283    0.427    6.026
  294.964  134.041    0.271    0.437    5.844
  295.214  135.965    0.252    0.444    5.676
  295.464  134.987    0.246    0.449    5.618
  295.714  134.678    0.241    0.454    5.711
  295.964  129.052    0.256    0.451    5.923
  296.214  120.397    0.288    0.456    6.179
  296.464  113.250    0.306    0.467    6.413
  296.714  103.950    0.352    0.473    6.317
  296.964   96.219    0.375    0.485    6.293
  297.214   94.713    0.363    0.484    5.967
  297.464   95.585    0.353    0.441    5.778
  297.714  100.172    0.344    0.431    5.658
  297.964  104.279    0.346    0.430    5.850
  298.214  111.231    0.337    0.423    6.043
  298.464  103.257    0.326    0.426    6.247
  298.714   92.250    0.299    0.404    6.471
  298.964   83.578    0.294    0.368    6.601
  299.214   80.987    0.289    0.366    6.711
  299.464   98.124    0.252    0.356    6.704
  299.714  108.885    0.217    0.355    6.711
  299.964  116.040    0.192    0.374    6.610
  300.214  124.285    0.191    0.399    6.324
  300.464  126.100    0.184    0.417    6.151
  300.714  121.323    0.149    0.436    5.894
  300.964  111.990    0.100    0.436    5.626
  301.214  101.549    0.259    0.424    5.476
  301.464   94.344    0.286    0.413    5.342
  301.714   97.676    0.273    0.416    5.202
  301.964  111.421    0.240    0.427    5.161
  302.214  121.045    0.259    0.435    5.109
  302.464  126.469    0.234    0.447    4.966
  302.714  129.886    0.207    0.464    4.933
  302.964  132.800    0.179    0.478    4.794
  303.214  138.937    0.211    0.480    4.654
  303.464  146.589    0.224    0.498    4.615
  303.714  147.390    0.208    0.509    4.553
  303.964  147.899    0.221    0.517    4.468
  304.214  150.011    0.225    0.509    4.378
  304.464  148.483    0.241    0.482    4.183
  304.714  145.279    0.224    0.476    4.054
  304.964  144.405    0.204    0.496    3.741
  305.214  146.515    0.204    0.519    3.620
  305.464  148.646    0.208    0.512    3.494
  305.714  149.403    0.234    0.522    3.275
  305.964  150.142    0.223    0.529    3.235
  306.214  152.273    0.248    0.539    3.122
  306.464  154.385    0.273    0.537    3.335
  306.714  155.484    0.286    0.517    3.957
  306.964  155.643    0.290    0.487    4.865
  307.214  154.796    0.296    0.467    5.523
  307.464  150.148    0.310    0.453    5.860
  307.714  137.371    0.318    0.462    6.392
  307.964  132.785    0.307    0.453    6.581
  308.214  132.207    0.300    0.447    6.657
  308.464  134.078    0.298    0.453    6.600
  308.714  132.755    0.290    0.447    6.467
  308.964  127.665    0.279    0.437    6.350
  309.214  126.562    0.287    0.423    6.438
  309.464  127.691    0.285    0.460    6.388
  309.714  119.805    0.307    0.473    6.358
  309.964  103.336    0.326    0.457    6.427
  310.214   94.601    0.347    0.442    6.558
  310.464   91.088    0.339    0.436    6.689
  310.714   94.200    0.332    0.433    6.760
  310.964  101.087    0.319    0.434    6.607
  311.214  107.296    0.277    0.444    6.339
  311.464  116.423    0.257    0.457    6.003
  311.714  132.463    0.253    0.467    5.624
  311.964  136.817    0.246    0.484    5.322
  312.214  140.598    0.250    0.496    4.982
  312.464  143.789    0.244    0.499    4.626
  312.714  147.384    0.241    0.506    4.523
  312.964  147.342    0.238    0.509    4.686
  313.214  147.339    0.262    0.511    4.932
  313.464  144.736    0.250    0.495    5.282
  313.714  140.275    0.215    0.460    5.579
  313.964  135.143    0.192    0.451    5.982
  314.214  139.857    0.287    0.461    6.401
  314.464  132.612    0.271    0.448    6.687
  314.714  119.615    0.289    0.432    6.905
  314.964  104.570    0.310    0.424    7.034
  315.214  104.427    0.318    0.408    7.141
  315.464  108.869    0.330    0.410    7.214
  315.714  114.059    0.322    0.420    7.301
  315.964  117.148    0.324    0.419    7.296
  316.214  120.731    0.315    0.421    7.296
  316.464  123.649    0.301    0.436    7.335
  316.714  124.098    0.305    0.447    7.363
  316.964  123.985    0.298    0.439    7.227
  317.214  126.615    0.283    0.442    7.063
  317.464  129.294    0.273    0.453    6.889
  317.714  132.298    0.285    0.460    6.756
  317.964  134.740    0.309    0.465    6.621
  318.214  135.482    0.324    0.464    6.575
  318.464  137.563    0.310    0.462    6.624
  318.714  139.324    0.302    0.455    6.782
  318.964  129.817    0.281    0.454    6.891
  319.214  119.064    0.291    0.460    7.025
  319.464  106.300    0.226    0.442    7.051
  319.714   94.769    0.188    0.413    6.977
  319.964  102.744    0.212    0.416    6.970
  320.214  110.422    0.290    0.399    6.967
  320.464  114.357    0.292    0.400    6.966
  320.714  117.632    0.285    0.410    6.967
  320.964  121.473    0.277    0.404    6.968
  321.214  126.047    0.274    0.410    7.098
  321.464  130.188    0.265    0.422    7.205
  321.714  132.639    0.263    0.418    7.278
  321.964  132.414    0.258    0.433    7.350
  322.214  129.721    0.248    0.437    7.400
  322.464  132.926    0.242    0.427    7.055
  322.714  136.506    0.235    0.436    6.796
  322.964  139.194    0.237    0.449    6.413
  323.214  140.669    0.230    0.460    5.965
  323.464  143.142    0.226    0.476    5.373
  323.714  143.274    0.221    0.481    4.870
  323.964  143.505    0.256    0.471    4.688
  324.214  145.551    0.263    0.465    4.525
  324.464  143.468    0.284    0.466    4.814
  324.714  137.319    0.306    0.468    4.862
  324.964  130.508    0.313    0.461    4.865
  325.214  120.644    0.320    0.453    4.814
  325.464  118.596    0.303    0.456    4.810
  325.714  124.694    0.313    0.508    4.977
  325.964  129.439    0.338    0.492    5.254
  326.214  130.949    0.318    0.451    5.547
  326.464  128.970    0.303    0.450    6.042
  326.714  123.937    0.308    0.452    6.296
