~VERSION INFORMATION
 VERS.                 2.0:   CWLS LOG ASCII STANDARD -VERSION 2.0
 WRAP.                  NO:   ONE LINE PER DEPTH STEP
~WELL INFORMATION BLOCK
#MNEM.UNIT           DATA                    DESCRIPTION OF MNEMONIC
#---------    -------------------            -------------------------------
# Generated from Intellog Unique Number	CS_67_68/WELL/2173
WELL.         06-34-067-02W4                 : Well_name    - WELL
LOC .         00/06-34-067-02W4/0            : Location     - LOCATION
UWI .         00/06-34-067-02W4/0            : Uwi          - UNIQUE WELL ID
ENTR.         SP                             : Entered      - ENTERED BY
SRVC.         SCHLUMBERGER                   : Scn          - SERVICE COMPANY
STRT.M        360                            : top_depth    - START DEPTH
STOP.M        615                            : bot_depth    - STOP DEPTH
STEP.M        0.25                           : increment    - STEP LENGTH
 NULL. -999.2500:NULL Value
~CURVE INFORMATION BLOCK
#MNEM UNIT       ERCB CURVE CODE    CURVE DESCRIPTION
#-----------   ------------------   ----------------------------------
DEPT.M        00 001 00 00         : DEPTH        - DEPTH
ILD .OHMM     00 120 00 00         : RESD         - DEEP RESISTIVITY (DIL)
DPHI.V/V      00 890 00 00         : PHID         - DENSITY POROSITY (LIMESTONE)
NPHI.V/V      00 330 00 00         : PHIN         - NEUTRON POROSITY (LIMESTONE)
GR  .API      00 310 00 00         : GR           - GAMMA RAY
CALI.MM       00 280 01 00         : CAL          - CALIPER
~PARAMETER INFORMATION
#MNEM.UNIT           DATA             DESCRIPTION OF MNEMONIC
#---------         -----------     ------------------------------
GL  .M        686.22               : gl           - GROUND LEVEL ELEVATION
EREF.M        689.57               : kb           - ELEVATION OF DEPTH REFERENCE
DATM.M        689.57               : datum        - DATUM ELEVATION
TDD .M        628                  : tdd          - TOTAL DEPTH DRILLER
RUN .         ONE                  : Run          - RUN NUMBER
ENG .         BILL                 : Engineer     - RECORDING ENGINEER
WIT .         JIM                  : Witness      - WITNESSED BY
MUD .         GEL                  : Mud_type     - MUD TYPE
MATR.         LIMESTONE            : Logunit      - NEUTRON MATRIX
TMAX.C        25                   : BHT          - MAXIMUM RECORDED TEMPERATURE
BHTD.M        627.2                : BHTDEP       - MAXIMUM RECORDED TEMPERATURE
MATR.         1                    : LOGUNIT      - NEUTRON MATRIX
RMT .C        25                   : MDTP         - TEMPERATURE OF MUD
NEUT.         1                    : NEUTRON      - NEUTRON TYPE
RESI.         0                    : RESIST       - RESISTIVITY TYPE
RMC .OHMM     0.25                 : RMC          - RESISTIVITY OF MUD CAKE
RMF .OHMM     0.25                 : RMF          - RESISTIVITY OF MUD FILTRATE
SUFT.C        15                   : SUFT         - SURFACE TEMPERATURE
~A  DEPTH     RESD     PHID     PHIN       GR      CAL
# ...
  506.000   14.194    0.247    0.398   76.917  160.951
  506.250   14.809    0.272    0.424   81.143  160.731
  506.500   15.055    0.285    0.437   83.345  160.508
  506.750   14.311    0.292    0.439   83.642  160.183
  507.000   10.597    0.298    0.429   83.754  159.755
  507.250    9.264    0.304    0.421   87.858  159.738
  507.500    7.488    0.284    0.413   89.322  160.230
  507.750    6.019    0.268    0.426   85.748  161.031
  508.000    5.126    0.258    0.457   93.476  161.626
  508.250    4.332    0.252    0.468  102.371  162.529
  508.500    4.111    0.253    0.473  107.029  163.740
  508.750    3.681    0.262    0.469  109.537  164.948
  509.000    3.403    0.283    0.464  109.034  165.547
  509.250    3.105    0.297    0.494  104.110  166.243
  509.500    2.849    0.309    0.530   98.508  167.251
  509.750    2.633    0.307    0.523   96.287  168.668
  510.000    2.425    0.305    0.514   95.109  170.082
  510.250    2.331    0.304    0.511   93.254  170.164
  510.500    2.237    0.302    0.515   92.262  169.635
  510.750    2.162    0.308    0.517   93.356  169.004
  511.000    2.121    0.319    0.514   94.144  169.190
  511.250    2.117    0.317    0.511   93.457  169.990
  511.500    2.096    0.313    0.515   92.156  167.619
  511.750    2.084    0.317    0.520   91.654  163.812
  512.000    2.087    0.322    0.520   91.274  166.455
  512.250    2.090    0.318    0.510   91.447  168.690
  512.500    2.128    0.309    0.502   91.621  171.024
  512.750    2.168    0.301    0.491   91.979  172.852
  513.000    2.228    0.298    0.486   91.661  175.083
  513.250    2.286    0.301    0.484   89.684  175.475
  513.500    2.346    0.303    0.484   89.059  173.718
  513.750    2.448    0.306    0.504   90.645  174.109
  514.000    2.535    0.322    0.525   94.073  176.344
  514.250    2.506    0.317    0.538   96.336  177.759
  514.500    2.571    0.323    0.531   96.817  178.047
  514.750    2.967    0.333    0.503   90.049  180.383
  515.000    3.661    0.341    0.463   84.017  179.240
  515.250    4.240    0.340    0.435   80.629  171.850
  515.500    4.669    0.329    0.452   78.591  166.918
  515.750    5.152    0.315    0.445   81.895  162.188
  516.000    5.446    0.308    0.441   84.710  158.895
  516.250    5.516    0.300    0.439   86.481  156.831
  516.500    5.503    0.295    0.439   87.391  156.505
  516.750    5.400    0.290    0.439   87.626  157.100
  517.000    5.338    0.286    0.426   87.739  157.084
  517.250    5.446    0.282    0.417   87.176  157.166
  517.500    5.598    0.274    0.427   84.830  157.148
  517.750    5.680    0.271    0.442   85.617  156.721
  518.000    5.700    0.274    0.446   88.801  156.499
  518.250    5.761    0.276    0.443   92.045  155.862
  518.500    5.759    0.267    0.441   94.491  155.539
  518.750    5.757    0.257    0.448   95.095  155.215
  519.000    5.755    0.251    0.462   90.908  155.300
  519.250    5.828    0.261    0.456   89.421  155.280
  519.500    5.914    0.269    0.448   88.612  154.751
  519.750    6.125    0.267    0.445   87.619  154.015
  520.000    6.426    0.266    0.387   85.273  153.690
  520.250    6.934    0.241    0.308   80.472  153.980
  520.500    7.637    0.133    0.267   76.284  156.419
  520.750    8.058    0.109    0.296   74.369  157.015
  521.000    8.115    0.163    0.323   80.930  155.972
  521.250    7.614    0.243    0.396   87.000  155.648
  521.500    7.064    0.266    0.431   90.307  156.039
  521.750    6.690    0.285    0.421   92.507  156.839
  522.000    6.528    0.261    0.408   90.591  157.946
  522.250    6.501    0.211    0.398   88.738  159.361
  522.500    6.498    0.198    0.413   88.174  160.059
  522.750    6.484    0.264    0.428   89.514  160.043
  523.000    6.433    0.284    0.428   92.392  159.307
  523.250    6.300    0.286    0.421   96.802  158.265
  523.500    5.989    0.281    0.431   99.740  158.146
  523.750    5.757    0.275    0.440  101.019  158.537
  524.000    5.575    0.269    0.442   97.630  160.463
  524.250    5.542    0.271    0.443   94.240  161.878
  524.500    5.676    0.272    0.438   93.554  162.782
  524.750    5.824    0.273    0.435   96.183  163.377
  525.000    5.953    0.265    0.449   98.385  163.154
  525.250    6.108    0.259    0.456  100.340  162.522
  525.500    6.221    0.255    0.420   82.331  161.478
  525.750    6.419    0.184    0.279   71.509  160.845
  526.000    6.952    0.129    0.260   64.128  160.826
  526.250    8.111    0.173    0.297   65.406  160.915
  526.500    9.290    0.201    0.337   69.816  161.200
  526.750    9.766    0.268    0.372   73.309  161.183
  527.000    8.960    0.309    0.417   74.403  160.345
  527.250    8.344    0.332    0.392   70.338  159.409
  527.500    8.096    0.336    0.383   67.747  157.548
  527.750    7.870    0.326    0.380   68.166  155.788
  528.000    7.664    0.315    0.395   71.596  154.543
  528.250    7.340    0.293    0.413   76.007  154.012
  528.500    6.735    0.288    0.428   79.006  155.530
  528.750    6.331    0.304    0.394   73.221  159.501
  529.000    6.223    0.316    0.380   69.586  162.864
  529.250    6.542    0.323    0.383   72.278  163.766
  529.500    7.058    0.329    0.386   72.820  162.824
  529.750    7.559    0.324    0.385   68.939  161.578
  530.000    7.902    0.316    0.384   70.463  160.538
  530.250    7.841    0.309    0.401   75.734  159.497
  530.500    7.650    0.328    0.411   80.270  159.172
  530.750    7.436    0.341    0.420   83.515  159.154
  531.000    7.351    0.340    0.400   76.808  160.261
  531.250    7.570    0.334    0.393   77.535  159.626
  531.500    7.928    0.329    0.404   78.998  157.973
  531.750    8.288    0.324    0.400   80.768  155.904
  532.000    8.584    0.321    0.387   81.432  154.863
  532.250    8.661    0.317    0.371   81.545  154.127
  532.500    8.658    0.316    0.384   84.051  153.906
  532.750    8.638    0.319    0.401   87.051  154.091
  533.000    8.749    0.322    0.413   89.682  153.871
  533.250    8.960    0.319    0.399   86.845  153.749
  533.500    9.159    0.314    0.375   87.017  153.732
  533.750    9.293    0.303    0.347   87.131  153.815
  534.000    9.341    0.288    0.333   76.678  154.206
  534.250    9.426    0.276    0.351   71.630  154.700
  534.500    9.422    0.269    0.366   77.637  154.989
  534.750    9.348    0.276    0.374   81.498  155.483
  535.000    9.258    0.284    0.363   80.073  155.671
  535.250    9.067    0.286    0.374   83.195  155.857
  535.500    8.963    0.287    0.370   87.423  155.735
  535.750    8.993    0.287    0.347   85.446  154.795
  536.000    9.091    0.279    0.335   83.961  154.267
  536.250    9.241    0.272    0.362   87.573  153.939
  536.500    9.307    0.267    0.377   90.757  153.615
  536.750    9.407    0.279    0.389   91.791  153.599
  537.000    9.439    0.300    0.401   88.954  153.885
  537.250    9.383    0.312    0.396   84.337  153.557
  537.500    9.292    0.313    0.378   77.507  153.544
  537.750    9.186    0.304    0.355   74.364  153.525
  538.000    9.080    0.274    0.337   74.844  153.608
  538.250    8.959    0.223    0.339   77.965  154.103
  538.500    8.840    0.199    0.348   83.297  156.643
  538.750    8.787    0.184    0.352   87.711  157.445
  539.000    8.685    0.198    0.357   93.965  157.734
  539.250    8.603    0.208    0.360   92.540  159.047
  539.500    8.362    0.211    0.361   89.705  159.639
  539.750    8.068    0.217    0.362   87.790  159.212
  540.000    7.902    0.220    0.363   87.532  158.172
  540.250    7.767    0.211    0.362   89.611  156.619
  540.500    7.678    0.212    0.362   92.855  156.294
  540.750    7.632    0.215    0.373   96.653  156.992
  541.000    7.544    0.217    0.384   99.038  158.097
  541.250    7.417    0.218    0.379   97.983  158.082
  541.500    7.169    0.231    0.356   93.549  157.962
  541.750    7.021    0.244    0.342   80.701  156.509
  542.000    6.966    0.252    0.340   69.140  155.467
  542.250    7.175    0.258    0.338   63.601  154.630
