~VERSION INFORMATION
 VERS.                 2.0:   CWLS LOG ASCII STANDARD -VERSION 2.0
 WRAP.                  NO:   ONE LINE PER DEPTH STEP
~WELL INFORMATION BLOCK
#MNEM.UNIT           DATA                    DESCRIPTION OF MNEMONIC
#---------    -------------------            -------------------------------
# Generated from Intellog Unique Number	CS_71_72/WELL/699
WELL.         AMOCO AEC IPIATIK              : Well_name    - WELL
LOC .         00/06-01-072-05W4/0            : Location     - LOCATION
UWI .         00/06-01-072-05W4/0            : Uwi          - UNIQUE WELL ID
ENTR.         SP                             : Entered      - ENTERED BY
SRVC.         SCHLUMBERGER                   : Scn          - SERVICE COMPANY
STRT.M        285                            : top_depth    - START DEPTH
STOP.M        505                            : bot_depth    - STOP DEPTH
STEP.M        0.25                           : increment    - STEP LENGTH
 NULL. -999.2500:NULL Value
~CURVE INFORMATION BLOCK
#MNEM UNIT       ERCB CURVE CODE    CURVE DESCRIPTION
#-----------   ------------------   ----------------------------------
DEPT.M        00 001 00 00         : DEPTH        - DEPTH
ILD .OHMM     00 120 00 00         : RESD         - DEEP RESISTIVITY (DIL)
DPHI.V/V      00 890 00 00         : PHID         - DENSITY POROSITY (LIMESTONE)
NPHI.V/V      00 330 00 00         : PHIN         - NEUTRON POROSITY (LIMESTONE)
GR  .API      00 310 00 00         : GR           - GAMMA RAY
~PARAMETER INFORMATION
#MNEM.UNIT           DATA             DESCRIPTION OF MNEMONIC
#---------         -----------     ------------------------------
GL  .M        671                  : gl           - GROUND LEVEL ELEVATION
EREF.M        674.85               : kb           - ELEVATION OF DEPTH REFERENCE
DATM.M        671                  : datum        - DATUM ELEVATION
TDD .M        517                  : tdd          - TOTAL DEPTH DRILLER
RUN .         ONE                  : Run          - RUN NUMBER
ENG .         BILL                 : Engineer     - RECORDING ENGINEER
WIT .         JIM                  : Witness      - WITNESSED BY
MUD .         GEL                  : Mud_type     - MUD TYPE
MATR.         LIMESTONE            : Logunit      - NEUTRON MATRIX
TMAX.C        22                   : BHT          - MAXIMUM RECORDED TEMPERATURE
BHTD.M        517                  : BHTDEP       - MAXIMUM RECORDED TEMPERATURE
MATR.         1                    : LOGUNIT      - NEUTRON MATRIX
RMT .C        25                   : MDTP         - TEMPERATURE OF MUD
NEUT.         1                    : NEUTRON      - NEUTRON TYPE
RESI.         0                    : RESIST       - RESISTIVITY TYPE
RMC .OHMM     0.25                 : RMC          - RESISTIVITY OF MUD CAKE
RMF .OHMM     0.25                 : RMF          - RESISTIVITY OF MUD FILTRATE
SUFT.C        15                   : SUFT         - SURFACE TEMPERATURE
~A  DEPTH     RESD     PHID     PHIN       GR
# ...
  415.500    5.930    0.239    0.438   74.462
  415.750    5.715    0.260    0.439   77.498
  416.000    5.508    0.286    0.442   79.924
  416.250    5.408    0.285    0.458   82.957
  416.500    5.408    0.274    0.474   82.965
  416.750    5.310    0.268    0.487   82.368
  417.000    5.213    0.267    0.501   82.979
  417.250    5.213    0.256    0.494   84.198
  417.500    5.025    0.243    0.482   86.629
  417.750    5.025    0.226    0.476   88.449
  418.000    5.026    0.225    0.475   92.085
  418.250    5.120    0.233    0.472   91.490
  418.500    5.216    0.228    0.470   90.288
  418.750    5.412    0.219    0.471   90.296
  419.000    5.514    0.215    0.482   89.699
  419.250    5.722    0.213    0.477   87.892
  419.500    5.829    0.222    0.472   88.506
  419.750    6.393    0.227    0.466   90.936
  420.000    7.276    0.237    0.460   91.547
  420.250    7.835    0.247    0.451   88.532
  420.500    9.425    0.255    0.435   85.517
  420.750   10.149    0.260    0.416   83.104
  421.000   11.131    0.268    0.377   78.273
  421.250   11.132    0.268    0.358   71.023
  421.500   10.340    0.146    0.320   66.192
  421.750    8.758    0.038    0.296   63.176
  422.000    7.986    0.049    0.359   69.236
  422.250    7.149    0.087    0.394   74.081
  422.500    6.640    0.221    0.425   80.139
  422.750    6.400    0.246    0.450   84.985
  423.000    6.168    0.258    0.434   87.411
  423.250    6.169    0.265    0.421   86.816
  423.500    6.284    0.256    0.440   89.243
  423.750    6.170    0.226    0.433   93.486
  424.000    5.838    0.231    0.426   94.704
  424.250    5.524    0.248    0.418   89.273
  424.500    5.423    0.260    0.414   88.670
  424.750    5.324    0.252    0.424   92.308
  425.000    5.424    0.236    0.437   94.132
  425.250    5.525    0.237    0.443   92.324
  425.500    5.425    0.243    0.447   90.518
  425.750    5.326    0.235    0.456   90.526
  426.000    5.039    0.250    0.449   88.721
  426.250    4.511    0.269    0.437   82.680
  426.500    4.190    0.286    0.436   79.059
  426.750    3.964    0.269    0.456   79.672
  427.000    3.420    0.252    0.461   80.286
  427.250    3.236    0.253    0.459   80.296
  427.500    2.951    0.260    0.453   82.723
  427.750    2.844    0.245    0.455   85.148
  428.000    2.642    0.237    0.477   89.390
  428.250    2.546    0.240    0.490   92.422
  428.500    2.952    0.235    0.508   91.826
  428.750    3.179    0.231    0.536   94.255
  429.000    3.551    0.229    0.550   94.868
  429.250    3.895    0.235    0.557   93.665
  429.500    4.117    0.249    0.550   90.653
  429.750    4.352    0.258    0.517   88.844
  430.000    4.434    0.252    0.493   86.432
  430.250    4.517    0.225    0.469   86.442
  430.500    4.435    0.200    0.466   87.660
  430.750    4.354    0.200    0.475   90.087
  431.000    4.354    0.208    0.470   91.305
  431.250    4.603    0.210    0.440   90.708
  431.500    5.048    0.207    0.421   89.508
  431.750    5.853    0.211    0.415   90.119
  432.000    6.785    0.218    0.411   91.946
  432.250    8.315    0.239    0.421   91.952
  432.500   10.002    0.252    0.429   90.751
  432.750   11.384    0.265    0.399   85.313
  433.000   12.719    0.281    0.375   75.644
  433.250   13.198    0.299    0.348   69.604
  433.500   11.815    0.259    0.350   65.984
  433.750   10.577    0.228    0.364   64.176
  434.000    9.468    0.223    0.381   64.184
  434.250    8.320    0.235    0.406   65.403
  434.500    7.587    0.235    0.421   68.437
  434.750    7.047    0.224    0.440   70.863
  435.000    6.426    0.221    0.450   75.109
  435.250    5.969    0.236    0.453   76.323
  435.500    5.343    0.236    0.439   79.960
  435.750    4.696    0.229    0.431   83.599
  436.000    4.443    0.232    0.429   87.237
  436.250    3.833    0.240    0.424   90.267
  436.500    3.431    0.226    0.424   94.509
  436.750    3.307    0.209    0.449   97.541
  437.000    3.129    0.195    0.466   98.155
  437.250    3.016    0.217    0.482  100.582
  437.500    2.961    0.210    0.494  102.405
  437.750    2.907    0.203    0.492  102.416
  438.000    2.907    0.199    0.514  101.817
  438.250    2.907    0.194    0.523  100.615
  438.500    3.017    0.192    0.507  100.020
  438.750    3.073    0.203    0.507   98.819
  439.000    3.249    0.197    0.508   97.618
  439.250    3.498    0.195    0.501   95.810
  439.500    3.909    0.194    0.485   94.005
  439.750    4.531    0.185    0.489   92.198
  440.000    4.970    0.181    0.499   91.601
  440.250    5.869    0.185    0.513   94.029
  440.500    7.061    0.183    0.535   93.432
  440.750    8.813    0.179    0.521   88.601
  441.000   10.031    0.176    0.473   83.165
  441.250   11.207    0.193    0.442   75.915
  441.500   11.847    0.240    0.370   75.924
  441.750   12.068    0.261    0.361   75.935
  442.000   12.524    0.267    0.354   73.523
  442.250   12.758    0.260    0.337   71.110
  442.500   12.997    0.220    0.327   70.513
  442.750   12.999    0.197    0.316   69.918
  443.000   12.999    0.164    0.306   70.529
  443.250   13.000    0.155    0.332   74.774
  443.500   13.002    0.197    0.354   79.015
  443.750   13.002    0.234    0.356   80.231
  444.000   13.246    0.246    0.355   76.610
  444.250   13.746    0.252    0.356   76.621
  444.500   15.077    0.257    0.373   79.655
  444.750   16.846    0.240    0.386   80.264
  445.000   18.477    0.221    0.393   80.878
  445.250   19.895    0.210    0.399   79.075
  445.500   20.645    0.213    0.409   77.871
  445.750   19.899    0.240    0.414   74.251
  446.000   18.483    0.266    0.422   69.418
  446.250   15.946    0.281    0.425   65.797
  446.500   14.811    0.271    0.423   68.226
  446.750   13.506    0.263    0.425   71.862
  447.000   12.778    0.256    0.428   76.710
  447.250   11.439    0.250    0.437   80.953
  447.500   11.025    0.242    0.445   84.591
  447.750   10.241    0.232    0.435   87.623
  448.000    9.870    0.224    0.415   89.444
  448.250    9.690    0.209    0.394   92.479
  448.500    9.692    0.190    0.384   94.906
  448.750    9.692    0.199    0.381   96.729
  449.000    9.874    0.219    0.377   96.132
  449.250    9.874    0.232    0.377   94.325
  449.500   10.247    0.225    0.377   89.495
  449.750   10.439    0.222    0.361   85.270
  450.000   10.248    0.224    0.338   82.253
  450.250   11.036    0.207    0.330   83.472
  450.500   11.883    0.192    0.351   85.293
  450.750   13.033    0.185    0.367   86.512
  451.000   15.110    0.204    0.364   84.099
  451.250   17.517    0.200    0.364   78.061
  451.500   20.687    0.198    0.380   71.414
  451.750   24.886    0.222    0.394   63.559
  452.000   26.796    0.242    0.389   59.940
  452.250   28.853    0.262    0.374   59.343
  452.500   28.856    0.272    0.371   38.786
  452.750   28.858    0.261    0.370   36.374
  453.000   29.399    0.288    0.372   35.174
  453.250   31.076    0.293    0.375   34.579
  453.500   32.249    0.283    0.380   34.584
  453.750   31.660    0.274    0.377   33.387
  454.000   29.408    0.291    0.365   33.392
  454.250   25.371    0.295    0.355   33.402
  454.500   21.094    0.285    0.351   34.013
  454.750   19.593    0.279    0.349   35.835
  455.000   18.884    0.278    0.353   38.262
  455.250   19.962    0.278    0.354   46.136
  455.500   21.896    0.269    0.353   52.796
  455.750   22.305    0.243    0.354   62.482
  456.000   22.722    0.230    0.363   64.909
  456.250   20.720    0.260    0.424   65.523
  456.500   18.893    0.279    0.430   59.483
  456.750   16.300    0.288    0.411   57.675
  457.000   14.325    0.295    0.394   60.712
  457.250   13.553    0.263    0.384   63.136
  457.500   12.824    0.246    0.377   68.590
  457.750   12.590    0.240    0.387   71.621
  458.000   13.809    0.238    0.382   74.653
  458.250   14.597    0.237    0.378   75.872
  458.500   16.310    0.240    0.389   77.091
  458.750   17.562    0.241    0.406   76.494
