~VERSION INFORMATION
 VERS.                 2.0:   CWLS LOG ASCII STANDARD -VERSION 2.0
 WRAP.                  NO:   ONE LINE PER DEPTH STEP
~WELL INFORMATION BLOCK
#MNEM.UNIT           DATA                    DESCRIPTION OF MNEMONIC
#---------    -------------------            -------------------------------
# Generated from Intellog Unique Number	CS_69_70/WELL/840
WELL.         BVX ET AL TWEEDIE              : Well_name    - WELL
LOC .         00/07-21-069-14W4/0            : Location     - LOCATION
UWI .         00/07-21-069-14W4/0            : Uwi          - UNIQUE WELL ID
ENTR.         SP                             : Entered      - ENTERED BY
SRVC.         SCHLUMBERGER                   : Scn          - SERVICE COMPANY
STRT.M        286.512                        : top_depth    - START DEPTH
STOP.M        472.262                        : bot_depth    - STOP DEPTH
STEP.M        0.25                           : increment    - STEP LENGTH
 NULL. -999.2500:NULL Value
~CURVE INFORMATION BLOCK
#MNEM UNIT       ERCB CURVE CODE    CURVE DESCRIPTION
#-----------   ------------------   ----------------------------------
DEPT.M        00 001 00 00         : DEPTH        - DEPTH
GR  .API      00 310 00 00         : GR           - GAMMA RAY
DPHI.V/V      00 890 00 00         : PHID         - DENSITY POROSITY (SANDSTONE)
NPHI.V/V      00 330 00 00         : PHIN         - NEUTRON POROSITY (SANDSTONE)
ILD .OHMM     00 120 00 00         : RESD         - DEEP RESISTIVITY (DIL)
~PARAMETER INFORMATION
#MNEM.UNIT           DATA             DESCRIPTION OF MNEMONIC
#---------         -----------     ------------------------------
GL  .M        569.9                : gl           - GROUND LEVEL ELEVATION
EREF.M        573.024              : kb           - ELEVATION OF DEPTH REFERENCE
DATM.M        569.9                : datum        - DATUM ELEVATION
TDD .M        478.536              : tdd          - TOTAL DEPTH DRILLER
RUN .         ONE                  : Run          - RUN NUMBER
ENG .         BILL                 : Engineer     - RECORDING ENGINEER
WIT .         JIM                  : Witness      - WITNESSED BY
MUD .         GEL                  : Mud_type     - MUD TYPE
MATR.         SANDSTONE            : Logunit      - NEUTRON MATRIX
TMAX.C        27.7778              : BHT          - MAXIMUM RECORDED TEMPERATURE
BHTD.M        478.536              : BHTDEP       - MAXIMUM RECORDED TEMPERATURE
MATR.         1                    : LOGUNIT      - NEUTRON MATRIX
RMT .C        25                   : MDTP         - TEMPERATURE OF MUD
NEUT.         1                    : NEUTRON      - NEUTRON TYPE
RESI.         0                    : RESIST       - RESISTIVITY TYPE
RMC .OHMM     0.25                 : RMC          - RESISTIVITY OF MUD CAKE
RMF .OHMM     0.25                 : RMF          - RESISTIVITY OF MUD FILTRATE
SUFT.C        15                   : SUFT         - SURFACE TEMPERATURE
~A  DEPTH       GR     PHID     PHIN     RESD
  286.512  118.271    0.217    0.530    2.475
  286.762  118.550    0.209    0.530    2.588
  287.012  118.539    0.205    0.538    2.685
  287.262  116.328    0.213    0.549    2.789
  287.512  117.572    0.197    0.557    2.836
  287.762  121.528    0.195    0.538    2.912
  288.012  118.494    0.178    0.530    2.979
  288.262  114.386    0.182    0.523    3.180
  288.512  111.175    0.167    0.529    3.446
  288.762  109.850    0.160    0.491    3.632
  289.012  111.452    0.166    0.482    3.719
  289.262  113.071    0.148    0.477    3.703
  289.512  115.350    0.190    0.487    3.645
  289.762  117.768    0.208    0.507    3.405
  290.012  120.337    0.201    0.523    3.178
  290.262  121.710    0.209    0.532    3.026
  290.512  121.473    0.196    0.542    2.877
  290.762  119.839    0.177    0.563    2.795
  291.012  118.002    0.180    0.581    2.745
  291.262  117.146    0.195    0.556    2.742
  291.512  116.663    0.198    0.525    2.761
  291.762  115.817    0.207    0.512    2.814
  292.012  114.071    0.207    0.505    2.877
  292.262  111.515    0.197    0.504    2.939
  292.512  108.413    0.196    0.518    3.003
  292.762  105.023    0.183    0.537    3.052
  293.012  102.110    0.182    0.528    3.063
  293.262  100.199    0.167    0.512    2.988
  293.512  103.797    0.150    0.502    2.875
  293.762  105.953    0.174    0.508    2.760
  294.012  102.929    0.165    0.517    2.697
  294.262   92.498    0.210    0.529    2.704
  294.512   84.363    0.234    0.525    2.753
  294.762   78.121    0.251    0.483    2.850
  295.012   76.737    0.192    0.531    2.957
  295.262   80.293    0.148    0.572    3.110
  295.512   77.767    0.226    0.561    3.249
  295.762   73.918    0.208    0.554    3.422
  296.012   83.214    0.170    0.546    3.291
  296.262   90.668    0.135    0.572    3.003
  296.512   94.986    0.204    0.584    2.803
  296.762   96.847    0.252    0.586    2.678
  297.012   96.937    0.264    0.580    2.603
  297.262   95.214    0.244    0.572    2.592
  297.512   91.115    0.257    0.581    2.604
  297.762   90.049    0.284    0.590    2.632
  298.012   89.800    0.265    0.592    2.645
  298.262   91.245    0.257    0.587    2.662
  298.512   92.184    0.263    0.570    2.683
  298.762   91.799    0.264    0.573    2.675
  299.012   90.615    0.250    0.585    2.640
  299.262   90.037    0.240    0.583    2.603
  299.512   90.837    0.232    0.575    2.572
  299.762   92.486    0.235    0.566    2.559
  300.012   89.928    0.234    0.575    2.552
  300.262   87.554    0.264    0.583    2.594
  300.512   86.886    0.249    0.570    2.671
  300.762   88.040    0.251    0.555    2.768
  301.012   87.084    0.268    0.542    2.869
  301.262   92.606    0.253    0.549    2.945
  301.512   94.347    0.242    0.564    2.993
  301.762   92.975    0.251    0.576    2.988
  302.012   87.886    0.234    0.562    3.032
  302.262   84.268    0.256    0.530    3.148
  302.512   83.006    0.250    0.504    3.262
  302.762   89.409    0.247    0.488    3.408
  303.012   95.933    0.231    0.466    3.572
  303.262  102.239    0.215    0.448    3.746
  303.512  104.706    0.207    0.448    3.979
  303.762  100.388    0.198    0.441    4.179
  304.012   93.635    0.201    0.461    4.298
  304.262   86.351    0.315    0.520    4.366
  304.512   81.028    0.333    0.545    4.385
  304.762   77.702    0.330    0.526    4.129
  305.012   73.559    0.311    0.496    3.703
  305.262   68.909    0.298    0.481    3.360
  305.512   63.515    0.287    0.474    2.948
  305.762   58.210    0.296    0.470    2.579
  306.012   55.072    0.311    0.467    2.303
  306.262   53.118    0.315    0.461    2.116
  306.512   51.573    0.330    0.453    1.963
  306.762   50.032    0.337    0.438    1.863
  307.012   49.326    0.335    0.430    1.785
  307.262   48.626    0.320    0.443    1.743
  307.512   48.074    0.324    0.456    1.709
  307.762   48.779    0.330    0.454    1.696
  308.012   51.291    0.337    0.449    1.709
  308.262   54.568    0.342    0.452    1.734
  308.512   57.837    0.342    0.456    1.763
  308.762   60.532    0.338    0.457    1.788
  309.012   65.047    0.317    0.452    1.818
  309.262   68.625    0.307    0.444    1.857
  309.512   71.566    0.303    0.441    1.929
  309.762   75.686    0.294    0.443    2.023
  310.012   79.593    0.284    0.456    2.169
  310.262   86.951    0.287    0.463    2.370
  310.512   93.849    0.254    0.469    2.650
  310.762   98.887    0.220    0.468    3.018
  311.012  102.668    0.186    0.456    3.369
  311.262  103.589    0.138    0.456    3.675
  311.512   94.163    0.112    0.471    3.939
  311.762  102.801    0.136    0.482    4.239
  312.012  105.409    0.168    0.492    4.489
  312.262  106.250    0.192    0.501    4.595
  312.512  105.640    0.188    0.500    4.543
  312.762  105.031    0.194    0.497    4.427
  313.012  105.235    0.203    0.495    4.330
  313.262  106.427    0.209    0.472    4.278
  313.512  109.518    0.203    0.463    4.275
  313.762  115.155    0.201    0.453    4.262
  314.012  122.502    0.188    0.447    4.221
  314.262  127.956    0.171    0.449    4.110
  314.512  131.233    0.177    0.476    3.943
  314.762  132.791    0.177    0.515    3.739
  315.012  130.683    0.178    0.539    3.618
  315.262  130.610    0.167    0.534    3.620
  315.512  135.365    0.176    0.509    3.681
  315.762  135.250    0.196    0.471    3.828
  316.012  130.235    0.199    0.457    3.986
  316.262  123.303    0.199    0.464    4.182
  316.512  119.375    0.230    0.455    4.347
  316.762  115.672    0.241    0.434    4.460
  317.012  109.655    0.221    0.425    4.508
  317.262  105.283    0.223    0.430    4.479
  317.512  103.261    0.211    0.430    4.362
  317.762  104.364    0.210    0.418    4.227
  318.012  104.181    0.233    0.426    4.040
  318.262  101.102    0.249    0.444    3.824
  318.512   99.861    0.255    0.460    3.604
  318.762  104.850    0.267    0.445    3.477
  319.012  109.654    0.272    0.435    3.309
  319.262  114.352    0.245    0.451    3.280
  319.512  117.247    0.266    0.476    3.398
  319.762  112.057    0.282    0.480    3.514
  320.012  106.087    0.253    0.464    3.681
  320.262  102.569    0.269    0.472    3.775
  320.512  106.800    0.281    0.459    3.786
  320.762  112.418    0.244    0.447    3.717
  321.012  117.098    0.223    0.439    3.680
  321.262  121.210    0.208    0.430    3.727
  321.512  125.054    0.193    0.436    3.863
  321.762  123.686    0.180    0.447    4.028
  322.012  122.563    0.181    0.452    4.208
  322.262  122.123    0.200    0.454    4.351
  322.512  122.089    0.196    0.453    4.451
  322.762  122.093    0.204    0.447    4.485
  323.012  121.916    0.180    0.456    4.394
  323.262  121.331    0.181    0.470    4.270
  323.512  120.840    0.193    0.482    4.108
  323.762  120.097    0.212    0.501    4.007
  324.012  120.102    0.228    0.505    3.925
  324.262  121.483    0.215    0.483    3.865
  324.512  122.438    0.211    0.488    3.840
  324.762  121.767    0.230    0.499    3.841
  325.012  121.219    0.245    0.508    3.829
  325.262  120.677    0.247    0.510    3.818
  325.512  121.250    0.235    0.501    3.792
  325.762  121.216    0.203    0.491    3.785
  326.012  117.253    0.180    0.484    3.762
  326.262  114.041    0.193    0.475    3.728
  326.512  110.216    0.239    0.467    3.676
  326.762  104.217    0.246    0.462    3.607
  327.012  100.319    0.256    0.466    3.512
  327.262  100.302    0.248    0.474    3.399
  327.512  101.521    0.249    0.465    3.344
  327.762  100.988    0.263    0.450    3.304
  328.012   98.797    0.259    0.441    3.275
  328.262   98.885    0.248    0.436    3.288
  328.512  102.615    0.248    0.430    3.327
  328.762  105.077    0.264    0.433    3.396
  329.012  105.871    0.271    0.469    3.469
  329.262  103.375    0.264    0.493    3.491
  329.512  100.220    0.291    0.503    3.467
  329.762   96.626    0.276    0.487    3.388
