~VERSION INFORMATION
 VERS.                 2.0:   CWLS LOG ASCII STANDARD -VERSION 2.0
 WRAP.                  NO:   ONE LINE PER DEPTH STEP
~WELL INFORMATION BLOCK
#MNEM.UNIT           DATA                    DESCRIPTION OF MNEMONIC
#---------    -------------------            -------------------------------
# Generated from Intellog Unique Number	CS_73_76/WELL/2176
WELL.         DOME ET AL KIRBY               : Well_name    - WELL
LOC .         00/07-26-074-05W4/0            : Location     - LOCATION
UWI .         00/07-26-074-05W4/0            : Uwi          - UNIQUE WELL ID
ENTR.         SP                             : Entered      - ENTERED BY
SRVC.         SCHLUMBERGER                   : Scn          - SERVICE COMPANY
STRT.M        260                            : top_depth    - START DEPTH
STOP.M        470                            : bot_depth    - STOP DEPTH
STEP.M        0.25                           : increment    - STEP LENGTH
 NULL. -999.2500:NULL Value
~CURVE INFORMATION BLOCK
#MNEM UNIT       ERCB CURVE CODE    CURVE DESCRIPTION
#-----------   ------------------   ----------------------------------
DEPT.M        00 001 00 00         : DEPTH        - DEPTH
ILD .OHMM     00 120 00 00         : RESD         - DEEP RESISTIVITY (DIL)
DPHI.V/V      00 890 00 00         : PHID         - DENSITY POROSITY (LIMESTONE)
NPHI.V/V      00 330 00 00         : PHIN         - NEUTRON POROSITY (LIMESTONE)
GR  .API      00 310 00 00         : GR           - GAMMA RAY
~PARAMETER INFORMATION
#MNEM.UNIT           DATA             DESCRIPTION OF MNEMONIC
#---------         -----------     ------------------------------
GL  .M        659.1                : gl           - GROUND LEVEL ELEVATION
EREF.M        663.6                : kb           - ELEVATION OF DEPTH REFERENCE
DATM.M        659.1                : datum        - DATUM ELEVATION
TDD .M        475                  : tdd          - TOTAL DEPTH DRILLER
RUN .         ONE                  : Run          - RUN NUMBER
ENG .         BILL                 : Engineer     - RECORDING ENGINEER
WIT .         JIM                  : Witness      - WITNESSED BY
MUD .         GEL                  : Mud_type     - MUD TYPE
MATR.         LIMESTONE            : Logunit      - NEUTRON MATRIX
TMAX.C        20                   : BHT          - MAXIMUM RECORDED TEMPERATURE
BHTD.M        475                  : BHTDEP       - MAXIMUM RECORDED TEMPERATURE
MATR.         1                    : LOGUNIT      - NEUTRON MATRIX
RMT .C        25                   : MDTP         - TEMPERATURE OF MUD
NEUT.         1                    : NEUTRON      - NEUTRON TYPE
RESI.         0                    : RESIST       - RESISTIVITY TYPE
RMC .OHMM     0.25                 : RMC          - RESISTIVITY OF MUD CAKE
RMF .OHMM     0.25                 : RMF          - RESISTIVITY OF MUD FILTRATE
SUFT.C        15                   : SUFT         - SURFACE TEMPERATURE
~A  DEPTH     RESD     PHID     PHIN       GR
# ...
  434.000   43.848    0.315    0.436   50.677
  434.250   47.285    0.329    0.409   47.040
  434.500   44.711    0.323    0.395   48.869
  434.750   42.277    0.318    0.392   54.950
  435.000   35.720    0.320    0.405   61.029
  435.250   37.094    0.317    0.430   66.501
  435.500   43.128    0.322    0.452   66.506
  435.750   44.786    0.328    0.442   64.690
  436.000   47.397    0.328    0.426   59.232
  436.250   48.310    0.334    0.415   56.809
  436.500   44.000    0.332    0.406   56.815
  436.750   40.069    0.324    0.404   61.681
  437.000   36.491    0.321    0.411   65.938
  437.250   33.234    0.318    0.418   64.729
  437.500   30.840    0.311    0.427   61.699
  437.750   29.715    0.301    0.432   65.351
  438.000   28.628    0.294    0.434   70.216
  438.250   31.458    0.296    0.432   72.044
  438.500   30.883    0.300    0.432   69.013
  438.750   29.752    0.305    0.431   70.235
  439.000   27.609    0.302    0.416   73.886
  439.250   23.326    0.294    0.406   76.928
  439.500   18.629    0.286    0.401   79.971
  439.750   15.446    0.278    0.398   84.230
  440.000   13.296    0.284    0.399   87.879
  440.250   11.232    0.282    0.403   93.350
  440.500    9.669    0.260    0.411  103.681
  440.750    8.325    0.236    0.406  112.189
  441.000    7.871    0.216    0.399  118.877
  441.250    7.583    0.217    0.412  123.135
  441.500    7.445    0.225    0.426  126.785
  441.750    8.029    0.234    0.423  124.361
  442.000    8.989    0.222    0.422   97.647
  442.250   10.255    0.236    0.429   83.078
  442.500   11.267    0.275    0.423   72.153
  442.750   11.924    0.285    0.409   76.410
  443.000   12.619    0.249    0.396   91.600
  443.250   12.622    0.224    0.394  100.108
  443.500   12.866    0.233    0.390   94.042
  443.750   13.114    0.249    0.372   84.940
  444.000   14.682    0.263    0.366   78.265
  444.250   16.438    0.285    0.382   73.414
  444.500   17.396    0.300    0.399   77.671
  444.750   17.732    0.307    0.389   83.143
  445.000   17.083    0.283    0.373   84.364
  445.250   14.433    0.255    0.358   86.193
  445.500   13.144    0.258    0.358   82.555
  445.750   11.971    0.250    0.349   80.134
  446.000   11.320    0.233    0.339   80.139
  446.250   11.757    0.226    0.330   82.574
  446.500   12.210    0.225    0.334   79.545
  446.750   12.922    0.248    0.361   73.479
  447.000   12.927    0.263    0.373   74.699
  447.250   12.690    0.259    0.371   86.247
  447.500   11.559    0.236    0.378   91.110
  447.750   11.135    0.240    0.387  100.833
  448.000    9.952    0.239    0.399  109.948
  448.250    9.064    0.185    0.378  112.384
  448.500    8.570    0.156    0.357  110.568
  448.750    8.257    0.156    0.344  106.931
  449.000    7.956    0.167    0.347  108.760
  449.250    7.666    0.167    0.372  111.195
  449.500    7.525    0.164    0.379  109.987
  449.750    7.116    0.162    0.377  112.426
  450.000    6.855    0.168    0.394  114.253
  450.250    6.483    0.176    0.412  117.295
  450.500    6.364    0.184    0.422  119.125
  450.750    6.132    0.197    0.419  119.737
  451.000    6.133    0.192    0.422  120.352
  451.250    6.252    0.185    0.428  117.321
  451.500    6.494    0.195    0.429  108.827
  451.750    6.618    0.215    0.434  101.546
  452.000    6.746    0.226    0.433   97.907
  452.250    6.876    0.235    0.413   97.308
  452.500    7.009    0.245    0.397   97.919
  452.750    7.144    0.243    0.391   97.926
  453.000    7.147    0.225    0.385   98.543
  453.250    7.285    0.212    0.410   99.155
  453.500    7.424    0.228    0.435   93.088
  453.750    8.630    0.234    0.437   88.235
  454.000   10.032    0.242    0.418   79.133
  454.250   10.617    0.263    0.428   73.066
  454.500   11.027    0.283    0.429   76.109
  454.750   10.625    0.281    0.406   84.617
  455.000    9.678    0.250    0.390  114.990
  455.250    9.150    0.228    0.410  125.320
  455.500    8.815    0.209    0.422  131.399
  455.750    8.028    0.230    0.418  136.263
  456.000    7.882    0.228    0.400  142.342
  456.250    7.737    0.218    0.393  113.806
  456.500    7.886    0.228    0.421  106.526
  456.750    8.347    0.241    0.441  102.889
  457.000    8.669    0.252    0.440  104.716
  457.250    8.835    0.243    0.423  115.047
  457.500    9.708    0.228    0.434  110.802
  457.750   10.869    0.214    0.443   98.664
  458.000   12.635    0.188    0.418   91.989
  458.250   14.146    0.187    0.412   81.672
  458.500   15.837    0.252    0.433   73.176
  458.750   17.077    0.317    0.445   65.895
  459.000   17.407    0.344    0.419   59.829
  459.250   16.153    0.331    0.407   62.265
  459.500   13.908    0.301    0.396   70.773
  459.750   13.148    0.275    0.397   90.820
  460.000   12.433    0.275    0.434   89.006
  460.250   11.978    0.291    0.452   90.834
  460.500   11.760    0.301    0.446   98.127
  460.750   11.331    0.281    0.428  107.851
  461.000   11.123    0.265    0.406  112.108
  461.250   11.553    0.269    0.428  106.042
  461.500   12.459    0.271    0.454   88.436
  461.750   13.184    0.286    0.455   67.188
  462.000   14.486    0.307    0.434   76.306
  462.250   15.332    0.324    0.421   97.566
  462.500   15.627    0.339    0.403  122.472
  462.750   15.055    0.306    0.381  133.408
  463.000   14.505    0.270    0.368  139.488
  463.250   14.242    0.267    0.407  101.843
  463.500   14.517    0.284    0.451   91.525
  463.750   14.796    0.301    0.422  108.536
  464.000   15.080    0.309    0.408   98.220
  464.250   15.961    0.318    0.402   89.724
  464.500   16.267    0.329    0.411   92.159
  464.750   15.970    0.317    0.425  105.526
  465.000   15.678    0.307    0.438  107.354
  465.250   15.106    0.303    0.450   90.963
  465.500   14.284    0.293    0.446   75.180
  465.750   14.023    0.029    0.362   58.789
  466.000   14.295    0.010    0.196   45.436
  466.250   14.298    0.000    0.182   31.474
  466.500   16.619    0.000    0.172   22.979
  466.750   42.499    0.011    0.158   18.127
  467.000   55.293    0.022    0.150   15.705
  467.250   61.906    0.017    0.145   15.104
  467.500   65.516    0.000    0.150   15.111
  467.750   66.780    0.000    0.147   16.333
  468.000   66.800    0.000    0.143   16.341
  468.250   65.582    0.010    0.142   16.346
  468.500   65.612    0.018    0.147   16.351
  468.750   65.625    0.055    0.152   16.361
  469.000   65.648    0.055    0.156   16.365
  469.250   65.670    0.049    0.159   16.372
  469.500   65.694    0.037    0.152   16.986
  469.750   68.225    0.054    0.148   16.990
  470.000   72.202    0.062    0.149   16.998
