~VERSION INFORMATION
 VERS.                 2.0:   CWLS LOG ASCII STANDARD -VERSION 2.0
 WRAP.                  NO:   ONE LINE PER DEPTH STEP
~WELL INFORMATION BLOCK
#MNEM.UNIT           DATA                    DESCRIPTION OF MNEMONIC
#---------    -------------------            -------------------------------
# Generated from Intellog Unique Number	CW_79_81/WELL/620
WELL.         PETROREP SANDERS               : Well_name    - WELL
LOC .         00/07-26-080-02W5/0            : Location     - LOCATION
UWI .         00/07-26-080-02W5/0            : Uwi          - UNIQUE WELL ID
ENTR.         MAX                            : Entered      - ENTERED BY
SRVC.         SCHLUMBERGER                   : Scn          - SERVICE COMPANY
STRT.M        256.032                        : top_depth    - START DEPTH
STOP.M        515.032                        : bot_depth    - STOP DEPTH
STEP.M        0.25                           : increment    - STEP LENGTH
 NULL. -999.2500:NULL Value
~CURVE INFORMATION BLOCK
#MNEM UNIT       ERCB CURVE CODE    CURVE DESCRIPTION
#-----------   ------------------   ----------------------------------
DEPT.M        00 001 00 00         : DEPTH        - DEPTH
ILD .OHMM     00 120 00 00         : RESD         - DEEP RESISTIVITY (DIL)
NPHI.V/V      00 330 00 00         : PHIN         - NEUTRON POROSITY (SANDSTONE)
DPHI.V/V      00 890 00 00         : PHID         - DENSITY POROSITY (SANDSTONE)
CALI.MM       00 280 01 00         : CAL          - CALIPER
GR  .API      00 310 00 00         : GR           - GAMMA RAY
~PARAMETER INFORMATION
#MNEM.UNIT           DATA             DESCRIPTION OF MNEMONIC
#---------         -----------     ------------------------------
GL  .M        602.254              : gl           - GROUND LEVEL ELEVATION
EREF.M        605.607              : kb           - ELEVATION OF DEPTH REFERENCE
DATM.M        602.254              : datum        - DATUM ELEVATION
TDD .M        544.068              : tdd          - TOTAL DEPTH DRILLER
RUN .         ONE                  : Run          - RUN NUMBER
ENG .         BILL                 : Engineer     - RECORDING ENGINEER
WIT .         JIM                  : Witness      - WITNESSED BY
MUD .         GEL                  : Mud_type     - MUD TYPE
MATR.         SANDSTONE            : Logunit      - NEUTRON MATRIX
TMAX.C        24.4444              : BHT          - MAXIMUM RECORDED TEMPERATURE
BHTD.M        544.068              : BHTDEP       - MAXIMUM RECORDED TEMPERATURE
RMT .C        18.3333              : MDTP         - TEMPERATURE OF MUD
MUDD.KG/M     1120                 : MWT          - MUD DENSITY
NEUT.         1                    : NEUTRON      - NEUTRON TYPE
RESI.         0                    : RESIST       - RESISTIVITY TYPE
RM  .OHMM     5                    : RM           - RESISTIVITY OF MUD
RMC .OHMM     0                    : RMC          - RESISTIVITY OF MUD CAKE
RMF .OHMM     7                    : RMF          - RESISTIVITY OF MUD FILTRATE
SUFT.C        -20.5556             : SUFT         - SURFACE TEMPERATURE
~A  DEPTH     RESD     PHIN     PHID      CAL       GR
# ...
  402.032   19.882    0.450    0.274  167.023   96.229
  402.282   21.427    0.454    0.275  167.067   96.856
  402.532   21.666    0.451    0.254  167.133   99.265
  402.782   20.342    0.452    0.259  167.191   97.526
  403.032   18.080    0.471    0.264  166.247   95.182
  403.282   14.136    0.462    0.248  163.797   93.142
  403.532   10.753    0.450    0.238  164.364   98.213
  403.782    7.740    0.447    0.240  166.923   99.136
  404.032    6.335    0.446    0.240  167.985   98.879
  404.282    5.789    0.458    0.234  166.546   99.210
  404.532    5.590    0.448    0.242  164.590   98.360
  404.782    5.599    0.439    0.242  165.150   97.802
  405.032    5.608    0.433    0.241  165.209   99.026
  405.282    5.617    0.424    0.251  165.769  101.130
  405.532    5.523    0.424    0.233  165.827  103.534
  405.782    5.431    0.425    0.222  166.395  107.425
  406.032    5.388    0.421    0.227  167.966  109.237
  406.282    5.299    0.431    0.239  168.031  106.008
  406.532    5.306    0.417    0.243  168.082  102.788
  406.782    5.364    0.418    0.257  167.639  100.452
  407.032    5.324    0.436    0.283  165.684  100.482
  407.282    5.234    0.432    0.295  164.237  100.225
  407.532    5.102    0.427    0.287  164.804   97.885
  407.782    4.970    0.436    0.260  165.866   89.921
  408.032    4.978    0.415    0.245  166.935   81.364
  408.282    5.218    0.331    0.217  167.488   72.802
  408.532    6.454    0.279    0.175  168.063   69.582
  408.782    7.767    0.241    0.112  167.605   70.806
  409.032    9.517    0.331    0.138  166.667   74.688
  409.282   12.668    0.407    0.194  164.726   87.165
  409.532   12.345    0.411    0.273  163.272   87.504
  409.782   12.478    0.403    0.293  163.825   84.572
  410.032   13.570    0.408    0.286  165.403   87.273
  410.282   14.499    0.416    0.281  167.468   87.604
  410.532   14.383    0.415    0.266  168.021   85.564
  410.782   13.892    0.414    0.263  168.080   83.529
  411.032   13.287    0.414    0.269  168.138   84.152
  411.282   12.825    0.408    0.268  167.702   84.779
  411.532   12.046    0.397    0.246  167.252   81.864
  411.782   11.419    0.402    0.245  167.325   80.705
  412.032   10.824    0.404    0.249  168.895   80.439
  412.282   10.359    0.398    0.243  169.448   80.778
  412.532   10.184    0.400    0.237  169.507   79.331
  412.782   10.014    0.392    0.247  170.074   78.477
  413.032    9.666    0.394    0.254  169.631   79.692
  413.282    9.334    0.404    0.251  169.675   81.800
  413.532    9.012    0.413    0.250  169.748   84.209
  413.782    8.779    0.411    0.243  169.806   86.915
  414.032    8.634    0.393    0.238  169.872   86.949
  414.282    8.649    0.372    0.232  169.916   86.095
  414.532    9.238    0.362    0.213  168.978   85.829
  414.782    9.682    0.376    0.211  168.527   87.057
  415.032    9.971    0.392    0.219  168.091   87.980
  415.282    9.893    0.392    0.193  167.154   85.340
  415.532    9.466    0.368    0.175  166.209   79.449
  415.782    9.054    0.330    0.115  164.770   71.188
  416.032    8.661    0.269    0.071  163.810   71.528
  416.282    8.364    0.279    0.096  163.367   74.224
  416.532    8.223    0.335    0.148  164.443   83.443
  416.782    8.314    0.376    0.193  164.494   87.333
  417.032    8.556    0.396    0.187  166.050   87.367
  417.282    9.225    0.380    0.212  168.116   85.916
  417.532    9.940    0.376    0.221  168.189   84.774
  417.782   10.812    0.391    0.224  166.742   86.878
  418.032   11.130    0.407    0.226  165.288   90.764
  418.282   11.047    0.409    0.232  163.842   95.243
  418.532   10.568    0.397    0.227  162.402   98.549
  418.782    9.655    0.395    0.229  163.958   98.575
  419.032    8.986    0.406    0.229  165.020   99.202
  419.282    8.675    0.417    0.217  165.079  100.718
  419.532    8.617    0.418    0.222  165.137  100.757
  419.782    8.466    0.422    0.239  163.698   99.606
  420.032    8.324    0.418    0.227  163.763   99.344
  420.282    8.263    0.416    0.224  165.843  101.161
  420.532    8.051    0.416    0.205  166.890  102.376
  420.782    7.631    0.422    0.215  167.443  102.419
  421.032    7.102    0.423    0.231  167.000  101.852
  421.282    6.732    0.420    0.233  165.553  100.114
  421.532    6.153    0.410    0.232  165.619  100.144
  421.782    5.939    0.417    0.211  166.681  101.363
  422.032    6.004    0.428    0.219  167.757  102.587
  422.282    6.123    0.422    0.201  168.317  103.515
  422.532    6.190    0.428    0.205  169.379  102.656
  422.782    6.315    0.411    0.215  170.433  105.061
  423.032    6.323    0.416    0.222  171.495  105.392
  423.282    6.333    0.423    0.217  173.073  102.463
  423.532    6.401    0.438    0.200  172.630   95.684
  423.782    6.410    0.441    0.207  170.682   92.764
  424.032    6.423    0.424    0.221  169.235   93.087
  424.282    6.374    0.419    0.237  168.785   94.602
  424.532    6.383    0.415    0.228  168.836   94.942
  424.782    6.278    0.418    0.211  168.909   92.902
  425.032    6.286    0.421    0.214  168.451   91.748
  425.282    6.413    0.419    0.235  166.001   94.749
  425.532    6.786    0.422    0.240  165.071   92.705
  425.782    7.519    0.419    0.249  165.122   91.259
  426.032    8.028    0.407    0.259  166.198   87.442
  426.282    8.575    0.400    0.264  167.747   85.110
  426.532    8.992    0.385    0.264  167.311   83.071
  426.782    9.428    0.364    0.221  166.366   78.954
  427.032    9.796    0.331    0.179  165.923   73.063
  427.282   10.269    0.290    0.137  165.981   64.501
  427.532   11.378    0.242    0.078  166.556   64.253
  427.782   13.199    0.208    0.026  166.600   66.649
  428.032   13.461    0.194    0.057  166.164   70.831
  428.282   13.481    0.225    0.172  165.721   80.646
  428.532   14.801    0.315    0.213  165.772   95.498
  428.782   17.013    0.390    0.218  166.332  100.870
  429.032   19.735    0.421    0.193  168.397  102.390
  429.282   22.884    0.430    0.212  169.975  103.017
  429.532   28.306    0.430    0.225  170.528  103.936
  429.782   33.443    0.432    0.219  171.103  100.419
  430.032   34.745    0.426    0.205  170.158  101.338
  430.282   25.944    0.405    0.207  169.700  105.521
  430.532   16.274    0.400    0.222  170.260  105.555
  430.782   11.714    0.399    0.245  172.332   96.702
  431.032    9.243    0.395    0.250  169.373   89.922
  431.282    7.294    0.398    0.221  167.432   86.698
  431.532    6.483    0.404    0.209  166.997   82.288
  431.782    6.033    0.408    0.193  167.048   82.323
  432.032    6.045    0.402    0.256  167.106   78.802
  432.282    7.273    0.387    0.278  167.164   76.471
  432.532    7.912    0.380    0.253  167.238   75.612
  432.782    9.432    0.359    0.214  167.783   72.092
  433.032    9.799    0.334    0.176  167.347   70.946
  433.282   10.273    0.306    0.158  165.900   73.938
  433.532   11.280    0.291    0.131  165.974   78.121
  433.782   12.380    0.336    0.146  166.025   82.311
  434.032   15.313    0.372    0.174  166.076   83.230
  434.282   17.764    0.396    0.203  166.636   85.047
  434.532   20.788    0.411    0.224  168.199   88.632
  434.782   25.015    0.416    0.245  169.268   95.189
  435.032   26.229    0.411    0.253  169.334   99.079
  435.282   26.034    0.417    0.235  169.385  102.372
  435.532   25.361    0.414    0.222  169.945  106.258
  435.782   24.490    0.399    0.235  171.014  105.112
  436.032   22.796    0.409    0.236  171.073  101.883
  436.282   20.823    0.412    0.222  171.124  103.992
  436.532   17.681    0.413    0.205  170.688  106.400
  436.782   14.344    0.405    0.194  170.245  105.842
  437.032   12.403    0.402    0.191  169.307  104.688
  437.282   10.923    0.417    0.205  168.864  105.615
  437.532    9.890    0.423    0.223  167.919  103.284
  437.782    9.039    0.407    0.219  167.476  104.203
  438.032    8.491    0.390    0.213  167.534  100.386
  438.282    8.196    0.393    0.216  167.084   98.944
