~VERSION INFORMATION
 VERS.                 2.0:   CWLS LOG ASCII STANDARD -VERSION 2.0
 WRAP.                  NO:   ONE LINE PER DEPTH STEP
~WELL INFORMATION BLOCK
#MNEM.UNIT           DATA                    DESCRIPTION OF MNEMONIC
#---------    -------------------            -------------------------------
# Generated from Intellog Unique Number	CS_77_79/WELL/3298
WELL.         NOVALTA RESOURCES LTD.         : Well_name    - WELL
LOC .         00/07-29-078-03W4/0            : Location     - LOCATION
UWI .         00/07-29-078-03W4/0            : Uwi          - UNIQUE WELL ID
ENTR.         JOETTE                         : Entered      - ENTERED BY
SRVC.         SCHLUMBERGER                   : Scn          - SERVICE COMPANY
DATE.         08-26-92                       : Date         - LOG DATE
STRT.M        140                            : top_depth    - START DEPTH
STOP.M        325                            : bot_depth    - STOP DEPTH
STEP.M        0.25                           : increment    - STEP LENGTH
 NULL. -999.2500:NULL Value
~CURVE INFORMATION BLOCK
#MNEM UNIT       ERCB CURVE CODE    CURVE DESCRIPTION
#-----------   ------------------   ----------------------------------
DEPT.M        00 001 00 00         : DEPTH        - DEPTH
ILD .OHMM     00 120 00 00         : RESD         - DEEP RESISTIVITY (DIL)
GR  .API      00 310 00 00         : GR           - GAMMA RAY
NPHI.V/V      00 330 00 00         : PHIN         - NEUTRON POROSITY (SANDSTONE)
DPHI.V/V      00 890 00 00         : PHID         - DENSITY POROSITY (SANDSTONE)
~PARAMETER INFORMATION
#MNEM.UNIT           DATA             DESCRIPTION OF MNEMONIC
#---------         -----------     ------------------------------
GL  .M        551.2                : gl           - GROUND LEVEL ELEVATION
EREF.M        555.2                : kb           - ELEVATION OF DEPTH REFERENCE
DATM.M        555.2                : datum        - DATUM ELEVATION
TDD .M        330.8                : tdd          - TOTAL DEPTH DRILLER
RUN .         ONE                  : Run          - RUN NUMBER
ENG .         BILL                 : Engineer     - RECORDING ENGINEER
WIT .         JIM                  : Witness      - WITNESSED BY
MUD .         GEL                  : Mud_type     - MUD TYPE
MATR.         SANDSTONE            : Logunit      - NEUTRON MATRIX
TMAX.C        22                   : BHT          - MAXIMUM RECORDED TEMPERATURE
BHTD.M        330.8                : BHTDEP       - MAXIMUM RECORDED TEMPERATURE
RMT .C        8                    : MDTP         - TEMPERATURE OF MUD
MUDD.KG/M     1050                 : MWT          - MUD DENSITY
NEUT.         1                    : NEUTRON      - NEUTRON TYPE
RESI.         0                    : RESIST       - RESISTIVITY TYPE
RM  .OHMM     1.27                 : RM           - RESISTIVITY OF MUD
RMC .OHMM     1.27                 : RMC          - RESISTIVITY OF MUD CAKE
RMF .OHMM     1.17                 : RMF          - RESISTIVITY OF MUD FILTRATE
SUFT.C        15                   : SUFT         - SURFACE TEMPERATURE
~A  DEPTH     RESD       GR     PHIN     PHID
# ...
  270.500    9.270   90.779    0.434    0.262
  270.750    9.124   89.022    0.424    0.254
  271.000    8.992   88.505    0.413    0.254
  271.250    8.844   91.705    0.415    0.249
  271.500    8.388   94.337    0.420    0.245
  271.750    8.256   96.298    0.421    0.251
  272.000    7.977   95.755    0.430    0.260
  272.250    7.707   92.759    0.406    0.258
  272.500    7.586   90.977    0.393    0.256
  272.750    7.471   94.203    0.408    0.257
  273.000    7.219   93.685    0.454    0.263
  273.250    6.970   88.186    0.471    0.271
  273.500    6.729   82.092    0.470    0.276
  273.750    6.163   82.219    0.467    0.276
  274.000    5.841   89.757    0.467    0.269
  274.250    5.532   93.577    0.469    0.261
  274.500    5.059   96.157    0.473    0.252
  274.750    4.627   96.259    0.475    0.256
  275.000    4.386   96.413    0.484    0.266
  275.250    4.234   97.083    0.498    0.280
  275.500    3.948  100.929    0.530    0.281
  275.750    3.809  105.988    0.528    0.284
  276.000    3.678  106.090    0.535    0.284
  276.250    3.366  104.979    0.541    0.286
  276.500    3.250  104.436    0.538    0.289
  276.750    3.140  105.803    0.575    0.290
  277.000    3.207  109.003    0.594    0.283
  277.250    3.337  110.344    0.506    0.275
  277.500    3.537  103.605    0.477    0.274
  277.750    3.893   93.174    0.471    0.277
  278.000    4.283   98.853    0.469    0.290
  278.250    4.711  106.416    0.487    0.297
  278.500    4.815  110.881    0.529    0.290
  278.750    4.828  107.859    0.541    0.277
  279.000    4.749   86.250    0.543    0.276
  279.250    4.591   82.635    0.501    0.283
  279.500    4.870   83.357    0.491    0.295
  279.750    5.158   80.955    0.491    0.298
  280.000    5.670   73.622    0.500    0.290
  280.250    6.599   70.626    0.510    0.279
  280.500    7.394   75.685    0.521    0.268
  280.750    7.984   82.629    0.429    0.263
  281.000    7.869   95.148    0.499    0.303
  281.250    7.740   95.250    0.509    0.301
  281.500    7.478   92.255    0.499    0.294
  281.750    7.493   89.233    0.473    0.285
  282.000    7.518   88.122    0.443    0.268
  282.250    7.533   87.605    0.420    0.247
  282.500    7.699   87.707    0.429    0.248
  282.750    8.006   87.783    0.439    0.256
  283.000    8.347   86.646    0.430    0.256
  283.250    8.358   84.270    0.425    0.256
  283.500    8.537   81.300    0.431    0.257
  283.750    8.726   88.218    0.455    0.260
  284.000    8.743   92.657    0.468    0.265
  284.250    8.766   90.901    0.466    0.270
  284.500    8.634   86.046    0.435    0.279
  284.750    8.651   82.431    0.430    0.271
  285.000    8.521   83.153    0.422    0.264
  285.250    8.238   80.776    0.451    0.251
  285.500    8.097   86.455    0.459    0.243
  285.750    7.834   92.804    0.454    0.245
  286.000    7.559   89.138    0.401    0.260
  286.250    7.174   84.954    0.402    0.272
  286.500    6.804   86.864    0.413    0.272
  286.750    6.330   89.444    0.422    0.268
  287.000    5.575   85.209    0.416    0.257
  287.250    5.092   84.692    0.410    0.256
  287.500    4.164   88.537    0.407    0.275
  287.750    3.221   91.118    0.460    0.290
  288.000    2.887   86.883    0.505    0.296
  288.250    2.688   82.622    0.571    0.297
  288.500    2.599   80.272    0.576    0.299
  288.750    2.606   80.348    0.548    0.303
  289.000    2.613   81.070    0.544    0.304
  289.250    2.620   81.172    0.544    0.296
  289.500    2.678   84.424    0.544    0.284
  289.750    2.838   88.838    0.541    0.278
  290.000    3.007   83.983    0.537    0.280
  290.250    3.307   79.722    0.530    0.276
  290.500    3.778   76.133    0.543    0.269
  290.750    4.313   81.192    0.479    0.273
  291.000    4.657   85.631    0.416    0.277
  291.250    5.123   88.857    0.411    0.263
  291.500    5.535   86.481    0.442    0.251
  291.750    5.654   82.840    0.448    0.250
  292.000    5.779   79.224    0.418    0.253
  292.250    5.898   79.352    0.403    0.259
  292.500    6.141   80.074    0.396    0.260
  292.750    6.154   80.770    0.389    0.262
  293.000    6.174   83.376    0.390    0.277
  293.250    6.186   86.602    0.409    0.275
  293.500    5.871   90.396    0.412    0.272
  293.750    5.466   97.934    0.439    0.273
  294.000    5.181   98.061    0.467    0.274
  294.250    4.566   87.605    0.478    0.273
  294.500    4.173   83.990    0.446    0.269
  294.750    4.029   86.596    0.450    0.246
  295.000    3.890   89.151    0.463    0.244
  295.250    3.761  101.102    0.461    0.245
  295.500    3.769  101.773    0.461    0.245
  295.750    3.709  102.494    0.482    0.251
  296.000    3.651   99.499    0.491    0.248
  296.250    3.665   94.670    0.473    0.249
  296.500    3.675   97.844    0.475    0.252
  296.750    3.826  100.425    0.512    0.254
  297.000    4.053   99.933    0.477    0.256
  297.250    4.377   94.433    0.455    0.256
  297.500    4.815   88.959    0.448    0.258
  297.750    5.296   84.724    0.421    0.270
  298.000    5.826   86.685    0.411    0.271
  298.250    5.954   86.787    0.404    0.262
  298.500    5.753   85.056    0.436    0.249
  298.750    5.456   82.061    0.444    0.239
  299.000    5.367   79.014    0.437    0.224
  299.250    5.907   70.442    0.384    0.137
  299.500    6.615   65.562    0.358    0.041
  299.750    7.989   66.954    0.338    0.018
  300.000    9.120   69.509    0.299    0.182
  300.250   10.045   72.709    0.324    0.264
  300.500   10.247   73.431    0.318    0.295
  300.750   10.092   71.055    0.303    0.300
  301.000    9.926   71.777    0.289    0.293
  301.250    9.953   73.118    0.280    0.281
  301.500   10.571   72.601    0.269    0.262
  301.750   10.984   70.844    0.264    0.364
  302.000   11.227   75.309    0.315    0.361
  302.250   10.847   79.774    0.407    0.300
  302.500   10.281   81.115    0.380    0.296
  302.750    8.888   78.714    0.375    0.292
  303.000    7.969   75.718    0.430    0.287
  303.250    6.051   83.281    0.476    0.273
  303.500    4.507   87.101    0.473    0.249
  303.750    3.972   91.540    0.460    0.244
  304.000    4.054   94.121    0.405    0.228
  304.250    4.381   73.751    0.382    0.218
  304.500    4.643   67.063    0.376    0.219
  304.750    5.014   68.379    0.374    0.222
  305.000    5.421   69.720    0.371    0.255
  305.250    5.534   71.061    0.364    0.281
  305.500    5.545   60.605    0.345    0.280
  305.750    5.259   49.554    0.330    0.270
  306.000    4.899   44.055    0.358    0.272
  306.250    4.478   39.226    0.368    0.277
  306.500    4.172   39.303    0.377    0.307
  306.750    4.028   44.387    0.364    0.321
  307.000    3.894   48.826    0.362    0.340
  307.250    3.972   58.248    0.352    0.341
  307.500    4.372   77.583    0.341    0.323
  307.750    4.810   84.501    0.338    0.258
  308.000    5.390   90.825    0.372    0.225
  308.250    5.824   95.290    0.399    0.216
  308.500    6.060   95.986    0.411    0.214
  308.750    5.960   94.849    0.404    0.211
  309.000    5.766   93.144    0.398    0.212
  309.250    5.774   92.575    0.402    0.213
  309.500    5.586   89.579    0.425    0.218
  309.750    5.593   91.566    0.430    0.219
  310.000    5.513   91.668    0.426    0.216
  310.250    5.524   91.151    0.430    0.216
  310.500    5.433   90.659    0.403    0.216
  310.750    5.355   91.381    0.401    0.215
  311.000    5.362   92.722    0.398    0.217
  311.250    5.281   93.495    0.399    0.218
  311.500    5.291   94.166    0.425    0.219
  311.750    5.208   93.623    0.436    0.222
  312.000    5.222   93.776    0.438    0.222
  312.250    5.139   93.233    0.437    0.218
  312.500    5.058   93.335    0.440    0.221
  312.750    4.979   92.818    0.446    0.224
  313.000    4.900   92.920    0.450    0.223
  313.250    4.741   91.163    0.455    0.222
  313.500    4.663   82.566    0.450    0.223
  313.750    4.502   77.711    0.441    0.225
