~VERSION INFORMATION
 VERS.                 2.0:   CWLS LOG ASCII STANDARD -VERSION 2.0
 WRAP.                  NO:   ONE LINE PER DEPTH STEP
~WELL INFORMATION BLOCK
#MNEM.UNIT           DATA                    DESCRIPTION OF MNEMONIC
#---------    -------------------            -------------------------------
# Generated from Intellog Unique Number	CS_69_70/WELL/806
NULL.         -999.25                        : NULL_VALUE
WELL.         HUSKY OIL OPERATION LTD.       : Well_name    - WELL              
LOC .         00/06-33-070-05W4/0            : Location     - LOCATION          
UWI .         00/06-33-070-05W4/0            : Uwi          - UNIQUE WELL ID    
ENTR.         SP                             : Entered      - ENTERED BY        
SRVC.         SCHLUMBERGER                   : Scn          - SERVICE COMPANY   
STRT.M        290                            : top_depth    - START DEPTH       
STOP.M        510                            : bot_depth    - STOP DEPTH        
STEP.M        0.25                           : increment    - STEP LENGTH       
~CURVE INFORMATION BLOCK
#MNEM UNIT       ERCB CURVE CODE    CURVE DESCRIPTION
#-----------   ------------------   ----------------------------------
DEPT.M        00 001 00 00         : DEPTH        - DEPTH                       
ILD .OHMM     00 120 00 00         : RESD         - DEEP RESISTIVITY (DIL)      
DPHI.V/V      00 890 00 00         : PHID         - DENSITY POROSITY (LIMESTONE)
NPHI.V/V      00 330 00 00         : PHIN         - NEUTRON POROSITY (LIMESTONE)
GR  .API      00 310 00 00         : GR           - GAMMA RAY                   
~PARAMETER INFORMATION       
#MNEM.UNIT           DATA             DESCRIPTION OF MNEMONIC
#---------         -----------     ------------------------------
GL  .M        653.8                : gl           - GROUND LEVEL ELEVATION      
EREF.M        657.5                : kb           - ELEVATION OF DEPTH REFERENCE
DATM.M        653.8                : datum        - DATUM ELEVATION             
TDD .M        517                  : tdd          - TOTAL DEPTH DRILLER         
RUN .         ONE                  : Run          - RUN NUMBER                  
ENG .         BILL                 : Engineer     - RECORDING ENGINEER          
WIT .         JIM                  : Witness      - WITNESSED BY                
MUD .         GEL                  : Mud_type     - MUD TYPE                    
MATR.         LIMESTONE            : Logunit      - NEUTRON MATRIX              
TMAX.C        26                   : BHT          - MAXIMUM RECORDED TEMPERATURE
BHTD.M        517                  : BHTDEP       - MAXIMUM RECORDED TEMPERATURE
MATR.         1                    : LOGUNIT      - NEUTRON MATRIX              
RMT .C        25                   : MDTP         - TEMPERATURE OF MUD          
NEUT.         1                    : NEUTRON      - NEUTRON TYPE                
RESI.         0                    : RESIST       - RESISTIVITY TYPE            
RMC .OHMM     0.25                 : RMC          - RESISTIVITY OF MUD CAKE     
RMF .OHMM     0.25                 : RMF          - RESISTIVITY OF MUD FILTRATE 
SUFT.C        15                   : SUFT         - SURFACE TEMPERATURE         
~A  DEPTH     RESD     PHID     PHIN       GR
# ...
  420.500    7.014    0.295    0.457   67.818
  420.750    6.390    0.303    0.463   69.648
  421.000    6.043    0.303    0.463   72.094
  421.250    5.823    0.298    0.457   73.925
  421.500    5.716    0.290    0.454   75.762
  421.750    5.508    0.287    0.457   76.378
  422.000    5.509    0.283    0.457   75.177
  422.250    5.614    0.283    0.458   72.760
  422.500    5.614    0.282    0.457   76.420
  422.750    5.939    0.287    0.446   77.644
  423.000    6.283    0.289    0.441   78.263
  423.250    6.899    0.276    0.443   75.847
  423.500    7.575    0.268    0.464   69.789
  423.750    8.013    0.270    0.460   65.546
  424.000    7.578    0.273    0.460   59.486
  424.250    6.904    0.245    0.463   55.247
  424.500    5.623    0.097    0.387   61.332
  424.750    4.754    0.151    0.364   74.100
  425.000    4.251    0.206    0.413   80.790
  425.250    3.873    0.238    0.442   86.269
  425.500    3.732    0.262    0.465   84.460
  425.750    3.664    0.263    0.475   80.827
  426.000    3.596    0.265    0.482   82.667
  426.250    3.734    0.265    0.483   83.282
  426.500    3.805    0.267    0.487   81.473
  426.750    3.951    0.271    0.496   77.845
  427.000    4.179    0.272    0.493   79.071
  427.250    4.258    0.260    0.494   79.689
  427.500    4.505    0.261    0.483   76.665
  427.750    4.766    0.280    0.470   71.819
  428.000    4.766    0.296    0.471   68.186
  428.250    4.767    0.292    0.469   66.985
  428.500    4.768    0.261    0.465   69.432
  428.750    4.344    0.269    0.460   71.262
  429.000    3.538    0.291    0.451   74.314
  429.250    3.048    0.297    0.466   76.144
  429.500    2.725    0.301    0.497   76.155
  429.750    2.392    0.302    0.545   81.031
  430.000    2.262    0.309    0.571   82.860
  430.250    2.262    0.296    0.544   87.127
  430.500    2.393    0.291    0.525   89.567
  430.750    2.779    0.293    0.542   90.792
  431.000    3.351    0.294    0.558   83.522
  431.250    3.544    0.296    0.532   80.493
  431.500    4.040    0.286    0.496   79.295
  431.750    4.520    0.272    0.480   81.129
  432.000    4.693    0.264    0.458   80.531
  432.250    4.872    0.271    0.456   78.117
  432.500    4.964    0.248    0.475   76.912
  432.750    5.060    0.221    0.439   73.888
  433.000    5.061    0.146    0.394   77.548
  433.250    4.968    0.163    0.391   78.162
  433.500    4.877    0.206    0.412   76.963
  433.750    4.611    0.229    0.423   76.973
  434.000    3.899    0.242    0.437   81.240
  434.250    3.619    0.247    0.441   84.897
  434.500    3.620    0.247    0.451   84.906
  434.750    3.621    0.244    0.477   79.457
  435.000    3.622    0.247    0.483   78.249
  435.250    3.622    0.248    0.460   83.728
  435.500    3.623    0.254    0.448   87.384
  435.750    3.556    0.244    0.465   89.829
  436.000    3.491    0.251    0.499   91.058
  436.250    3.558    0.256    0.521   92.280
  436.500    4.055    0.261    0.509   92.904
  436.750    4.370    0.254    0.500   91.698
  437.000    4.982    0.259    0.505   85.032
  437.250    5.270    0.269    0.476   77.755
  437.500    5.270    0.282    0.446   69.266
  437.750    5.078    0.288    0.423   71.102
  438.000    4.541    0.286    0.424   79.618
  438.250    3.839    0.274    0.431   86.312
  438.500    3.127    0.263    0.435   90.574
  438.750    2.957    0.256    0.439   93.620
  439.000    2.903    0.258    0.449   96.059
  439.250    3.372    0.261    0.468   97.896
  439.500    3.843    0.261    0.488   92.440
  439.750    6.363    0.256    0.493   76.056
  440.000    7.815    0.245    0.474   65.141
  440.250    8.423    0.147    0.451   60.291
  440.500    7.966    0.098    0.400   64.561
  440.750    7.394    0.116    0.358   68.215
  441.000    6.022    0.204    0.377   71.871
  441.250    5.385    0.223    0.439   74.918
  441.500    5.697    0.236    0.411   77.362
  441.750    6.616    0.242    0.442   78.585
  442.000    7.975    0.237    0.468   74.349
  442.250   10.168    0.248    0.473   68.292
  442.500   11.375    0.262    0.422   66.476
  442.750   12.259    0.270    0.393   63.458
  443.000   13.212    0.275    0.394   62.858
  443.250   13.718    0.259    0.410   60.441
  443.500   13.979    0.202    0.372   59.852
  443.750   13.723    0.177    0.344   61.682
  444.000   13.984    0.189    0.371   63.517
  444.250   15.071    0.229    0.410   61.708
  444.500   16.243    0.267    0.421   58.686
  444.750   17.835    0.261    0.428   58.085
  445.000   18.517    0.227    0.336   56.277
  445.250   18.870    0.185    0.302   56.292
  445.500   17.191    0.187    0.342   59.951
  445.750   14.535    0.224    0.376   62.389
  446.000   12.521    0.265    0.406   66.656
  446.250   10.989    0.273    0.417   68.487
  446.500    9.826    0.250    0.407   70.319
  446.750    9.468    0.244    0.401   73.372
  447.000   10.593    0.234    0.393   74.594
  447.250   11.205    0.227    0.390   70.964
  447.500   12.773    0.228    0.396   68.548
  447.750   13.015    0.247    0.406   70.383
  448.000   13.512    0.277    0.419   75.259
  448.250   12.780    0.297    0.426   77.697
  448.500   11.861    0.294    0.431   80.747
  448.750   10.219    0.303    0.434   83.794
  449.000    9.845    0.301    0.424   86.237
  449.250    9.311    0.286    0.397   87.465
  449.500    9.488    0.265    0.367   87.474
  449.750   11.018    0.255    0.368   86.882
  450.000   14.858    0.244    0.370   86.283
  450.250   18.942    0.223    0.361   86.300
  450.500   22.834    0.214    0.355   85.699
  450.750   30.220    0.233    0.367   66.888
  451.000   37.116    0.243    0.384   52.327
  451.250   38.535    0.251    0.375   40.798
  451.500   34.460    0.266    0.351   26.236
  451.750   28.069    0.287    0.336   33.537
  452.000   25.097    0.308    0.344   41.450
  452.250   20.065    0.315    0.348   44.493
  452.500   18.280    0.291    0.357   48.146
  452.750   17.613    0.267    0.351   46.339
  453.000   17.616    0.269    0.347   42.103
  453.250   17.620    0.291    0.357   45.761
  453.500   17.623    0.307    0.354   50.024
  453.750   17.626    0.305    0.354   55.504
  454.000   17.962    0.294    0.366   58.550
  454.250   18.648    0.270    0.380   60.988
  454.500   22.906    0.260    0.391   55.537
  454.750   24.685    0.271    0.392   57.978
  455.000   29.208    0.278    0.369   58.594
  455.250   32.675    0.264    0.372   50.714
  455.500   34.563    0.276    0.389   42.834
  455.750   31.489    0.301    0.386   35.558
  456.000   25.175    0.314    0.375   39.216
  456.250   21.685    0.323    0.363   43.475
  456.500   18.680    0.301    0.370   52.602
  456.750   23.377    0.282    0.378   56.863
  457.000   30.366    0.266    0.375   62.343
  457.250   36.604    0.254    0.366   64.779
  457.500   42.508    0.243    0.360   62.975
  457.750   44.966    0.262    0.354   58.732
  458.000   32.743    0.298    0.350   55.101
  458.250   22.545    0.316    0.356   56.941
  458.500   18.363    0.324    0.377   59.377
  458.750   15.239    0.333    0.394   65.466
  459.000   13.374    0.318    0.410   69.728
  459.250   11.959    0.297    0.399   72.774
  459.500   10.694    0.296    0.402   76.432
  459.750    9.926    0.302    0.416   78.265
  460.000    9.214    0.306    0.425   76.460
  460.250    9.566    0.285    0.422   75.252
  460.500   10.311    0.269    0.412   81.340
  460.750   10.906    0.259    0.388   84.993
  461.000   11.754    0.250    0.368   77.113
  461.250   12.668    0.255    0.386   69.841
  461.500   13.152    0.266    0.402   67.422
  461.750   12.911    0.279    0.407   66.825
  462.000   11.763    0.274    0.391   71.091
  462.250   11.334    0.255    0.378   76.567
  462.500   11.127    0.227    0.363   83.263
  462.750   11.128    0.213    0.377   85.702
  463.000   11.341    0.227    0.406   80.854
  463.250   11.557    0.259    0.429   73.580
  463.500   11.998    0.269    0.446   68.736
  463.750   13.176    0.269    0.419   67.531
