~VERSION INFORMATION
 VERS.                 2.0:   CWLS LOG ASCII STANDARD -VERSION 2.0
 WRAP.                  NO:   ONE LINE PER DEPTH STEP
~WELL INFORMATION BLOCK
#MNEM.UNIT           DATA                    DESCRIPTION OF MNEMONIC
#---------    -------------------            -------------------------------
# Generated from Intellog Unique Number	CC_80_83/WELL/2485
WELL.         UNEX ET AL BOHN                : Well_name    - WELL
LOC .         00/06-30-081-07W4/0            : Location     - LOCATION
UWI .         00/06-30-081-07W4/0            : Uwi          - UNIQUE WELL ID
ENTR.         TIM                            : Entered      - ENTERED BY
SRVC.         SCHLUMBERGER                   : Scn          - SERVICE COMPANY
STRT.M        250                            : top_depth    - START DEPTH
STOP.M        490                            : bot_depth    - STOP DEPTH
STEP.M        0.25                           : increment    - STEP LENGTH
 NULL. -999.2500:NULL Value
~CURVE INFORMATION BLOCK
#MNEM UNIT       ERCB CURVE CODE    CURVE DESCRIPTION
#-----------   ------------------   ----------------------------------
DEPT.M        00 001 00 00         : DEPTH        - DEPTH
NPHI.V/V      00 330 00 00         : PHIN         - NEUTRON POROSITY (SANDSTONE)
DPHI.V/V      00 890 00 00         : PHID         - DENSITY POROSITY (SANDSTONE)
ILD .OHMM     00 120 00 00         : RESD         - DEEP RESISTIVITY (DIL)
GR  .API      00 310 00 00         : GR           - GAMMA RAY
~PARAMETER INFORMATION
#MNEM.UNIT           DATA             DESCRIPTION OF MNEMONIC
#---------         -----------     ------------------------------
GL  .M        704                  : gl           - GROUND LEVEL ELEVATION
EREF.M        707.9                : kb           - ELEVATION OF DEPTH REFERENCE
DATM.M        707.9                : datum        - DATUM ELEVATION
TDD .M        498                  : tdd          - TOTAL DEPTH DRILLER
RUN .         ONE                  : Run          - RUN NUMBER
ENG .         BILL                 : Engineer     - RECORDING ENGINEER
WIT .         JIM                  : Witness      - WITNESSED BY
MUD .         GEL                  : Mud_type     - MUD TYPE
MATR.         SANDSTONE            : Logunit      - NEUTRON MATRIX
TMAX.C        29                   : BHT          - MAXIMUM RECORDED TEMPERATURE
BHTD.M        498                  : BHTDEP       - MAXIMUM RECORDED TEMPERATURE
MATR.         1                    : LOGUNIT      - NEUTRON MATRIX
RMT .C        25                   : MDTP         - TEMPERATURE OF MUD
NEUT.         1                    : NEUTRON      - NEUTRON TYPE
RESI.         4                    : RESIST       - RESISTIVITY TYPE
RMC .OHMM     3.5                  : RMC          - RESISTIVITY OF MUD CAKE
RMF .OHMM     4.4                  : RMF          - RESISTIVITY OF MUD FILTRATE
SUFT.C        15                   : SUFT         - SURFACE TEMPERATURE
~A  DEPTH     PHIN     PHID     RESD       GR
# ...
  467.500    0.346    0.250   20.204   94.445
  467.750    0.346    0.246   19.168   95.057
  468.000    0.344    0.242   18.857   98.657
  468.250    0.344    0.237   18.905   99.269
  468.500    0.345    0.240   19.306   99.317
  468.750    0.347    0.246   19.686   96.425
  469.000    0.348    0.251   20.847   91.182
  469.250    0.349    0.258   23.343   85.950
  469.500    0.352    0.267   25.167   80.694
  469.750    0.357    0.274   30.335   77.215
  470.000    0.362    0.281   35.878   74.923
  470.250    0.365    0.287   41.660   73.795
  470.500    0.370    0.291   44.938   70.903
  470.750    0.376    0.298   50.371   60.944
  471.000    0.384    0.304   51.360   59.816
  471.250    0.390    0.312   54.390   55.160
  471.500    0.396    0.317   56.547   49.917
  471.750    0.403    0.323   57.717   47.637
  472.000    0.406    0.333   57.837   48.837
  472.250    0.405    0.342   57.956   48.885
  472.500    0.401    0.340   57.045   44.229
  472.750    0.394    0.337   56.149   40.161
  473.000    0.358    0.331   56.265   39.621
  473.250    0.363    0.315   56.352   45.561
  473.500    0.390    0.339   57.518   47.373
  473.750    0.415    0.353   59.799   48.009
  474.000    0.426    0.365   63.327   46.881
  474.250    0.408    0.342   68.310   43.401
  474.500    0.393    0.323   73.722   38.145
  474.750    0.375    0.310   76.647   34.078
  475.000    0.349    0.305   78.233   32.950
  475.250    0.337    0.305   76.964   38.313
  475.500    0.337    0.304   73.014   41.301
  475.750    0.341    0.297   70.482   43.689
  476.000    0.345    0.298   70.664   48.441
  476.250    0.352    0.303   70.847   52.616
  476.500    0.365    0.306   70.956   49.712
  476.750    0.367    0.308   72.462   45.057
  477.000    0.364    0.307   73.885   38.649
  477.250    0.354    0.309   76.895   34.569
  477.500    0.348    0.310   79.904   34.042
  477.750    0.347    0.312   80.069   34.078
  478.000    0.347    0.316   81.726   34.138
  478.250    0.346    0.319   81.895   33.610
  478.500    0.346    0.320   79.096   33.046
  478.750    0.347    0.321   77.813   29.578
  479.000    0.347    0.322   73.782   27.874
  479.250    0.350    0.321   68.718   27.922
  479.500    0.351    0.317   65.158   27.970
  479.750    0.351    0.310   60.624   29.782
  480.000    0.349    0.303   54.421   32.770
  480.250    0.346    0.293   50.660   35.745
  480.500    0.338    0.275   47.159   39.333
  480.750    0.334    0.259   42.312   39.957
  481.000    0.336    0.262   38.649   41.205
  481.250    0.337    0.265   36.647   40.077
  481.500    0.336    0.269   35.394   37.185
  481.750    0.334    0.270   34.856   36.633
  482.000    0.344    0.274   34.892   36.105
  482.250    0.347    0.280   34.326   36.153
  482.500    0.346    0.285   30.798   36.213
  482.750    0.342    0.279   27.633   36.825
  483.000    0.335    0.269   23.460   40.989
  483.250    0.322    0.251   19.197   47.516
  483.500    0.316    0.226   17.215   52.868
  483.750    0.313    0.218   16.635   55.844
  484.000    0.319    0.226   16.058   60.595
  484.250    0.326    0.235   15.798   57.115
  484.500    0.332    0.239   15.258   47.180
  484.750    0.336    0.246   15.289   41.925
  485.000    0.338    0.255   15.041   40.209
  485.250    0.338    0.266   15.088   44.372
  485.500    0.339    0.274   15.111   45.608
  485.750    0.341    0.279   14.881   46.244
  486.000    0.341    0.278   14.625   47.468
  486.250    0.342    0.274   14.125   49.280
  486.500    0.342    0.273   12.673   50.504
  486.750    0.342    0.269   11.797   51.140
  487.000    0.341    0.268   10.787   52.364
  487.250    0.337    0.278    9.684   54.175
  487.500    0.335    0.284    9.343   55.399
  487.750    0.334    0.289    8.859   55.447
  488.000    0.340    0.294    8.556   55.495
  488.250    0.347    0.297    8.117   53.215
  488.500    0.352    0.303    7.836   53.252
  488.750    0.353    0.311    7.434   52.712
  489.000    0.352    0.318    6.920   54.535
  489.250    0.348    0.310    6.804   55.771
  489.500    0.348    0.308    6.571   56.383
  489.750    0.353    0.310    6.350   55.843
  490.000    0.357    0.316    6.250   54.715
