~VERSION INFORMATION
 VERS.                 2.0:   CWLS LOG ASCII STANDARD -VERSION 2.0
 WRAP.                  NO:   ONE LINE PER DEPTH STEP
~WELL INFORMATION BLOCK
#MNEM.UNIT           DATA                    DESCRIPTION OF MNEMONIC
#---------    -------------------            -------------------------------
# Generated from Intellog Unique Number	CW_82_90/WELL/3069
WELL.         GULF LIVOCK EV                 : Well_name    - WELL
LOC .         00/08-05-086-22W4/0            : Location     - LOCATION
UWI .         00/08-05-086-22W4/0            : Uwi          - UNIQUE WELL ID
ENTR.         MAX                            : Entered      - ENTERED BY
SRVC.         SCHLUMBERGER                   : Scn          - SERVICE COMPANY
STRT.M        167.64                         : top_depth    - START DEPTH
STOP.M        371.89                         : bot_depth    - STOP DEPTH
STEP.M        0.25                           : increment    - STEP LENGTH
 NULL. -999.2500:NULL Value
~CURVE INFORMATION BLOCK
#MNEM UNIT       ERCB CURVE CODE    CURVE DESCRIPTION
#-----------   ------------------   ----------------------------------
DEPT.M        00 001 00 00         : DEPTH        - DEPTH
ILD .OHMM     00 120 00 00         : RESD         - DEEP RESISTIVITY (DIL)
NPHI.V/V      00 330 00 00         : PHIN         - NEUTRON POROSITY (SANDSTONE)
DPHI.V/V      00 890 00 00         : PHID         - DENSITY POROSITY (SANDSTONE)
CALI.MM       00 280 01 00         : CAL          - CALIPER
GR  .API      00 310 00 00         : GR           - GAMMA RAY
~PARAMETER INFORMATION
#MNEM.UNIT           DATA             DESCRIPTION OF MNEMONIC
#---------         -----------     ------------------------------
GL  .M        575.767              : gl           - GROUND LEVEL ELEVATION
EREF.M        577.291              : kb           - ELEVATION OF DEPTH REFERENCE
DATM.M        575.767              : datum        - DATUM ELEVATION
TDD .M        374.904              : tdd          - TOTAL DEPTH DRILLER
RUN .         ONE                  : Run          - RUN NUMBER
ENG .         BILL                 : Engineer     - RECORDING ENGINEER
WIT .         JIM                  : Witness      - WITNESSED BY
MUD .         GEL                  : Mud_type     - MUD TYPE
MATR.         SANDSTONE            : Logunit      - NEUTRON MATRIX
TMAX.C        21.1111              : BHT          - MAXIMUM RECORDED TEMPERATURE
BHTD.M        374.904              : BHTDEP       - MAXIMUM RECORDED TEMPERATURE
MATR.         1                    : LOGUNIT      - NEUTRON MATRIX
RMT .C        16.6667              : MDTP         - TEMPERATURE OF MUD
NEUT.         1                    : NEUTRON      - NEUTRON TYPE
RESI.         0                    : RESIST       - RESISTIVITY TYPE
RMC .OHMM     6.2                  : RMC          - RESISTIVITY OF MUD CAKE
RMF .OHMM     6.2                  : RMF          - RESISTIVITY OF MUD FILTRATE
SUFT.C        -23.3333             : SUFT         - SURFACE TEMPERATURE
~A  DEPTH     RESD     PHIN     PHID      CAL       GR
# ...
  240.640    7.470    0.583    0.280  163.104   74.815
  240.890    8.538    0.568    0.288  163.006   69.207
  241.140    9.673    0.520    0.265  163.414   65.059
  241.390   11.257    0.481    0.245  163.798   61.773
  241.640   11.550    0.397    0.171  164.182   62.890
  241.890   10.735    0.457    0.256  163.106   72.180
  242.140    9.626    0.565    0.243  163.008   77.095
  242.390    8.176    0.554    0.223  162.909   78.789
  242.640    7.265    0.531    0.225  162.774   81.046
  242.890    6.811    0.511    0.219  162.675   83.340
  243.140    6.928    0.522    0.214  163.072   87.072
  243.390    7.110    0.522    0.211  162.998   85.553
  243.640    7.428    0.516    0.228  162.862   82.873
  243.890    8.114    0.530    0.261  162.788   79.010
  244.140    8.033    0.535    0.272  163.679   74.271
  244.390    7.332    0.543    0.273  164.545   69.539
  244.640    6.400    0.554    0.256  164.954   71.233
  244.890    5.535    0.579    0.233  165.845   81.107
  245.140    5.052    0.585    0.196  166.216   88.936
  245.390    4.781    0.613    0.201  166.142   89.747
  245.640    4.565    0.630    0.224  166.019   91.149
  245.890    4.518    0.645    0.228  165.933   91.098
  246.140    4.595    0.631    0.232  165.810   88.404
  246.390    5.695    0.599    0.227  165.736   84.833
  246.640    6.280    0.586    0.226  165.613   82.146
  246.890    8.515    0.574    0.242  165.032   76.830
  247.140   10.743    0.580    0.249  163.425   70.630
  247.390   12.171    0.569    0.235  162.844   69.396
  247.640   13.542    0.545    0.263  161.744   66.701
  247.890   13.526    0.512    0.292  161.646   64.306
  248.140   12.456    0.471    0.285  161.547   64.825
  248.390   11.068    0.466    0.275  161.449   65.351
  248.640    9.236    0.481    0.267  161.313   65.293
  248.890    7.846    0.503    0.254  160.757   66.695
  249.140    5.669    0.520    0.240  160.659   68.689
  249.390    5.127    0.549    0.230  161.042   72.137
  249.640    5.168    0.570    0.258  161.426   79.381
  249.890    5.750    0.591    0.258  162.329   82.536
  250.140    7.000    0.591    0.259  162.725   83.647
  250.390    9.577    0.566    0.264  163.579   82.121
  250.640   11.145    0.540    0.262  163.505   74.175
  250.890   12.512    0.564    0.251  163.395   65.347
  251.140   13.071    0.553    0.255  163.791   60.892
  251.390   13.174    0.541    0.301  163.680   60.841
  251.640   12.804    0.553    0.294  163.594   61.944
  251.890   12.119    0.553    0.281  163.495   63.054
  252.140   10.864    0.529    0.274  163.397   63.288
  252.390    8.509    0.518    0.263  163.286   63.230
  252.640    7.840    0.521    0.243  162.681   63.756
  252.890    6.087    0.527    0.231  162.594   65.144
  253.140    4.601    0.540    0.224  162.496   67.722
  253.390    4.200    0.583    0.230  162.360   71.469
  253.640    4.157    0.626    0.237  162.287   75.500
  253.890    4.266    0.630    0.242  162.188   78.948
  254.140    4.578    0.606    0.244  163.079   83.855
  254.390    5.521    0.603    0.240  165.924   87.588
  254.640    6.907    0.581    0.223  164.836   86.945
  254.890    7.683    0.539    0.216  163.748   84.842
  255.140    8.941    0.518    0.196  164.651   83.017
  255.390   10.036    0.510    0.190  165.530   82.382
  255.640    9.670    0.508    0.180  165.419   81.739
  255.890    9.234    0.492    0.170  167.299   82.850
  256.140    9.140    0.478    0.163  168.202   81.616
  256.390    8.965    0.438    0.141  169.081   82.434
  256.640    8.953    0.461    0.144  167.003   85.589
  256.890    8.943    0.499    0.175  163.937   88.737
  257.140    8.933    0.508    0.190  166.300   88.686
  257.390    8.921    0.521    0.195  169.664   87.153
  257.640    8.988    0.519    0.201  170.517   87.109
  257.890    8.979    0.532    0.205  170.444   88.212
  258.140    8.968    0.533    0.207  170.345   87.862
  258.390    8.959    0.508    0.205  170.247   85.167
  258.640    8.944    0.469    0.189  170.136   82.173
  258.890    8.935    0.425    0.170  170.037   80.085
  259.140    8.925    0.467    0.166  169.926   79.143
  259.390    8.912    0.537    0.209  169.853   79.085
  259.640    9.064    0.524    0.213  170.212   81.941
  259.890    9.385    0.520    0.210  170.620   85.687
  260.140    9.982    0.569    0.205  172.500   89.427
  260.390   10.811    0.577    0.179  174.380   89.660
  260.640   11.812    0.555    0.177  174.777   88.726
  260.890   13.378    0.517    0.167  171.216   81.650
  261.140   16.434    0.356    0.120  168.149   74.281
  261.390   20.189    0.360    0.070  165.071   68.666
  261.640   20.712    0.348    0.112  163.488   68.316
  261.890   19.080    0.324    0.139  162.895   68.250
  262.140   14.162    0.301    0.206  163.279   64.394
  262.390   10.992    0.284    0.238  163.180   59.648
  262.640   10.129    0.290    0.267  163.069   60.466
  262.890    8.603    0.324    0.335  163.478   67.419
  263.140    7.441    0.353    0.312  163.837   72.911
  263.390    6.853    0.475    0.275  164.246   76.080
  263.640    6.485    0.510    0.228  164.147   80.112
  263.890    6.082    0.493    0.214  164.556   80.623
  264.140    5.861    0.477    0.211  166.399   81.734
  264.390    5.748    0.505    0.198  167.784   84.604
  264.640    5.845    0.529    0.191  168.700   87.460
  264.890    6.051    0.536    0.185  170.060   86.817
  265.140    6.323    0.587    0.190  169.987   87.927
  265.390    6.786    0.593    0.194  169.876   90.213
  265.640    7.219    0.561    0.190  169.777   91.616
  265.890    7.817    0.537    0.184  166.216   88.921
  266.140    8.616    0.499    0.172  166.093   87.403
  266.390    9.166    0.513    0.181  165.512   89.674
  266.640    9.926    0.505    0.209  163.918   89.331
  266.890   10.371    0.472    0.209  163.819   84.585
  267.140   10.642    0.452    0.225  164.203   82.182
  267.390   10.822    0.477    0.211  164.599   83.293
  267.640   10.897    0.476    0.207  164.513   85.579
  267.890   10.894    0.481    0.210  164.909   87.850
  268.140   10.780    0.495    0.191  165.268   86.339
  268.390   10.671    0.483    0.186  165.689   85.105
  268.640   10.656    0.477    0.155  166.568   84.740
  268.890   10.647    0.473    0.151  167.446   84.696
  269.140   10.632    0.491    0.189  167.360   84.331
  269.390   10.714    0.506    0.210  167.249   85.741
  269.640   10.798    0.509    0.218  166.161   88.013
  269.890   10.785    0.498    0.198  165.556   85.917
  270.140   10.674    0.486    0.196  165.457   85.844
  270.390   10.566    0.486    0.190  165.866   87.261
  270.640   10.458    0.481    0.186  166.250   89.817
  270.890   10.443    0.483    0.189  166.658   88.584
  271.140   10.433    0.498    0.204  167.512   89.124
  271.390   10.512    0.526    0.215  168.403   91.688
  271.640   10.594    0.530    0.210  169.318   95.128
  271.890   10.869    0.526    0.199  170.704   92.441
  272.140   11.156    0.503    0.192  171.100   89.761
  272.390   11.655    0.469    0.205  171.484   88.519
  272.640   12.504    0.453    0.204  169.889   88.746
  272.890   13.185    0.447    0.202  165.833   90.455
  273.140   14.279    0.425    0.204  164.745   92.442
  273.390   15.052    0.378    0.209  164.647   90.047
  273.640   15.865    0.370    0.226  164.054   87.338
  273.890   16.422    0.376    0.246  163.448   85.826
  274.140   16.702    0.377    0.255  163.350   84.300
  274.390   16.685    0.364    0.234  163.239   82.482
  274.640   16.662    0.357    0.278  163.140   80.094
  274.890   15.768    0.358    0.286  163.042   77.407
  275.140   14.266    0.385    0.292  162.931   74.428
  275.390   13.139    0.398    0.280  162.820   72.887
  275.640   12.434    0.420    0.256  162.746   73.421
  275.890   11.977    0.455    0.242  162.623   79.504
  276.140   11.858    0.461    0.230  162.525   83.528
  276.390   11.844    0.446    0.229  162.921   83.762
  276.640   11.722    0.441    0.229  163.293   85.172
  276.890   11.499    0.439    0.225  163.206   88.028
