~VERSION INFORMATION
 VERS.                 2.0:   CWLS LOG ASCII STANDARD -VERSION 2.0
 WRAP.                  NO:   ONE LINE PER DEPTH STEP
~WELL INFORMATION BLOCK
#MNEM.UNIT           DATA                    DESCRIPTION OF MNEMONIC
#---------    -------------------            -------------------------------
# Generated from Intellog Unique Number	CX_WELLS/WELL/3976
WELL.         HOL BVX UNIGAS LYLE            : Well_name    - WELL
LOC .         00/06-34-071-16W4/0            : Location     - LOCATION
UWI .         00/06-34-071-16W4/0            : Uwi          - UNIQUE WELL ID
ENTR.         TIM                            : Entered      - ENTERED BY
SRVC.         SCHLUMBERGER                   : Scn          - SERVICE COMPANY
DATE.         04/14/92                       : Date         - LOG DATE
STRT.M        289.56                         : top_depth    - START DEPTH
STOP.M        484.56                         : bot_depth    - STOP DEPTH
STEP.M        0.25                           : increment    - STEP LENGTH
 NULL. -999.2500:NULL Value
~CURVE INFORMATION BLOCK
#MNEM UNIT       ERCB CURVE CODE    CURVE DESCRIPTION
#-----------   ------------------   ----------------------------------
DEPT.M        00 001 00 00         : DEPTH        - DEPTH
GR  .API      00 310 00 00         : GR           - GAMMA RAY
NPHI.V/V      00 330 00 00         : PHIN         - NEUTRON POROSITY (SANDSTONE)
ILD .OHMM     00 120 00 00         : RESD         - DEEP RESISTIVITY (DIL)
~PARAMETER INFORMATION
#MNEM.UNIT           DATA             DESCRIPTION OF MNEMONIC
#---------         -----------     ------------------------------
GL  .M        594.055              : gl           - GROUND LEVEL ELEVATION
EREF.M        596.189              : kb           - ELEVATION OF DEPTH REFERENCE
DATM.M        596.189              : datum        - DATUM ELEVATION
TDD .M        486.461              : tdd          - TOTAL DEPTH DRILLER
RUN .         ONE                  : Run          - RUN NUMBER
ENG .         JO                   : Engineer     - RECORDING ENGINEER
WIT .         TIM                  : Witness      - WITNESSED BY
MUD .         GEL                  : Mud_type     - MUD TYPE
MATR.         SANDSTONE            : Logunit      - NEUTRON MATRIX
TMAX.C        26.6667              : BHT          - MAXIMUM RECORDED TEMPERATURE
BHTD.M        486.156              : BHTDEP       - MAXIMUM RECORDED TEMPERATURE
RMT .C        25.5556              : MDTP         - TEMPERATURE OF MUD
MUDD.KG/M     9100                 : MWT          - MUD DENSITY
NEUT.         1                    : NEUTRON      - NEUTRON TYPE
RESI.         0                    : RESIST       - RESISTIVITY TYPE
RM  .OHMM     3.8                  : RM           - RESISTIVITY OF MUD
RMC .OHMM     3.74                 : RMC          - RESISTIVITY OF MUD CAKE
RMF .OHMM     3.74                 : RMF          - RESISTIVITY OF MUD FILTRATE
SUFT.C        4                    : SUFT         - SURFACE TEMPERATURE
~A  DEPTH       GR     PHIN     RESD
# ...
  343.810   62.834    0.507    4.528
  344.060   73.173    0.493    4.530
  344.310   79.263    0.491    4.451
  344.560   73.805    0.503    4.455
  344.810   59.237    0.514    4.458
  345.060   59.250    0.525    4.383
  345.310   61.087    0.531    4.385
  345.560   64.140    0.539    4.389
  345.810   65.364    0.543    4.394
  346.060   66.594    0.548    4.397
  346.310   65.999    0.550    4.319
  346.560   64.189    0.551    4.326
  346.810   62.983    0.552    4.329
  347.060   58.742    0.556    4.333
  347.310   58.761    0.557    4.337
  347.560   59.374    0.560    4.340
  347.810   60.601    0.561    4.426
  348.060   61.831    0.559    4.430
  348.310   63.056    0.553    4.519
  348.560   63.675    0.552    4.523
  348.810   62.475    0.559    4.612
  349.060   62.488    0.564    4.615
  349.310   63.718    0.559    4.620
  349.560   64.945    0.553    4.712
  349.810   63.739    0.554    4.806
  350.060   60.717    0.557    4.809
  350.310   61.944    0.557    4.815
  350.560   63.779    0.557    4.818
  350.810   63.791    0.556    4.822
  351.060   63.803    0.551    4.828
  351.310   63.815    0.547    4.833
  351.560   65.039    0.542    4.836
  351.810   66.266    0.537    4.844
  352.060   66.889    0.524    4.847
  352.310   62.041    0.501    4.851
  352.560   63.879    0.510    4.765
  352.810   66.318    0.538    4.770
  353.060   66.938    0.549    4.686
  353.310   63.308    0.548    4.690
  353.560   60.890    0.548    4.608
  353.810   59.080    0.548    4.527
  354.060   57.270    0.548    4.530
  354.310   55.459    0.541    4.534
  354.560   57.294    0.523    4.539
  354.810   61.558    0.512    4.459
  355.060   63.997    0.527    4.464
  355.310   62.190    0.538    4.387
  355.560   59.165    0.536    4.390
  355.810   56.750    0.526    4.395
  356.060   59.192    0.518    4.398
  356.310   61.634    0.503    4.484
  356.560   64.076    0.498    4.661
  356.810   67.734    0.510    4.934
  357.060   70.175    0.538    5.126
  357.310   72.618    0.546    5.529
  357.560   70.804    0.538    5.743
  357.810   64.742    0.517    5.966
  358.060   59.894    0.496    6.200
  358.310   62.336    0.479    6.205
  358.560   67.217    0.463    5.983
  358.810   68.438    0.473    5.663
  359.060   69.058    0.491    5.359
  359.310   66.643    0.516    5.265
  359.560   66.652    0.526    5.471
  359.810   66.664    0.521    5.793
  360.060   65.462    0.516    5.906
  360.310   63.651    0.506    6.137
  360.560   63.666    0.497    6.259
  360.810   65.501    0.477    6.264
  361.060   66.121    0.459    6.268
  361.310   66.133    0.470    6.161
  361.560   66.148    0.492    6.051
  361.810   66.765    0.510    5.621
  362.060   67.387    0.533    5.420
  362.310   68.007    0.524    5.530
  362.560   66.804    0.523    5.638
  362.810   66.816    0.525    5.644
  363.060   67.436    0.529    5.648
  363.310   66.233    0.530    5.345
  363.560   64.423    0.524    4.874
  363.810   63.220    0.514    4.529
  364.060   67.482    0.506    4.365
  364.310   72.961    0.501    4.131
  364.560   80.266    0.494    4.058
  364.810   79.671    0.487    4.218
  365.060   81.505    0.474    4.548
  365.310   83.947    0.477    4.905
  365.560   82.137    0.479    5.290
  365.810   78.504    0.483    5.813
  366.060   78.523    0.479    6.039
  366.310   79.744    0.476    6.394
  366.560   82.192    0.471    6.521
  366.810   82.805    0.466    6.528
  367.060   82.818    0.462    6.534
  367.310   81.618    0.459    6.419
  367.560   81.022    0.455    6.425
  367.810   80.427    0.459    6.313
  368.060   77.402    0.469    6.202
  368.310   73.769    0.486    6.207
  368.560   70.139    0.498    6.097
  368.810   66.504    0.514    5.990
  369.060   62.871    0.532    5.884
  369.310   60.453    0.543    5.783
  369.560   61.073    0.549    5.680
  369.810   61.088    0.550    5.685
  370.060   61.100    0.542    5.585
  370.310   59.897    0.536    5.592
  370.560   58.698    0.532    5.597
  370.810   58.096    0.527    5.396
  371.060   58.716    0.529    5.303
  371.310   59.336    0.536    5.207
  371.560   56.313    0.542    5.214
  371.810   55.111    0.546    5.123
  372.060   54.521    0.548    5.126
  372.310   54.530    0.549    5.037
  372.560   55.147    0.549    4.948
  372.810   55.770    0.549    4.862
  373.060   56.997    0.549    4.865
  373.310   55.187    0.549    4.781
  373.560   57.626    0.550    4.785
  373.810   61.893    0.552    4.701
  374.060   60.690    0.553    4.706
  374.310   59.484    0.554    4.709
  374.560   58.282    0.554    4.715
  374.810   61.334    0.554    4.718
  375.060   63.776    0.554    4.723
  375.310   66.219    0.554    4.728
  375.560   67.446    0.550    4.645
  375.810   68.673    0.545    4.647
  376.060   69.292    0.535    4.654
  376.310   68.090    0.524    4.657
  376.560   65.678    0.527    4.660
  376.810   63.254    0.536    4.665
  377.060   65.089    0.531    4.583
  377.310   65.101    0.521    4.587
  377.560   62.683    0.521    4.508
  377.810   59.050    0.537    4.512
  378.060   59.673    0.555    4.515
  378.310   62.725    0.561    4.435
  378.560   65.778    0.563    4.441
  378.810   66.392    0.565    4.363
  379.060   63.974    0.567    4.366
  379.310   60.949    0.567    4.291
  379.560   61.568    0.564    4.293
  379.810   60.976    0.559    4.297
  380.060   58.558    0.557    5.184
  380.310   56.748    0.550    6.253
  380.560   55.545    0.517    7.404
  380.810   52.517    0.467    9.270
  381.060   47.672    0.343    8.941
  381.310   45.859    0.333    7.288
  381.560   53.774    0.350    6.283
  381.810   57.428    0.534    5.519
  382.060   57.441    0.559    4.671
  382.310   58.668    0.571    4.338
  382.560   60.505    0.575    3.811
  382.810   61.733    0.573    3.539
  383.060   61.745    0.569    3.477
  383.310   60.542    0.566    4.041
  383.560   60.554    0.564    4.876
  383.810   61.781    0.562    5.257
  384.060   63.008    0.558    5.565
  384.310   63.023    0.550    5.675
  384.560   61.213    0.547    5.790
  384.810   61.833    0.541    5.796
  385.060   63.664    0.533    5.799
  385.310   67.321    0.526    5.697
  385.560   69.159    0.525    5.494
  385.810   69.171    0.554    5.200
  386.060   67.968    0.561    5.014
  386.310   65.548    0.562    4.835
  386.560   63.130    0.560    4.749
  386.810   64.964    0.557    4.580
  387.060   67.406    0.551    4.500
  387.310   69.247    0.551    4.422
  387.560   69.256    0.558    4.424
  387.810   69.268    0.568    4.428
  388.060   71.710    0.561    4.516
  388.310   75.368    0.538    4.607
  388.560   75.990    0.525    4.699
  388.810   73.573    0.521    4.702
  389.060   71.155    0.515    4.796
  389.310   69.955    0.521    4.799
  389.560   69.354    0.527    4.894
  389.810   69.982    0.523    4.991
  390.060   70.596    0.515    5.090
  390.310   70.611    0.511    5.096
  390.560   71.838    0.509    5.100
  390.810   72.461    0.509    5.009
  391.060   73.078    0.511    5.014
  391.310   74.308    0.517    4.926
  391.560   74.921    0.518    4.931
  391.810   76.148    0.519    4.936
  392.060   76.768    0.513    4.940
  392.310   76.173    0.501    4.946
  392.560   74.362    0.498    4.948
  392.810   71.337    0.493    4.862
  393.060   68.312    0.490    4.777
  393.310   69.542    0.493    4.693
  393.560   71.377    0.496    4.610
  393.810   73.819    0.496    4.530
  394.060   77.476    0.493    4.368
  394.310   84.170    0.485    4.133
  394.560   90.257    0.478    3.186
  394.810   95.737    0.470    2.598
  395.060   95.752    0.475    2.412
  395.310   90.297    0.473    2.284
  395.560   92.131    0.469    2.285
  395.810   94.573    0.460    2.375
  396.060   93.368    0.455    2.812
  396.310   86.700    0.460    3.937
  396.560   82.463    0.462    4.750
  396.810   80.650    0.464    5.221
  397.060   83.703    0.464    5.225
  397.310   85.534    0.463    5.229
  397.560   87.372    0.462    5.235
  397.810   86.776    0.459    5.241
