~VERSION INFORMATION
 VERS.                 2.0:   CWLS LOG ASCII STANDARD -VERSION 2.0
 WRAP.                  NO:   ONE LINE PER DEPTH STEP
~WELL INFORMATION BLOCK
#MNEM.UNIT           DATA                    DESCRIPTION OF MNEMONIC
#---------    -------------------            -------------------------------
# Generated from Intellog Unique Number	CX_WELLS/WELL/3038
WELL.         ASHLAND HOUSE R                : Well_name    - WELL
LOC .         00/06-06-082-13W4/0            : Location     - LOCATION
UWI .         00/06-06-082-13W4/0            : Uwi          - UNIQUE WELL ID
ENTR.         T                              : Entered      - ENTERED BY
SRVC.         SCHLUMBERGER                   : Scn          - SERVICE COMPANY
STRT.F        500                            : top_depth    - START DEPTH
STOP.F        1260.33                        : bot_depth    - STOP DEPTH
STEP.F        0.82                           : increment    - STEP LENGTH
 NULL. -999.2500:NULL Value
~CURVE INFORMATION BLOCK
#MNEM UNIT       ERCB CURVE CODE    CURVE DESCRIPTION
#-----------   ------------------   ----------------------------------
DEPT.F        00 001 00 00         : DEPTH        - DEPTH
GR  .API      00 310 00 00         : GR           - GAMMA RAY
NPHI.V/V      00 330 00 00         : PHIN         - NEUTRON POROSITY (SANDSTONE)
ILD .OHMM     00 120 00 00         : RESD         - DEEP RESISTIVITY (OTHER)
~PARAMETER INFORMATION
#MNEM.UNIT           DATA             DESCRIPTION OF MNEMONIC
#---------         -----------     ------------------------------
GL  .F        1960                 : gl           - GROUND LEVEL ELEVATION
EREF.F        1974                 : kb           - ELEVATION OF DEPTH REFERENCE
DATM.F        1974                 : datum        - DATUM ELEVATION
TDD .F        1268                 : tdd          - TOTAL DEPTH DRILLER
RUN .         ONE                  : Run          - RUN NUMBER
ENG .         BILL                 : Engineer     - RECORDING ENGINEER
WIT .         JIM                  : Witness      - WITNESSED BY
MUD .         GEL                  : Mud_type     - MUD TYPE
MATR.         SANDSTONE            : Logunit      - NEUTRON MATRIX
TMAX.F        68                   : BHT          - MAXIMUM RECORDED TEMPERATURE
BHTD.F        1668                 : BHTDEP       - MAXIMUM RECORDED TEMPERATURE
MATR.         1                    : LOGUNIT      - NEUTRON MATRIX
RMT .F        68                   : MDTP         - TEMPERATURE OF MUD
NEUT.         1                    : NEUTRON      - NEUTRON TYPE
RESI.         1.88                 : RESIST       - RESISTIVITY TYPE
RMC .OHMM     3.4                  : RMC          - RESISTIVITY OF MUD CAKE
RMF .OHMM     1.88                 : RMF          - RESISTIVITY OF MUD FILTRATE
SUFT.F        37.4                 : SUFT         - SURFACE TEMPERATURE
~A  DEPTH       GR     PHIN     RESD
# ...
 1033.960   95.586    0.503    4.676
 1034.780   97.401    0.488    4.507
 1035.600  101.023    0.473    4.507
 1036.420  104.646    0.440    4.763
 1037.240  102.249    0.422    5.223
 1038.060   90.234    0.397    6.396
 1038.880   86.638    0.310    7.549
 1039.700   81.839    0.321    9.076
 1040.520   76.439    0.375    9.952
 1041.340   71.038    0.421   10.517
 1042.160   71.053    0.448   10.912
 1042.980   75.875    0.452   10.912
 1043.800   82.501    0.455   10.138
 1044.620   88.528    0.457    9.771
 1045.440   90.341    0.459    8.912
 1046.260   90.954    0.464    8.433
 1047.080   90.968    0.466    8.279
 1047.900   90.982    0.472    8.128
 1048.720   90.991    0.477    8.280
 1049.540   91.002    0.482    8.280
 1050.360   91.014    0.479    8.434
 1051.180   92.832    0.477    8.591
 1052.000   94.049    0.477    8.751
 1052.820   93.459    0.478    8.751
 1053.640   91.670    0.477    8.751
 1054.460   91.077    0.472    8.592
 1055.280   91.086    0.469    8.281
 1056.100   92.303    0.468    7.982
 1056.920   94.722    0.478    7.693
 1057.740   97.743    0.487    7.553
 1058.560   98.955    0.492    7.280
 1059.380  100.166    0.496    6.889
 1060.200  101.380    0.502    6.283
 1061.020  100.192    0.526    5.226
 1061.840   98.399    0.543    4.114
 1062.660   96.006    0.545    3.121
 1063.480   93.615    0.519    2.846
 1064.300   93.022    0.513    2.899
 1065.120   90.628    0.502    3.064
 1065.940   88.836    0.494    3.298
 1066.770   84.037    0.485    3.550
 1067.590   79.842    0.480    4.039
 1068.410   79.255    0.482    4.595
 1069.230   79.267    0.485    5.324
 1070.050   81.085    0.483    6.170
 1070.870   81.695    0.481    6.642
 1071.690   82.305    0.488    6.765
 1072.510   82.924    0.515    6.058
 1073.330   83.533    0.519    5.628
 1074.150   85.349    0.527    4.857
 1074.970   90.772    0.518    4.191
 1075.790   95.594    0.495    3.966
 1076.610   96.210    0.489    3.894
 1077.430   93.816    0.482    3.966
 1078.250   90.821    0.486    4.040
 1079.070   89.630    0.495    4.192
 1079.890   89.641    0.507    4.513
 1080.710   90.257    0.513    4.596
 1081.530   91.469    0.518    4.769
 1082.350   92.683    0.524    4.430
 1083.170   98.109    0.531    4.116
 1083.990  104.133    0.532    3.967
 1084.810  103.549    0.519    3.967
 1085.630  102.954    0.509    3.967
 1086.450  101.161    0.506    4.041
 1087.270  100.574    0.509    4.116
 1088.090  101.791    0.514    4.193
 1088.910  104.205    0.519    4.350
 1089.730  109.027    0.492    4.683
 1090.550  112.048    0.477    4.859
 1091.370  107.848    0.460    5.230
 1092.190  101.846    0.439    5.735
 1093.010   94.043    0.422    6.061
 1093.830   89.247    0.449    6.769
 1094.650   85.053    0.456    7.154
 1095.470   83.254    0.468    7.990
 1096.290   80.262    0.469    8.290
 1097.110   81.474    0.463    9.090
 1097.930   86.897    0.461    9.259
 1098.750   89.316    0.455    9.259
 1099.570   87.530    0.445    9.259
 1100.390   86.937    0.441    9.090
 1101.210   86.344    0.440    9.091
 1102.030   85.755    0.439    9.260
 1102.850   84.564    0.438    9.432
 1103.670   80.976    0.437    9.786
 1104.490   80.380    0.437    9.968
 1105.310   78.588    0.427   10.343
 1106.140   77.397    0.432   10.930
 1106.960   75.607    0.432   11.552
 1107.780   74.413    0.430   11.985
 1108.600   73.225    0.429   12.435
 1109.420   70.831    0.433   12.902
 1110.240   67.836    0.440   12.902
 1111.060   63.638    0.450   13.889
 1111.880   57.637    0.462   15.800
 1112.700   48.027    0.460   17.975
 1113.520   45.032    0.449   17.009
 1114.340   56.469    0.442   16.095
 1115.160   64.901    0.437   14.412
 1115.980   73.331    0.439   13.388
 1116.800   81.761    0.445   12.669
 1117.620   91.394    0.452   12.669
 1118.440  102.232    0.454   12.670
 1119.260  108.256    0.458   13.145
 1120.080   92.634    0.456   13.390
 1120.900   78.214    0.452   13.893
 1121.720   65.598    0.446   15.233
 1122.540   65.612    0.439   16.703
 1123.360   67.425    0.433   18.314
 1124.180   71.044    0.429   19.002
 1125.000   77.673    0.421   21.617
 1125.820   81.292    0.419   22.428
 1126.640   81.914    0.415   23.703
 1127.460   81.318    0.420   26.965
 1128.280   80.127    0.424   30.117
 1129.100   78.332    0.424   30.677
 1129.920   75.342    0.425   32.420
 1130.740   73.550    0.428   33.024
 1131.560   72.957    0.430   34.263
 1132.380   72.373    0.428   34.901
 1133.200   72.379    0.426   33.639
 1134.020   72.391    0.420   30.121
 1134.840   74.807    0.417   23.708
 1135.660   81.439    0.413   21.228
 1136.480   84.454    0.409   19.721
 1137.300   88.076    0.404   19.362
 1138.120   85.081    0.403   19.722
 1138.940   83.289    0.406   20.089
 1139.760   80.297    0.411   20.463
 1140.580   79.103    0.421   20.090
 1141.400   83.323    0.432   17.021
 1142.220   85.740    0.450   14.963
 1143.040   83.948    0.457   12.913
 1143.860   82.757    0.465   11.778
 1144.690   91.189    0.470   10.941
 1145.510   98.417    0.477   10.742
 1146.330  100.836    0.477   10.165
 1147.150  102.056    0.474    9.797
 1147.970  102.666    0.468    9.271
 1148.790  103.273    0.463    9.271
 1149.610  105.091    0.454    9.271
 1150.430  106.907    0.445    9.444
 1151.250  108.121    0.429    9.272
 1152.070  103.923    0.412    8.002
 1152.890   91.914    0.399    8.614
 1153.710   88.916    0.391    9.103
 1154.530   83.513    0.399    9.445
 1155.350   74.505    0.413   11.566
 1156.170   69.709    0.422   16.412
 1156.990   73.930    0.428   17.028
 1157.810   80.556    0.436   16.413
 1158.630   84.776    0.442   15.531
 1159.450   83.588    0.447   14.697
 1160.270   81.200    0.451   14.429
 1161.090   80.605    0.453   14.166
 1161.910   78.211    0.451   13.907
 1162.730   72.209    0.451   13.908
 1163.550   68.613    0.453   13.654
 1164.370   66.219    0.454   13.655
 1165.190   65.629    0.451   13.909
 1166.010   67.448    0.449   14.168
 1166.830   69.263    0.448   14.168
 1167.650   72.281    0.454   15.535
 1168.470   74.698    0.455   17.350
 1169.290   80.725    0.461   19.738
 1170.110   81.942    0.460   22.454
 1170.930   77.742    0.454   33.672
 1171.750   65.126    0.445   42.001
 1172.570   59.124    0.443   49.575
 1173.390   57.335    0.449   55.369
 1174.210   57.343    0.455   56.399
 1175.030   59.159    0.463   55.371
 1175.850   59.772    0.467   50.501
 1176.670   57.381    0.470   43.583
 1177.490   51.983    0.470   40.489
 1178.310   55.603    0.467   37.614
 1179.130   59.219    0.463   33.680
 1179.950   66.446    0.453   31.870
 1180.770   71.873    0.447   29.607
 1181.590   71.887    0.440   27.505
 1182.410   70.092    0.433   26.027
 1183.230   64.691    0.429   25.086
 1184.060   66.507    0.434   24.629
 1184.880   74.335    0.441   25.087
 1185.700   76.151    0.446   25.554
 1186.520   71.959    0.452   28.020
 1187.340   68.360    0.453   30.723
 1188.160   65.966    0.455   33.687
 1188.980   62.971    0.457   38.324
 1189.800   61.780    0.459   42.802
 1190.620   59.389    0.464   46.932
 1191.440   57.594    0.467   52.416
 1192.260   53.997    0.473   58.542
 1193.080   52.809    0.474   60.740
 1193.900   54.627    0.466   61.870
 1194.720   56.443    0.458   58.546
 1195.540   57.056    0.455   52.422
 1196.360   58.270    0.454   44.416
 1197.180   63.092    0.455   39.770
 1198.000   67.312    0.456   41.263
 1198.820   66.121    0.456   44.419
 1199.640   62.525    0.454   49.610
 1200.460   60.131    0.453   55.407
 1201.280   61.952    0.451   59.645
 1202.100   63.161    0.451   51.474
 1202.920   66.783    0.456   36.277
 1203.740   70.405    0.458   30.736
 1204.560   74.022    0.462   27.019
 1205.380   80.046    0.464   27.522
 1206.200   80.662    0.466   29.627
 1207.020   77.667    0.452   31.892
 1207.840   73.469    0.350   33.705
 1208.660   66.867    0.337   44.430
 1209.480   59.662    0.367   46.098
 1210.300   50.654    0.391   49.624
 1211.120   48.263    0.412   52.444
