~VERSION INFORMATION
 VERS.                 2.0:   CWLS LOG ASCII STANDARD -VERSION 2.0
 WRAP.                  NO:   ONE LINE PER DEPTH STEP
~WELL INFORMATION BLOCK
#MNEM.UNIT           DATA                    DESCRIPTION OF MNEMONIC
#---------    -------------------            -------------------------------
# Generated from Intellog Unique Number	CS_71_72/WELL/804
WELL.         BVX ET AL LYLE                 : Well_name    - WELL
LOC .         00/07-07-072-16W4/0            : Location     - LOCATION
UWI .         00/07-07-072-16W4/0            : Uwi          - UNIQUE WELL ID
ENTR.         SP                             : Entered      - ENTERED BY
SRVC.         SCHLUMBERGER                   : Scn          - SERVICE COMPANY
STRT.M        274.32                         : top_depth    - START DEPTH
STOP.M        450.82                         : bot_depth    - STOP DEPTH
STEP.M        0.25                           : increment    - STEP LENGTH
 NULL. -999.2500:NULL Value
~CURVE INFORMATION BLOCK
#MNEM UNIT       ERCB CURVE CODE    CURVE DESCRIPTION
#-----------   ------------------   ----------------------------------
DEPT.M        00 001 00 00         : DEPTH        - DEPTH
GR  .API      00 310 00 00         : GR           - GAMMA RAY
DPHI.V/V      00 890 00 00         : PHID         - DENSITY POROSITY (SANDSTONE)
NPHI.V/V      00 330 00 00         : PHIN         - NEUTRON POROSITY (SANDSTONE)
ILD .OHMM     00 120 00 00         : RESD         - DEEP RESISTIVITY (DIL)
~PARAMETER INFORMATION
#MNEM.UNIT           DATA             DESCRIPTION OF MNEMONIC
#---------         -----------     ------------------------------
GL  .M        594.36               : gl           - GROUND LEVEL ELEVATION
EREF.M        597.408              : kb           - ELEVATION OF DEPTH REFERENCE
DATM.M        594.36               : datum        - DATUM ELEVATION
TDD .M        454.152              : tdd          - TOTAL DEPTH DRILLER
RUN .         ONE                  : Run          - RUN NUMBER
ENG .         BILL                 : Engineer     - RECORDING ENGINEER
WIT .         JIM                  : Witness      - WITNESSED BY
MUD .         GEL                  : Mud_type     - MUD TYPE
MATR.         SANDSTONE            : Logunit      - NEUTRON MATRIX
TMAX.C        25.5556              : BHT          - MAXIMUM RECORDED TEMPERATURE
BHTD.M        454.152              : BHTDEP       - MAXIMUM RECORDED TEMPERATURE
MATR.         1                    : LOGUNIT      - NEUTRON MATRIX
RMT .C        25                   : MDTP         - TEMPERATURE OF MUD
NEUT.         1                    : NEUTRON      - NEUTRON TYPE
RESI.         0                    : RESIST       - RESISTIVITY TYPE
RMC .OHMM     0.25                 : RMC          - RESISTIVITY OF MUD CAKE
RMF .OHMM     0.25                 : RMF          - RESISTIVITY OF MUD FILTRATE
SUFT.C        15                   : SUFT         - SURFACE TEMPERATURE
~A  DEPTH       GR     PHID     PHIN     RESD
# ...
  404.820   64.136    0.294    0.507    5.506
  405.070   64.072    0.298    0.525    5.452
  405.320   63.833    0.294    0.507    5.451
  405.570   62.972    0.305    0.485    5.563
  405.820   63.465    0.306    0.522    5.904
  406.070   63.672    0.309    0.550    6.195
  406.320   62.306    0.302    0.575    6.682
  406.570   60.362    0.283    0.526    7.015
  406.820   59.367    0.261    0.484    7.064
  407.070   59.389    0.247    0.456    6.986
  407.320   60.382    0.238    0.424    6.591
  407.570   61.234    0.245    0.396    5.975
  407.820   61.183    0.279    0.448    5.417
  408.070   60.798    0.295    0.486    5.286
  408.320   60.399    0.299    0.514    5.438
  408.570   58.915    0.286    0.536    5.492
  408.820   57.035    0.270    0.476    5.539
  409.070   55.197    0.244    0.451    6.090
  409.320   55.651    0.218    0.423    5.842
  409.570   58.249    0.247    0.446    5.604
  409.820   60.108    0.275    0.483    5.432
  410.070   59.656    0.291    0.486    5.359
  410.320   58.732    0.285    0.506    5.271
  410.570   60.675    0.291    0.497    5.284
  410.820   62.810    0.292    0.497    5.163
  411.070   65.363    0.284    0.479    4.931
  411.320   68.837    0.276    0.487    4.597
  411.570   72.926    0.256    0.498    4.341
  411.820   80.348    0.238    0.508    4.103
  412.070   89.248    0.227    0.536    4.038
  412.320   93.593    0.212    0.560    4.127
  412.570   94.681    0.206    0.543    4.118
  412.820   95.082    0.215    0.536    4.178
  413.070   95.906    0.235    0.548    4.289
  413.320   95.864    0.235    0.577    4.285
  413.570   94.690    0.228    0.588    4.148
  413.820   90.617    0.221    0.595    4.119
  414.070   91.667    0.216    0.606    3.980
  414.320   95.235    0.218    0.576    3.933
  414.570   97.980    0.226    0.565    3.907
  414.820   97.850    0.229    0.574    3.969
  415.070   97.088    0.219    0.569    4.284
  415.320   97.829    0.231    0.557    4.521
  415.570   99.512    0.226    0.533    4.981
  415.820   98.605    0.216    0.491    5.689
  416.070   98.363    0.207    0.460    6.339
  416.320   95.166    0.215    0.449    7.189
  416.570   89.365    0.213    0.437    8.081
  416.820   79.266    0.211    0.411    8.860
  417.070   75.425    0.174    0.377    9.610
  417.320   71.319    0.098    0.334   10.036
  417.570   67.556    0.073    0.338   10.376
  417.820   69.111    0.192    0.387    9.841
  418.070   75.189    0.213    0.394    8.995
  418.320   83.654    0.230    0.391    8.405
  418.570   90.351    0.205    0.416    8.645
  418.820   93.262    0.170    0.439    8.901
  419.070   94.884    0.143    0.429    9.171
  419.320   88.588    0.122    0.363    9.318
  419.570   84.686    0.105    0.332    8.872
  419.820   88.484    0.145    0.462    8.382
  420.070   94.193    0.181    0.499    7.811
  420.320  100.259    0.181    0.494    7.317
  420.570   97.538    0.170    0.486    7.359
  420.820   96.064    0.180    0.493    7.746
  421.070   92.140    0.179    0.469    7.866
  421.320   88.751    0.179    0.460    7.933
  421.570   87.580    0.173    0.459    7.686
  421.820   84.007    0.155    0.451    7.294
  422.070   82.051    0.162    0.445    6.904
  422.320   82.483    0.181    0.449    6.617
  422.570   83.235    0.181    0.444    6.622
  422.820   86.139    0.173    0.441    6.763
  423.070   89.068    0.183    0.443    7.032
  423.320   91.258    0.193    0.453    7.250
  423.570   91.924    0.186    0.468    7.397
  423.820   91.412    0.169    0.478    7.591
  424.070   92.436    0.159    0.483    7.770
  424.320   92.611    0.149    0.483    7.938
  424.570   90.014    0.137    0.457    7.940
  424.820   87.277    0.142    0.468    7.725
  425.070   87.135    0.166    0.453    7.507
  425.320   92.855    0.175    0.450    7.232
  425.570   96.741    0.158    0.464    7.305
  425.820   99.276    0.172    0.460    7.389
  426.070  100.345    0.204    0.432    7.451
  426.320   99.595    0.203    0.420    7.655
  426.570   98.674    0.189    0.406    7.865
  426.820   97.351    0.181    0.423    7.866
  427.070   92.671    0.166    0.427    7.873
  427.320   89.403    0.148    0.435    7.875
  427.570   85.807    0.126    0.411    7.846
  427.820   83.078    0.115    0.402    7.604
  428.070   84.139    0.151    0.452    7.213
  428.320   86.655    0.179    0.488    6.408
  428.570   90.616    0.199    0.478    4.954
  428.820   92.427    0.197    0.465    3.820
  429.070   95.542    0.205    0.457    3.255
  429.320   98.184    0.218    0.509    2.818
  429.570  100.837    0.232    0.647    2.745
  429.820  101.914    0.226    0.660    2.767
  430.070  102.388    0.224    0.629    2.974
  430.320   99.968    0.213    0.629    3.497
  430.570  101.614    0.204    0.645    3.987
  430.820  100.293    0.193    0.631    4.848
  431.070   96.132    0.183    0.580    6.246
  431.320   91.254    0.171    0.491    7.923
  431.570   87.210    0.143    0.451    8.559
  431.820   82.451    0.131    0.439    9.026
  432.070   77.910    0.108    0.365    8.958
  432.320   73.869    0.080    0.349    8.344
  432.570   66.593    0.111    0.318    7.543
  432.820   74.389    0.175    0.419    6.756
  433.070   81.946    0.188    0.449    6.869
  433.320   87.180    0.181    0.449    7.471
  433.570   89.937    0.171    0.445    8.391
  433.820   87.939    0.164    0.432    9.113
  434.070   82.790    0.149    0.407   10.049
  434.320   77.367    0.135    0.370   10.493
  434.570   74.048    0.144    0.342   10.334
  434.820   71.711    0.153    0.355    9.749
  435.070   76.101    0.144    0.367    9.009
  435.320   76.494    0.131    0.360    7.769
  435.570   81.899    0.158    0.374    6.524
  435.820   89.891    0.171    0.405    5.599
  436.070   93.949    0.175    0.418    4.959
  436.320   97.730    0.177    0.416    4.346
  436.570   99.181    0.180    0.456    3.987
  436.820   98.837    0.182    0.543    3.946
  437.070  100.030    0.192    0.583    4.026
  437.320  100.665    0.196    0.613    4.099
  437.570   98.265    0.176    0.611    4.369
  437.820   99.198    0.161    0.568    4.560
  438.070  101.825    0.148    0.541    4.820
  438.320   98.889    0.132    0.503    5.174
  438.570   93.085    0.111    0.463    5.340
  438.820   89.836    0.107    0.459    5.125
  439.070   90.705    0.150    0.476    5.008
  439.320   98.909    0.171    0.451    4.871
  439.570  104.521    0.182    0.448    4.833
  439.820  105.693    0.178    0.482    4.851
  440.070  103.290    0.173    0.515    5.023
  440.320  104.002    0.167    0.506    5.288
  440.570  104.395    0.173    0.480    5.635
  440.820  104.768    0.172    0.453    5.857
  441.070  105.129    0.159    0.469    5.965
  441.320  103.594    0.144    0.452    5.501
  441.570   95.910    0.121    0.422    5.076
  441.820   93.628    0.106    0.409    4.642
  442.070   96.829    0.159    0.444    4.626
  442.320  102.503    0.173    0.512    5.089
  442.570  106.866    0.175    0.535    5.589
  442.820  106.972    0.159    0.544    6.576
  443.070  100.756    0.148    0.514    7.542
  443.320   95.522    0.139    0.454    9.121
  443.570   88.499    0.195    0.421   11.670
  443.820   66.987    0.224    0.347   14.600
  444.070   60.904    0.242    0.329   16.630
  444.320   57.936    0.258    0.317   17.444
  444.570   54.242    0.250    0.332   17.676
  444.820   46.475    0.240    0.342   18.809
  445.070   26.157    0.226    0.345   19.118
  445.320   19.438    0.237    0.345   23.965
  445.570   17.933    0.269    0.339   32.358
  445.820   17.254    0.293    0.346   33.903
  446.070   19.532    0.270    0.366   21.765
  446.320   24.178    0.256    0.358   19.742
  446.570   33.908    0.233    0.340   18.064
  446.820   63.816    0.215    0.336   14.927
  447.070   71.280    0.187    0.356   11.245
  447.320   72.519    0.175    0.446    9.846
  447.570   72.564    0.166    0.523    9.727
  447.820   71.915    0.160    0.525   10.346
  448.070   71.320    0.162    0.526   11.109
