~VERSION INFORMATION
 VERS.                 2.0:   CWLS LOG ASCII STANDARD -VERSION 2.0
 WRAP.                  NO:   ONE LINE PER DEPTH STEP
~WELL INFORMATION BLOCK
#MNEM.UNIT           DATA                    DESCRIPTION OF MNEMONIC
#---------    -------------------            -------------------------------
# Generated from Intellog Unique Number	CS_71_72/WELL/810
WELL.         BVI ET AL CHARRON              : Well_name    - WELL
LOC .         00/07-12-071-15W4/0            : Location     - LOCATION
UWI .         00/07-12-071-15W4/0            : Uwi          - UNIQUE WELL ID
ENTR.         SP                             : Entered      - ENTERED BY
SRVC.         SCHLUMBERGER                   : Scn          - SERVICE COMPANY
STRT.M        305                            : top_depth    - START DEPTH
STOP.M        510                            : bot_depth    - STOP DEPTH
STEP.M        0.25                           : increment    - STEP LENGTH
 NULL. -999.2500:NULL Value
~CURVE INFORMATION BLOCK
#MNEM UNIT       ERCB CURVE CODE    CURVE DESCRIPTION
#-----------   ------------------   ----------------------------------
DEPT.M        00 001 00 00         : DEPTH        - DEPTH
ILD .OHMM     00 120 00 00         : RESD         - DEEP RESISTIVITY (DIL)
DPHI.V/V      00 890 00 00         : PHID         - DENSITY POROSITY (LIMESTONE)
NPHI.V/V      00 330 00 00         : PHIN         - NEUTRON POROSITY (LIMESTONE)
GR  .API      00 310 00 00         : GR           - GAMMA RAY
~PARAMETER INFORMATION
#MNEM.UNIT           DATA             DESCRIPTION OF MNEMONIC
#---------         -----------     ------------------------------
GL  .M        618.3                : gl           - GROUND LEVEL ELEVATION
EREF.M        621.8                : kb           - ELEVATION OF DEPTH REFERENCE
DATM.M        618.3                : datum        - DATUM ELEVATION
TDD .M        517                  : tdd          - TOTAL DEPTH DRILLER
RUN .         ONE                  : Run          - RUN NUMBER
ENG .         BILL                 : Engineer     - RECORDING ENGINEER
WIT .         JIM                  : Witness      - WITNESSED BY
MUD .         GEL                  : Mud_type     - MUD TYPE
MATR.         LIMESTONE            : Logunit      - NEUTRON MATRIX
TMAX.C        27                   : BHT          - MAXIMUM RECORDED TEMPERATURE
BHTD.M        517                  : BHTDEP       - MAXIMUM RECORDED TEMPERATURE
MATR.         1                    : LOGUNIT      - NEUTRON MATRIX
RMT .C        25                   : MDTP         - TEMPERATURE OF MUD
NEUT.         1                    : NEUTRON      - NEUTRON TYPE
RESI.         0                    : RESIST       - RESISTIVITY TYPE
RMC .OHMM     0.25                 : RMC          - RESISTIVITY OF MUD CAKE
RMF .OHMM     0.25                 : RMF          - RESISTIVITY OF MUD FILTRATE
SUFT.C        15                   : SUFT         - SURFACE TEMPERATURE
~A  DEPTH     RESD     PHID     PHIN       GR
# ...
  435.500    3.765    0.250    0.433   78.915
  435.750    3.730    0.251    0.427   76.987
  436.000    3.723    0.260    0.435   76.749
  436.250    3.736    0.268    0.443   76.996
  436.500    3.757    0.275    0.441   77.606
  436.750    3.757    0.281    0.431   78.337
  437.000    3.750    0.289    0.434   78.282
  437.250    3.757    0.298    0.444   76.474
  437.500    3.756    0.304    0.454   77.628
  437.750    3.756    0.304    0.462   78.963
  438.000    3.756    0.303    0.460   75.100
  438.250    3.791    0.302    0.449   72.144
  438.500    3.805    0.287    0.454   73.841
  438.750    3.791    0.279    0.449   78.984
  439.000    3.630    0.252    0.439   85.033
  439.250    3.477    0.233    0.444   90.780
  439.500    3.393    0.232    0.463   95.680
  439.750    3.373    0.238    0.491   97.801
  440.000    3.418    0.244    0.528   96.778
  440.250    3.555    0.245    0.513   95.212
  440.500    3.796    0.239    0.465   96.488
  440.750    3.832    0.233    0.453   99.092
  441.000    3.926    0.248    0.467  101.151
  441.250    3.948    0.263    0.488  103.635
  441.500    3.926    0.257    0.511  101.585
  441.750    3.882    0.251    0.522  100.200
  442.000    3.831    0.244    0.496   99.845
  442.250    3.774    0.222    0.474   99.848
  442.500    3.696    0.201    0.475   98.707
  442.750    3.461    0.189    0.479   97.441
  443.000    3.321    0.217    0.474   97.507
  443.250    3.180    0.241    0.467   99.144
  443.500    2.994    0.254    0.470   99.573
  443.750    2.944    0.265    0.490   99.578
  444.000    2.884    0.252    0.512  100.248
  444.250    2.878    0.234    0.518  100.797
  444.500    2.949    0.229    0.513  101.044
  444.750    3.149    0.255    0.526  100.445
  445.000    3.440    0.273    0.517   95.071
  445.250    3.625    0.136    0.439   86.192
  445.500    3.959    0.078    0.420   77.193
  445.750    4.549    0.052    0.412   73.028
  446.000    5.316    0.160    0.403   71.582
  446.250    6.120    0.210    0.434   74.851
  446.500    6.760    0.253    0.453   72.983
  446.750    7.044    0.290    0.448   71.175
  447.000    7.057    0.279    0.432   71.362
  447.250    6.810    0.225    0.423   79.345
  447.500    6.176    0.204    0.428   89.927
  447.750    6.015    0.186    0.446  100.085
  448.000    5.970    0.129    0.466   86.069
  448.250    6.037    0.075    0.300   74.169
  448.500    6.014    0.091    0.286   67.889
  448.750    5.902    0.168    0.374   74.241
  449.000    5.495    0.199    0.411   78.899
  449.250    5.243    0.197    0.432   83.135
  449.500    4.965    0.186    0.444   85.739
  449.750    4.872    0.181    0.434   86.591
  450.000    4.835    0.185    0.425   85.689
  450.250    4.908    0.188    0.428   84.547
  450.500    5.058    0.185    0.445   83.463
  450.750    5.261    0.146    0.461   80.628
  451.000    5.391    0.104    0.414   75.618
  451.250    5.523    0.102    0.309   76.650
  451.500    5.309    0.150    0.387   81.913
  451.750    5.162    0.202    0.406   89.231
  452.000    5.075    0.213    0.415   91.775
  452.250    4.878    0.204    0.427   91.780
  452.500    4.851    0.192    0.436   91.362
  452.750    4.896    0.181    0.422   90.703
  453.000    5.064    0.167    0.413   90.406
  453.250    5.150    0.172    0.402   92.647
  453.500    5.102    0.193    0.410   96.520
  453.750    4.997    0.205    0.400   98.157
  454.000    4.923    0.200    0.414   98.526
  454.250    4.913    0.203    0.433  100.646
  454.500    4.913    0.220    0.433   99.745
  454.750    5.015    0.222    0.421   91.530
  455.000    5.053    0.188    0.407   82.773
  455.250    5.148    0.153    0.395   73.712
  455.500    5.295    0.169    0.408   74.201
  455.750    5.466    0.174    0.407   75.597
  456.000    5.664    0.114    0.354   71.734
  456.250    5.815    0.142    0.359   82.739
  456.500    5.815    0.180    0.407   88.486
  456.750    5.589    0.113    0.395   84.261
  457.000    5.373    0.079    0.326   81.304
  457.250    5.155    0.092    0.301   79.134
  457.500    4.845    0.183    0.345   80.650
  457.750    4.710    0.218    0.387   81.622
  458.000    4.545    0.212    0.394   83.502
  458.250    4.216    0.196    0.404   86.286
  458.500    3.824    0.188    0.434   90.885
  458.750    3.266    0.179    0.455   88.714
  459.000    2.773    0.176    0.432   85.335
  459.250    2.422    0.181    0.410   84.132
  459.500    2.209    0.216    0.447   85.709
  459.750    2.073    0.251    0.476   88.314
  460.000    2.065    0.243    0.497   90.191
  460.250    2.268    0.228    0.515   93.339
  460.500    2.857    0.224    0.528   97.153
  460.750    3.240    0.220    0.528   96.674
  461.000    3.764    0.219    0.471   92.086
  461.250    4.391    0.220    0.422   89.553
  461.500    5.150    0.220    0.410   87.021
  461.750    5.851    0.211    0.433   66.719
  462.000    6.248    0.004    0.415   61.708
  462.250    6.391   -0.004    0.272   57.241
  462.500    6.166    0.043    0.276   74.168
  462.750    5.376    0.099    0.362   81.668
  463.000    5.158    0.156    0.394   85.541
  463.250    5.613    0.210    0.428   83.794
  463.500    6.211    0.215    0.442   78.058
  463.750    6.596    0.053    0.442   72.201
  464.000    6.925    0.047    0.275   65.859
  464.250    6.886    0.105    0.297   77.348
  464.500    6.732    0.165    0.330   85.815
  464.750    6.520    0.187    0.355   90.957
  465.000    6.471    0.177    0.371   90.056
  465.250    6.434    0.158    0.371   89.638
  465.500    6.362    0.142    0.366   90.549
  465.750    5.705    0.131    0.375   87.594
  466.000    5.362    0.115    0.338   84.698
  466.250    4.937    0.126    0.329   87.725
  466.500    4.511    0.154    0.348   94.016
  466.750    4.184    0.183    0.373   96.318
  467.000    3.992    0.199    0.397   93.665
  467.250    3.874    0.190    0.415   94.939
  467.500    3.823    0.187    0.439   97.966
  467.750    3.787    0.177    0.444  100.690
  468.000    3.730    0.168    0.458   99.729
  468.250    3.681    0.159    0.468  102.091
  468.500    3.647    0.169    0.449  107.656
  468.750    3.653    0.182    0.436  115.397
  469.000    3.716    0.173    0.448  114.074
  469.250    3.786    0.178    0.448  110.091
  469.500    3.857    0.185    0.438  107.618
  469.750    3.930    0.187    0.429  106.172
  470.000    4.103    0.184    0.421  105.271
  470.250    4.134    0.177    0.425  106.001
  470.500    4.212    0.172    0.446  107.094
  470.750    4.498    0.164    0.456  104.440
  471.000    4.557    0.147    0.458   99.732
  471.250    4.540    0.136    0.439  100.341
  471.500    4.340    0.151    0.417  103.550
  471.750    3.980    0.170    0.412  106.577
  472.000    3.819    0.180    0.435  111.057
  472.250    3.980    0.190    0.451  113.176
  472.500    4.155    0.174    0.450  112.999
  472.750    4.242    0.149    0.469  104.785
  473.000    4.210    0.120    0.450   95.060
  473.250    3.775    0.121    0.380   98.208
  473.500    3.335    0.152    0.379  107.521
  473.750    3.146    0.184    0.403  116.169
  474.000    2.968    0.203    0.429  119.860
  474.250    3.963    0.212    0.456  122.464
  474.500    5.342    0.218    0.469  120.112
  474.750    7.447    0.205    0.479  105.371
  475.000    9.685    0.151    0.473   81.867
  475.250   10.638    0.091    0.391   70.510
  475.500   11.381    0.031    0.284   58.851
  475.750   11.995    0.047    0.242   68.103
  476.000   12.785    0.093    0.294   79.289
  476.250   13.373    0.133    0.348   72.586
  476.500   14.015    0.102    0.376   66.850
  476.750   14.633    0.114    0.286   64.558
  477.000   15.832    0.159    0.306   66.438
  477.250   16.500    0.212    0.314   67.893
  477.500   18.397    0.244    0.310   69.409
  477.750   20.168    0.263    0.317   68.327
  478.000   21.497    0.271    0.331   63.256
  478.250   22.276    0.268    0.347   60.058
  478.500   22.868    0.260    0.358   58.794
  478.750   23.476    0.253    0.363   60.189
