~VERSION INFORMATION
 VERS.                 2.0:   CWLS LOG ASCII STANDARD -VERSION 2.0
 WRAP.                  NO:   ONE LINE PER DEPTH STEP
~WELL INFORMATION BLOCK
#MNEM.UNIT           DATA                    DESCRIPTION OF MNEMONIC
#---------    -------------------            -------------------------------
# Generated from Intellog Unique Number	CS_73_76/WELL/2105
WELL.         PEX KIRBY                      : Well_name    - WELL
LOC .         00/07-09-075-06W4/0            : Location     - LOCATION
UWI .         00/07-09-075-06W4/0            : Uwi          - UNIQUE WELL ID
ENTR.         SP                             : Entered      - ENTERED BY
SRVC.         SCHLUMBERGER                   : Scn          - SERVICE COMPANY
STRT.M        250                            : top_depth    - START DEPTH
STOP.M        490                            : bot_depth    - STOP DEPTH
STEP.M        0.25                           : increment    - STEP LENGTH
 NULL. -999.2500:NULL Value
~CURVE INFORMATION BLOCK
#MNEM UNIT       ERCB CURVE CODE    CURVE DESCRIPTION
#-----------   ------------------   ----------------------------------
DEPT.M        00 001 00 00         : DEPTH        - DEPTH
ILD .OHMM     00 120 00 00         : RESD         - DEEP RESISTIVITY (DIL)
DPHI.V/V      00 890 00 00         : PHID         - DENSITY POROSITY (LIMESTONE)
NPHI.V/V      00 330 00 00         : PHIN         - NEUTRON POROSITY (LIMESTONE)
GR  .API      00 310 00 00         : GR           - GAMMA RAY
~PARAMETER INFORMATION
#MNEM.UNIT           DATA             DESCRIPTION OF MNEMONIC
#---------         -----------     ------------------------------
GL  .M        648.36               : gl           - GROUND LEVEL ELEVATION
EREF.M        651.64               : kb           - ELEVATION OF DEPTH REFERENCE
DATM.M        648.36               : datum        - DATUM ELEVATION
TDD .M        497                  : tdd          - TOTAL DEPTH DRILLER
RUN .         ONE                  : Run          - RUN NUMBER
ENG .         BILL                 : Engineer     - RECORDING ENGINEER
WIT .         JIM                  : Witness      - WITNESSED BY
MUD .         GEL                  : Mud_type     - MUD TYPE
MATR.         LIMESTONE            : Logunit      - NEUTRON MATRIX
TMAX.C        21                   : BHT          - MAXIMUM RECORDED TEMPERATURE
BHTD.M        497                  : BHTDEP       - MAXIMUM RECORDED TEMPERATURE
MATR.         1                    : LOGUNIT      - NEUTRON MATRIX
RMT .C        25                   : MDTP         - TEMPERATURE OF MUD
NEUT.         1                    : NEUTRON      - NEUTRON TYPE
RESI.         0                    : RESIST       - RESISTIVITY TYPE
RMC .OHMM     0.25                 : RMC          - RESISTIVITY OF MUD CAKE
RMF .OHMM     0.25                 : RMF          - RESISTIVITY OF MUD FILTRATE
SUFT.C        15                   : SUFT         - SURFACE TEMPERATURE
~A  DEPTH     RESD     PHID     PHIN       GR
# ...
  380.500    4.262    0.352    0.396   57.157
  380.750    4.426    0.348    0.390   55.939
  381.000    4.774    0.328    0.379   55.942
  381.250    5.053    0.309    0.364   55.334
  381.500    5.553    0.304    0.346   52.287
  381.750    5.877    0.234    0.329   50.460
  382.000    5.455    0.060    0.378   51.072
  382.250    4.875    0.255    0.385   60.221
  382.500    4.276    0.327    0.388   62.661
  382.750    4.043    0.347    0.375   62.053
  383.000    3.823    0.305    0.362   58.397
  383.250    4.047    0.134    0.336   52.912
  383.500    4.532    0.144    0.338   55.352
  383.750    5.370    0.322    0.320   62.062
  384.000    5.684    0.349    0.305   61.454
  384.250    5.686    0.320    0.285   52.919
  384.500    5.178    0.235    0.257   50.482
  384.750    4.715    0.001    0.328   48.045
  385.000    4.059    0.194    0.371   54.754
  385.250    3.767    0.316    0.413   59.635
  385.500    3.630    0.322    0.391   62.685
  385.750    3.631    0.328    0.374   64.516
  386.000    3.702    0.303    0.362   68.787
  386.250    3.918    0.282    0.363   74.277
  386.500    4.388    0.283    0.348   76.718
  386.750    4.914    0.263    0.336   72.452
  387.000    5.400    0.240    0.322   71.234
  387.250    5.716    0.074    0.298   67.578
  387.500    5.826    0.075    0.324   65.140
  387.750    5.721    0.174    0.358   71.240
  388.000    5.309    0.190    0.369   79.779
  388.250    5.115    0.191    0.367   84.659
  388.500    4.929    0.201    0.377   81.613
  388.750    4.839    0.210    0.372   79.785
  389.000    4.934    0.217    0.363   82.836
  389.250    5.524    0.214    0.381   85.887
  389.500    5.633    0.225    0.406   84.669
  389.750    5.635    0.234    0.408   77.354
  390.000    5.637    0.227    0.401   73.088
  390.250    5.639    0.219    0.392   73.090
  390.500    5.641    0.218    0.388   74.921
  390.750    5.751    0.224    0.397   73.704
  391.000    5.864    0.212    0.396   74.315
  391.250    5.866    0.205    0.405   75.537
  391.500    5.979    0.218    0.422   77.368
  391.750    6.329    0.227    0.402   77.980
  392.000    6.452    0.241    0.395   74.323
  392.250    6.455    0.254    0.380   76.766
  392.500    6.220    0.229    0.395   77.376
  392.750    5.992    0.217    0.400   80.427
  393.000    5.883    0.235    0.398   83.478
  393.250    5.563    0.227    0.412   79.821
  393.500    5.162    0.223    0.424   82.873
  393.750    4.614    0.233    0.430   84.094
  394.000    3.971    0.207    0.441   81.047
  394.250    3.483    0.197    0.445   78.000
  394.500    2.943    0.206    0.441   75.563
  394.750    2.731    0.249    0.456   70.688
  395.000    2.582    0.333    0.467   71.909
  395.250    2.442    0.296    0.457   70.691
  395.500    2.397    0.271    0.471   68.864
  395.750    2.398    0.274    0.485   67.647
  396.000    2.399    0.311    0.479   68.258
  396.250    2.446    0.294    0.461   70.699
  396.500    2.447    0.278    0.461   73.140
  396.750    2.494    0.267    0.463   71.923
  397.000    2.641    0.263    0.453   72.535
  397.250    2.692    0.262    0.446   76.805
  397.500    2.903    0.280    0.433   80.466
  397.750    3.440    0.287    0.417   84.736
  398.000    3.780    0.271    0.406   79.860
  398.250    4.564    0.239    0.402   74.374
  398.500    5.016    0.180    0.407   74.986
  398.750    5.512    0.211    0.420   76.817
  399.000    5.835    0.223    0.424   76.820
  399.250    5.948    0.227    0.413   76.822
  399.500    5.839    0.234    0.398   73.775
  399.750    5.219    0.197    0.395   73.777
  400.000    4.247    0.200    0.392   77.144
  400.250    3.939    0.204    0.401   76.538
  400.500    3.793    0.246    0.411   80.831
  400.750    3.793    0.260    0.402   87.572
  401.000    3.792    0.240    0.392   83.295
  401.250    3.791    0.223    0.404   84.526
  401.500    3.936    0.208    0.400   82.695
  401.750    4.086    0.214    0.404   81.478
  402.000    4.163    0.240    0.386   82.096
  402.250    4.573    0.258    0.388   83.940
  402.500    5.022    0.300    0.379   84.560
  402.750    5.836    0.323    0.373   77.832
  403.000    6.911    0.290    0.358   72.329
  403.250    7.735    0.264    0.366   67.439
  403.500    8.338    0.208    0.392   61.321
  403.750    9.331    0.250    0.414   72.961
  404.000    9.871    0.270    0.399   71.745
  404.250   10.248    0.266    0.358   68.075
  404.500   11.255    0.197    0.366   64.409
  404.750   11.685    0.120    0.396   59.518
  405.000   13.078    0.143    0.412   66.260
  405.250   13.577    0.308    0.401   63.205
  405.500   14.635    0.294    0.393   60.151
  405.750   16.379    0.285    0.393   57.095
  406.000   17.327    0.240    0.416   61.390
  406.250   17.653    0.245    0.430   63.845
  406.500   17.322    0.310    0.416   66.300
  406.750   17.647    0.325    0.398   68.755
  407.000   17.980    0.327    0.399   68.150
  407.250   19.018    0.325    0.392   66.932
  407.500   19.377    0.333    0.396   64.491
  407.750   20.116    0.313    0.387   61.437
  408.000   20.495    0.300    0.389   62.054
  408.250   21.276    0.290    0.387   63.285
  408.500   21.677    0.242    0.397   64.518
  408.750   22.085    0.285    0.395   62.688
  409.000   22.080    0.354    0.398   64.531
  409.250   21.667    0.355    0.394   66.988
  409.500   20.476    0.352    0.403   73.118
  409.750   19.717    0.352    0.402   73.735
  410.000   18.633    0.347    0.414   70.069
  410.250   17.280    0.322    0.403   65.179
  410.500   16.957    0.285    0.381   60.899
  410.750   15.726    0.187    0.377   57.232
  411.000   14.862    0.098    0.373   54.789
  411.250   14.311    0.111    0.378   54.796
  411.500   14.857    0.137    0.366   56.028
  411.750   16.627    0.232    0.376   57.258
  412.000   17.923    0.253    0.379   49.919
  412.250   18.961    0.311    0.382   46.251
  412.500   21.624    0.322    0.388   42.585
  412.750   23.751    0.323    0.384   42.592
  413.000   25.601    0.337    0.365   42.599
  413.250   26.577    0.347    0.355   43.217
  413.500   26.573    0.334    0.352   46.285
  413.750   25.112    0.326    0.346   46.294
  414.000   23.290    0.328    0.360   49.977
  414.250   20.414    0.331    0.344   51.820
  414.500   19.293    0.334    0.334   53.048
  414.750   18.232    0.326    0.362   54.891
  415.000   17.557    0.324    0.371   56.734
  415.250   16.591    0.319    0.363   53.068
  415.500   15.977    0.328    0.363   58.584
  415.750   15.098    0.305    0.367   64.103
  416.000   14.539    0.271    0.362   67.782
  416.250   15.672    0.236    0.347   69.014
  416.500   17.214    0.189    0.349   78.204
  416.750   20.383    0.194    0.339   76.375
  417.000   23.245    0.255    0.346   70.871
  417.250   25.533    0.272    0.347   64.144
  417.500   28.045    0.272    0.356   65.376
  417.750   30.230    0.278    0.372   67.218
  418.000   32.585    0.277    0.379   67.836
  418.250   31.974    0.266    0.373   67.843
  418.500   29.651    0.272    0.366   67.239
  418.750   28.554    0.280    0.372   67.856
  419.000   26.482    0.276    0.378   73.987
  419.250   22.781    0.243    0.368   69.708
  419.500   21.129    0.223    0.357   67.876
  419.750   18.175    0.217    0.361   74.621
  420.000   16.234    0.231    0.368   78.299
  420.250   15.056    0.249    0.373   83.206
  420.500   13.704    0.262    0.378   86.883
  420.750   12.473    0.260    0.383   92.401
  421.000   12.010    0.237    0.372   91.797
  421.250   12.236    0.226    0.372   93.640
  421.500   12.703    0.213    0.348   82.015
  421.750   13.438    0.226    0.339   72.836
  422.000   15.040    0.229    0.324   64.884
  422.250   16.212    0.235    0.332   56.931
  422.500   18.488    0.260    0.332   45.917
  422.750   20.307    0.284    0.340   52.047
  423.000   22.727    0.230    0.340   55.727
  423.250   25.920    0.278    0.347   63.081
  423.500   29.008    0.299    0.337   55.128
  423.750   29.556    0.292    0.329   59.420
