~VERSION INFORMATION
 VERS.                 2.0:   CWLS LOG ASCII STANDARD -VERSION 2.0
 WRAP.                  NO:   ONE LINE PER DEPTH STEP
~WELL INFORMATION BLOCK
#MNEM.UNIT           DATA                    DESCRIPTION OF MNEMONIC
#---------    -------------------            -------------------------------
# Generated from Intellog Unique Number	CW_82_90/WELL/288
WELL.         04-19-083-23W4                 : Well_name    - WELL
LOC .         00/04-19-083-23W4/0            : Location     - LOCATION
UWI .         00/04-19-083-23W4/0            : Uwi          - UNIQUE WELL ID
ENTR.         JAYE                           : Entered      - ENTERED BY
SRVC.         SCHLUMBERGER                   : Scn          - SERVICE COMPANY
DATE.         22 JAN 76                      : Date         - LOG DATE
STRT.M        207.264                        : top_depth    - START DEPTH
STOP.M        417.514                        : bot_depth    - STOP DEPTH
STEP.M        0.25                           : increment    - STEP LENGTH
 NULL. -999.2500:NULL Value
~CURVE INFORMATION BLOCK
#MNEM UNIT       ERCB CURVE CODE    CURVE DESCRIPTION
#-----------   ------------------   ----------------------------------
DEPT.M        00 001 00 00         : DEPTH        - DEPTH
CALI.MM       00 280 01 00         : CAL          - CALIPER
GR  .API      00 310 00 00         : GR           - GAMMA RAY
NPHI.V/V      00 330 00 00         : PHIN         - NEUTRON POROSITY (SANDSTONE)
DPHI.V/V      00 890 00 00         : PHID         - DENSITY POROSITY (SANDSTONE)
ILD .OHMM     00 120 00 00         : RESD         - DEEP RESISTIVITY (DIL)
~PARAMETER INFORMATION
#MNEM.UNIT           DATA             DESCRIPTION OF MNEMONIC
#---------         -----------     ------------------------------
GL  .M        592.531              : gl           - GROUND LEVEL ELEVATION
EREF.M        595.884              : kb           - ELEVATION OF DEPTH REFERENCE
DATM.M        592.531              : datum        - DATUM ELEVATION
TDD .M        421.234              : tdd          - TOTAL DEPTH DRILLER
ENG .         DODSWORTH            : Engineer     - RECORDING ENGINEER
WIT .         7658                 : Witness      - WITNESSED BY
BASE.         EDMONTON             : Branch       - HOME BASE OF LOGGING UNIT
MUD .         GEL CHEM             : Mud_type     - MUD TYPE
MATR.         SANDSTONE            : Logunit      - NEUTRON MATRIX
TMAX.C        26.6667              : BHT          - MAXIMUM RECORDED TEMPERATURE
BHTD.M        421.234              : BHTDEP       - MAXIMUM RECORDED TEMPERATURE
RMT .C        -17.7778             : MDTP         - TEMPERATURE OF MUD
MUDD.KG/M     9000                 : MWT          - MUD DENSITY
NEUT.         1                    : NEUTRON      - NEUTRON TYPE
RESI.         0                    : RESIST       - RESISTIVITY TYPE
RM  .OHMM     0                    : RM           - RESISTIVITY OF MUD
RMC .OHMM     0                    : RMC          - RESISTIVITY OF MUD CAKE
RMF .OHMM     64.91                : RMF          - RESISTIVITY OF MUD FILTRATE
SUFT.C        -17.7778             : SUFT         - SURFACE TEMPERATURE
~A  DEPTH      CAL       GR     PHIN     PHID     RESD
# ...
  389.764  163.774   88.798    0.358    0.193   32.436
  390.014  164.164   89.131    0.346    0.195   31.634
  390.264  164.202   85.418    0.343    0.177   30.282
  390.514  164.555   83.974    0.336    0.144   26.972
  390.764  163.773   85.652    0.319    0.161   24.020
  391.014  163.845   84.214    0.330    0.177   21.161
  391.264  163.747   82.579    0.337    0.166   19.629
  391.514  164.419   83.647    0.334    0.146   18.344
  391.764  164.373   84.837    0.311    0.160   16.646
  392.014  164.084   87.861    0.313    0.172   15.786
  392.264  164.447   91.069    0.319    0.178   14.890
  392.514  164.271   92.627    0.327    0.184   14.417
  392.764  164.208   92.836    0.342    0.188   14.063
  393.014  163.876   93.412    0.338    0.189   13.943
  393.264  163.880   97.049    0.333    0.185   13.979
  393.514  164.058   97.567    0.326    0.180   14.094
  393.764  163.964   94.039    0.329    0.185   14.159
  394.014  162.760   93.328    0.340    0.189   14.303
  394.264  162.305   95.009    0.345    0.189   14.557
  394.514  162.122   97.298    0.352    0.187   14.843
  394.764  162.299   91.075    0.357    0.166   15.243
  395.014  162.421   83.631    0.359    0.158   15.656
  395.264  162.571   86.714    0.352    0.141   16.084
  395.514  162.809   97.764    0.326    0.122   16.336
  395.764  163.163  103.853    0.317    0.113   16.534
  396.014  162.698  107.306    0.320    0.120   16.670
  396.264  162.843  111.008    0.332    0.123   16.686
  396.514  163.089  113.114    0.336    0.113   16.605
  396.764  165.237  112.712    0.339    0.137   16.437
  397.014  165.349  111.024    0.353    0.151   16.240
  397.264  166.423  110.376    0.359    0.161   15.838
  397.514  168.335  109.970    0.343    0.195   15.276
  397.764  167.761  109.688    0.336    0.193   14.682
  398.014  167.690  110.265    0.335    0.171   14.289
  398.264  170.327  112.680    0.323    0.168   13.610
  398.514  165.191  115.766    0.310    0.164   13.512
  398.764  165.017  116.098    0.326    0.166   12.963
  399.014  167.134  111.098    0.346    0.185   12.547
  399.264  168.320  107.267    0.359    0.196   12.078
  399.514  167.738  106.618    0.350    0.184   11.848
  399.764  163.840  108.848    0.290    0.154   12.033
  400.014  165.228  109.544    0.292    0.113   12.289
  400.264  166.830  103.690    0.298    0.114   12.579
  400.514  168.943   92.876    0.319    0.163   12.825
  400.764  163.074   85.734    0.322    0.179   13.026
  401.014  159.384   78.776    0.318    0.175   12.988
  401.264  157.564   75.494    0.324    0.170   12.714
  401.514  157.395   75.950    0.321    0.189   12.194
  401.764  157.229   80.627    0.326    0.211   11.168
  402.014  157.069   85.431    0.329    0.225   10.494
  402.264  157.212   90.845    0.320    0.222   10.494
  402.514  157.672   95.523    0.312    0.216    9.640
  402.764  157.935   96.835    0.312    0.196    9.503
  403.014  158.480   90.184    0.346    0.189    9.319
  403.264  158.938   80.103    0.356    0.203    9.155
  403.514  159.287   74.188    0.343    0.218    8.962
  403.764  159.749   75.807    0.315    0.216    8.954
  404.014  159.749   75.894    0.309    0.215    9.010
  404.264  159.749   75.916    0.315    0.228    9.290
  404.514  160.192   77.227    0.309    0.230    9.648
  404.764  160.242   80.010    0.312    0.233   10.209
  405.014  159.647   83.710    0.330    0.242   10.840
  405.264  159.065   87.044    0.349    0.247   11.429
  405.514  159.108   87.555    0.352    0.258   11.737
  405.764  158.541   85.437    0.362    0.245   12.146
  406.014  158.158   84.850    0.376    0.236   12.850
  406.264  157.682   85.671    0.364    0.238   14.240
  406.514  158.461   87.356    0.341    0.243   16.560
  406.764  158.492   86.950    0.327    0.238   18.522
  407.014  157.609   84.461    0.331    0.234   20.150
  407.264  156.917   85.037    0.334    0.236   19.797
  407.514  156.649   86.963    0.344    0.239   18.536
  407.764  156.791   83.922    0.345    0.237   16.847
  408.014  157.155   80.095    0.338    0.237   16.616
  408.264  157.293   76.869    0.333    0.239   16.691
  408.514  156.953   76.161    0.333    0.240   18.842
  408.764  156.963   80.043    0.333    0.246   21.232
  409.014  157.318   84.419    0.333    0.237   22.715
  409.264  157.996   87.871    0.334    0.228   23.680
  409.514  158.544   91.018    0.341    0.216   24.275
  409.764  159.626   87.859    0.358    0.203   24.801
  410.014  160.511   84.943    0.350    0.209   24.863
  410.264  161.159   86.195    0.337    0.207   24.433
  410.514  162.027   89.590    0.338    0.206   23.957
  410.764  162.827   91.326    0.343    0.222   23.280
  411.014  163.051   90.310    0.345    0.206   22.330
  411.264  163.193   91.625    0.347    0.211   21.733
  411.514  161.471   96.730    0.344    0.212   21.592
  411.764  161.471  102.392    0.341    0.203   21.978
  412.014  160.634  103.154    0.352    0.200   22.614
  412.264  160.170   93.681    0.369    0.208   23.011
  412.514  160.085   85.193    0.395    0.229   23.330
  412.764  159.828   67.151    0.393    0.243   23.966
  413.014  159.240   54.314    0.389    0.273   24.435
  413.264  157.729   34.557    0.389    0.304   25.148
  413.514  157.144   23.314    0.414    0.324   25.731
  413.764  158.016   26.524    0.441    0.328   25.850
  414.014  157.850   25.999    0.449    0.322   22.939
  414.264  157.893   28.104    0.437    0.268   15.558
  414.514  157.519   35.845    0.426    0.264   13.206
  414.764  158.081   61.472    0.417    0.247   10.351
  415.014  159.167   81.462    0.459    0.197    7.935
  415.264  161.068   94.289    0.432    0.158    7.485
  415.514  165.986   99.519    0.368    0.166    7.603
  415.764  179.925   91.705    0.387    0.207    7.781
  416.014  185.774   94.304    0.408    0.300    8.022
  416.264  165.491   95.433    0.431    0.325    8.425
  416.514  160.141  100.358    0.414    0.263    8.701
  416.764  156.552  101.116    0.363    0.225    8.987
  417.014  155.456   96.180    0.363    0.210    9.147
  417.264  156.432   94.916    0.363    0.214    9.188
  417.514  156.580   97.514    0.363    0.208    8.960
