~VERSION INFORMATION
 VERS.                 2.0:   CWLS LOG ASCII STANDARD -VERSION 2.0
 WRAP.                  NO:   ONE LINE PER DEPTH STEP
~WELL INFORMATION BLOCK
#MNEM.UNIT           DATA                    DESCRIPTION OF MNEMONIC
#---------    -------------------            -------------------------------
# Generated from Intellog Unique Number	CW_73_75/WELL/901
WELL.         08-05-075-25W4                 : Well_name    - WELL
LOC .         00/08-05-075-25W4/0            : Location     - LOCATION
UWI .         00/08-05-075-25W4/0            : Uwi          - UNIQUE WELL ID
ENTR.         JAYE                           : Entered      - ENTERED BY
SRVC.         SCHLUMBERGER                   : Scn          - SERVICE COMPANY
DATE.         16 NOV 74                      : Date         - LOG DATE
STRT.M        423.672                        : top_depth    - START DEPTH
STOP.M        621.672                        : bot_depth    - STOP DEPTH
STEP.M        0.25                           : increment    - STEP LENGTH
 NULL. -999.2500:NULL Value
~CURVE INFORMATION BLOCK
#MNEM UNIT       ERCB CURVE CODE    CURVE DESCRIPTION
#-----------   ------------------   ----------------------------------
DEPT.M        00 001 00 00         : DEPTH        - DEPTH
ILD .OHMM     00 120 00 00         : RESD         - DEEP RESISTIVITY (DIL)
NPHI.V/V      00 330 00 00         : PHIN         - NEUTRON POROSITY (SANDSTONE)
DPHI.V/V      00 890 00 00         : PHID         - DENSITY POROSITY (SANDSTONE)
GR  .API      00 310 00 00         : GR           - GAMMA RAY
CALI.MM       00 280 01 00         : CAL          - CALIPER
~PARAMETER INFORMATION
#MNEM.UNIT           DATA             DESCRIPTION OF MNEMONIC
#---------         -----------     ------------------------------
GL  .M        700.126              : gl           - GROUND LEVEL ELEVATION
EREF.M        704.088              : kb           - ELEVATION OF DEPTH REFERENCE
DATM.M        700.126              : datum        - DATUM ELEVATION
TDD .M        622.402              : tdd          - TOTAL DEPTH DRILLER
RUN .         ONE                  : Run          - RUN NUMBER
ENG .         SIMPSON              : Engineer     - RECORDING ENGINEER
WIT .         OXTOBY               : Witness      - WITNESSED BY
BASE.         EDM                  : Branch       - HOME BASE OF LOGGING UNIT
MUD .         GEL                  : Mud_type     - MUD TYPE
MATR.         SANDSTONE            : Logunit      - NEUTRON MATRIX
TMAX.C        23.3333              : BHT          - MAXIMUM RECORDED TEMPERATURE
BHTD.M        623.011              : BHTDEP       - MAXIMUM RECORDED TEMPERATURE
RMT .C        15                   : MDTP         - TEMPERATURE OF MUD
MUDD.KG/M     1080                 : MWT          - MUD DENSITY
NEUT.         1                    : NEUTRON      - NEUTRON TYPE
RESI.         0                    : RESIST       - RESISTIVITY TYPE
RM  .OHMM     1.8                  : RM           - RESISTIVITY OF MUD
RMC .OHMM     0                    : RMC          - RESISTIVITY OF MUD CAKE
RMF .OHMM     2.27                 : RMF          - RESISTIVITY OF MUD FILTRATE
SUFT.C        -17.7778             : SUFT         - SURFACE TEMPERATURE
~A  DEPTH     RESD     PHIN     PHID       GR      CAL
# ...
  569.672   20.011    0.460    0.246   71.823  227.060
  569.922   20.627    0.486    0.240   73.767  227.170
  570.172   20.451    0.495    0.249   70.133  227.279
  570.422   19.909    0.478    0.240   65.165  227.183
  570.672   19.028    0.457    0.234   64.382  227.087
  570.922   18.903    0.460    0.226   66.265  227.094
  571.172   19.305    0.467    0.239   68.997  227.203
  571.422   19.970    0.459    0.240   70.759  227.314
  571.672   21.279    0.449    0.224   67.125  227.628
  571.922   22.382    0.451    0.218   65.189  227.840
  572.172   23.454    0.489    0.233   66.951  227.949
  572.422   24.177    0.530    0.242   69.259  228.160
  572.672   23.796    0.480    0.229   72.295  228.168
  572.922   22.451    0.429    0.215   74.057  228.173
  573.172   22.219    0.415    0.197   72.787  228.385
  573.422   23.200    0.412    0.218   69.941  228.292
  573.672   24.810    0.411    0.211   66.975  228.398
  573.922   26.288    0.405    0.192   63.462  228.098
  574.172   28.530    0.399    0.182   62.556  228.104
  574.422   31.077    0.396    0.184   64.136  228.110
  574.672   33.665    0.404    0.196   63.170  228.014
  574.922   33.755    0.412    0.209   59.840  227.918
  575.172   31.553    0.432    0.222   61.480  227.514
  575.422   28.481    0.445    0.237   65.244  227.418
  575.672   25.427    0.462    0.237   67.491  227.220
  575.922   23.082    0.471    0.228   69.677  227.123
  576.172   21.935    0.463    0.215   70.530  227.336
  576.422   20.850    0.459    0.224   67.867  227.549
  576.672   20.409    0.513    0.231   67.931  227.556
  576.922   20.201    0.494    0.236   69.208  227.665
  577.172   19.702    0.463    0.237   70.000  227.567
  577.422   19.181    0.448    0.237   68.731  227.575
  577.672   18.567    0.461    0.243   68.977  227.683
  577.922   17.944    0.473    0.236   70.012  227.997
  578.172   17.467    0.462    0.229   67.954  228.519
  578.422   17.098    0.453    0.221   64.320  228.730
  578.672   16.676    0.463    0.210   66.022  228.736
  578.922   15.937    0.452    0.205   69.240  228.537
  579.172   14.925    0.422    0.193   69.365  228.749
  579.422   14.265    0.388    0.190   68.702  229.063
  579.672   14.223    0.442    0.203   67.250  229.585
  579.922   14.878    0.471    0.194   65.253  229.488
  580.172   16.116    0.445    0.178   65.318  229.699
  580.422   17.619    0.416    0.156   65.504  229.501
  580.672   18.533    0.452    0.174   66.053  229.098
  580.922   18.513    0.427    0.171   67.028  228.796
  581.172   18.189    0.393    0.108   67.092  228.597
  581.422   18.543    0.370    0.121   63.033  228.398
  581.672   19.867    0.357    0.127   62.855  228.404
  581.922   21.204    0.345    0.133   61.040  228.309
  582.172   23.485    0.349    0.149   59.529  228.213
  582.422   23.590    0.553    0.231   59.593  228.321
  582.672   21.810    0.584    0.309   60.142  228.123
  582.922   19.688    0.535    0.260   64.148  228.233
  583.172   18.404    0.497    0.140   67.911  228.341
  583.422   17.816    0.360    0.089   69.916  228.452
  583.672   17.251    0.309    0.070   72.284  228.457
  583.922   16.637    0.331    0.086   73.622  228.670
  584.172   15.669    0.380    0.155   72.716  228.881
  584.422   14.810    0.373    0.156   69.628  228.685
  584.672   14.104    0.356    0.148   69.632  228.383
  584.922   13.553    0.354    0.143   70.667  228.182
  585.172   12.999    0.361    0.156   73.582  227.574
  585.422   12.041    0.346    0.165   76.678  227.068
  585.672   10.612    0.383    0.179   79.106  227.075
  585.922    9.421    0.427    0.192   81.717  227.492
  586.172    8.426    0.446    0.172   85.541  227.807
  586.422    7.705    0.441    0.153   89.607  228.120
  586.672    7.528    0.426    0.144   89.490  228.742
  586.922    7.659    0.419    0.099   86.644  229.264
  587.172    7.809    0.427    0.112   86.587  229.680
  587.422    7.857    0.431    0.130   90.593  230.097
  587.672    7.735    0.419    0.110   92.052  230.205
  587.922    7.613    0.412    0.097   96.542  230.624
  588.172    7.494    0.409    0.123  100.851  230.836
  588.422    7.403    0.426    0.129  106.979  231.357
  588.672    7.300    0.466    0.133  110.863  231.567
  588.922    7.173    0.449    0.158  115.475  231.676
  589.172    7.126    0.442    0.138  115.357  231.786
  589.422    7.132    0.441    0.131  115.665  231.176
  589.672    7.243    0.435    0.142  119.428  230.260
  589.922    7.575    0.437    0.132  120.583  229.342
  590.172    8.390    0.419    0.152  119.557  228.219
  590.422    9.414    0.388    0.148  116.771  227.198
  590.672   10.140    0.360    0.134  111.137  226.179
  590.922   10.985    0.327    0.117  102.713  225.775
  591.172   11.448    0.295    0.077   94.835  225.473
  591.422   11.758    0.332    0.050   98.901  225.274
  591.672   11.636    0.381    0.112  107.454  225.076
  591.922   11.308    0.367    0.105  104.851  225.390
  592.172   11.275    0.326    0.073   96.124  226.013
  592.422   11.492    0.327    0.048   91.823  226.635
  592.672   11.565    0.361    0.126   94.737  227.772
  592.922   11.280    0.396    0.160   96.378  228.497
  593.172   11.002    0.386    0.175   97.655  228.811
  593.422   10.729    0.371    0.150  100.691  229.023
  593.672   10.368    0.367    0.149  105.363  229.030
  593.922   10.000    0.366    0.154  110.945  229.037
  594.172    9.488    0.374    0.157  112.525  229.043
  594.422    9.117    0.393    0.157  103.920  228.844
  594.672    9.008    0.415    0.148   98.467  228.543
  594.922    8.998    0.432    0.119  101.442  228.242
  595.172    9.309    0.384    0.080   98.050  228.145
  595.422    9.826    0.329    0.016   86.231  228.049
  595.672   10.704    0.303   -0.001   78.717  227.748
  595.922   12.761    0.302    0.061   78.296  227.652
  596.172   14.344    0.324    0.048   77.997  227.660
  596.422   13.938    0.324    0.035   75.091  227.357
  596.672   12.814    0.357    0.073   76.004  227.364
  596.922   11.294    0.444    0.108   87.709  227.781
  597.172   10.175    0.424    0.122   89.290  227.788
  597.422    9.459    0.416    0.104   89.112  227.383
  597.672    8.941    0.414    0.084   88.631  227.904
  597.922    8.900    0.401    0.080   88.938  227.912
  598.172    9.139    0.384    0.070   87.244  227.917
  598.422    9.594    0.384    0.092   88.521  228.026
  598.672    9.907    0.383    0.099   86.828  228.033
  598.922    9.717    0.375    0.120   87.256  227.936
  599.172    9.338    0.389    0.120   91.807  227.943
  599.422    9.041    0.409    0.091   93.023  227.951
  599.672    8.915    0.435    0.073   90.117  228.059
  599.922    8.839    0.444    0.063   90.849  228.169
  600.172    8.765    0.440    0.093   91.701  228.174
  600.422    8.644    0.453    0.149   94.130  228.079
  600.672    8.571    0.434    0.144   95.711  228.188
  600.922    8.421    0.411    0.123   94.926  228.297
  601.172    8.213    0.417    0.114   96.446  228.305
  601.422    7.922    0.417    0.133   98.330  228.414
  601.672    7.656    0.415    0.143   98.516  228.522
  601.922    7.563    0.448    0.147   99.065  228.632
  602.172    7.472    0.428    0.137  100.221  228.948
  602.422    7.603    0.420    0.110   96.829  228.954
  602.672    8.070    0.414    0.088   97.440  228.959
  602.922    8.663    0.390    0.076   98.353  229.070
  603.172    8.846    0.346    0.051   94.962  229.384
  603.422    8.773    0.339    0.040   89.509  229.391
  603.672    8.619    0.359    0.103   93.150  229.295
  603.922    8.453    0.374    0.120   96.004  229.096
  604.172    8.350    0.371    0.102   98.675  229.000
  604.422    8.144    0.359    0.073   97.042  228.698
  604.672    7.712    0.394    0.112   94.924  229.526
  604.922    6.290    0.533    0.149   98.627  230.661
  605.172    5.255    0.567    0.174  104.027  233.133
  605.422    4.208    0.615    0.201  108.517  237.862
  605.672    3.321    0.647    0.215  106.035  238.587
  605.922    2.889    0.552    0.180  104.160  232.331
