~VERSION INFORMATION
 VERS.                 2.0:   CWLS LOG ASCII STANDARD -VERSION 2.0
 WRAP.                  NO:   ONE LINE PER DEPTH STEP
~WELL INFORMATION BLOCK
#MNEM.UNIT           DATA                    DESCRIPTION OF MNEMONIC
#---------    -------------------            -------------------------------
# Generated from Intellog Unique Number	CC_80_83/WELL/1181
NULL.         -999.25                        : NULL_VALUE
WELL.         CAN SUP PONY                   : Well_name    - WELL
LOC .         07-11-082-07W4                 : Location     - LOCATION          
UWI .         00/07-11-082-07W4/0            : Uwi          - UNIQUE WELL ID    
ENTR.         DW                             : Entered      - ENTERED BY        
SRVC.         SCHLUMBERGER                   : Scn          - SERVICE COMPANY   
DATE.         14 FEB 77                      : Date         - LOG DATE
STRT.M        228.6                          : top_depth    - START DEPTH       
STOP.M        478.542                        : bot_depth    - STOP DEPTH        
STEP.M        0.305                          : increment    - STEP LENGTH       
~CURVE INFORMATION BLOCK
#MNEM UNIT       ERCB CURVE CODE    CURVE DESCRIPTION
#-----------   ------------------   ----------------------------------
DEPT.M        00 001 00 00         : DEPTH        - DEPTH                       
DPHI.V/V      00 890 00 00         : PHID         - DENSITY POROSITY (LIMESTONE)
NPHI.V/V      00 330 00 00         : PHIN         - NEUTRON POROSITY (LIMESTONE)
GR  .API      00 310 00 00         : GR           - GAMMA RAY                   
ILD .OHMM     00 120 00 00         : RESD         - DEEP RESISTIVITY (DIL)      
~PARAMETER INFORMATION       
#MNEM.UNIT           DATA             DESCRIPTION OF MNEMONIC
#---------         -----------     ------------------------------
GL  .M        0                    : gl           - GROUND LEVEL ELEVATION      
EREF.M        0                    : kb           - ELEVATION OF DEPTH REFERENCE
DATM.M        0                    : datum        - DATUM ELEVATION             
TDD .M        487.68               : tdd          - TOTAL DEPTH DRILLER         
RUN .         ONE                  : Run          - RUN NUMBER                  
ENG .         BILL                 : Engineer     - RECORDING ENGINEER          
WIT .         JIM                  : Witness      - WITNESSED BY                
MUD .         GEL                  : Mud_type     - MUD TYPE                    
MATR.         LIMESTONE            : Logunit      - NEUTRON MATRIX              
TMAX.C        21.6667              : BHT          - MAXIMUM RECORDED TEMPERATURE
BHTD.M        487.68               : BHTDEP       - MAXIMUM RECORDED TEMPERATURE
MATR.         1                    : LOGUNIT      - NEUTRON MATRIX              
RMT .C        25                   : MDTP         - TEMPERATURE OF MUD          
NEUT.         1                    : NEUTRON      - NEUTRON TYPE                
RESI.         0                    : RESIST       - RESISTIVITY TYPE            
RMC .OHMM     0.25                 : RMC          - RESISTIVITY OF MUD CAKE     
RMF .OHMM     0.25                 : RMF          - RESISTIVITY OF MUD FILTRATE 
SUFT.C        4                    : SUFT         - SURFACE TEMPERATURE         
~A  DEPTH     PHID     PHIN       GR     RESD
  228.600    0.259    0.591  104.702    3.211
  228.905    0.254    0.565  103.506    3.149
  229.210    0.248    0.563   94.442    3.089
  229.514    0.253    0.552   97.482    3.030
  229.819    0.263    0.541   95.680    2.971
  230.124    0.280    0.543   92.668    2.915
  230.429    0.280    0.573   93.895    2.806
  230.734    0.287    0.578   96.933    2.702
  231.038    0.270    0.536   99.368    2.649
  231.343    0.281    0.536  101.804    2.598
  231.648    0.299    0.556  103.634    2.548
  231.953    0.282    0.561  102.440    2.547
  232.258    0.277    0.568   99.424    2.592
  232.562    0.266    0.575   95.203    2.687
  232.867    0.284    0.567   92.797    2.736
  233.172    0.262    0.540   90.995    2.888
  233.477    0.226    0.555   95.850    2.886
  233.782    0.200    0.572  105.547    2.938
  234.086    0.242    0.563  103.141    2.935
  234.391    0.278    0.523  100.130    2.933
  234.696    0.276    0.534   98.932    2.984
  235.001    0.270    0.564   97.134    2.982
  235.305    0.268    0.592   95.936    3.035
  235.610    0.293    0.588   97.162    3.146
  235.915    0.278    0.540  100.805    3.203
  236.220    0.249    0.549  103.240    3.384
  236.525    0.240    0.535   93.570    3.573
  236.829    0.251    0.514  100.242    3.774
  237.134    0.237    0.526  106.308    3.913
  237.439    0.238    0.524  106.323    4.132
  237.744    0.244    0.477  102.705    4.206
  238.049    0.239    0.481  101.508    4.281
  238.353    0.215    0.514  100.918    4.278
  238.658    0.234    0.522  100.328    4.118
  238.963    0.235    0.532  105.787    4.039
  239.268    0.224    0.543  106.409    3.961
  239.573    0.223    0.509  103.396    3.958
  239.877    0.244    0.477   96.146    4.104
  240.182    0.246    0.472   88.898    4.335
  240.487    0.230    0.454   77.413    5.213
  240.792    0.214    0.431   68.954    7.405
  241.097    0.197    0.404   53.838    8.579
  241.401    0.163    0.341   59.298    9.062
  241.706    0.152    0.383   80.495    8.725
  242.011    0.251    0.409   93.218    7.111
  242.316    0.246    0.456   97.469    5.794
  242.621    0.245    0.493   96.276    4.811
  242.925    0.253    0.521   95.076    4.222
  243.230    0.281    0.476   89.644    4.627
  243.535    0.265    0.455   75.738    5.883
  243.840    0.259    0.438   66.674    8.356
  244.145    0.306    0.407   71.532   13.021
  244.449    0.277    0.404   83.043   14.010
  244.754    0.246    0.400   89.715   12.998
  245.059    0.204    0.411   96.991   11.620
  245.364    0.191    0.429   98.822   11.398
  245.668    0.232    0.424   87.941   12.038
  245.973    0.250    0.424   77.667   13.440
  246.278    0.290    0.430   73.445   15.575
  246.583    0.310    0.428   74.672   17.391
  246.888    0.312    0.418   78.315   19.060
  247.192    0.307    0.418   83.171   19.043
  247.497    0.290    0.433   85.606   17.346
  247.802    0.270    0.414   89.251   13.623
  248.107    0.248    0.411   92.291   10.119
  248.412    0.207    0.451   96.544    9.217
  248.716    0.209    0.475   98.371    9.381
  249.021    0.215    0.444   95.964   11.704
  249.326    0.274    0.445   89.926   16.322
  249.631    0.297    0.441   90.547   18.908
  249.936    0.310    0.431   93.588   19.245
  250.240    0.297    0.413   93.603   18.531
  250.545    0.295    0.407   96.034   16.263
  250.850    0.281    0.401   96.048   14.012
  251.155    0.252    0.407   90.013   11.851
  251.460    0.207    0.445  106.971   10.210
  251.764    0.213    0.451  109.406    8.960
  252.069    0.207    0.437  110.027    8.628
  252.374    0.200    0.438  105.198    8.307
  252.679    0.195    0.466  104.001    8.454
  252.984    0.190    0.475  108.859    8.604
  253.288    0.188    0.463  108.270    9.087
  253.593    0.188    0.452  104.044    9.960
  253.898    0.208    0.448  102.244   11.123
  254.203    0.222    0.459   97.415   12.651
  254.508    0.220    0.448   90.772   14.932
  254.812    0.211    0.403   80.498   16.367
  255.117    0.226    0.385   75.670   17.284
  255.422    0.271    0.384   72.053   18.256
  255.727    0.264    0.399   66.621   19.283
  256.031    0.244    0.422   61.187   21.933
  256.336    0.258    0.417   47.885   24.945
  256.641    0.281    0.375   43.058   25.870
  256.946    0.292    0.384   39.442   27.323
  257.251    0.305    0.378   39.458   26.299
  257.556    0.312    0.382   41.285   26.282
  257.860    0.309    0.400   29.801   28.273
  258.165    0.317    0.372   39.497   30.421
  258.470    0.323    0.379   46.170   31.542
  258.775    0.309    0.372   33.475   31.519
  259.080    0.310    0.367   31.674   31.493
  259.384    0.362    0.356   33.505   29.214
  259.689    0.427    0.380   45.015   28.123
  259.994    0.466    0.584   58.950   27.083
  260.299    0.405    0.472   66.831   25.124
  260.604    0.309    0.440   74.717   24.192
  260.908    0.318    0.448   77.755   23.729
  261.213    0.336    0.429   82.611   24.602
  261.518    0.327    0.414   85.045   25.511
  261.823    0.335    0.413   82.637   26.940
  262.128    0.327    0.418   75.389   27.422
  262.432    0.332    0.419   74.192   26.896
  262.737    0.324    0.425   74.814   26.868
  263.042    0.324    0.426   73.011   26.845
  263.347    0.314    0.425   67.579   26.329
  263.652    0.316    0.420   66.381   25.825
  263.957    0.318    0.421   71.842   26.281
  264.261    0.317    0.431   67.016   26.754
  264.566    0.312    0.434   61.582   27.229
  264.871    0.326    0.430   64.018   27.716
  265.176    0.328    0.437   68.873   27.686
  265.481    0.303    0.450   67.678   27.154
  265.785    0.265    0.466   67.692   26.640
  266.090    0.268    0.452   73.152   25.646
  266.395    0.314    0.458   79.823   23.797
  266.700    0.297    0.454   84.679   21.670
  267.005    0.281    0.452   87.720   20.485
  267.309    0.263    0.448   88.338   17.646
  267.614    0.263    0.432   92.589   15.779
  267.919    0.248    0.449   99.260   14.912
  268.224    0.243    0.466  101.090   15.461
  268.529    0.260    0.472   96.868   16.030
  268.833    0.313    0.502   62.384   17.246
  269.138    0.449    0.602   47.268   19.614
  269.443    0.566    0.611   37.599   21.502
  269.748    0.522    0.569   30.351   24.457
  270.053    0.463    0.477   30.974   27.305
  270.358    0.351    0.410   31.592   29.928
  270.662    0.321    0.396   27.973   31.036
  270.967    0.323    0.394   27.384   30.430
  271.272    0.325    0.395   30.422   29.849
  271.577    0.331    0.378   36.487   28.736
  271.882    0.331    0.377   41.949   27.672
  272.186    0.314    0.396   44.990   26.156
  272.491    0.301    0.396   47.424   26.614
  272.796    0.312    0.389   52.885   27.087
  273.101    0.323    0.407   42.610   27.066
  273.406    0.321    0.391   44.446   26.552
  273.710    0.324    0.382   46.879   25.560
  274.015    0.329    0.386   50.524   24.153
  274.320    0.319    0.407   53.562   23.261
  274.625    0.318    0.426   57.810   21.986
  274.930    0.333    0.454   65.693   20.398
  275.234    0.330    0.452   72.364   18.924
  275.539    0.313    0.435   82.667   17.882
  275.844    0.280    0.440   79.050   18.205
  276.149    0.221    0.420   66.959   19.585
  276.454    0.198    0.428   65.767   21.464
  276.759    0.261    0.407   66.989   22.670
  277.063    0.322    0.387   66.398   23.511
  277.368    0.319    0.387   68.832   23.487
  277.673    0.307    0.409   74.294   22.615
  277.978    0.311    0.425   79.150   20.984
  278.283    0.279    0.437   82.793   19.110
  278.587    0.270    0.437   88.861   16.162
  278.892    0.244    0.457   96.137   12.460
  279.197    0.188    0.419   99.781   11.560
  279.502    0.149    0.421  104.638   12.206
  279.807    0.173    0.433  103.444   13.136
  280.111    0.336    0.441  117.980   14.943
  280.416    0.347    0.443  133.126   19.711
  280.721    0.338    0.436  120.430   25.053
  281.026    0.331    0.415   89.578   27.972
  281.331    0.314    0.415   74.461   28.469
