~VERSION INFORMATION
 VERS.                 2.0:   CWLS LOG ASCII STANDARD -VERSION 2.0
 WRAP.                  NO:   ONE LINE PER DEPTH STEP
~WELL INFORMATION BLOCK
#MNEM.UNIT           DATA                    DESCRIPTION OF MNEMONIC
#---------    -------------------            -------------------------------
# Generated from Intellog Unique Number	CW_79_81/WELL/288
WELL.         04-23-079-23W4                 : Well_name    - WELL
LOC .         00/04-23-079-23W4/0            : Location     - LOCATION
UWI .         00/04-23-079-23W4/0            : Uwi          - UNIQUE WELL ID
ENTR.         MAX                            : Entered      - ENTERED BY
SRVC.         COMPUTALOG                     : Scn          - SERVICE COMPANY
STRT.M        225                            : top_depth    - START DEPTH
STOP.M        477                            : bot_depth    - STOP DEPTH
STEP.M        0.25                           : increment    - STEP LENGTH
 NULL. -999.2500:NULL Value
~CURVE INFORMATION BLOCK
#MNEM UNIT       ERCB CURVE CODE    CURVE DESCRIPTION
#-----------   ------------------   ----------------------------------
DEPT.M        00 001 00 00         : DEPTH        - DEPTH
ILD .OHMM     00 120 00 00         : RESD         - DEEP RESISTIVITY (DIL)
NPHI.V/V      00 330 00 00         : PHIN         - NEUTRON POROSITY (SANDSTONE)
DPHI.V/V      00 890 00 00         : PHID         - DENSITY POROSITY (SANDSTONE)
CALI.MM       00 280 01 00         : CAL          - CALIPER
GR  .API      00 310 00 00         : GR           - GAMMA RAY
~PARAMETER INFORMATION
#MNEM.UNIT           DATA             DESCRIPTION OF MNEMONIC
#---------         -----------     ------------------------------
GL  .M        565.2                : gl           - GROUND LEVEL ELEVATION
EREF.M        570.2                : kb           - ELEVATION OF DEPTH REFERENCE
DATM.M        565.2                : datum        - DATUM ELEVATION
TDD .M        482                  : tdd          - TOTAL DEPTH DRILLER
RUN .         ONE                  : Run          - RUN NUMBER
ENG .         BILL                 : Engineer     - RECORDING ENGINEER
WIT .         JIM                  : Witness      - WITNESSED BY
MUD .         GEL                  : Mud_type     - MUD TYPE
MATR.         SANDSTONE            : Logunit      - NEUTRON MATRIX
TMAX.C        20                   : BHT          - MAXIMUM RECORDED TEMPERATURE
BHTD.M        482                  : BHTDEP       - MAXIMUM RECORDED TEMPERATURE
RMT .C        17.8                 : MDTP         - TEMPERATURE OF MUD
MUDD.KG/M     1080                 : MWT          - MUD DENSITY
NEUT.         1                    : NEUTRON      - NEUTRON TYPE
RESI.         0                    : RESIST       - RESISTIVITY TYPE
RM  .OHMM     7                    : RM           - RESISTIVITY OF MUD
RMC .OHMM     5.5                  : RMC          - RESISTIVITY OF MUD CAKE
RMF .OHMM     6                    : RMF          - RESISTIVITY OF MUD FILTRATE
SUFT.C        -5                   : SUFT         - SURFACE TEMPERATURE
~A  DEPTH     RESD     PHIN     PHID      CAL       GR
# ...
  298.000   21.543    0.443    0.360  234.731   42.430
  298.250   21.528    0.432    0.359  235.176   42.405
  298.500   21.506    0.424    0.360  235.631   41.209
  298.750   21.484    0.416    0.363  237.539   40.022
  299.000   21.467    0.423    0.366  239.457   38.826
  299.250   21.445    0.442    0.367  237.947   36.460
  299.500   21.425    0.448    0.371  236.447   36.730
  299.750   21.403    0.449    0.372  234.459   39.048
  300.000   21.381    0.455    0.368  232.963   40.489
  300.250   21.169    0.458    0.367  229.986   40.762
  300.500   21.151    0.457    0.363  228.977   40.146
  300.750   21.130    0.456    0.360  228.452   40.419
  301.000   21.302    0.450    0.362  228.419   41.276
  301.250   21.481    0.448    0.361  227.407   42.421
  301.500   21.659    0.452    0.357  224.917   43.279
  301.750   22.040    0.458    0.357  223.914   42.959
  302.000   22.040    0.456    0.359  224.354   42.056
  302.250   21.991    0.452    0.359  225.297   41.161
  302.500   21.974    0.454    0.356  226.234   41.428
  302.750   21.756    0.457    0.356  226.689   41.409
  303.000   21.535    0.461    0.354  228.110   41.676
  303.250   21.125    0.458    0.356  229.043   43.116
  303.500   21.105    0.453    0.361  228.522   42.798
  303.750   21.081    0.459    0.360  227.993   41.898
  304.000   21.081    0.472    0.359  227.960   41.586
  304.250   21.045    0.476    0.354  227.918   42.146
  304.500   21.216    0.471    0.349  227.875   42.416
  304.750   21.199    0.464    0.347  227.838   41.805
  305.000   21.373    0.455    0.347  228.288   41.197
  305.250   21.550    0.443    0.346  228.738   41.763
  305.500   21.530    0.432    0.343  229.676   42.911
  305.750   21.530    0.439    0.339  231.096   42.596
  306.000   21.490    0.446    0.336  231.054   41.107
  306.250   21.666    0.444    0.331  231.021   41.664
  306.500   22.046    0.447    0.325  232.447   42.520
  306.750   22.635    0.438    0.326  234.359   42.500
  307.000   22.635    0.431    0.326  233.839   42.475
  307.250   22.807    0.430    0.321  230.871   42.750
  307.500   23.849    0.424    0.318  227.406   43.313
  307.750   24.049    0.423    0.320  227.383   44.160
  308.000   24.246    0.443    0.323  227.823   45.020
  308.250   24.447    0.473    0.321  227.791   48.506
  308.500   24.876    0.471    0.325  227.748   48.779
  308.750   25.549    0.457    0.322  229.666   50.214
  309.000   27.214    0.441    0.292  227.673   52.534
  309.250   31.484    0.410    0.188  223.730   56.026
  309.500   35.436    0.246    0.155  221.752   56.295
  309.750   38.097    0.202    0.053  221.222   53.930
  310.000   37.371    0.206    0.046  222.159   54.782
  310.250   33.755    0.241    0.062  224.068   54.177
  310.500   26.567    0.276    0.066  224.030   53.569
  310.750   23.778    0.334    0.101  223.997   56.180
  311.000   21.672    0.365    0.114  224.930   63.179
  311.250   20.873    0.386    0.185  226.351   69.301
  311.500   20.286    0.389    0.172  227.284   73.374
  311.750   19.901    0.372    0.148  229.206   67.495
  312.000   18.645    0.342    0.109  226.726   64.254
  312.250   17.153    0.355    0.124  226.205   74.181
  312.500   16.222    0.422    0.208  226.651   78.255
  312.750   15.059    0.446    0.234  226.609   79.988
  313.000   13.982    0.448    0.233  226.084   80.548
  313.250   12.981    0.440    0.223  226.084   81.400
  313.500   12.385    0.438    0.219  226.004   81.383
  313.750   12.261    0.437    0.207  225.488   82.525
  314.000   12.029    0.435    0.198  225.446   81.335
  314.250   11.797    0.434    0.203  224.428   80.432
  314.500   11.572    0.448    0.207  223.420   82.165
  314.750   11.572    0.459    0.204  223.378   84.779
  315.000   11.552    0.460    0.199  223.833   86.511
  315.250   11.022    0.464    0.195  229.154   86.191
  315.500   10.911    0.474    0.187  236.923   85.001
  315.750   10.902    0.468    0.181  250.539   83.513
  316.000   10.891    0.460    0.175  234.893   82.615
  316.250   11.183    0.443    0.170  233.393   82.294
  316.500   11.380    0.445    0.176  239.202   81.982
  316.750   11.475    0.455    0.177  242.578   81.664
  317.000   11.475    0.440    0.176  245.471   81.352
  317.250   11.449    0.427    0.172  241.035   81.622
  317.500   11.335    0.414    0.169  241.490   82.474
  317.750   11.122    0.408    0.173  264.375   82.742
  318.000   10.810    0.424    0.190  256.043   84.185
  318.250   10.700    0.449    0.297  238.939   87.082
  318.500   10.691    0.456    0.298  234.504   86.478
  318.750   10.977    0.463    0.285  232.516   83.822
  319.000   11.378    0.454    0.272  230.533   82.044
  319.250   12.120    0.441    0.258  224.644   81.436
  319.500   12.678    0.442    0.258  218.262   80.826
  319.750   13.260    0.446    0.257  215.782   79.633
  320.000   13.246    0.442    0.244  215.262   77.565
  320.250   12.994    0.434    0.237  216.199   76.367
  320.500   12.513    0.433    0.223  218.112   76.347
  320.750   12.378    0.448    0.215  221.000   78.077
  321.000   12.151    0.450    0.219  228.755   80.103
  321.250   11.811    0.442    0.234  229.205   78.910
  321.500   11.586    0.433    0.243  230.631   79.768
  321.750   11.467    0.452    0.251  231.081   82.083
  322.000   11.562    0.474    0.250  229.576   83.523
  322.250   12.093    0.477    0.233  226.125   80.575
  322.500   12.647    0.429    0.223  224.137   77.917
  322.750   12.868    0.404    0.207  223.124   76.724
  323.000   12.859    0.383    0.167  223.091   72.606
  323.250   12.499    0.398    0.123  224.024   67.902
  323.500   12.373    0.412    0.090  223.499   61.150
  323.750   12.360    0.441    0.153  223.462   60.832
  324.000   12.463    0.455    0.192  225.853   67.832
  324.250   12.450    0.451    0.200  226.800   74.831
  324.500   12.326    0.434    0.192  228.708   71.590
  324.750   12.091    0.429    0.183  228.671   69.812
  325.000   11.859    0.442    0.210  226.200   72.712
  325.250   11.632    0.454    0.234  226.153   74.735
  325.500   11.412    0.454    0.251  229.036   75.888
  325.750   10.888    0.460    0.278  231.929   78.499
  326.000   10.390    0.469    0.273  234.822   79.641
  326.250   10.192    0.477    0.241  238.685   80.207
  326.500    9.997    0.480    0.206  242.544   81.939
  326.750    9.899    0.476    0.208  239.576   84.550
  327.000    9.708    0.469    0.233  241.981   89.501
  327.250    9.612    0.469    0.246  248.283   92.112
  327.500    9.597    0.473    0.243  244.832   90.626
  327.750   10.043    0.466    0.234  229.186   82.994
  328.000   10.798    0.449    0.232  222.805   74.484
  328.250   11.290    0.443    0.239  220.334   72.709
  328.500   11.178    0.437    0.254  219.804   73.263
  328.750   11.271    0.431    0.260  219.771   75.002
  329.000   11.682    0.427    0.258  219.246   75.269
  329.250   12.444    0.427    0.250  218.229   72.028
  329.500   12.779    0.434    0.244  217.699   69.668
  329.750   13.123    0.435    0.258  217.657   68.762
  330.000   13.599    0.432    0.262  217.624   69.032
  330.250   14.353    0.415    0.224  216.616   68.425
  330.500   14.879    0.403    0.190  214.614   65.772
  330.750   14.728    0.397    0.168  212.630   60.773
  331.000   13.924    0.406    0.196  211.613   65.139
  331.250   13.412    0.411    0.261  214.510   70.085
  331.500   12.684    0.412    0.254  221.295   72.701
  331.750   11.668    0.425    0.239  221.262   78.822
  332.000   11.033    0.440    0.226  220.240   78.800
  332.250   10.527    0.448    0.224  220.240   77.311
  332.500   10.139    0.455    0.219  219.682   79.334
  332.750   10.038    0.457    0.231  219.157   83.998
  333.000   10.307    0.470    0.238  220.090   91.284
  333.250   10.782    0.485    0.241  220.052   90.390
  333.500   12.023    0.484    0.226  219.518   84.221
  333.750   15.527    0.469    0.193  219.490   77.761
  334.000   20.238    0.402    0.154  219.447   70.129
  334.250   24.288    0.344    0.106  219.410   59.867
