~VERSION INFORMATION
 VERS.                 2.0:   CWLS LOG ASCII STANDARD -VERSION 2.0
 WRAP.                  NO:   ONE LINE PER DEPTH STEP
~WELL INFORMATION BLOCK
#MNEM.UNIT           DATA                    DESCRIPTION OF MNEMONIC
#---------    -------------------            -------------------------------
# Generated from Intellog Unique Number	CS_69_70/WELL/905
NULL.         -999.25                        : NULL_VALUE
WELL.         HUSKY OIL OPERATIONS LTD.      : Well_name    - WELL              
LOC .         00/09-35-070-06W4/0            : Location     - LOCATION          
UWI .         00/09-35-070-06W4/0            : Uwi          - UNIQUE WELL ID    
ENTR.         SP                             : Entered      - ENTERED BY        
SRVC.         SCHLUMBERGER                   : Scn          - SERVICE COMPANY   
STRT.M        310                            : top_depth    - START DEPTH       
STOP.M        560                            : bot_depth    - STOP DEPTH        
STEP.M        0.25                           : increment    - STEP LENGTH       
~CURVE INFORMATION BLOCK
#MNEM UNIT       ERCB CURVE CODE    CURVE DESCRIPTION
#-----------   ------------------   ----------------------------------
DEPT.M        00 001 00 00         : DEPTH        - DEPTH                       
ILD .OHMM     00 120 00 00         : RESD         - DEEP RESISTIVITY (DIL)      
DPHI.V/V      00 890 00 00         : PHID         - DENSITY POROSITY (LIMESTONE)
NPHI.V/V      00 330 00 00         : PHIN         - NEUTRON POROSITY (LIMESTONE)
GR  .API      00 310 00 00         : GR           - GAMMA RAY                   
~PARAMETER INFORMATION       
#MNEM.UNIT           DATA             DESCRIPTION OF MNEMONIC
#---------         -----------     ------------------------------
GL  .M        664.6                : gl           - GROUND LEVEL ELEVATION      
EREF.M        668.7                : kb           - ELEVATION OF DEPTH REFERENCE
DATM.M        664.6                : datum        - DATUM ELEVATION             
TDD .M        566                  : tdd          - TOTAL DEPTH DRILLER         
RUN .         ONE                  : Run          - RUN NUMBER                  
ENG .         BILL                 : Engineer     - RECORDING ENGINEER          
WIT .         JIM                  : Witness      - WITNESSED BY                
MUD .         GEL                  : Mud_type     - MUD TYPE                    
MATR.         LIMESTONE            : Logunit      - NEUTRON MATRIX              
TMAX.C        25                   : BHT          - MAXIMUM RECORDED TEMPERATURE
BHTD.M        566                  : BHTDEP       - MAXIMUM RECORDED TEMPERATURE
MATR.         1                    : LOGUNIT      - NEUTRON MATRIX              
RMT .C        25                   : MDTP         - TEMPERATURE OF MUD          
NEUT.         1                    : NEUTRON      - NEUTRON TYPE                
RESI.         0                    : RESIST       - RESISTIVITY TYPE            
RMC .OHMM     0.25                 : RMC          - RESISTIVITY OF MUD CAKE     
RMF .OHMM     0.25                 : RMF          - RESISTIVITY OF MUD FILTRATE 
SUFT.C        15                   : SUFT         - SURFACE TEMPERATURE         
~A  DEPTH     RESD     PHID     PHIN       GR
# ...
  397.000    6.790    0.331    0.496   63.822
  397.250    6.651    0.332    0.486   61.896
  397.500    6.455    0.331    0.485   60.392
  397.750    6.371    0.330    0.482   61.910
  398.000    6.138    0.322    0.481   65.966
  398.250    5.858    0.315    0.490   70.084
  398.500    5.622    0.310    0.478   72.690
  398.750    5.306    0.313    0.463   73.845
  399.000    5.008    0.306    0.460   78.325
  399.250    4.815    0.298    0.462   80.266
  399.500    4.752    0.290    0.463   80.274
  399.750    4.751    0.285    0.460   78.951
  400.000    4.978    0.283    0.457   76.662
  400.250    5.422    0.284    0.456   74.797
  400.500    6.142    0.290    0.459   73.654
  400.750    6.754    0.303    0.457   72.876
  401.000    7.235    0.311    0.448   68.895
  401.250    7.565    0.307    0.444   69.567
  401.500    7.707    0.300    0.444   74.288
  401.750    7.452    0.296    0.447   80.339
  402.000    7.072    0.294    0.454   86.329
  402.250    5.644    0.287    0.492   94.195
  402.500    4.324    0.274    0.520   98.009
  402.750    3.809    0.264    0.533  100.554
  403.000    3.287    0.258    0.547  101.649
  403.250    2.874    0.269    0.565  102.503
  403.500    2.643    0.280    0.588  104.383
  403.750    2.604    0.287    0.603  105.116
  404.000    2.589    0.291    0.571  102.645
  404.250    2.622    0.292    0.559   96.791
  404.500    2.681    0.284    0.560   98.006
  404.750    2.711    0.276    0.567  101.761
  405.000    2.814    0.271    0.583  106.423
  405.250    2.861    0.276    0.587  109.450
  405.500    2.953    0.288    0.582  111.573
  405.750    3.014    0.299    0.584  109.223
  406.000    3.082    0.289    0.550  100.890
  406.250    3.583    0.270    0.494   93.283
  406.500    4.120    0.264    0.476   87.669
  406.750    4.737    0.273    0.470   80.001
  407.000    5.570    0.285    0.477   81.278
  407.250    5.978    0.295    0.486   80.016
  407.500    6.310    0.302    0.478   74.161
  407.750    6.463    0.307    0.473   70.180
  408.000    6.560    0.305    0.462   72.362
  408.250    6.633    0.304    0.456   74.002
  408.500    6.657    0.302    0.460   75.157
  408.750    6.706    0.304    0.471   74.439
  409.000    6.730    0.314    0.481   70.760
  409.250    6.705    0.333    0.493   69.014
  409.500    6.629    0.339    0.493   71.318
  409.750    6.422    0.316    0.476   74.348
  410.000    6.061    0.283    0.469   77.195
  410.250    5.625    0.264    0.489   79.801
  410.500    5.289    0.264    0.510   79.808
  410.750    4.773    0.271    0.509   80.421
  411.000    4.547    0.268    0.489   82.122
  411.250    4.581    0.263    0.476   83.638
  411.500    4.880    0.258    0.487   83.464
  411.750    5.406    0.251    0.501   81.416
  412.000    5.780    0.247    0.489   85.475
  412.250    5.966    0.243    0.476   86.447
  412.500    6.055    0.247    0.469   84.339
  412.750    6.043    0.239    0.472   84.407
  413.000    5.821    0.236    0.494   86.107
  413.250    5.618    0.246    0.521   88.108
  413.500    5.432    0.260    0.539   89.566
  413.750    5.184    0.272    0.537   90.782
  414.000    4.811    0.281    0.523   89.823
  414.250    4.550    0.275    0.516   90.978
  414.500    4.254    0.277    0.516   94.129
  414.750    4.022    0.272    0.499   96.373
  415.000    3.651    0.259    0.498   95.654
  415.250    3.081    0.252    0.539   95.117
  415.500    2.639    0.250    0.535   96.091
  415.750    2.473    0.258    0.539   97.611
  416.000    2.683    0.263    0.524   98.161
  416.250    2.853    0.264    0.490   98.410
  416.500    3.074    0.257    0.474   98.417
  416.750    3.268    0.253    0.468   98.305
  417.000    3.342    0.248    0.472   97.948
  417.250    3.366    0.248    0.478   97.653
  417.500    3.347    0.263    0.520   96.816
  417.750    3.159    0.274    0.558   95.795
  418.000    3.060    0.281    0.585   93.989
  418.250    3.032    0.299    0.586   91.579
  418.500    3.164    0.316    0.543   88.564
  418.750    3.498    0.333    0.501   84.946
  419.000    3.876    0.318    0.456   82.595
  419.250    4.285    0.285    0.450   83.448
  419.500    4.642    0.268    0.460   86.357
  419.750    4.881    0.259    0.472   88.600
  420.000    4.963    0.254    0.500   89.454
  420.250    4.871    0.255    0.513   88.675
  420.500    4.736    0.258    0.499   89.953
  420.750    4.580    0.259    0.487   90.926
  421.000    4.461    0.263    0.481   90.933
  421.250    4.486    0.270    0.481   88.161
  421.500    4.647    0.279    0.501   81.943
  421.750    4.932    0.285    0.491   74.698
  422.000    5.293    0.292    0.483   70.233
  422.250    5.777    0.300    0.479   66.795
  422.500    6.459    0.302    0.482   65.292
  422.750    7.413    0.214    0.513   67.172
  423.000    9.166    0.162    0.312   67.421
  423.250   10.940    0.045    0.216   49.902
  423.500   13.252    0.017    0.190   39.575
  423.750   14.276    0.008    0.185   40.126
  424.000   10.284    0.192    0.237   51.254
  424.250    7.071    0.225    0.300   63.166
  424.500    5.367    0.257    0.422   69.278
  424.750    4.853    0.281    0.451   71.462
  425.000    4.780    0.320    0.473   72.315
  425.250    4.780    0.337    0.460   71.355
  425.500    4.762    0.332    0.462   67.495
  425.750    4.806    0.328    0.486   63.029
  426.000    4.886    0.326    0.498   62.856
  426.250    4.913    0.329    0.477   64.011
  426.500    4.968    0.333    0.462   64.261
  426.750    5.023    0.334    0.452   62.334
  427.000    5.117    0.329    0.471   63.670
  427.250    5.193    0.326    0.483   68.090
  427.500    5.430    0.321    0.490   71.361
  427.750    5.501    0.316    0.502   73.967
  428.000    5.521    0.312    0.515   75.182
  428.250    5.531    0.307    0.493   72.893
  428.500    5.398    0.300    0.472   74.230
  428.750    5.367    0.287    0.459   80.402
  429.000    5.468    0.273    0.442   86.029
  429.250    5.611    0.262    0.429   88.877
  429.500    5.759    0.253    0.454   88.583
  429.750    5.845    0.248    0.459   85.508
  430.000    5.844    0.260    0.456   83.279
  430.250    5.747    0.278    0.450   82.017
  430.500    5.525    0.292    0.442   81.662
  430.750    5.333    0.288    0.438   84.086
  431.000    5.061    0.281    0.442   86.873
  431.250    4.467    0.283    0.453   82.348
  431.500    3.964    0.295    0.468   79.032
  431.750    3.545    0.292    0.477   82.302
  432.000    3.247    0.282    0.481   84.426
  432.250    2.964    0.275    0.487   84.615
  432.500    2.660    0.272    0.503   85.225
  432.750    2.423    0.270    0.525   88.073
  433.000    2.270    0.274    0.556   90.800
  433.250    2.162    0.282    0.594   93.347
  433.500    2.134    0.290    0.578   94.501
  433.750    2.150    0.284    0.561   94.811
  434.000    2.219    0.279    0.559   93.367
  434.250    2.243    0.276    0.574   90.897
  434.500    2.281    0.275    0.573   92.234
  434.750    2.311    0.301    0.568   93.208
  435.000    2.394    0.313    0.576   92.128
  435.250    2.503    0.310    0.558   89.355
  435.500    2.554    0.300    0.542   91.659
  435.750    2.676    0.292    0.528   92.996
  436.000    2.782    0.285    0.540   93.728
  436.250    2.909    0.283    0.550   96.878
  436.500    3.111    0.282    0.534   97.792
  436.750    3.511    0.285    0.527   97.134
  437.000    3.911    0.299    0.503   93.878
  437.250    4.269    0.302    0.471   88.084
  437.500    4.676    0.289    0.471   84.041
  437.750    5.084    0.279    0.485   85.076
  438.000    5.653    0.270    0.505   85.748
  438.250    6.537    0.247    0.516   74.756
  438.500    7.378    0.165    0.231   61.044
  438.750    7.903    0.044    0.225   50.355
  439.000    7.294    0.165    0.352   57.977
  439.250    6.179    0.209    0.414   68.440
  439.500    5.283    0.243    0.453   76.968
  439.750    4.759    0.270    0.477   82.536
  440.000    4.559    0.279    0.495   85.081
  440.250    4.517    0.281    0.494   85.511
