~VERSION INFORMATION
 VERS.                 2.0:   CWLS LOG ASCII STANDARD -VERSION 2.0
 WRAP.                  NO:   ONE LINE PER DEPTH STEP
~WELL INFORMATION BLOCK
#MNEM.UNIT           DATA                    DESCRIPTION OF MNEMONIC
#---------    -------------------            -------------------------------
# Generated from Intellog Unique Number	CN_91_93/WELL/4547
WELL.         PARA ET AL LIEGE               : Well_name    - WELL
LOC .         00/08-27-093-19W4/0            : Location     - LOCATION
UWI .         00/08-27-093-19W4/0            : Uwi          - UNIQUE WELL ID
ENTR.         TIM                            : Entered      - ENTERED BY
SRVC.         SCHLUMBERGER                   : Scn          - SERVICE COMPANY
DATE.         01/30/92                       : Date         - LOG DATE
STRT.M        110                            : top_depth    - START DEPTH
STOP.M        247                            : bot_depth    - STOP DEPTH
STEP.M        0.25                           : increment    - STEP LENGTH
 NULL. -999.2500:NULL Value
~CURVE INFORMATION BLOCK
#MNEM UNIT       ERCB CURVE CODE    CURVE DESCRIPTION
#-----------   ------------------   ----------------------------------
DEPT.M        00 001 00 00         : DEPTH        - DEPTH
GR  .API      00 310 00 00         : GR           - GAMMA RAY
NPHI.V/V      00 330 00 00         : PHIN         - NEUTRON POROSITY (SANDSTONE)
DPHI.V/V      00 890 00 00         : PHID         - DENSITY POROSITY (SANDSTONE)
ILD .OHMM     00 120 00 00         : RESD         - DEEP RESISTIVITY (DIL)
~PARAMETER INFORMATION
#MNEM.UNIT           DATA             DESCRIPTION OF MNEMONIC
#---------         -----------     ------------------------------
GL  .M        523.8                : gl           - GROUND LEVEL ELEVATION
EREF.M        527.8                : kb           - ELEVATION OF DEPTH REFERENCE
DATM.M        527.8                : datum        - DATUM ELEVATION
TDD .M        244                  : tdd          - TOTAL DEPTH DRILLER
RUN .         ONE                  : Run          - RUN NUMBER
ENG .         JO                   : Engineer     - RECORDING ENGINEER
WIT .         TIM                  : Witness      - WITNESSED BY
MUD .         GEL                  : Mud_type     - MUD TYPE
MATR.         SANDSTONE            : Logunit      - NEUTRON MATRIX
TMAX.C        25                   : BHT          - MAXIMUM RECORDED TEMPERATURE
BHTD.M        247                  : BHTDEP       - MAXIMUM RECORDED TEMPERATURE
RMT .C        10                   : MDTP         - TEMPERATURE OF MUD
MUDD.KG/M     1090                 : MWT          - MUD DENSITY
NEUT.         1                    : NEUTRON      - NEUTRON TYPE
RESI.         0                    : RESIST       - RESISTIVITY TYPE
RM  .OHMM     4.22                 : RM           - RESISTIVITY OF MUD
RMC .OHMM     6                    : RMC          - RESISTIVITY OF MUD CAKE
RMF .OHMM     6                    : RMF          - RESISTIVITY OF MUD FILTRATE
SUFT.C        4                    : SUFT         - SURFACE TEMPERATURE
~A  DEPTH       GR     PHIN     PHID     RESD
# ...
  153.500   79.527    0.396    0.248    8.203
  153.750   77.106    0.408    0.118    6.657
  154.000   79.591    0.423    0.136    5.101
  154.250   97.482    0.438    0.153    4.468
  154.500  103.677    0.444    0.226    3.990
  154.750  108.625    0.455    0.261    3.920
  155.000  110.501    0.462    0.273    3.929
  155.250  111.160    0.469    0.260    3.932
  155.500  111.188    0.467    0.238    4.251
  155.750  110.600    0.463    0.227    4.596
  156.000  110.621    0.460    0.220    4.969
  156.250  111.265    0.461    0.213    5.372
  156.500  111.910    0.463    0.208    5.592
  156.750  113.177    0.464    0.206    5.599
  157.000  113.821    0.459    0.212    5.718
  157.250  113.849    0.427    0.228    6.181
  157.500  111.413    0.406    0.217    7.078
  157.750  105.275    0.371    0.148    8.104
  158.000   84.976    0.338    0.102    8.931
  158.250   80.077    0.326    0.137    9.655
  158.500   80.105    0.356    0.167   10.054
  158.750   89.989    0.374    0.201    9.875
  159.000   97.408    0.397    0.221    9.519
  159.250  101.748    0.414    0.226    9.356
  159.500  104.863    0.416    0.227    9.193
  159.750  105.507    0.407    0.222    9.036
  160.000  103.072    0.396    0.217    9.046
  160.250   97.556    0.382    0.205    9.777
  160.500   92.041    0.371    0.117   10.782
  160.750   85.293    0.376    0.069   11.211
  161.000   84.090    0.382    0.073   11.015
  161.250   88.430    0.388    0.102   10.827
  161.500   94.016    0.401    0.214   10.839
  161.750   93.414    0.412    0.230   10.650
  162.000   90.978    0.408    0.235   10.464
  162.250   85.463    0.402    0.195   10.281
  162.500   83.650    0.402    0.178    9.727
  162.750   88.599    0.400    0.206    8.853
  163.000   93.555    0.399    0.226    8.213
  163.250   97.279    0.416    0.230    7.473
  163.500   98.539    0.439    0.230    6.673
  163.750   97.958    0.442    0.230    5.848
  164.000  101.682    0.436    0.230    5.121
  164.250  105.406    0.446    0.235    4.486
  164.500  109.130    0.458    0.241    3.931
  164.750  112.861    0.466    0.246    3.716
  165.000  113.498    0.478    0.258    4.019
  165.250  111.678    0.468    0.262    4.428
  165.500  107.395    0.444    0.265    5.910
  165.750   97.567    0.429    0.265    7.736
  166.000   87.740    0.416    0.260    9.381
  166.250   80.377    0.396    0.220   12.052
  166.500   75.477    0.398    0.225   13.281
  166.750   74.274    0.403    0.251   12.560
  167.000   81.693    0.408    0.270   10.590
  167.250   89.113    0.413    0.266    8.760
  167.500   91.605    0.418    0.250    7.243
  167.750   95.343    0.426    0.243    6.225
  168.000   97.828    0.440    0.237    6.003
  168.250  103.400    0.450    0.235    6.012
  168.500  105.283    0.452    0.227    6.376
  168.750  104.695    0.435    0.220    6.763
  169.000  104.101    0.435    0.224    7.312
  169.250  102.904    0.435    0.234    8.220
  169.500  102.323    0.434    0.245    8.715
  169.750  102.337    0.431    0.254    9.426
  170.000  101.141    0.421    0.214    9.804
  170.250   99.321    0.394    0.166   10.202
  170.500   95.030    0.323    0.088   10.415
  170.750   90.131    0.332    0.092   10.430
  171.000   92.007    0.347    0.133    9.864
  171.250  103.129    0.379    0.178    9.148
  171.500  106.860    0.411    0.191    8.490
  171.750  103.186    0.413    0.232    8.342
  172.000  101.982    0.389    0.276    8.516
  172.250   98.930    0.365    0.288    8.861
  172.500   92.806    0.355    0.302    8.875
  172.750   94.059    0.358    0.262    8.234
  173.000  100.870    0.376    0.233    7.352
  173.250  106.442    0.390    0.216    6.441
  173.500  103.390    0.403    0.192    5.644
  173.750   99.106    0.408    0.178    5.139
  174.000   99.744    0.414    0.166    4.952
  174.250  103.468    0.421    0.168    4.864
  174.500  110.894    0.428    0.187    4.688
  174.750  118.930    0.445    0.198    4.606
  175.000  121.422    0.468    0.192    4.982
  175.250  121.450    0.485    0.170    5.282
  175.500  118.399    0.473    0.142    5.936
  175.750  111.651    0.444    0.101    6.539
  176.000  106.143    0.408    0.127    7.206
  176.250  109.251    0.391    0.187    8.254
  176.500  109.895    0.393    0.204    8.754
  176.750  111.764    0.398    0.211    9.110
  177.000  121.648    0.392    0.216    9.479
  177.250  127.842    0.385    0.215    9.864
  177.500  123.559    0.380    0.211   10.069
  177.750  115.580    0.382    0.203   10.684
  178.000  111.912    0.381    0.203   10.903
  178.250  111.324    0.376    0.204   11.345
  178.500  107.048    0.362    0.205   11.582
  178.750  102.757    0.342    0.172   11.604
  179.000   96.626    0.353    0.137   11.401
  179.250   95.429    0.366    0.083   10.782
  179.500  104.081    0.386    0.113    9.817
  179.750  107.189    0.395    0.144    9.111
  180.000  109.058    0.400    0.185    8.945
  180.250  111.557    0.408    0.194    8.623
  180.500  112.810    0.411    0.192    8.636
  180.750  112.838    0.415    0.187    9.160
  181.000  112.866    0.421    0.186   10.297
  181.250  112.894    0.426    0.184   10.917
  181.500  112.930    0.433    0.180   11.575
  181.750  112.349    0.433    0.170   12.756
  182.000  108.058    0.423    0.142   14.057
  182.250  101.920    0.350    0.109   16.729
  182.500   92.709    0.284    0.069   20.685
  182.750   81.033    0.234    0.016   22.364
  183.000   72.438    0.215    0.018   21.141
  183.250   71.234    0.234    0.031   18.520
  183.500   79.270    0.269    0.088   16.537
  183.750  102.719    0.307    0.121   15.052
  184.000  105.211    0.353    0.179   13.191
  184.250  106.471    0.378    0.212   12.474
  184.500  106.492    0.378    0.217   12.256
  184.750  105.904    0.378    0.209   12.270
  185.000  104.085    0.376    0.197   12.056
  185.250  106.584    0.380    0.187   11.185
  185.500  109.069    0.390    0.185   10.577
  185.750  111.575    0.401    0.185   10.393
  186.000  112.219    0.401    0.186   10.412
  186.250  112.870    0.400    0.187   10.428
  186.500  112.884    0.393    0.189   10.440
  186.750  112.304    0.385    0.189   10.464
  187.000  111.716    0.381    0.189   10.277
  187.250  109.896    0.384    0.187    9.910
  187.500  108.076    0.394    0.185    9.734
  187.750  109.337    0.404    0.185    9.386
  188.000  111.821    0.412    0.184    9.222
  188.250  117.400    0.420    0.183    9.236
  188.500  118.045    0.418    0.176    9.247
  188.750  112.522    0.385    0.156    9.264
  189.000   97.767    0.372    0.135    9.099
  189.250   97.795    0.379    0.136    8.771
  189.500  112.614    0.409    0.205    8.294
  189.750  114.497    0.417    0.220    7.695
  190.000  110.213    0.417    0.227    6.871
  190.250  106.546    0.427    0.233    5.905
  190.500  107.183    0.439    0.238    5.075
  190.750  115.834    0.457    0.240    4.444
  191.000  118.326    0.483    0.233    3.896
  191.250  117.739    0.487    0.222    4.051
  191.500  115.926    0.472    0.212    5.307
  191.750  112.251    0.428    0.203    6.433
  192.000  107.968    0.398    0.192    7.951
  192.250  103.068    0.383    0.178    8.942
  192.500   99.401    0.393    0.153    8.782
  192.750  101.277    0.408    0.133    8.302
  193.000  109.312    0.430    0.161    7.854
  193.250  111.812    0.442    0.185    7.287
  193.500  108.774    0.432    0.200    6.891
  193.750  108.172    0.422    0.198    6.516
  194.000  111.896    0.436    0.193    6.652
  194.250  116.852    0.448    0.191    7.192
  194.500  119.344    0.452    0.182    8.079
  194.750  111.981    0.427    0.170    8.903
  195.000  100.306    0.397    0.150    9.811
  195.250   94.174    0.361    0.161   11.021
  195.500  102.826    0.355    0.187   11.915
  195.750  109.630    0.356    0.195   12.643
  196.000  115.201    0.355    0.194   12.657
  196.250  113.998    0.354    0.190   12.436
  196.500  112.794    0.362    0.188   12.219
  196.750  112.227    0.375    0.188   12.006
