~VERSION INFORMATION
 VERS.                 2.0:   CWLS LOG ASCII STANDARD -VERSION 2.0
 WRAP.                  NO:   ONE LINE PER DEPTH STEP
~WELL INFORMATION BLOCK
#MNEM.UNIT           DATA                    DESCRIPTION OF MNEMONIC
#---------    -------------------            -------------------------------
# Generated from Intellog Unique Number	CS_67_68/WELL/701
WELL.         AMOCO CANADA PETROLEUM         : Well_name    - WELL
LOC .         00/06-27-068-18W4/0            : Location     - LOCATION
UWI .         00/06-27-068-18W4/0            : Uwi          - UNIQUE WELL ID
ENTR.         SP                             : Entered      - ENTERED BY
SRVC.         SCHLUMBERGER                   : Scn          - SERVICE COMPANY
STRT.M        274.32                         : top_depth    - START DEPTH
STOP.M        514.82                         : bot_depth    - STOP DEPTH
STEP.M        0.25                           : increment    - STEP LENGTH
 NULL. -999.2500:NULL Value
~CURVE INFORMATION BLOCK
#MNEM UNIT       ERCB CURVE CODE    CURVE DESCRIPTION
#-----------   ------------------   ----------------------------------
DEPT.M        00 001 00 00         : DEPTH        - DEPTH
GR  .API      00 310 00 00         : GR           - GAMMA RAY
DPHI.V/V      00 890 00 00         : PHID         - DENSITY POROSITY (SANDSTONE)
NPHI.V/V      00 330 00 00         : PHIN         - NEUTRON POROSITY (SANDSTONE)
ILD .OHMM     00 120 00 00         : RESD         - DEEP RESISTIVITY (DIL)
~PARAMETER INFORMATION
#MNEM.UNIT           DATA             DESCRIPTION OF MNEMONIC
#---------         -----------     ------------------------------
GL  .M        546.659              : gl           - GROUND LEVEL ELEVATION
EREF.M        550.164              : kb           - ELEVATION OF DEPTH REFERENCE
DATM.M        546.659              : datum        - DATUM ELEVATION
TDD .M        521.208              : tdd          - TOTAL DEPTH DRILLER
RUN .         ONE                  : Run          - RUN NUMBER
ENG .         BILL                 : Engineer     - RECORDING ENGINEER
WIT .         JIM                  : Witness      - WITNESSED BY
MUD .         GEL                  : Mud_type     - MUD TYPE
MATR.         SANDSTONE            : Logunit      - NEUTRON MATRIX
TMAX.C        22.2222              : BHT          - MAXIMUM RECORDED TEMPERATURE
BHTD.M        521.208              : BHTDEP       - MAXIMUM RECORDED TEMPERATURE
MATR.         1                    : LOGUNIT      - NEUTRON MATRIX
RMT .C        25                   : MDTP         - TEMPERATURE OF MUD
NEUT.         1                    : NEUTRON      - NEUTRON TYPE
RESI.         0                    : RESIST       - RESISTIVITY TYPE
RMC .OHMM     0.25                 : RMC          - RESISTIVITY OF MUD CAKE
RMF .OHMM     0.25                 : RMF          - RESISTIVITY OF MUD FILTRATE
SUFT.C        15                   : SUFT         - SURFACE TEMPERATURE
~A  DEPTH       GR     PHID     PHIN     RESD
# ...
  491.820  103.543    0.147    0.309    7.736
  492.070   93.425    0.171    0.312    7.112
  492.320   87.580    0.186    0.324    6.681
  492.570   84.090    0.178    0.333    6.236
  492.820   80.078    0.173    0.328    5.420
  493.070   77.369    0.186    0.339    4.902
  493.320   73.991    0.237    0.345    4.484
  493.570   70.234    0.249    0.342    4.125
  493.820   65.642    0.254    0.356    3.787
  494.070   62.172    0.257    0.352    3.477
  494.320   58.512    0.250    0.344    3.255
  494.570   54.071    0.235    0.361    3.042
  494.820   47.753    0.239    0.376    2.825
  495.070   43.687    0.250    0.382    2.721
  495.320   48.925    0.258    0.366    2.669
  495.570   64.312    0.276    0.355    2.892
  495.820   74.982    0.222    0.345    3.223
  496.070   86.317    0.182    0.353    3.968
  496.320   96.921    0.150    0.387    4.513
  496.570  105.996    0.179    0.413    5.071
  496.820  111.656    0.212    0.439    5.353
  497.070  114.923    0.229    0.445    5.478
  497.320  116.614    0.215    0.420    5.570
  497.570  112.226    0.209    0.395    5.738
  497.820  108.817    0.161    0.377    5.970
  498.070  109.712    0.135    0.364    6.106
  498.320  111.679    0.121    0.385    6.141
  498.570  113.213    0.118    0.391    6.122
  498.820  111.258    0.172    0.375    6.065
  499.070  106.955    0.149    0.363    6.008
  499.320  108.974    0.136    0.349    5.969
  499.570  107.929    0.130    0.339    5.937
  499.820  102.265    0.135    0.335    5.909
  500.070   99.291    0.140    0.338    5.880
  500.320  103.203    0.142    0.344    5.845
  500.570  106.105    0.149    0.353    5.721
  500.820  106.603    0.161    0.372    5.565
  501.070  106.513    0.147    0.401    5.334
  501.320  103.858    0.134    0.467    5.133
  501.570   98.017    0.179    0.520    4.955
  501.820   95.480    0.236    0.549    4.796
  502.070   97.294    0.198    0.525    4.620
  502.320   98.536    0.186    0.507    4.524
  502.570   98.482    0.330    0.492    4.480
  502.820   99.591    0.423    0.468    4.511
  503.070  102.995    0.445    0.444    4.580
  503.320  105.963    0.359    0.465    4.703
  503.570  106.864    0.292    0.483    4.829
  503.820  107.923    0.267    0.460    4.999
  504.070  109.929    0.254    0.437    5.170
  504.320  111.472    0.265    0.418    5.334
  504.570  113.408    0.282    0.422    5.488
  504.820  120.712    0.297    0.430    5.736
  505.070  128.885    0.318    0.434    5.878
  505.320  135.596    0.341    0.413    6.167
  505.570  137.914    0.293    0.395    6.560
  505.820  108.244    0.183    0.389    6.984
  506.070   91.372    0.122    0.371    7.347
  506.320   76.266    0.090    0.343    7.886
  506.570   63.887    0.063    0.331    8.496
  506.820   53.695    0.069    0.346    9.431
  507.070   48.501    0.088    0.321   10.538
  507.320   49.507    0.046    0.296   11.509
  507.570   52.936    0.019    0.275   12.659
  507.820   42.158    0.015    0.265   13.667
  508.070   38.005    0.025    0.264   14.514
  508.320   37.226    0.032    0.277   14.681
  508.570   38.379    0.051    0.295   14.109
  508.820   38.685    0.058    0.317   13.643
  509.070   38.246    0.114    0.333   13.748
  509.320   37.815    0.074    0.340   14.159
  509.570   40.509    0.059    0.312   14.486
  509.820   43.203    0.043    0.286   14.610
  510.070   45.969    0.030    0.289   14.320
  510.320   48.726    0.040    0.321   13.345
  510.570   44.932    0.034    0.348   12.565
  510.820   40.593    0.103    0.369   11.500
  511.070   37.110    0.137    0.385   10.994
  511.320   34.396    0.138    0.405   10.304
  511.570   32.434    0.131    0.403   10.062
  511.820   30.357    0.134    0.383   10.143
  512.070   29.347    0.115    0.348   10.548
  512.320   28.912    0.133    0.323   11.061
  512.570   30.009    0.078    0.303   11.730
  512.820   31.421    0.054    0.287   12.205
  513.070   32.296    0.043    0.281   13.059
  513.320   30.644    0.038    0.288   13.951
  513.570   29.609    0.063    0.303   14.811
  513.820   30.063    0.098    0.287   15.790
  514.070   33.616    0.069    0.294   16.828
  514.320   40.241    0.050    0.310   17.520
  514.570   40.508    0.083    0.306   18.103
  514.820   34.159    0.068    0.294   18.317
