~VERSION INFORMATION
 VERS.                 2.0:   CWLS LOG ASCII STANDARD -VERSION 2.0
 WRAP.                  NO:   ONE LINE PER DEPTH STEP
~WELL INFORMATION BLOCK
#MNEM.UNIT           DATA                    DESCRIPTION OF MNEMONIC
#---------    -------------------            -------------------------------
# Generated from Intellog Unique Number	CW_70_72/WELL/1028
NULL.         -999.25                        : NULL_VALUE
WELL.         MANNVILLE ET AL PETER 09-34    : Well_name    - WELL              
LOC .         09-34-072-01W5                 : Location     - LOCATION          
UWI .         00/09-34-072-01W5/0            : Uwi          - UNIQUE WELL ID    
ENTR.         JAYE                           : Entered      - ENTERED BY        
SRVC.         WESTERN ATLAS                  : Scn          - SERVICE COMPANY   
DATE.         7 SEPT 80                      : Date         - LOG DATE          
STRT.M        440                            : top_depth    - START DEPTH       
STOP.M        695                            : bot_depth    - STOP DEPTH        
STEP.M        0.25                           : increment    - STEP LENGTH       
~CURVE INFORMATION BLOCK
#MNEM UNIT       ERCB CURVE CODE    CURVE DESCRIPTION
#-----------   ------------------   ----------------------------------
DEPT.M        00 001 00 00         : DEPTH        - DEPTH                       
DPHI.V/V      00 890 00 00         : PHID         - DENSITY POROSITY (SANDSTONE)
NPHI.V/V      00 330 00 00         : PHIN         - NEUTRON POROSITY (SANDSTONE)
GR  .API      00 310 00 00         : GR           - GAMMA RAY                   
CALI.MM       00 280 01 00         : CAL          - CALIPER                     
ILD .OHMM     00 120 00 00         : RESD         - DEEP RESISTIVITY (DIL)      
~PARAMETER INFORMATION       
#MNEM.UNIT           DATA             DESCRIPTION OF MNEMONIC
#---------         -----------     ------------------------------
GL  .M        651.1                : gl           - GROUND LEVEL ELEVATION      
EREF.M        654                  : kb           - ELEVATION OF DEPTH REFERENCE
DATM.M        651.1                : datum        - DATUM ELEVATION             
TDD .M        696                  : tdd          - TOTAL DEPTH DRILLER         
RUN .         ONE                  : Run          - RUN NUMBER                  
ENG .         IRELAND              : Engineer     - RECORDING ENGINEER          
WIT .         KELLY                : Witness      - WITNESSED BY                
BASE.         EDM                  : Branch       - HOME BASE OF LOGGING UNIT   
MUD .         GEL-CHEM             : Mud_type     - MUD TYPE                    
MATR.         SANDSTONE            : Logunit      - NEUTRON MATRIX              
TMAX.C        27.1                 : BHT          - MAXIMUM RECORDED TEMPERATURE
BHTD.M        697                  : BHTDEP       - MAXIMUM RECORDED TEMPERATURE
RMT .C        21.6                 : MDTP         - TEMPERATURE OF MUD          
MUDD.KG/M     1210                 : MWT          - MUD DENSITY                 
NEUT.         1                    : NEUTRON      - NEUTRON TYPE                
RESI.         0                    : RESIST       - RESISTIVITY TYPE            
RM  .OHMM     1.84                 : RM           - RESISTIVITY OF MUD          
RMC .OHMM     0                    : RMC          - RESISTIVITY OF MUD CAKE     
RMF .OHMM     1.47                 : RMF          - RESISTIVITY OF MUD FILTRATE 
SUFT.C        32                   : SUFT         - SURFACE TEMPERATURE         
~A  DEPTH     PHID     PHIN       GR      CAL     RESD
# ...
  513.000    0.279    0.412   53.715  159.342    3.074
  513.250    0.280    0.423   53.624  158.877    2.923
  513.500    0.293    0.422   47.375  158.523    2.791
  513.750    0.305    0.428   44.732  158.377    2.695
  514.000    0.317    0.451   47.135  158.225    2.587
  514.250    0.313    0.467   50.530  158.188    2.507
  514.500    0.307    0.454   53.180  158.145    2.458
  514.750    0.299    0.428   51.351  158.092    2.432
  515.000    0.292    0.415   50.637  158.054    2.443
  515.250    0.293    0.422   51.420  157.900    2.477
  515.500    0.287    0.432   52.826  157.856    2.540
  515.750    0.282    0.446   54.669  158.025    2.620
  516.000    0.288    0.459   54.513  158.079    2.647
  516.250    0.291    0.458   50.507  158.241    2.654
  516.500    0.282    0.442   50.419  158.194    2.651
  516.750    0.269    0.422   52.690  158.267    2.643
  517.000    0.267    0.408   48.743  158.226    2.630
  517.250    0.271    0.398   47.348  158.175    2.612
  517.500    0.289    0.404   48.443  158.124    2.614
  517.750    0.305    0.418   50.408  157.877    2.611
  518.000    0.297    0.425   50.753  157.721    2.618
  518.250    0.291    0.422   51.289  157.476    2.640
  518.500    0.295    0.433   53.564  157.223    2.652
  518.750    0.294    0.445   55.030  157.069    2.669
  519.000    0.292    0.436   52.888  156.712    2.691
  519.250    0.298    0.431   53.860  156.261    2.744
  519.500    0.303    0.439   56.881  156.206    2.830
  519.750    0.294    0.427   59.406  155.962    2.969
  520.000    0.275    0.407   59.627  155.607    3.056
  520.250    0.252    0.405   58.672  155.361    3.076
  520.500    0.263    0.433   58.454  155.110    3.061
  520.750    0.281    0.451   59.118  155.061    3.040
  521.000    0.297    0.426   59.780  154.807    3.019
  521.250    0.287    0.408   60.119  154.761    3.010
  521.500    0.274    0.439   60.714  154.609    3.002
  521.750    0.276    0.462   62.119  154.572    3.009
  522.000    0.281    0.441   63.775  154.636    3.052
  522.250    0.284    0.424   66.799  154.587    3.100
  522.500    0.289    0.420   69.692  154.444    3.167
  522.750    0.289    0.418   73.592  154.189    3.242
  523.000    0.285    0.411   75.490  154.034    3.363
  523.250    0.276    0.405   73.413  153.990    3.502
  523.500    0.272    0.423   70.894  154.044    3.632
  523.750    0.273    0.442   68.875  154.111    3.753
  524.000    0.261    0.458   67.417  154.375    3.842
  524.250    0.248    0.444   69.007  155.469    3.926
  524.500    0.231    0.431   76.886  159.057    3.921
  524.750    0.215    0.459   85.451  161.498    3.909
  525.000    0.204    0.477   88.101  160.119    3.905
  525.250    0.211    0.486   82.661  159.233    3.922
  525.500    0.239    0.451   78.335  158.580    3.932
  525.750    0.256    0.422   73.207  158.112    3.906
  526.000    0.268    0.409   69.445  158.167    3.785
  526.250    0.282    0.406   70.226  158.230    3.579
  526.500    0.279    0.412   71.880  158.282    3.322
  526.750    0.262    0.426   71.233  158.245    3.244
  527.000    0.251    0.441   65.169  158.935    3.615
  527.250    0.229    0.433   57.237  159.914    4.360
  527.500    0.165    0.338   53.350  161.431    5.441
  527.750    0.105    0.216   55.691  161.592    6.295
  528.000    0.085    0.279   58.713  160.404    7.271
  528.250    0.252    0.320   61.614  158.803    8.225
  528.500    0.275    0.394   63.765  157.833    7.213
  528.750    0.288    0.412   65.416  157.363    5.911
  529.000    0.292    0.401   60.098  157.740    4.917
  529.250    0.271    0.399   63.251  158.947    4.082
  529.500    0.178    0.379   68.821  161.184    4.132
  529.750    0.090    0.279   71.471  162.380    5.156
  530.000    0.050    0.160   68.770  162.129    7.017
  530.250    0.024    0.213   66.008  161.151    8.243
  530.500    0.117    0.244   64.796  160.174    9.307
  530.750    0.265    0.283   64.084  159.713   10.332
  531.000    0.301    0.381   63.807  159.665    8.246
  531.250    0.333    0.449   64.030  159.210    6.833
  531.500    0.346    0.458   64.501  158.955    5.685
  531.750    0.348    0.433   64.851  158.803    4.765
  532.000    0.341    0.414   64.386  158.555    4.170
  532.250    0.329    0.424   62.617  158.522    3.907
  532.500    0.318    0.438   61.472  158.681    3.744
  532.750    0.308    0.421   60.884  158.842    3.622
  533.000    0.308    0.423   61.170  158.903    3.556
  533.250    0.318    0.450   61.701  159.158    3.586
  533.500    0.317    0.441   63.544  159.237    3.727
  533.750    0.314    0.437   65.942  159.280    4.014
  534.000    0.321    0.460   69.899  159.775    4.291
  534.250    0.324    0.469   70.120  160.027    4.502
  534.500    0.316    0.456   67.794  160.607    4.634
  534.750    0.310    0.459   66.210  161.090    4.673
  535.000    0.317    0.453   64.438  161.233    4.529
  535.250    0.314    0.444   60.618  161.098    4.235
  535.500    0.314    0.430   59.904  161.254    3.886
  535.750    0.320    0.416   63.798  161.323    3.592
  536.000    0.328    0.423   66.323  161.369    3.284
  536.250    0.330    0.441   63.808  161.432    3.059
  536.500    0.313    0.457   57.869  161.287    3.108
  536.750    0.268    0.466   55.104  161.140    3.279
  537.000    0.237    0.354   55.200  160.887    3.505
  537.250    0.200    0.326   55.990  160.839    3.677
  537.500    0.237    0.376   56.082  160.584    3.764
  537.750    0.290    0.397   56.182  160.438    3.860
  538.000    0.259    0.424   56.275  160.291    3.982
  538.250    0.220    0.459   57.311  160.350    4.154
  538.500    0.173    0.327   58.904  159.891    4.284
  538.750    0.280    0.346   61.300  159.426    4.167
  539.000    0.310    0.378   63.700  158.661    3.802
  539.250    0.327    0.411   62.618  158.410    3.482
  539.500    0.307    0.428   58.979  158.884    3.325
  539.750    0.256    0.449   54.286  160.291    3.371
  540.000    0.190    0.379   51.021  161.796    3.470
  540.250    0.081    0.219   51.433  164.142    3.675
  540.500    0.054    0.207   52.965  163.061    3.958
  540.750    0.069    0.200   54.679  161.043    4.353
  541.000    0.104    0.215   57.456  159.446    4.498
  541.250    0.225    0.263   60.664  158.783    4.262
  541.500    0.286    0.309   63.869  158.522    3.696
  541.750    0.289    0.402   70.444  158.592    3.353
  542.000    0.250    0.424   77.075  158.648    3.141
  542.250    0.224    0.445   78.728  158.913    3.091
  542.500    0.228    0.465   73.541  159.179    3.070
  542.750    0.263    0.480   71.393  159.446    3.049
  543.000    0.284    0.471   71.428  159.816    3.034
  543.250    0.272    0.440   72.335  160.088    3.059
  543.500    0.282    0.451   75.051  160.475    3.137
  543.750    0.280    0.469   78.880  160.514    3.181
  544.000    0.269    0.460   82.904  160.787    3.196
  544.250    0.234    0.447   84.243  161.051    3.216
  544.500    0.219    0.443   83.348  161.310    3.224
  544.750    0.244    0.445   81.885  161.791    3.282
  545.000    0.276    0.464   85.220  162.055    3.373
  545.250    0.279    0.456   82.208  162.433    3.653
  545.500    0.233    0.347   71.538  164.253    4.172
  545.750    0.166    0.306   63.544  165.972    4.738
  546.000    0.132    0.277   56.730  167.371    5.209
  546.250    0.102    0.265   59.443  165.977    5.860
  546.500    0.145    0.286   61.718  161.581    5.976
  546.750    0.181    0.326   60.637  159.357    5.453
  547.000    0.240    0.381   62.665  158.282    4.919
  547.250    0.284    0.409   67.865  157.505    4.396
  547.500    0.287    0.427   72.193  156.832    4.064
  547.750    0.285    0.443   72.353  156.190    3.924
  548.000    0.284    0.449   72.078  156.142    3.825
  548.250    0.276    0.438   73.794  155.992    3.770
  548.500    0.270    0.440   74.766  155.842    3.730
  548.750    0.284    0.432   68.014  155.677    3.747
  549.000    0.293    0.430   63.444  155.640    3.771
  549.250    0.285    0.443   66.843  155.593    3.803
