~VERSION INFORMATION
 VERS.                 2.0:   CWLS LOG ASCII STANDARD -VERSION 2.0
 WRAP.                  NO:   ONE LINE PER DEPTH STEP
~WELL INFORMATION BLOCK
#MNEM.UNIT           DATA                    DESCRIPTION OF MNEMONIC
#---------    -------------------            -------------------------------
# Generated from Intellog Unique Number	CS_69_70/WELL/805
WELL.         HUSKY OIL OPERATIONS           : Well_name    - WELL
LOC .         00/06-22-069-06W4/0            : Location     - LOCATION
UWI .         00/06-22-069-06W4/0            : Uwi          - UNIQUE WELL ID
ENTR.         SP                             : Entered      - ENTERED BY
SRVC.         SCHLUMBERGER                   : Scn          - SERVICE COMPANY
STRT.M        350                            : top_depth    - START DEPTH
STOP.M        585                            : bot_depth    - STOP DEPTH
STEP.M        0.25                           : increment    - STEP LENGTH
 NULL. -999.2500:NULL Value
~CURVE INFORMATION BLOCK
#MNEM UNIT       ERCB CURVE CODE    CURVE DESCRIPTION
#-----------   ------------------   ----------------------------------
DEPT.M        00 001 00 00         : DEPTH        - DEPTH
ILD .OHMM     00 120 00 00         : RESD         - DEEP RESISTIVITY (DIL)
DPHI.V/V      00 890 00 00         : PHID         - DENSITY POROSITY (LIMESTONE)
NPHI.V/V      00 330 00 00         : PHIN         - NEUTRON POROSITY (LIMESTONE)
GR  .API      00 310 00 00         : GR           - GAMMA RAY
~PARAMETER INFORMATION
#MNEM.UNIT           DATA             DESCRIPTION OF MNEMONIC
#---------         -----------     ------------------------------
GL  .M        710.5                : gl           - GROUND LEVEL ELEVATION
EREF.M        714.2                : kb           - ELEVATION OF DEPTH REFERENCE
DATM.M        710.5                : datum        - DATUM ELEVATION
TDD .M        591                  : tdd          - TOTAL DEPTH DRILLER
RUN .         ONE                  : Run          - RUN NUMBER
ENG .         BILL                 : Engineer     - RECORDING ENGINEER
WIT .         JIM                  : Witness      - WITNESSED BY
MUD .         GEL                  : Mud_type     - MUD TYPE
MATR.         LIMESTONE            : Logunit      - NEUTRON MATRIX
TMAX.C        27                   : BHT          - MAXIMUM RECORDED TEMPERATURE
BHTD.M        591                  : BHTDEP       - MAXIMUM RECORDED TEMPERATURE
MATR.         1                    : LOGUNIT      - NEUTRON MATRIX
RMT .C        25                   : MDTP         - TEMPERATURE OF MUD
NEUT.         1                    : NEUTRON      - NEUTRON TYPE
RESI.         0                    : RESIST       - RESISTIVITY TYPE
RMC .OHMM     0.25                 : RMC          - RESISTIVITY OF MUD CAKE
RMF .OHMM     0.25                 : RMF          - RESISTIVITY OF MUD FILTRATE
SUFT.C        15                   : SUFT         - SURFACE TEMPERATURE
~A  DEPTH     RESD     PHID     PHIN       GR
# ...
  480.500    4.303    0.305    0.554   93.749
  480.750    4.425    0.309    0.532   91.805
  481.000    4.450    0.318    0.510   89.555
  481.250    4.375    0.327    0.492   94.473
  481.500    4.205    0.317    0.478   86.100
  481.750    4.005    0.303    0.465   76.194
  482.000    3.974    0.275    0.448   70.698
  482.250    4.011    0.230    0.429   74.208
  482.500    4.117    0.241    0.435   76.613
  482.750    4.210    0.265    0.454   78.407
  483.000    4.314    0.283    0.477   79.895
  483.250    4.419    0.298    0.489   81.321
  483.500    4.511    0.295    0.478   83.358
  483.750    4.587    0.280    0.475   85.031
  484.000    4.655    0.271    0.485   86.395
  484.250    4.699    0.273    0.479   86.962
  484.500    4.716    0.276    0.468   86.797
  484.750    4.768    0.281    0.456   86.078
  485.000    4.822    0.300    0.469   85.241
  485.250    4.839    0.303    0.456   84.581
  485.500    4.811    0.284    0.414   81.657
  485.750    4.766    0.279    0.424   82.165
  486.000    4.765    0.286    0.448   82.733
  486.250    4.846    0.266    0.455   79.200
  486.500    5.096    0.265    0.453   72.786
  486.750    5.261    0.255    0.441   70.473
  487.000    5.512    0.228    0.412   76.922
  487.250    5.776    0.238    0.405   83.312
  487.500    6.040    0.265    0.419   85.777
  487.750    6.177    0.278    0.423   85.426
  488.000    6.188    0.277    0.445   81.893
  488.250    6.061    0.276    0.458   79.521
  488.500    5.570    0.284    0.481   74.942
  488.750    5.435    0.203    0.464   70.182
  489.000    5.814    0.169    0.361   68.730
  489.250    6.254    0.156    0.357   70.707
  489.500    6.752    0.272    0.394   71.765
  489.750    7.290    0.292    0.427   71.660
  490.000    8.005    0.269    0.422   70.574
  490.250    8.757    0.252    0.437   69.917
  490.500    9.688    0.278    0.453   69.263
  490.750   10.285    0.292    0.476   68.362
  491.000   10.322    0.294    0.463   66.480
  491.250    9.558    0.299    0.442   65.821
  491.500    8.670    0.311    0.434   65.594
  491.750    7.732    0.298    0.438   65.308
  492.000    7.093    0.287    0.433   65.017
  492.250    6.654    0.277    0.438   64.728
  492.500    6.219    0.291    0.428   65.907
  492.750    5.857    0.312    0.421   68.988
  493.000    5.525    0.311    0.425   73.905
  493.250    5.272    0.295    0.436   78.027
  493.500    4.974    0.279    0.443   80.492
  493.750    4.571    0.273    0.437   82.840
  494.000    4.193    0.273    0.432   84.878
  494.250    3.768    0.275    0.446   87.037
  494.500    3.020    0.276    0.458   88.708
  494.750    2.332    0.256    0.446   83.458
  495.000    2.041    0.222    0.420   79.432
  495.250    1.897    0.205    0.422   78.838
  495.500    1.810    0.290    0.454   77.445
  495.750    1.783    0.306    0.454   73.359
  496.000    1.823    0.312    0.427   71.477
  496.250    1.864    0.324    0.446   73.332
  496.500    1.935    0.336    0.504   74.635
  496.750    1.997    0.327    0.560   74.959
  497.000    2.062    0.320    0.557   73.996
  497.250    2.120    0.329    0.565   74.809
  497.500    2.168    0.340    0.581   77.705
  497.750    2.230    0.337    0.565   79.316
  498.000    2.350    0.333    0.540   79.824
  498.250    2.551    0.330    0.512   80.268
  498.500    2.849    0.312    0.511   80.900
  498.750    3.212    0.293    0.509   80.793
  499.000    3.620    0.284    0.502   81.301
  499.250    3.945    0.291    0.501   84.750
  499.500    4.197    0.290    0.511   87.706
  499.750    4.348    0.286    0.515   87.539
  500.000    4.397    0.287    0.499   81.553
  500.250    4.396    0.297    0.464   76.976
  500.500    4.363    0.299    0.419   76.261
  500.750    4.217    0.257    0.390   76.826
  501.000    4.062    0.207    0.393   79.600
  501.250    3.803    0.213    0.411   81.393
  501.500    3.535    0.227    0.427   79.634
  501.750    3.230    0.239    0.407   75.118
  502.000    3.048    0.219    0.390   80.588
  502.250    2.969    0.168    0.379   86.668
  502.500    2.968    0.193    0.415   90.484
  502.750    3.181    0.223    0.436   91.300
  503.000    3.532    0.242    0.463   90.824
  503.250    3.886    0.250    0.488   89.064
  503.500    4.133    0.255    0.497   86.999
  503.750    4.437    0.256    0.493   87.691
  504.000    4.746    0.261    0.489   87.952
  504.250    5.144    0.251    0.476   87.235
  504.500    5.492    0.238    0.456   85.598
  504.750    5.585    0.220    0.425   84.024
  505.000    5.470    0.192    0.406   82.816
  505.250    5.327    0.177    0.393   85.590
  505.500    5.277    0.178    0.387   89.281
  505.750    4.850    0.185    0.381   92.115
  506.000    4.383    0.202    0.388   92.869
  506.250    4.020    0.212    0.408   93.131
  506.500    4.252    0.222    0.420   95.108
  506.750    4.472    0.229    0.413   96.659
  507.000    4.703    0.227    0.408   97.163
  507.250    5.145    0.236    0.416   96.139
  507.500    5.473    0.242    0.439   93.522
  507.750    6.158    0.235    0.466   87.965
  508.000    7.139    0.218    0.453   80.878
  508.250    9.124    0.191    0.397   74.157
  508.500   11.064    0.190    0.368   80.178
  508.750   12.613    0.212    0.402   83.563
  509.000   13.876    0.226    0.409   83.335
  509.250   14.621    0.239    0.381   73.553
  509.500   14.674    0.242    0.355   65.913
  509.750   14.001    0.194    0.325   57.356
  510.000   14.370    0.116    0.278   52.717
  510.250   13.635    0.102    0.270   57.695
  510.500   14.366    0.150    0.286   61.020
  510.750   15.195    0.185    0.300   61.715
  511.000   16.530    0.238    0.309   61.730
  511.250   18.321    0.295    0.317   62.114
  511.500   19.342    0.287    0.317   63.110
  511.750   20.305    0.291    0.320   64.353
  512.000   20.608    0.320    0.332   65.288
  512.250   20.606    0.343    0.350   65.735
  512.500   20.449    0.335    0.365   65.448
  512.750   20.181    0.322    0.394   64.788
  513.000   19.582    0.314    0.408   64.806
  513.250   18.683    0.307    0.407   67.518
  513.500   17.826    0.302    0.400   70.414
  513.750   16.881    0.309    0.394   71.780
  514.000   15.456    0.316    0.403   68.981
  514.250   13.863    0.319    0.413   66.056
  514.500   12.574    0.322    0.409   64.787
  514.750   11.491    0.324    0.410   66.397
  515.000   10.700    0.326    0.428   71.683
  515.250   10.020    0.327    0.428   75.067
  515.500    9.596    0.324    0.412   77.903
  515.750    9.346    0.313    0.399   80.248
  516.000    9.035    0.303    0.386   82.469
  516.250    9.017    0.297    0.406   83.223
  516.500    9.101    0.289    0.422   81.952
  516.750    9.306    0.269    0.406   79.397
  517.000    9.861    0.249    0.351   74.330
  517.250   10.237    0.230    0.332   71.162
  517.500   10.488    0.209    0.349   69.281
  517.750   10.447    0.217    0.365   62.868
  518.000   10.080    0.236    0.381   56.944
  518.250    9.247    0.252    0.378   53.406
  518.500    8.482    0.269    0.341   58.508
  518.750    8.292    0.219    0.323   66.059
  519.000    8.276    0.200    0.337   70.303
  519.250    8.431    0.232    0.342   74.976
  519.500    8.719    0.246    0.347   78.975
  519.750    8.982    0.232    0.353   81.563
  520.000    8.999    0.216    0.366   82.501
  520.250    8.947    0.219    0.374   81.538
  520.500    8.813    0.229    0.356   80.024
  520.750    8.504    0.216    0.355   79.245
  521.000    8.205    0.217    0.358   80.057
  521.250    8.007    0.212    0.348   81.483
  521.500    7.784    0.201    0.347   81.318
  521.750    7.596    0.195    0.343   80.170
  522.000    7.412    0.197    0.332   82.638
  522.250    7.273    0.194    0.321   87.065
  522.500    7.300    0.185    0.339   91.431
  522.750    7.326    0.179    0.349   95.308
  523.000    7.366    0.163    0.351   97.773
  523.250    7.604    0.146    0.363   99.322
  523.500    8.899    0.153    0.352   96.950
  523.750   12.466    0.174    0.345   95.805
