~VERSION INFORMATION
 VERS.                 2.0:   CWLS LOG ASCII STANDARD -VERSION 2.0
 WRAP.                  NO:   ONE LINE PER DEPTH STEP
~WELL INFORMATION BLOCK
#MNEM.UNIT           DATA                    DESCRIPTION OF MNEMONIC
#---------    -------------------            -------------------------------
# Generated from Intellog Unique Number	CC_80_83/WELL/1172
NULL.         -999.25                        : NULL_VALUE
WELL.         HPCI PCEJ CHARD                : Well_name
LOC .         07-06-080-06W4                 : Location     - LOCATION          
UWI .         00/07-06-080-06W400            : Uwi          - UNIQUE WELL ID    
ENTR.         DW                             : Entered      - ENTERED BY        
SRVC.         SCHLUMBERGER                   : Scn          - SERVICE COMPANY   
DATE.         17 JAN 85                      : Date         - LOG DATE
STRT.M        120                            : top_depth    - START DEPTH       
STOP.M        359.997                        : bot_depth    - STOP DEPTH        
STEP.M        0.3                            : increment    - STEP LENGTH       
~CURVE INFORMATION BLOCK
#MNEM UNIT       ERCB CURVE CODE    CURVE DESCRIPTION
#-----------   ------------------   ----------------------------------
DEPT.M        00 001 00 00         : DEPTH        - DEPTH                       
DPHI.V/V      00 890 00 00         : PHID         - DENSITY POROSITY (LIMESTONE)
NPHI.V/V      00 330 00 00         : PHIN         - NEUTRON POROSITY (LIMESTONE)
GR  .API      00 310 00 00         : GR           - GAMMA RAY                   
ILD .OHMM     00 120 00 00         : RESD         - DEEP RESISTIVITY (DIL)      
~PARAMETER INFORMATION       
#MNEM.UNIT           DATA             DESCRIPTION OF MNEMONIC
#---------         -----------     ------------------------------
GL  .M        552                  : gl           - GROUND LEVEL ELEVATION      
EREF.M        555.25               : kb           - ELEVATION OF DEPTH REFERENCE
DATM.M        555.25               : datum        - DATUM ELEVATION             
TDD .M        380                  : tdd          - TOTAL DEPTH DRILLER         
RUN .         ONE                  : Run          - RUN NUMBER                  
ENG .         BILL                 : Engineer     - RECORDING ENGINEER          
WIT .         JIM                  : Witness      - WITNESSED BY                
MUD .         GEL                  : Mud_type     - MUD TYPE                    
MATR.         LIMESTONE            : Logunit      - NEUTRON MATRIX              
TMAX.C        20                   : BHT          - MAXIMUM RECORDED TEMPERATURE
BHTD.M        380                  : BHTDEP       - MAXIMUM RECORDED TEMPERATURE
MATR.         1                    : LOGUNIT      - NEUTRON MATRIX              
RMT .C        25                   : MDTP         - TEMPERATURE OF MUD          
NEUT.         1                    : NEUTRON      - NEUTRON TYPE                
RESI.         0                    : RESIST       - RESISTIVITY TYPE            
RMC .OHMM     0.25                 : RMC          - RESISTIVITY OF MUD CAKE     
RMF .OHMM     0.25                 : RMF          - RESISTIVITY OF MUD FILTRATE 
SUFT.C        15                   : SUFT         - SURFACE TEMPERATURE         
~A  DEPTH     PHID     PHIN       GR     RESD
# ...
  172.201    0.324    0.421   57.575   25.750
  172.501    0.318    0.419   60.666   26.750
  172.801    0.318    0.402   53.278   26.250
  173.101    0.348    0.367   53.286   27.793
  173.401    0.316    0.362   55.764   28.871
  173.701    0.293    0.390   47.758   29.427
  174.001    0.329    0.384   41.601   28.336
  174.301    0.342    0.361   52.097   26.770
  174.601    0.332    0.391   68.142   23.442
  174.901    0.324    0.407   78.636   21.322
  175.201    0.313    0.416   78.647   19.765
  175.501    0.297    0.412   78.658   18.322
  175.801    0.277    0.411   90.386   14.872
  176.101    0.265    0.417   92.867   13.786
  176.401    0.277    0.423   93.491   14.052
  176.701    0.281    0.411   95.969   14.598
  177.001    0.270    0.412   99.065   14.879
  177.301    0.265    0.432   95.994   14.326
  177.601    0.281    0.432   94.152   13.031
  177.901    0.268    0.427   97.862   11.629
  178.201    0.248    0.459  112.057    9.992
  178.501    0.248    0.468  119.472    8.918
  178.801    0.256    0.447  118.248    8.267
  179.101    0.230    0.451  123.809    7.960
  179.401    0.224    0.454  125.671    8.113
  179.701    0.245    0.452  115.196    9.093
  180.001    0.291    0.467  102.872   10.996
  180.301    0.324    0.464   88.697   13.046
  180.601    0.331    0.452   98.576   14.076
  180.901    0.302    0.437  104.138   14.348
  181.201    0.257    0.452  105.999   13.555
  181.501    0.243    0.465  112.178   12.566
  181.801    0.235    0.475  116.504   11.648
  182.101    0.240    0.452  118.365   10.798
  182.401    0.235    0.447  123.927   10.010
  182.701    0.256    0.458  122.706    9.457
  183.001    0.258    0.464  119.015    9.458
  183.301    0.238    0.480  112.859    9.825
  183.601    0.247    0.485  109.168   10.602
  183.901    0.294    0.465  100.544   12.110
  184.201    0.293    0.453   99.321   15.501
  184.501    0.283    0.459  107.352   16.102
  184.801    0.288    0.468  108.595   15.214
  185.101    0.289    0.433  103.670   14.929
  185.401    0.277    0.419  105.531   14.375
  185.701    0.225    0.427  105.543   14.106
  186.001    0.223    0.406  104.322   14.107
  186.301    0.234    0.407  112.348   13.844
  186.601    0.213    0.475  116.060   13.585
  186.901    0.239    0.517  108.051   15.815
  187.201    0.298    0.508   83.394   20.632
  187.501    0.342    0.469   64.286   22.263
  187.801    0.346    0.424   69.849   22.692
  188.101    0.338    0.443   68.009   22.695
  188.401    0.320    0.435   63.085   23.576
  188.701    0.312    0.440   63.096   24.030
  189.001    0.317    0.454   60.640   24.033
  189.301    0.341    0.445   61.268   24.497
  189.601    0.347    0.434   65.596   24.040
  189.901    0.351    0.429   64.371   23.147
  190.201    0.345    0.447   63.766   22.287
  190.501    0.335    0.475   69.945   21.459
  190.801    0.331    0.450   73.655   21.059
  191.101    0.326    0.425   63.181   21.465
  191.401    0.338    0.450   63.812   22.298
  191.701    0.352    0.472   65.670   22.301
  192.001    0.342    0.429   60.747   22.304
  192.301    0.347    0.439   65.693   21.887
  192.601    0.339    0.452   69.405   21.478
  192.901    0.333    0.441   68.796   19.536
  193.201    0.325    0.431   70.042   18.110
  193.501    0.320    0.460   74.984   17.110
  193.801    0.339    0.494   79.932   16.165
  194.101    0.336    0.440   79.940   15.564
  194.401    0.316    0.434   76.868   15.273
  194.701    0.305    0.430   66.394   16.170
  195.001    0.343    0.440   60.853   17.783
  195.301    0.336    0.432   64.567   18.126
  195.601    0.333    0.433   69.513   17.453
  195.901    0.331    0.432   72.603   16.804
  196.201    0.316    0.422   78.165   15.578
  196.501    0.300    0.442   82.492   14.441
  196.801    0.302    0.471   76.954   13.904
  197.101    0.302    0.432   70.797   13.388
  197.401    0.291    0.417   74.507   13.646
  197.701    0.302    0.426   79.455   13.392
  198.001    0.319    0.446   81.314   13.141
  198.301    0.301    0.440   81.324   12.415
  198.601    0.282    0.436   78.250   11.080
  198.901    0.283    0.438   75.796   11.081
  199.201    0.309    0.441   75.805   11.732
  199.501    0.294    0.422   79.518   12.188
  199.801    0.286    0.442   80.761   12.189
  200.101    0.304    0.439   74.604   11.737
  200.401    0.299    0.437   71.531   11.963
  200.701    0.302    0.444   75.859   12.908
  201.001    0.303    0.434   71.553   13.666
  201.301    0.293    0.401   63.546   14.197
  201.601    0.329    0.397   67.875   13.932
  201.901    0.331    0.427   73.436   13.671
  202.201    0.317    0.453   74.063   12.674
  202.501    0.289    0.418   79.008   12.436
  202.801    0.283    0.424   78.400   12.919
  203.101    0.331    0.457   63.610   13.169
  203.401    0.324    0.413   72.257   12.923
  203.701    0.294    0.413   77.816   12.443
  204.001    0.284    0.432   80.913   10.896
  204.301    0.274    0.438   80.305   10.294
  204.601    0.305    0.433   77.849   10.493
  204.901    0.307    0.421   72.925   10.900
  205.201    0.315    0.423   62.452   13.180
  205.501    0.339    0.428   57.528   18.201
  205.801    0.337    0.449   63.707   24.665
  206.101    0.335    0.437   70.501   26.614
  206.401    0.341    0.438   66.812   27.126
  206.701    0.337    0.461   64.976   27.130
  207.001    0.335    0.482   64.986   26.625
  207.301    0.342    0.469   63.764   26.126
  207.601    0.363    0.485   64.389   25.637
  207.901    0.353    0.490   65.019   25.158
  208.201    0.353    0.463   65.027   23.768
  208.501    0.362    0.451   65.037   23.325
  208.801    0.357    0.420   63.197   23.329
  209.101    0.347    0.418   60.743   23.778
  209.401    0.339    0.430   62.602   24.236
  209.701    0.342    0.427   64.463   25.661
  210.001    0.341    0.435   60.156   26.154
  210.301    0.327    0.446   58.935   27.170
  210.601    0.332    0.456   58.945   27.173
  210.901    0.353    0.412   66.973   24.715
  211.201    0.362    0.428   78.086   10.129
  211.501    0.325    0.461   91.046    4.395
  211.801    0.270    0.536  110.794    3.434
  212.101    0.268    0.550  112.037    3.244
  212.401    0.260    0.506  111.430    3.245
  212.701    0.242    0.491  112.677    3.435
  213.001    0.254    0.516  107.752    3.850
  213.301    0.283    0.543   92.963    4.482
  213.601    0.309    0.547   88.038    5.420
  213.901    0.294    0.523   80.649    6.937
  214.201    0.278    0.525   75.724    9.400
  214.501    0.291    0.483   75.735   11.807
  214.801    0.318    0.423   82.531   12.034
  215.101    0.323    0.440   91.175    8.552
  215.401    0.303    0.527   91.802    3.311
  215.701    0.260    0.513   97.980    2.739
  216.001    0.274    0.530  108.476    2.637
  216.301    0.275    0.519  107.256    3.012
  216.601    0.245    0.446  106.031    3.574
  216.901    0.239    0.434  106.040    4.575
  217.201    0.241    0.461  115.302    6.082
  217.501    0.240    0.497  121.481    5.856
  217.801    0.248    0.510  118.407    5.327
  218.101    0.259    0.527  110.400    4.938
  218.401    0.261    0.533  109.794    4.491
  218.701    0.264    0.541  117.825    4.164
  219.001    0.265    0.566  112.900    3.934
  219.301    0.257    0.579  103.044    4.165
  219.601    0.231    0.585  103.672    4.409
  219.901    0.240    0.509  108.615    4.410
  220.201    0.250    0.515  119.111    4.246
  220.501    0.250    0.534  116.040    4.088
  220.801    0.256    0.538  113.582    3.863
  221.101    0.270    0.555  112.358    4.012
  221.401    0.272    0.544  101.269    4.583
  221.701    0.265    0.523  101.897    4.852
  222.001    0.258    0.499  110.540    5.439
  222.301    0.256    0.506  109.940    5.543
  222.601    0.257    0.514  109.329    5.139
  222.901    0.239    0.504  108.108    4.674
  223.201    0.222    0.527  104.418    4.171
  223.501    0.242    0.547  102.576    3.867
  223.801    0.253    0.562  101.971    3.867
  224.101    0.256    0.598  101.985    3.942
