~VERSION INFORMATION
 VERS.                 2.0:   CWLS LOG ASCII STANDARD -VERSION 2.0
 WRAP.                  NO:   ONE LINE PER DEPTH STEP
~WELL INFORMATION BLOCK
#MNEM.UNIT           DATA                    DESCRIPTION OF MNEMONIC
#---------    -------------------            -------------------------------
# Generated from Intellog Unique Number	CS_73_76/WELL/2165
WELL.         AMOCO KIRBY 6-20               : Well_name    - WELL
LOC .         00/06-20-074-06W4/0            : Location     - LOCATION
UWI .         00/06-20-074-06W4/0            : Uwi          - UNIQUE WELL ID
ENTR.         SP                             : Entered      - ENTERED BY
SRVC.         SCHLUMBERGER                   : Scn          - SERVICE COMPANY
STRT.M        245                            : top_depth    - START DEPTH
STOP.M        475                            : bot_depth    - STOP DEPTH
STEP.M        0.25                           : increment    - STEP LENGTH
 NULL. -999.2500:NULL Value
~CURVE INFORMATION BLOCK
#MNEM UNIT       ERCB CURVE CODE    CURVE DESCRIPTION
#-----------   ------------------   ----------------------------------
DEPT.M        00 001 00 00         : DEPTH        - DEPTH
ILD .OHMM     00 120 00 00         : RESD         - DEEP RESISTIVITY (DIL)
DPHI.V/V      00 890 00 00         : PHID         - DENSITY POROSITY (LIMESTONE)
NPHI.V/V      00 330 00 00         : PHIN         - NEUTRON POROSITY (LIMESTONE)
GR  .API      00 310 00 00         : GR           - GAMMA RAY
~PARAMETER INFORMATION
#MNEM.UNIT           DATA             DESCRIPTION OF MNEMONIC
#---------         -----------     ------------------------------
GL  .M        640.5                : gl           - GROUND LEVEL ELEVATION
EREF.M        643.6                : kb           - ELEVATION OF DEPTH REFERENCE
DATM.M        640.5                : datum        - DATUM ELEVATION
TDD .M        480                  : tdd          - TOTAL DEPTH DRILLER
RUN .         ONE                  : Run          - RUN NUMBER
ENG .         BILL                 : Engineer     - RECORDING ENGINEER
WIT .         JIM                  : Witness      - WITNESSED BY
MUD .         GEL                  : Mud_type     - MUD TYPE
MATR.         LIMESTONE            : Logunit      - NEUTRON MATRIX
TMAX.C        21                   : BHT          - MAXIMUM RECORDED TEMPERATURE
BHTD.M        480                  : BHTDEP       - MAXIMUM RECORDED TEMPERATURE
MATR.         1                    : LOGUNIT      - NEUTRON MATRIX
RMT .C        25                   : MDTP         - TEMPERATURE OF MUD
NEUT.         1                    : NEUTRON      - NEUTRON TYPE
RESI.         0                    : RESIST       - RESISTIVITY TYPE
RMC .OHMM     0.25                 : RMC          - RESISTIVITY OF MUD CAKE
RMF .OHMM     0.25                 : RMF          - RESISTIVITY OF MUD FILTRATE
SUFT.C        15                   : SUFT         - SURFACE TEMPERATURE
~A  DEPTH     RESD     PHID     PHIN       GR
# ...
  375.500    5.544    0.281    0.430   62.669
  375.750    5.545    0.274    0.425   61.453
  376.000    5.653    0.271    0.425   67.582
  376.250    5.764    0.262    0.427   71.876
  376.500    5.766    0.261    0.432   73.106
  376.750    5.768    0.261    0.439   72.503
  377.000    5.771    0.262    0.431   74.962
  377.250    5.774    0.262    0.411   76.192
  377.500    5.776    0.261    0.407   77.424
  377.750    5.780    0.259    0.412   77.430
  378.000    5.782    0.262    0.400   75.601
  378.250    5.785    0.269    0.389   77.444
  378.500    5.787    0.272    0.391   76.841
  378.750    5.790    0.270    0.401   75.010
  379.000    5.903    0.274    0.418   73.181
  379.250    6.018    0.267    0.428   72.579
  379.500    6.253    0.259    0.428   71.973
  379.750    6.374    0.263    0.416   71.366
  380.000    6.377    0.275    0.401   86.777
  380.250    6.144    0.285    0.401   84.297
  380.500    5.701    0.280    0.408   82.438
  380.750    5.491    0.289    0.413   79.959
  381.000    4.907    0.308    0.409   78.099
  381.250    4.726    0.315    0.408   76.240
  381.500    4.223    0.311    0.403   74.380
  381.750    3.917    0.296    0.398   74.380
  382.000    3.370    0.292    0.380   74.380
  382.250    3.126    0.286    0.379   72.521
  382.500    2.955    0.276    0.387   70.041
  382.750    2.741    0.298    0.404   69.421
  383.000    2.496    0.329    0.428   63.843
  383.250    2.405    0.356    0.445   59.504
  383.500    2.317    0.390    0.441   61.364
  383.750    2.275    0.374    0.431   63.223
  384.000    2.275    0.358    0.430   65.083
  384.250    2.276    0.360    0.460   61.364
  384.500    2.321    0.385    0.475   60.744
  384.750    2.457    0.401    0.486   62.603
  385.000    2.702    0.382    0.487   74.380
  385.250    2.860    0.346    0.468   80.579
  385.500    3.266    0.354    0.457   75.620
  385.750    3.729    0.354    0.444   66.322
  386.000    4.177    0.328    0.444   66.322
  386.250    5.242    0.308    0.447   66.322
  386.500    6.577    0.309    0.435   65.703
  386.750    8.409    0.362    0.424   67.562
  387.000   11.379    0.386    0.399   69.421
  387.250   15.398    0.394    0.342   68.802
  387.500   20.064    0.391    0.354   63.223
  387.750   24.241    0.379    0.329   61.983
  388.000   28.204    0.384    0.301   53.926
  388.250   30.431    0.405    0.286   50.826
  388.500   31.031    0.416    0.321   52.686
  388.750   30.464    0.402    0.334   50.826
  389.000   28.799    0.385    0.336   48.347
  389.250   26.218    0.381    0.344   50.207
  389.500   24.785    0.387    0.361   47.107
  389.750   23.431    0.395    0.372   45.868
  390.000   23.445    0.394    0.360   48.967
  390.250   23.899    0.378    0.341   42.905
  390.500   23.908    0.387    0.316   44.750
  390.750   24.378    0.398    0.322   49.044
  391.000   24.857    0.399    0.332   50.273
  391.250   24.398    0.383    0.341   46.607
  391.500   23.504    0.378    0.348   49.676
  391.750   21.398    0.382    0.338   51.520
  392.000   19.118    0.386    0.332   50.304
  392.250   17.735    0.388    0.340   47.862
  392.500   15.256    0.382    0.336   44.808
  392.750   12.170    0.364    0.332   42.366
  393.000    9.527    0.320    0.337   46.048
  393.250    8.195    0.282    0.379   46.667
  393.500    6.663    0.291    0.384   48.511
  393.750    5.841    0.330    0.386   51.581
  394.000    5.317    0.351    0.402   52.199
  394.250    4.840    0.353    0.436   49.147
  394.500    4.663    0.348    0.453   50.990
  394.750    4.493    0.348    0.427   54.672
  395.000    4.667    0.349    0.431   55.904
  395.250    5.036    0.349    0.440   51.013
  395.500    5.861    0.353    0.415   47.346
  395.750    6.443    0.360    0.391   46.743
  396.000    6.951    0.370    0.396   46.750
  396.250    8.722    0.384    0.414   44.919
  396.500    9.588    0.385    0.414   41.865
  396.750   12.975    0.375    0.401   44.322
  397.000   15.095    0.371    0.421   47.392
  397.250   16.596    0.370    0.438   45.562
  397.500   17.576    0.366    0.456   48.019
  397.750   18.261    0.366    0.416   50.475
  398.000   18.268    0.356    0.384   49.258
  398.250   18.625    0.158    0.353   46.816
  398.500   18.634    0.199    0.369   44.987
  398.750   18.996    0.324    0.393   46.831
  399.000   19.003    0.348    0.422   49.288
  399.250   19.013    0.349    0.415   50.519
  399.500   19.021    0.353    0.420   50.526
  399.750   19.396    0.359    0.435   49.310
  400.000   19.402    0.355    0.450   52.990
  400.250   19.410    0.350    0.445   57.284
  400.500   19.417    0.348    0.433   51.169
  400.750   19.433    0.348    0.423   48.114
  401.000   19.077    0.349    0.409   50.571
  401.250   18.727    0.330    0.412   52.415
  401.500   18.382    0.269    0.396   51.812
  401.750   18.392    0.275    0.387   51.206
  402.000   19.470    0.327    0.399   51.216
  402.250   21.408    0.335    0.413   53.059
  402.500   22.241    0.320    0.399   54.291
  402.750   21.837    0.318    0.397   54.910
  403.000   20.257    0.315    0.413   55.530
  403.250   18.097    0.313    0.416   54.925
  403.500   16.477    0.336    0.409   53.707
  403.750   16.179    0.360    0.420   51.266
  404.000   15.881    0.363    0.442   53.111
  404.250   16.192    0.339    0.434   56.179
  404.500   16.505    0.335    0.435   54.961
  404.750   17.149    0.336    0.446   52.520
  405.000   17.821    0.339    0.454   53.754
  405.250   18.165    0.341    0.459   54.372
  405.500   18.172    0.346    0.424   53.157
  405.750   17.840    0.350    0.377   53.774
  406.000   17.518    0.340    0.376   51.946
  406.250   17.522    0.316    0.382   47.668
  406.500   17.866    0.294    0.387   41.552
  406.750   18.214    0.288    0.387   40.334
  407.000   18.923    0.308    0.382   41.566
  407.250   20.039    0.330    0.379   38.514
  407.500   20.818    0.331    0.385   41.583
  407.750   21.221    0.333    0.391   44.038
  408.000   21.232    0.336    0.383   44.045
  408.250   21.241    0.337    0.382   44.056
  408.500   20.467    0.336    0.381   44.060
  408.750   20.090    0.333    0.383   44.683
  409.000   18.291    0.338    0.399   44.688
  409.250   16.033    0.341    0.412   45.921
  409.500   13.035    0.332    0.401   47.157
  409.750   11.645    0.314    0.386   47.774
  410.000   11.009    0.272    0.369   49.003
  410.250   10.409    0.247    0.370   53.296
  410.500   10.413    0.242    0.367   56.364
  410.750   10.222    0.249    0.367   57.596
  411.000   10.226    0.251    0.358   60.054
  411.250   10.428    0.251    0.350   61.285
  411.500   10.431    0.252    0.350   61.292
  411.750   10.634    0.253    0.350   60.076
  412.000   11.050    0.256    0.347   61.921
  412.250   11.264    0.253    0.347   63.765
  412.500   11.929    0.253    0.361   62.548
  412.750   12.161    0.257    0.371   58.268
  413.000   12.633    0.258    0.376   53.990
  413.250   12.879    0.253    0.366   55.222
  413.500   13.130    0.247    0.355   57.066
  413.750   13.645    0.242    0.349   52.177
  414.000   13.910    0.254    0.345   48.510
  414.250   14.452    0.260    0.343   51.580
  414.500   14.732    0.268    0.353   55.872
  414.750   15.307    0.275    0.346   58.940
  415.000   15.313    0.273    0.342   58.948
  415.250   15.910    0.274    0.359   56.507
  415.500   16.220    0.279    0.356   55.902
  415.750   16.536    0.284    0.351   54.073
  416.000   16.858    0.286    0.357   52.855
  416.250   16.866    0.281    0.362   54.089
  416.500   16.873    0.276    0.366   55.319
  416.750   16.570    0.276    0.359   57.164
  417.000   16.577    0.282    0.357   57.170
  417.250   16.275    0.285    0.359   59.015
  417.500   16.283    0.285    0.356   59.636
  417.750   16.290    0.274    0.355   58.419
  418.000   16.296    0.266    0.359   56.589
  418.250   16.302    0.260    0.365   59.044
  418.500   16.620    0.270    0.354   59.665
  418.750   16.944    0.274    0.351   57.224
