~VERSION INFORMATION
 VERS.                 2.0:   CWLS LOG ASCII STANDARD -VERSION 2.0
 WRAP.                  NO:   ONE LINE PER DEPTH STEP
~WELL INFORMATION BLOCK
#MNEM.UNIT           DATA                    DESCRIPTION OF MNEMONIC
#---------    -------------------            -------------------------------
# Generated from Intellog Unique Number	CS_67_68/WELL/2180
WELL.         07-33-067-04W4                 : Well_name    - WELL
LOC .         00/07-33-067-04W4/0            : Location     - LOCATION
UWI .         00/07-33-067-04W4/0            : Uwi          - UNIQUE WELL ID
ENTR.         SP                             : Entered      - ENTERED BY
SRVC.         SCHLUMBERGER                   : Scn          - SERVICE COMPANY
STRT.M        345                            : top_depth    - START DEPTH
STOP.M        571                            : bot_depth    - STOP DEPTH
STEP.M        0.25                           : increment    - STEP LENGTH
 NULL. -999.2500:NULL Value
~CURVE INFORMATION BLOCK
#MNEM UNIT       ERCB CURVE CODE    CURVE DESCRIPTION
#-----------   ------------------   ----------------------------------
DEPT.M        00 001 00 00         : DEPTH        - DEPTH
ILD .OHMM     00 120 00 00         : RESD         - DEEP RESISTIVITY (DIL)
DPHI.V/V      00 890 00 00         : PHID         - DENSITY POROSITY (LIMESTONE)
NPHI.V/V      00 330 00 00         : PHIN         - NEUTRON POROSITY (LIMESTONE)
GR  .API      00 310 00 00         : GR           - GAMMA RAY
CALI.MM       00 280 01 00         : CAL          - CALIPER
~PARAMETER INFORMATION
#MNEM.UNIT           DATA             DESCRIPTION OF MNEMONIC
#---------         -----------     ------------------------------
GL  .M        697.8                : gl           - GROUND LEVEL ELEVATION
EREF.M        701.6                : kb           - ELEVATION OF DEPTH REFERENCE
DATM.M        701.6                : datum        - DATUM ELEVATION
TDD .M        577                  : tdd          - TOTAL DEPTH DRILLER
RUN .         ONE                  : Run          - RUN NUMBER
ENG .         BILL                 : Engineer     - RECORDING ENGINEER
WIT .         JIM                  : Witness      - WITNESSED BY
MUD .         GEL                  : Mud_type     - MUD TYPE
MATR.         LIMESTONE            : Logunit      - NEUTRON MATRIX
TMAX.C        22.7                 : BHT          - MAXIMUM RECORDED TEMPERATURE
BHTD.M        577                  : BHTDEP       - MAXIMUM RECORDED TEMPERATURE
MATR.         1                    : LOGUNIT      - NEUTRON MATRIX
RMT .C        25                   : MDTP         - TEMPERATURE OF MUD
NEUT.         1                    : NEUTRON      - NEUTRON TYPE
RESI.         0                    : RESIST       - RESISTIVITY TYPE
RMC .OHMM     0.25                 : RMC          - RESISTIVITY OF MUD CAKE
RMF .OHMM     0.25                 : RMF          - RESISTIVITY OF MUD FILTRATE
SUFT.C        15                   : SUFT         - SURFACE TEMPERATURE
~A  DEPTH     RESD     PHID     PHIN       GR      CAL
# ...
  491.000   20.583    0.348    0.450   63.049  157.827
  491.250   19.704    0.352    0.453   62.808  158.134
  491.500   16.290    0.343    0.466   62.505  158.239
  491.750   10.668    0.327    0.386   62.324  158.243
  492.000    6.114    0.281    0.372   63.728  160.787
  492.250    4.415    0.225    0.372   66.840  164.551
  492.500    2.886    0.265    0.479   71.842  167.603
  492.750    2.445    0.328    0.503   75.747  168.317
  493.000    2.233    0.329    0.512   79.224  165.272
  493.250    2.166    0.308    0.528   80.141  164.056
  493.500    2.161    0.314    0.552   79.655  164.771
  493.750    2.151    0.306    0.568   79.413  164.571
  494.000    2.163    0.296    0.570   78.562  162.746
  494.250    2.174    0.295    0.550   76.918  160.005
  494.500    2.168    0.291    0.526   78.505  157.468
  494.750    2.168    0.286    0.512   82.593  156.049
  495.000    2.167    0.290    0.512   84.729  155.442
  495.250    2.190    0.290    0.543   81.804  154.836
  495.500    2.227    0.289    0.585   78.209  154.332
  495.750    2.234    0.289    0.613   80.589  154.233
  496.000    2.250    0.290    0.577   84.493  154.237
  496.250    2.270    0.292    0.520   84.800  154.240
  496.500    2.269    0.297    0.511   87.364  154.346
  496.750    2.285    0.299    0.514   90.170  154.552
  497.000    2.393    0.296    0.519   91.087  154.759
  497.250    2.522    0.291    0.523   86.943  155.169
  497.500    2.578    0.285    0.532   88.591  155.173
  497.750    2.582    0.277    0.510   92.618  154.871
  498.000    2.551    0.271    0.498   96.705  154.468
  498.250    2.536    0.270    0.536   99.817  154.471
  498.500    2.554    0.283    0.557  101.100  154.780
  498.750    2.611    0.291    0.543   99.760  155.190
  499.000    2.684    0.293    0.518   95.494  155.193
  499.250    2.760    0.290    0.528   93.423  155.197
  499.500    2.811    0.282    0.541   97.754  155.200
  499.750    2.874    0.276    0.552   96.415  155.611
  500.000    3.033    0.284    0.562   92.271  156.223
  500.250    3.219    0.281    0.535   90.261  157.041
  500.500    3.398    0.282    0.505   90.567  157.349
  500.750    3.668    0.281    0.485   93.923  157.555
  501.000    3.902    0.276    0.471   94.718  157.559
  501.250    4.236    0.268    0.475   93.562  157.766
  501.500    4.539    0.265    0.489   94.051  157.972
  501.750    4.937    0.257    0.482   94.968  157.772
  502.000    5.380    0.246    0.474   93.019  158.080
  502.250    5.732    0.193    0.462   91.741  158.491
  502.500    5.860    0.137    0.400   92.901  158.291
  502.750    4.965    0.108    0.411   94.794  158.193
  503.000    4.104    0.189    0.433  101.320  158.197
  503.250    3.400    0.249    0.454  105.895  158.505
  503.500    2.832    0.263    0.472  109.861  158.814
  503.750    2.586    0.264    0.496  114.985  159.123
  504.000    2.443    0.252    0.523  116.329  159.432
  504.250    2.424    0.242    0.543  113.648  159.434
  504.500    2.549    0.251    0.525  111.943  159.641
  504.750    2.863    0.253    0.516  112.006  159.745
  505.000    3.209    0.255    0.533  109.447  159.748
  505.250    3.550    0.253    0.549  101.949  159.650
  505.500    3.949    0.241    0.532   95.792  159.755
  505.750    4.494    0.231    0.469   91.892  159.759
  506.000    5.047    0.216    0.456   91.589  160.067
  506.250    5.830    0.201    0.467   86.530  160.376
  506.500    6.609    0.204    0.406   79.337  160.379
  506.750    7.408    0.220    0.393   75.681  160.383
  507.000    8.273    0.029    0.377   70.439  160.183
  507.250    9.101    0.008    0.315   62.575  160.186
  507.500    9.624    0.010    0.304   68.675  160.088
  507.750    9.299    0.079    0.356   75.628  159.787
  508.000    8.590    0.202    0.382   73.740  159.790
  508.250    7.830    0.270    0.414   71.791  159.590
  508.500    7.841    0.272    0.424   76.793  159.493
  508.750    8.545    0.267    0.406   79.478  159.496
  509.000    9.687    0.281    0.422   75.029  159.499
  509.250   11.232    0.295    0.438   71.738  159.299
  509.500   13.147    0.305    0.454   68.265  158.795
  509.750   14.988    0.316    0.450   65.950  158.190
  510.000   16.242    0.325    0.433   70.220  158.091
  510.250   14.395    0.325    0.410   75.039  157.890
  510.500   10.552    0.325    0.382   79.005  157.488
  510.750    8.528    0.317    0.383   81.629  157.085
  511.000    7.531    0.310    0.401   83.582  156.682
  511.250    6.238    0.313    0.411   82.913  156.380
  511.500    5.915    0.319    0.421   78.281  156.181
  511.750    5.857    0.324    0.426   75.357  155.982
  512.000    5.910    0.328    0.410   73.712  155.883
  512.250    6.110    0.323    0.397   73.958  155.784
  512.500    6.200    0.322    0.395   80.851  155.788
  512.750    6.362    0.315    0.394   90.060  156.096
  513.000    6.516    0.306    0.402   96.648  156.811
  513.250    6.662    0.306    0.416  101.467  157.729
  513.500    6.848    0.302    0.432  104.944  158.546
  513.750    6.975    0.289    0.448  104.154  159.362
  514.000    7.131    0.279    0.465  100.863  159.873
  514.250    7.345    0.260    0.374   96.170  160.588
  514.500    7.495    0.242    0.354   94.587  161.101
  514.750    7.562    0.221    0.360   96.235  161.409
  515.000    7.616    0.207    0.367   94.652  161.920
  515.250    7.583    0.201    0.374   93.130  162.330
  515.500    7.538    0.199    0.359   88.986  162.537
  515.750    7.422    0.214    0.344   84.475  161.727
  516.000    7.212    0.237    0.332   80.331  160.613
  516.250    6.955    0.254    0.341   76.858  159.600
  516.500    6.797    0.260    0.347   66.189  158.283
  516.750    6.743    0.259    0.348   57.654  157.981
  517.000    6.677    0.258    0.345   49.608  157.781
  517.250    6.599    0.263    0.348   41.744  157.582
  517.500    6.534    0.279    0.348   33.270  157.382
  517.750    6.470    0.288    0.337   26.443  157.284
  518.000    6.406    0.299    0.326   32.848  157.287
  518.250    6.416    0.303    0.324   49.069  156.986
  518.500    6.510    0.308    0.344   62.242  156.888
  518.750    6.819    0.319    0.422   77.366  156.789
  519.000    7.144    0.321    0.466   89.380  156.488
  519.250    7.684    0.322    0.516  100.175  156.898
  519.500    8.437    0.303    0.518   96.702  157.206
  519.750    9.386    0.284    0.467   86.156  157.312
  520.000   10.020    0.266    0.423   77.865  157.518
  520.250   10.556    0.090    0.416   71.586  157.725
  520.500   10.511    0.059    0.264   60.308  158.338
  520.750   10.062    0.020    0.221   59.395  158.748
  521.000    9.524    0.119    0.307   73.605  158.752
  521.250    8.682    0.201    0.360   90.436  159.060
  521.500    7.811    0.217    0.371  104.036  159.064
  521.750    7.421    0.215    0.378  109.282  159.372
  522.000    7.144    0.225    0.384  102.942  159.274
  522.250    6.929    0.254    0.391   89.591  159.074
  522.500    6.708    0.279    0.382   79.410  158.163
  522.750    6.494    0.290    0.380   72.156  157.353
  523.000    6.358    0.299    0.387   68.438  156.544
  523.250    6.272    0.316    0.406   74.904  156.446
  523.500    6.269    0.330    0.425   80.943  155.840
  523.750    6.482    0.312    0.418   86.067  155.640
  524.000    6.614    0.300    0.406   93.203  155.541
  524.250    6.813    0.296    0.400   97.107  155.545
  524.500    7.084    0.302    0.416   99.305  155.548
  524.750    7.352    0.304    0.423   97.356  155.756
  525.000    7.658    0.290    0.405   95.284  155.860
  525.250    7.830    0.276    0.400   96.628  156.270
  525.500    7.899    0.266    0.392   98.703  156.477
  525.750    7.749    0.260    0.383   96.266  156.785
  526.000    7.403    0.256    0.373   90.049  157.399
  526.250    7.021    0.272    0.360   82.795  157.707
  526.500    6.721    0.295    0.391   76.029  157.813
  526.750    6.384    0.289    0.421   67.677  157.815
  527.000    6.287    0.278    0.416   59.935  157.717
  527.250    6.179    0.294    0.353   52.376  156.603
