~VERSION INFORMATION
 VERS.                 2.0:   CWLS LOG ASCII STANDARD -VERSION 2.0
 WRAP.                  NO:   ONE LINE PER DEPTH STEP
~WELL INFORMATION BLOCK
#MNEM.UNIT           DATA                    DESCRIPTION OF MNEMONIC
#---------    -------------------            -------------------------------
# Generated from Intellog Unique Number	CS_71_72/WELL/785
WELL.         BVX ET AL LYLE                 : Well_name    - WELL
LOC .         00/06-31-072-16W4/0            : Location     - LOCATION
UWI .         00/06-31-072-16W4/0            : Uwi          - UNIQUE WELL ID
ENTR.         SP                             : Entered      - ENTERED BY
SRVC.         SCHLUMBERGER                   : Scn          - SERVICE COMPANY
STRT.M        249.936                        : top_depth    - START DEPTH
STOP.M        441.686                        : bot_depth    - STOP DEPTH
STEP.M        0.25                           : increment    - STEP LENGTH
 NULL. -999.2500:NULL Value
~CURVE INFORMATION BLOCK
#MNEM UNIT       ERCB CURVE CODE    CURVE DESCRIPTION
#-----------   ------------------   ----------------------------------
DEPT.M        00 001 00 00         : DEPTH        - DEPTH
GR  .API      00 310 00 00         : GR           - GAMMA RAY
DPHI.V/V      00 890 00 00         : PHID         - DENSITY POROSITY (SANDSTONE)
NPHI.V/V      00 330 00 00         : PHIN         - NEUTRON POROSITY (SANDSTONE)
ILD .OHMM     00 120 00 00         : RESD         - DEEP RESISTIVITY (DIL)
~PARAMETER INFORMATION
#MNEM.UNIT           DATA             DESCRIPTION OF MNEMONIC
#---------         -----------     ------------------------------
GL  .M        575.584              : gl           - GROUND LEVEL ELEVATION
EREF.M        578.815              : kb           - ELEVATION OF DEPTH REFERENCE
DATM.M        575.584              : datum        - DATUM ELEVATION
TDD .M        443.179              : tdd          - TOTAL DEPTH DRILLER
RUN .         ONE                  : Run          - RUN NUMBER
ENG .         BILL                 : Engineer     - RECORDING ENGINEER
WIT .         JIM                  : Witness      - WITNESSED BY
MUD .         GEL                  : Mud_type     - MUD TYPE
MATR.         SANDSTONE            : Logunit      - NEUTRON MATRIX
TMAX.C        14.4444              : BHT          - MAXIMUM RECORDED TEMPERATURE
BHTD.M        443.179              : BHTDEP       - MAXIMUM RECORDED TEMPERATURE
MATR.         1                    : LOGUNIT      - NEUTRON MATRIX
RMT .C        25                   : MDTP         - TEMPERATURE OF MUD
NEUT.         1                    : NEUTRON      - NEUTRON TYPE
RESI.         0                    : RESIST       - RESISTIVITY TYPE
RMC .OHMM     0.25                 : RMC          - RESISTIVITY OF MUD CAKE
RMF .OHMM     0.25                 : RMF          - RESISTIVITY OF MUD FILTRATE
SUFT.C        15                   : SUFT         - SURFACE TEMPERATURE
~A  DEPTH       GR     PHID     PHIN     RESD
# ...
  380.436   69.867    0.328    0.443    5.441
  380.686   70.351    0.351    0.473    5.047
  380.936   68.423    0.347    0.477    4.788
  381.186   66.475    0.345    0.479    4.656
  381.436   64.997    0.355    0.482    4.654
  381.686   63.725    0.349    0.484    4.756
  381.936   63.166    0.346    0.486    4.752
  382.186   63.125    0.355    0.495    4.835
  382.436   64.233    0.350    0.489    4.838
  382.686   66.245    0.340    0.483    4.740
  382.936   69.048    0.345    0.480    4.742
  383.186   70.671    0.342    0.477    4.740
  383.436   71.032    0.332    0.471    4.740
  383.686   69.274    0.336    0.473    4.792
  383.936   69.861    0.345    0.491    4.824
  384.186   70.352    0.347    0.503    4.818
  384.436   71.684    0.350    0.489    4.911
  384.686   73.028    0.339    0.480    5.006
  384.936   74.045    0.326    0.474    5.077
  385.186   74.525    0.316    0.467    5.090
  385.436   73.436    0.317    0.476    5.091
  385.686   72.470    0.327    0.490    5.098
  385.936   71.680    0.334    0.499    4.958
  386.186   71.108    0.338    0.501    4.907
  386.436   70.408    0.338    0.480    4.885
  386.686   71.119    0.334    0.475    5.104
  386.936   72.245    0.332    0.481    5.090
  387.186   73.267    0.328    0.486    5.303
  387.436   74.297    0.325    0.489    5.444
  387.686   74.750    0.325    0.498    5.376
  387.936   75.896    0.319    0.501    5.259
  388.186   76.990    0.316    0.483    5.262
  388.436   76.692    0.317    0.462    5.171
  388.686   78.027    0.319    0.458    5.174
  388.936   78.401    0.319    0.466    5.173
  389.186   76.762    0.327    0.470    5.173
  389.436   78.982    0.328    0.464    5.172
  389.686   83.716    0.327    0.467    5.170
  389.936   88.174    0.311    0.476    5.109
  390.186   94.610    0.295    0.477    5.057
  390.436   99.851    0.284    0.463    4.987
  390.686  102.718    0.280    0.461    4.654
  390.936  107.210    0.273    0.479    4.442
  391.186  109.540    0.261    0.495    4.239
  391.436  112.178    0.252    0.500    4.176
  391.686  113.390    0.245    0.511    4.227
  391.936  113.095    0.241    0.507    4.360
  392.186  112.104    0.258    0.506    4.491
  392.436  112.142    0.266    0.506    4.627
  392.686  112.097    0.266    0.500    4.713
  392.936  112.936    0.263    0.496    4.691
  393.186  113.949    0.269    0.499    4.548
  393.436  114.268    0.260    0.497    4.271
  393.686  115.308    0.262    0.491    4.222
  393.936  116.307    0.252    0.483    4.211
  394.186  117.305    0.246    0.479    4.286
  394.436  118.302    0.242    0.477    4.464
  394.686  116.090    0.244    0.485    4.494
  394.936  108.992    0.264    0.484    4.832
  395.186  102.451    0.254    0.472    5.171
  395.436   97.489    0.245    0.464    5.462
  395.686   91.202    0.254    0.461    5.502
  395.936   85.329    0.181    0.456    5.742
  396.186   81.982    0.113    0.434    6.351
  396.436   77.637    0.096    0.320    7.197
  396.686   75.494    0.100    0.308    8.070
  396.936   82.732    0.118    0.324    8.736
  397.186   91.683    0.136    0.349    8.229
  397.436   96.506    0.153    0.399    7.613
  397.686   97.125    0.234    0.445    7.345
  397.936   96.028    0.237    0.436    7.269
  398.186   95.302    0.184    0.421    7.139
  398.436   94.739    0.164    0.415    7.185
  398.686   88.930    0.183    0.436    7.413
  398.936   84.371    0.207    0.450    8.136
  399.186   80.217    0.192    0.418    8.724
  399.436   94.012    0.163    0.375    9.059
  399.686  101.550    0.202    0.399    8.597
  399.936  103.052    0.224    0.471    8.166
  400.186  104.534    0.231    0.482    7.298
  400.436  106.445    0.224    0.479    6.994
  400.686  108.372    0.221    0.476    6.860
  400.936  109.305    0.215    0.478    6.949
  401.186  110.025    0.212    0.478    6.981
  401.436  111.352    0.209    0.472    7.134
  401.686  111.862    0.221    0.466    7.126
  401.936  112.774    0.215    0.461    7.127
  402.186  113.096    0.225    0.462    7.125
  402.436  114.664    0.235    0.458    7.042
  402.686  117.332    0.226    0.465    7.005
  402.936  118.477    0.220    0.453    6.875
  403.186  118.957    0.212    0.442    6.869
  403.436  117.509    0.202    0.456    6.865
  403.686  119.108    0.197    0.461    6.853
  403.936  118.773    0.196    0.454    7.000
  404.186  116.073    0.182    0.453    6.985
  404.436  117.431    0.165    0.449    7.087
  404.686  121.183    0.165    0.439    7.110
  404.936  123.431    0.200    0.428    7.113
  405.186  124.087    0.225    0.430    7.045
  405.436  123.178    0.237    0.444    6.682
  405.686  123.381    0.234    0.435    6.492
  405.936  123.294    0.226    0.424    6.490
  406.186  121.366    0.223    0.416    6.486
  406.436  115.802    0.223    0.413    6.484
  406.686  112.595    0.223    0.411    6.472
  406.936  109.297    0.226    0.423    6.611
  407.186  107.906    0.186    0.415    6.598
  407.436  113.133    0.163    0.418    6.559
  407.686  118.279    0.180    0.424    6.355
  407.936  120.903    0.207    0.432    6.087
  408.186  124.626    0.227    0.445    5.680
  408.436  126.534    0.236    0.450    4.927
  408.686  126.439    0.231    0.443    4.205
  408.936  128.247    0.226    0.432    3.641
  409.186  130.239    0.222    0.444    3.247
  409.436  126.319    0.276    0.486    2.980
  409.686  125.146    0.266    0.519    2.620
  409.936  127.724    0.261    0.519    2.516
  410.186  129.520    0.258    0.522    2.427
  410.436  128.294    0.254    0.526    2.454
  410.686  130.126    0.266    0.537    2.625
  410.936  133.618    0.265    0.555    2.980
  411.186  130.774    0.252    0.528    3.362
  411.436  125.750    0.225    0.483    4.160
  411.686  122.180    0.198    0.446    4.818
  411.936  118.970    0.183    0.426    5.974
  412.186  113.023    0.155    0.371    6.966
  412.436  105.621    0.138    0.346    7.472
  412.686  111.258    0.106    0.357    7.102
  412.936  119.028    0.145    0.408    6.887
  413.186  123.459    0.184    0.435    6.691
  413.436  122.383    0.218    0.457    6.678
  413.686  119.320    0.201    0.451    7.018
  413.936  113.849    0.198    0.415    7.218
  414.186  108.062    0.181    0.382    7.710
  414.436  106.547    0.162    0.362    9.283
  414.686  109.974    0.146    0.372    8.799
  414.936  116.078    0.139    0.360    7.910
  415.186  141.195    0.131    0.397    6.539
  415.436  158.700    0.171    0.437    6.021
  415.686  169.010    0.198    0.453    5.226
  415.936  175.483    0.206    0.477    4.677
  416.186  181.715    0.208    0.491    4.269
  416.436  185.116    0.224    0.487    3.930
  416.686  170.505    0.225    0.495    3.709
  416.936  156.143    0.229    0.505    3.653
  417.186  137.672    0.213    0.509    3.663
  417.436  130.983    0.194    0.501    3.516
  417.686  126.364    0.235    0.506    3.306
  417.936  122.880    0.234    0.504    3.192
  418.186  121.528    0.218    0.500    3.155
  418.436  121.539    0.211    0.501    3.185
  418.686  121.458    0.206    0.501    3.283
  418.936  115.373    0.203    0.496    3.440
  419.186  111.351    0.191    0.489    3.654
  419.436  112.723    0.181    0.500    3.885
  419.686  114.220    0.215    0.482    4.265
  419.936  115.864    0.208    0.462    4.605
  420.186  116.717    0.201    0.441    4.982
  420.436  113.263    0.183    0.438    5.269
  420.686  109.709    0.164    0.430    5.577
  420.936  110.827    0.150    0.421    5.347
  421.186  114.525    0.190    0.425    5.029
  421.436  118.431    0.221    0.437    4.859
  421.686  117.019    0.226    0.477    4.708
  421.936  106.560    0.214    0.465    4.946
  422.186   89.568    0.201    0.407    5.311
  422.436   77.320    0.221    0.380    6.110
  422.686   72.731    0.235    0.367    8.000
  422.936   70.676    0.259    0.379   10.979
  423.186   71.777    0.254    0.393   13.806
  423.436   72.781    0.243    0.385   15.586
  423.686   73.082    0.239    0.378   16.635
