~VERSION INFORMATION
 VERS.                 2.0:   CWLS LOG ASCII STANDARD -VERSION 2.0
 WRAP.                  NO:   ONE LINE PER DEPTH STEP
~WELL INFORMATION BLOCK
#MNEM.UNIT           DATA                    DESCRIPTION OF MNEMONIC
#---------    -------------------            -------------------------------
# Generated from Intellog Unique Number	CW_73_75/WELL/3515
WELL.         ULSTER PETROLEUMS LTD.         : Well_name    - WELL
LOC .         00/01-24-075-24W4/0            : Location     - LOCATION
UWI .         00/01-24-075-24W4/0            : Uwi          - UNIQUE WELL ID
ENTR.         JOETTE                         : Entered      - ENTERED BY
SRVC.         SCHLUMBERGER                   : Scn          - SERVICE COMPANY
DATE.         05/22/92                       : Date         - LOG DATE
STRT.M        375                            : top_depth    - START DEPTH
STOP.M        610                            : bot_depth    - STOP DEPTH
STEP.M        0.25                           : increment    - STEP LENGTH
 NULL. -999.2500:NULL Value
~CURVE INFORMATION BLOCK
#MNEM UNIT       ERCB CURVE CODE    CURVE DESCRIPTION
#-----------   ------------------   ----------------------------------
DEPT.M        00 001 00 00         : DEPTH        - DEPTH
ILD .OHMM     00 120 00 00         : RESD         - DEEP RESISTIVITY (DIL)
DPHI.V/V      00 890 00 00         : PHID         - DENSITY POROSITY (SANDSTONE)
NPHI.V/V      00 330 00 00         : PHIN         - NEUTRON POROSITY (SANDSTONE)
GR  .API      00 310 00 00         : GR           - GAMMA RAY
~PARAMETER INFORMATION
#MNEM.UNIT           DATA             DESCRIPTION OF MNEMONIC
#---------         -----------     ------------------------------
GL  .M        699.8                : gl           - GROUND LEVEL ELEVATION
EREF.M        703.6                : kb           - ELEVATION OF DEPTH REFERENCE
DATM.M        703.6                : datum        - DATUM ELEVATION
TDD .M        615                  : tdd          - TOTAL DEPTH DRILLER
RUN .         ONE                  : Run          - RUN NUMBER
ENG .         BILL                 : Engineer     - RECORDING ENGINEER
WIT .         JIM                  : Witness      - WITNESSED BY
MUD .         GEL                  : Mud_type     - MUD TYPE
MATR.         SANDSTONE            : Logunit      - NEUTRON MATRIX
TMAX.C        28                   : BHT          - MAXIMUM RECORDED TEMPERATURE
BHTD.M        615                  : BHTDEP       - MAXIMUM RECORDED TEMPERATURE
RMT .C        20                   : MDTP         - TEMPERATURE OF MUD
MUDD.KG/M     1130                 : MWT          - MUD DENSITY
NEUT.         1                    : NEUTRON      - NEUTRON TYPE
RESI.         0                    : RESIST       - RESISTIVITY TYPE
RM  .OHMM     3.1                  : RM           - RESISTIVITY OF MUD
RMC .OHMM     1.57                 : RMC          - RESISTIVITY OF MUD CAKE
RMF .OHMM     2.7                  : RMF          - RESISTIVITY OF MUD FILTRATE
SUFT.C        4                    : SUFT         - SURFACE TEMPERATURE
~A  DEPTH     RESD     PHID     PHIN       GR
# ...
  505.500    4.696    0.232    0.445   85.341
  505.750    4.614    0.244    0.453   83.656
  506.000    4.374    0.242    0.450   84.910
  506.250    4.305    0.228    0.437   87.299
  506.500    4.313    0.221    0.442   90.891
  506.750    4.404    0.225    0.451   91.544
  507.000    4.493    0.225    0.446   92.214
  507.250    4.585    0.222    0.430   93.451
  507.500    4.596    0.217    0.436   94.689
  507.750    4.608    0.228    0.443   92.987
  508.000    4.530    0.230    0.437   90.150
  508.250    4.453    0.223    0.424   90.786
  508.500    4.302    0.214    0.429   88.534
  508.750    4.230    0.204    0.430   88.001
  509.000    4.160    0.198    0.429   91.593
  509.250    4.172    0.205    0.437   96.320
  509.500    4.254    0.216    0.439   98.175
  509.750    4.505    0.229    0.427   95.872
  510.000    4.951    0.233    0.412   91.850
  510.250    5.349    0.225    0.411   88.429
  510.500    5.354    0.224    0.417   85.575
  510.750    5.673    0.225    0.424   83.306
  511.000    6.231    0.215    0.438   80.487
  511.250    6.599    0.200    0.449   79.936
  511.500    5.921    0.184    0.368   77.667
  511.750    5.406    0.223    0.357   75.966
  512.000    5.220    0.248    0.390   75.467
  512.250    5.233    0.258    0.410   76.687
  512.500    4.958    0.262    0.387   80.296
  512.750    4.877    0.254    0.380   81.516
  513.000    5.770    0.235    0.400   82.753
  513.250    8.069    0.200    0.426   83.389
  513.500    9.196    0.147    0.434   86.998
  513.750   11.089    0.048    0.341   67.747
  514.000   11.528    0.059    0.188   60.201
  514.250   11.132    0.089    0.339   49.750
  514.500    8.768    0.114    0.340   58.000
  514.750    7.720    0.188    0.343   75.618
  515.000    7.052    0.197    0.350   78.058
  515.250    6.446    0.203    0.363   79.296
  515.500    6.110    0.237    0.397   80.533
  515.750    5.789    0.237    0.403   82.922
  516.000    5.488    0.233    0.420   83.592
  516.250    5.601    0.235    0.419   84.228
  516.500    6.155    0.234    0.425   84.331
  516.750    7.425    0.219    0.432   84.949
  517.000    8.944    0.199    0.441   89.109
  517.250   12.049    0.173    0.409   87.424
  517.500   13.241    0.136    0.333   81.064
  517.750   10.243    0.091    0.286   73.535
  518.000    8.372    0.095    0.280   68.928
  518.250    6.598    0.136    0.284   61.382
  518.500    5.809    0.183    0.317   63.204
  518.750    6.042    0.211    0.378   76.731
  519.000    6.163    0.195    0.413   89.106
  519.250    6.065    0.185    0.426   89.157
  519.500    5.541    0.188    0.383   86.321
  519.750    5.156    0.198    0.362   84.052
  520.000    4.888    0.210    0.376   87.025
  520.250    4.805    0.215    0.392   92.353
  520.500    4.731    0.209    0.404   98.300
  520.750    4.826    0.214    0.421   98.953
  521.000    4.926    0.216    0.405   95.515
  521.250    5.124    0.221    0.394   92.627
  521.500    5.324    0.211    0.401   88.020
  521.750    5.434    0.197    0.410   83.998
  522.000    5.546    0.197    0.408   85.837
  522.250    5.661    0.197    0.392   89.412
  522.500    5.672    0.190    0.391   94.172
  522.750    5.685    0.188    0.397   95.393
  523.000    5.699    0.193    0.407   91.387
  523.250    5.705    0.194    0.408   87.365
  523.500    5.718    0.172    0.413   84.477
  523.750    5.730    0.183    0.412   82.208
  524.000    5.741    0.191    0.400   84.047
  524.250    5.752    0.183    0.393   87.622
  524.500    5.760    0.182    0.395   90.045
  524.750    5.771    0.190    0.394   91.282
  525.000    5.785    0.198    0.397   91.935
  525.250    5.797    0.204    0.413   91.986
  525.500    5.808    0.200    0.407   93.808
  525.750    5.819    0.184    0.407   97.984
  526.000    5.724    0.154    0.418  101.576
  526.250    5.633    0.176    0.420  102.212
  526.500    5.540    0.197    0.414   99.943
  526.750    5.548    0.202    0.420   97.691
  527.000    5.548    0.202    0.424  107.093
  527.250    5.376    0.192    0.412  101.334
  527.500    5.586    0.186    0.410   97.913
  527.750    5.592    0.188    0.419   96.796
  528.000    5.602    0.208    0.419   96.865
  528.250    5.613    0.225    0.411   95.747
  528.500    5.627    0.238    0.397   95.231
  528.750    5.853    0.240    0.401   92.962
  529.000    5.971    0.203    0.410   88.355
  529.250    6.441    0.179    0.423   82.562
  529.500    6.821    0.157    0.404   77.956
  529.750    7.224    0.126    0.331   75.686
  530.000    7.373    0.186    0.310   78.677
  530.250    6.989    0.189    0.330   84.056
  530.500    6.043    0.197    0.339   85.844
  530.750    5.726    0.224    0.338   89.436
  531.000    5.428    0.218    0.372   88.920
  531.250    5.438    0.208    0.427   87.820
  531.500    5.452    0.187    0.423   88.472
  531.750    5.668    0.133    0.431   89.710
  532.000    6.225    0.082    0.423   88.025
  532.250    6.972    0.124    0.355   83.985
  532.500    6.985    0.149    0.308   74.720
  532.750    6.388    0.170    0.331   77.694
  533.000    6.165    0.184    0.338   81.286
  533.250    6.061    0.213    0.346   83.108
  533.500    5.855    0.228    0.380   86.098
  533.750    5.654    0.226    0.398   90.842
  534.000    5.665    0.215    0.406   94.417
  534.250    5.673    0.200    0.412   95.654
  534.500    5.687    0.187    0.414   93.969
  534.750    5.701    0.189    0.383   93.453
  535.000    5.709    0.190    0.391   95.876
  535.250    5.829    0.184    0.414   97.715
  535.500    5.838    0.181    0.421   98.334
  535.750    5.846    0.184    0.428   99.588
  536.000    5.863    0.198    0.432  101.410
  536.250    5.872    0.205    0.423   97.989
  536.500    5.881    0.201    0.402   96.872
  536.750    5.898    0.196    0.397   99.278
  537.000    5.909    0.197    0.396  101.099
  537.250    5.921    0.199    0.392   98.246
  537.500    5.935    0.202    0.399   99.500
  537.750    5.944    0.199    0.401  101.322
  538.000    5.952    0.194    0.386   99.637
  538.250    6.078    0.193    0.381   97.351
  538.500    6.087    0.193    0.396   99.190
  538.750    6.099    0.178    0.393   99.843
  539.000    6.459    0.166    0.391   94.050
  539.250    6.592    0.188    0.376   92.365
  539.500    6.484    0.202    0.356   94.771
  539.750    6.261    0.202    0.361   96.025
  540.000    6.393    0.196    0.370   93.739
  540.250    6.646    0.187    0.388   94.392
  540.500    6.913    0.169    0.407   93.876
  540.750    7.187    0.130    0.376   89.871
  541.000    7.201    0.107    0.337   85.831
  541.250    6.826    0.156    0.326   88.237
  541.500    6.349    0.187    0.337   95.319
  541.750    6.131    0.197    0.367  105.339
  542.000    5.923    0.191    0.379  112.421
  542.250    5.826    0.185    0.374  108.398
  542.500    5.834    0.177    0.358   97.965
  542.750    5.739    0.166    0.377   95.678
  543.000    5.544    0.170    0.395   92.240
  543.250    5.453    0.181    0.413   90.573
  543.500    5.989    0.206    0.435   94.130
  543.750    8.849    0.218    0.453   89.541
  544.000   11.066    0.179    0.420   86.670
  544.250   18.954   -0.004    0.425   84.985
  544.500   25.533   -0.002    0.416   83.300
  544.750   25.114    0.020    0.245   66.404
  545.000   22.122    0.038    0.242   55.936
  545.250   20.960    0.067    0.265   71.800
  545.500   19.157    0.204    0.324   77.146
  545.750   18.480    0.177    0.336   77.816
  546.000   17.206    0.151    0.318   76.097
  546.250   16.003    0.126    0.292   73.243
  546.500   13.832    0.139    0.299   72.744
  546.750   11.521    0.144    0.320   79.241
  547.000   10.144    0.154    0.350   85.154
  547.250    9.101    0.163    0.362   89.915
  547.500    8.788    0.154    0.373   91.135
  547.750    8.640    0.126    0.349   90.636
  548.000    8.498    0.116    0.329   88.367
  548.250    8.210    0.115    0.321   87.834
  548.500    7.924    0.143    0.325   87.902
  548.750    7.374    0.161    0.332   92.096
