~VERSION INFORMATION
 VERS.                 2.0:   CWLS LOG ASCII STANDARD -VERSION 2.0
 WRAP.                  NO:   ONE LINE PER DEPTH STEP
~WELL INFORMATION BLOCK
#MNEM.UNIT           DATA                    DESCRIPTION OF MNEMONIC
#---------    -------------------            -------------------------------
# Generated from Intellog Unique Number	CS_73_76/WELL/1040
WELL.         ANDERSON EXPLORATION LTD       : Well_name    - WELL
LOC .         00/06-13-075-12W4/0            : Location     - LOCATION
UWI .         00/06-13-075-12W4/0            : Uwi          - UNIQUE WELL ID
ENTR.         SP                             : Entered      - ENTERED BY
SRVC.         SCHLUMBERGER                   : Scn          - SERVICE COMPANY
STRT.M        295                            : top_depth    - START DEPTH
STOP.M        533                            : bot_depth    - STOP DEPTH
STEP.M        0.25                           : increment    - STEP LENGTH
 NULL. -999.2500:NULL Value
~CURVE INFORMATION BLOCK
#MNEM UNIT       ERCB CURVE CODE    CURVE DESCRIPTION
#-----------   ------------------   ----------------------------------
DEPT.M        00 001 00 00         : DEPTH        - DEPTH
GR  .API      00 310 00 00         : GR           - GAMMA RAY
NPHI.V/V      00 330 00 00         : PHIN         - NEUTRON POROSITY (LIMESTONE)
DPHI.V/V      00 890 00 00         : PHID         - DENSITY POROSITY (LIMESTONE)
ILD .OHMM     00 120 00 00         : RESD         - DEEP RESISTIVITY (DIL)
~PARAMETER INFORMATION
#MNEM.UNIT           DATA             DESCRIPTION OF MNEMONIC
#---------         -----------     ------------------------------
GL  .M        672.6                : gl           - GROUND LEVEL ELEVATION
EREF.M        676.1                : kb           - ELEVATION OF DEPTH REFERENCE
DATM.M        672.6                : datum        - DATUM ELEVATION
TDD .M        533                  : tdd          - TOTAL DEPTH DRILLER
RUN .         ONE                  : Run          - RUN NUMBER
ENG .         BILL                 : Engineer     - RECORDING ENGINEER
WIT .         JIM                  : Witness      - WITNESSED BY
MUD .         GEL                  : Mud_type     - MUD TYPE
MATR.         LIMESTONE            : Logunit      - NEUTRON MATRIX
TMAX.C        23.5                 : BHT          - MAXIMUM RECORDED TEMPERATURE
BHTD.M        533                  : BHTDEP       - MAXIMUM RECORDED TEMPERATURE
MATR.         1                    : LOGUNIT      - NEUTRON MATRIX
RMT .C        25                   : MDTP         - TEMPERATURE OF MUD
NEUT.         1                    : NEUTRON      - NEUTRON TYPE
RESI.         0                    : RESIST       - RESISTIVITY TYPE
RMC .OHMM     0.25                 : RMC          - RESISTIVITY OF MUD CAKE
RMF .OHMM     0.25                 : RMF          - RESISTIVITY OF MUD FILTRATE
SUFT.C        15                   : SUFT         - SURFACE TEMPERATURE
~A  DEPTH       GR     PHIN     PHID     RESD
# ...
  338.500   91.516    0.491    0.250    8.768
  338.750   92.123    0.488    0.266    8.766
  339.000   94.542    0.477    0.250    8.603
  339.250   95.150    0.471    0.240    8.600
  339.500   95.759    0.479    0.243    8.598
  339.750   95.163    0.483    0.257    8.594
  340.000   94.567    0.473    0.264    8.435
  340.250   94.573    0.462    0.268    8.432
  340.500   93.977    0.440    0.264    8.276
  340.750   96.996    0.433    0.247    8.273
  341.000   98.809    0.443    0.240    8.426
  341.250   96.407    0.455    0.263    8.579
  341.500   93.404    0.464    0.274    8.578
  341.750   91.601    0.461    0.261    8.735
  342.000   89.197    0.454    0.251    8.733
  342.250   85.590    0.445    0.235    8.730
  342.500   83.187    0.460    0.249    8.728
  342.750   81.386    0.469    0.258    8.725
  343.000   81.996    0.485    0.272    8.563
  343.250   82.602    0.497    0.252    8.098
  343.500   87.428    0.512    0.252    7.517
  343.750   94.666    0.497    0.257    6.979
  344.000   97.684    0.481    0.247    6.478
  344.250   99.498    0.476    0.231    6.241
  344.500  100.106    0.467    0.214    6.012
  344.750   98.908    0.457    0.231    6.123
  345.000   95.903    0.470    0.241    6.714
  345.250   88.681    0.475    0.254    7.097
  345.500   83.265    0.468    0.264    8.076
  345.750   77.850    0.467    0.269    9.023
  346.000   73.037    0.461    0.291    9.895
  346.250   68.223    0.453    0.304   11.054
  346.500   62.807    0.452    0.297   11.901
  346.750   55.586    0.438    0.297   12.811
  347.000   50.772    0.427    0.304   13.291
  347.250   46.561    0.419    0.310   13.536
  347.500   48.378    0.422    0.301   14.042
  347.750   48.985    0.422    0.292   14.300
  348.000   50.198    0.418    0.303   14.564
  348.250   50.806    0.422    0.310   14.560
  348.500   51.419    0.423    0.303   14.555
  348.750   52.025    0.422    0.302   14.552
  349.000   52.030    0.420    0.299   14.546
  349.250   50.230    0.419    0.298   14.543
  349.500   49.033    0.416    0.297   14.810
  349.750   49.640    0.412    0.305   14.806
  350.000   53.866    0.416    0.310   14.801
  350.250   56.885    0.417    0.303   14.799
  350.500   59.301    0.419    0.293   14.792
  350.750   60.510    0.423    0.298   14.789
  351.000   60.517    0.441    0.302   14.785
  351.250   58.115    0.448    0.306   14.779
  351.500   56.312    0.458    0.314   14.776
  351.750   52.105    0.448    0.303   14.772
  352.000   49.700    0.424    0.308   14.768
  352.250   46.695    0.415    0.316   15.036
  352.500   46.701    0.414    0.323   15.034
  352.750   49.119    0.432    0.323   15.031
  353.000   49.725    0.437    0.326   15.884
  353.250   50.335    0.434    0.331   16.174
  353.500   49.139    0.440    0.328   16.172
  353.750   49.145    0.435    0.329   15.871
  354.000   49.753    0.436    0.332   15.008
  354.250   51.569    0.442    0.340   14.729
  354.500   52.176    0.438    0.323   14.455
  354.750   50.977    0.440    0.317   14.450
  355.000   50.381    0.432    0.314   14.445
  355.250   50.388    0.434    0.311   14.711
  355.500   50.395    0.437    0.328   15.260
  355.750   50.400    0.436    0.345   15.540
  356.000   51.011    0.427    0.352   15.536
  356.250   51.620    0.421    0.340   15.532
  356.500   52.228    0.415    0.332   15.819
  356.750   50.427    0.415    0.334   15.815
  357.000   50.434    0.423    0.338   15.809
  357.250   51.645    0.426    0.342   15.806
  357.500   52.254    0.433    0.342   15.800
  357.750   51.660    0.437    0.337   15.797
  358.000   51.062    0.424    0.332   16.087
  358.250   49.864    0.416    0.335   15.787
  358.500   51.078    0.412    0.343   15.780
  358.750   52.893    0.405    0.338   15.777
  359.000   54.102    0.409    0.335   15.484
  359.250   55.314    0.416    0.332   15.478
  359.500   55.320    0.426    0.333   15.191
  359.750   55.326    0.430    0.341   15.186
  360.000   54.731    0.422    0.344   14.902
  360.250   54.135    0.419    0.341   14.623
  360.500   52.936    0.416    0.328   14.620
  360.750   51.737    0.416    0.333   14.617
  361.000   52.949    0.421    0.335   14.345
  361.250   54.764    0.424    0.339   14.341
  361.500   54.771    0.420    0.343   14.335
  361.750   54.175    0.427    0.327   14.600
  362.000   54.785    0.428    0.312   14.595
  362.250   55.393    0.425    0.333   14.591
  362.500   56.606    0.422    0.344   14.588
  362.750   56.610    0.421    0.346   14.313
  363.000   57.822    0.427    0.346   14.310
  363.250   60.840    0.432    0.346   14.045
  363.500   66.269    0.437    0.346   13.782
  363.750   69.891    0.439    0.346   13.526
  364.000   69.897    0.462    0.345   13.522
  364.250   66.289    0.479    0.346   13.769
  364.500   62.682    0.457    0.344   13.766
  364.750   60.880    0.444    0.334   13.763
  365.000   60.886    0.444    0.324   13.758
  365.250   61.500    0.445    0.313   14.012
  365.500   62.107    0.446    0.312   15.082
  365.750   62.713    0.446    0.327   15.360
  366.000   63.925    0.448    0.317   15.936
  366.250   64.535    0.449    0.323   16.228
  366.500   65.749    0.449    0.312   16.525
  366.750   65.754    0.449    0.311   16.218
  367.000   66.362    0.452    0.321   16.215
  367.250   66.368    0.469    0.321   15.913
  367.500   66.377    0.460    0.310   15.615
  367.750   65.778    0.446    0.319   15.904
  368.000   63.979    0.452    0.322   15.607
  368.250   62.178    0.468    0.306   15.604
  368.500   60.980    0.483    0.293   15.597
  368.750   59.782    0.487    0.301   15.307
  369.000   60.390    0.468    0.306   15.304
  369.250   62.204    0.457    0.310   15.297
  369.500   64.620    0.461    0.302   15.294
  369.750   67.641    0.466    0.302   15.008
  370.000   68.248    0.462    0.303   15.005
  370.250   68.857    0.452    0.299   14.724
  370.500   68.262    0.455    0.305   14.720
  370.750   67.063    0.468    0.311   14.715
  371.000   65.866    0.474    0.316   14.441
  371.250   65.873    0.462    0.323   14.172
  371.500   65.878    0.447    0.326   13.909
  371.750   67.692    0.438    0.330   13.651
  372.000   70.109    0.430    0.332   12.440
  372.250   70.114    0.433    0.322   10.526
  372.500   68.916    0.439    0.317    9.244
  372.750   68.922    0.440    0.298    7.969
  373.000   72.545    0.434    0.283    6.620
  373.250   73.153    0.448    0.272    7.964
  373.500   71.353    0.464    0.263    9.233
  373.750   66.540    0.477    0.274   10.127
  374.000   63.534    0.454    0.281   10.901
  374.250   60.528    0.439    0.290   11.102
  374.500   65.354    0.423    0.290   10.695
  374.750   72.590    0.423    0.280    9.746
  375.000   79.223    0.423    0.262    9.390
  375.250   84.050    0.419    0.249    8.716
  375.500   81.045    0.418    0.236    8.243
  375.750   78.640    0.414    0.225    7.652
  376.000   79.852    0.416    0.229    7.237
  376.250   79.260    0.425    0.240    6.717
  376.500   79.263    0.426    0.230    6.593
  376.750   79.269    0.423    0.232    6.351
  377.000   79.879    0.420    0.233    5.896
  377.250   81.091    0.423    0.235    4.898
  377.500   83.508    0.435    0.236    4.547
  377.750   86.525    0.451    0.240    3.919
  378.000   90.146    0.481    0.244    3.776
  378.250   94.371    0.510    0.255    3.571
  378.500   97.390    0.523    0.257    3.636
  378.750   97.998    0.534    0.240    3.772
  379.000   93.186    0.539    0.228    3.842
  379.250   87.770    0.544    0.228    4.060
  379.500   87.175    0.505    0.244    4.135
  379.750   87.783    0.480    0.257    4.211
  380.000   88.994    0.493    0.258    4.289
  380.250   89.001    0.497    0.248    4.449
  380.500   86.599    0.501    0.263    4.702
  380.750   82.389    0.494    0.278    5.351
  381.000   78.780    0.466    0.290    5.761
  381.250   78.184    0.457    0.297    6.088
  381.500   82.410    0.466    0.282    6.315
  381.750   84.824    0.469    0.273    6.314
