~VERSION INFORMATION
 VERS.                 2.0:   CWLS LOG ASCII STANDARD -VERSION 2.0
 WRAP.                  NO:   ONE LINE PER DEPTH STEP
~WELL INFORMATION BLOCK
#MNEM.UNIT           DATA                    DESCRIPTION OF MNEMONIC
#---------    -------------------            -------------------------------
# Generated from Intellog Unique Number	CS_73_76/WELL/2196
WELL.         PETROFINA CANADA LTD           : Well_name    - WELL
LOC .         00/07-17-076-11W4/0            : Location     - LOCATION
UWI .         00/07-17-076-11W4/0            : Uwi          - UNIQUE WELL ID
ENTR.         SP                             : Entered      - ENTERED BY
SRVC.         SCHLUMBERGER                   : Scn          - SERVICE COMPANY
STRT.M        274.32                         : top_depth    - START DEPTH
STOP.M        511.82                         : bot_depth    - STOP DEPTH
STEP.M        0.25                           : increment    - STEP LENGTH
 NULL. -999.2500:NULL Value
~CURVE INFORMATION BLOCK
#MNEM UNIT       ERCB CURVE CODE    CURVE DESCRIPTION
#-----------   ------------------   ----------------------------------
DEPT.M        00 001 00 00         : DEPTH        - DEPTH
GR  .API      00 310 00 00         : GR           - GAMMA RAY
DPHI.V/V      00 890 00 00         : PHID         - DENSITY POROSITY (SANDSTONE)
NPHI.V/V      00 330 00 00         : PHIN         - NEUTRON POROSITY (SANDSTONE)
ILD .OHMM     00 120 00 00         : RESD         - DEEP RESISTIVITY (DIL)
~PARAMETER INFORMATION
#MNEM.UNIT           DATA             DESCRIPTION OF MNEMONIC
#---------         -----------     ------------------------------
GL  .M        667.817              : gl           - GROUND LEVEL ELEVATION
EREF.M        671.17               : kb           - ELEVATION OF DEPTH REFERENCE
DATM.M        667.817              : datum        - DATUM ELEVATION
TDD .M        532.79               : tdd          - TOTAL DEPTH DRILLER
RUN .         ONE                  : Run          - RUN NUMBER
ENG .         BILL                 : Engineer     - RECORDING ENGINEER
WIT .         JIM                  : Witness      - WITNESSED BY
MUD .         GEL                  : Mud_type     - MUD TYPE
MATR.         SANDSTONE            : Logunit      - NEUTRON MATRIX
TMAX.C        8.88889              : BHT          - MAXIMUM RECORDED TEMPERATURE
BHTD.M        532.79               : BHTDEP       - MAXIMUM RECORDED TEMPERATURE
MATR.         1                    : LOGUNIT      - NEUTRON MATRIX
RMT .C        25                   : MDTP         - TEMPERATURE OF MUD
NEUT.         1                    : NEUTRON      - NEUTRON TYPE
RESI.         0                    : RESIST       - RESISTIVITY TYPE
RMC .OHMM     0.25                 : RMC          - RESISTIVITY OF MUD CAKE
RMF .OHMM     0.25                 : RMF          - RESISTIVITY OF MUD FILTRATE
SUFT.C        15                   : SUFT         - SURFACE TEMPERATURE
~A  DEPTH       GR     PHID     PHIN     RESD
# ...
  317.820   96.683    0.250    0.451    9.463
  318.070   96.397    0.248    0.451    9.837
  318.320   98.797    0.249    0.457   10.128
  318.570  100.280    0.256    0.480   10.455
  318.820  100.688    0.247    0.481   10.574
  319.070  103.403    0.236    0.482   10.084
  319.320  106.339    0.215    0.491    8.789
  319.570  109.077    0.209    0.500    7.906
  319.820  111.943    0.232    0.507    7.143
  320.070  113.122    0.239    0.499    6.475
  320.320  112.841    0.240    0.485    6.082
  320.570  108.090    0.251    0.482    6.049
  320.820  100.235    0.259    0.496    6.172
  321.070   95.362    0.265    0.509    6.413
  321.320   92.528    0.265    0.520    6.975
  321.570   94.628    0.268    0.517    7.877
  321.820   84.361    0.284    0.527    9.146
  322.070   72.616    0.301    0.500   11.727
  322.320   66.787    0.309    0.443   13.601
  322.570   65.892    0.307    0.435   17.413
  322.820   64.612    0.300    0.433   19.667
  323.070   61.961    0.305    0.435   20.191
  323.320   64.203    0.309    0.440   20.659
  323.570   64.978    0.307    0.443   20.631
  323.820   65.405    0.311    0.447   20.640
  324.070   67.633    0.314    0.438   20.791
  324.320   70.573    0.314    0.436   21.008
  324.570   73.073    0.308    0.433   21.313
  324.820   73.512    0.308    0.429   21.409
  325.070   72.911    0.303    0.431   21.410
  325.320   72.127    0.298    0.434   21.797
  325.570   71.694    0.294    0.446   22.239
  325.820   72.802    0.296    0.450   22.616
  326.070   73.980    0.292    0.443   22.864
  326.320   72.947    0.281    0.445   23.034
  326.570   72.856    0.274    0.448   23.440
  326.820   75.509    0.288    0.456   23.494
  327.070   76.640    0.296    0.465   23.533
  327.320   75.254    0.298    0.480   23.958
  327.570   71.717    0.303    0.473   23.938
  327.820   70.524    0.319    0.464   23.935
  328.070   66.797    0.325    0.460   23.935
  328.320   64.677    0.321    0.456   23.935
  328.570   66.894    0.315    0.452   23.935
  328.820   68.767    0.314    0.456   23.934
  329.070   68.695    0.310    0.459   23.929
  329.320   66.036    0.310    0.452   23.961
  329.570   63.675    0.317    0.449   23.452
  329.820   61.469    0.316    0.445   23.492
  330.070   61.547    0.326    0.433   23.494
  330.320   61.535    0.322    0.429   23.484
  330.570   61.520    0.316    0.427   23.468
  330.820   60.978    0.314    0.430   23.037
  331.070   60.168    0.325    0.438   23.059
  331.320   58.540    0.319    0.441   23.062
  331.570   57.632    0.320    0.440   23.062
  331.820   55.957    0.329    0.437   23.062
  332.070   60.197    0.335    0.430   23.062
  332.320   62.649    0.335    0.426   23.062
  332.570   64.073    0.333    0.427   23.062
  332.820   64.599    0.334    0.430   23.062
  333.070   65.653    0.330    0.433   23.062
  333.320   65.897    0.325    0.432   23.062
  333.570   64.801    0.330    0.432   23.062
  333.820   65.901    0.324    0.440   23.053
  334.070   66.567    0.319    0.443   23.049
  334.320   65.532    0.310    0.436   22.596
  334.570   65.598    0.317    0.423   22.495
  334.820   65.999    0.311    0.415   22.234
  335.070   66.628    0.306    0.411   21.139
  335.320   67.391    0.314    0.417   20.619
  335.570   68.957    0.310    0.431   20.279
  335.820   69.473    0.306    0.434   20.063
  336.070   68.437    0.319    0.428   19.891
  336.320   69.441    0.314    0.422   19.844
  336.570   71.005    0.326    0.422   20.253
  336.820   71.622    0.333    0.423   20.646
  337.070   71.223    0.341    0.426   20.881
  337.320   69.456    0.341    0.432   21.442
  337.570   69.182    0.335    0.440   21.412
  337.820   70.156    0.332    0.443   21.399
  338.070   72.042    0.326    0.431   21.303
  338.320   73.438    0.337    0.430   21.024
  338.570   74.210    0.343    0.435   20.389
  338.820   73.451    0.341    0.442   19.716
  339.070   73.486    0.336    0.448   19.160
  339.320   74.652    0.331    0.453   18.761
  339.570   77.448    0.324    0.462   18.800
  339.820   80.726    0.318    0.454   18.799
  340.070   86.934    0.313    0.450   18.768
  340.320   90.737    0.305    0.459   19.162
  340.570   88.041    0.297    0.471   19.406
  340.820   78.628    0.306    0.462   19.468
  341.070   73.020    0.324    0.448   19.878
  341.320   72.392    0.321    0.448   19.473
  341.570   72.425    0.312    0.450   19.490
  341.820   71.866    0.305    0.452   19.851
  342.070   70.906    0.311    0.456   19.841
  342.320   69.064    0.311    0.453   20.334
  342.570   66.556    0.310    0.450   20.650
  342.820   65.029    0.314    0.459   20.811
  343.070   65.136    0.307    0.466   21.020
  343.320   65.219    0.307    0.466   20.718
  343.570   64.504    0.311    0.463   20.634
  343.820   64.573    0.309    0.465   20.626
  344.070   65.199    0.314    0.466   20.224
  344.320   66.177    0.323    0.456   20.255
  344.570   67.611    0.325    0.455   20.238
  344.820   68.231    0.330    0.462   20.664
  345.070   69.930    0.331    0.462   20.635
  345.320   71.906    0.325    0.461   20.624
  345.570   71.441    0.321    0.459   20.441
  345.820   69.409    0.321    0.457   20.270
  346.070   68.511    0.322    0.459   19.938
  346.320   66.788    0.330    0.465   19.772
  346.570   65.863    0.328    0.465   19.149
  346.820   64.834    0.327    0.461   18.901
  347.070   64.846    0.333    0.459   18.837
  347.320   66.527    0.336    0.457   18.459
  347.570   68.246    0.340    0.454   18.500
  347.820   68.375    0.336    0.449   18.084
  348.070   68.439    0.337    0.449   18.113
  348.320   67.757    0.338    0.451   17.931
  348.570   67.850    0.336    0.455   17.791
  348.820   66.867    0.338    0.462   17.775
  349.070   65.218    0.336    0.469   17.631
  349.320   66.800    0.335    0.473   17.463
  349.570   67.903    0.336    0.468   17.414
  349.820   67.778    0.334    0.465   17.696
  350.070   65.386    0.339    0.461   17.458
  350.320   63.895    0.338    0.466   17.453
  350.570   62.425    0.328    0.468   17.455
  350.820   63.637    0.329    0.467   17.456
  351.070   63.950    0.333    0.475   17.456
  351.320   64.907    0.338    0.474   17.456
  351.570   65.407    0.338    0.469   17.456
  351.820   66.097    0.338    0.468   17.456
  352.070   66.750    0.338    0.468   17.456
  352.320   65.203    0.343    0.476   17.456
  352.570   63.573    0.342    0.478   17.456
  352.820   64.383    0.340    0.468   17.456
  353.070   65.809    0.343    0.452   17.456
  353.320   67.890    0.342    0.467   17.456
  353.570   69.251    0.341    0.480   17.456
  353.820   70.925    0.342    0.476   17.455
  354.070   71.915    0.334    0.464   17.454
  354.320   72.334    0.327    0.467   17.460
  354.570   72.046    0.333    0.476   17.639
  354.820   70.997    0.329    0.474   17.761
  355.070   70.530    0.329    0.471   18.081
  355.320   70.794    0.333    0.472   18.267
  355.570   71.873    0.336    0.476   18.442
  355.820   74.447    0.335    0.478   18.729
  356.070   76.888    0.332    0.477   18.761
  356.320   77.931    0.324    0.475   19.161
  356.570   78.783    0.312    0.462   19.184
  356.820   78.399    0.296    0.456   18.756
  357.070   77.914    0.289    0.452   18.811
  357.320   80.368    0.287    0.458   18.502
  357.570   81.863    0.283    0.471   17.730
  357.820   83.426    0.281    0.478   17.503
  358.070   85.099    0.285    0.475   16.938
  358.320   85.900    0.282    0.475   16.784
  358.570   85.139    0.273    0.471   16.497
  358.820   80.718    0.286    0.466   16.513
  359.070   78.628    0.296    0.464   16.523
  359.320   79.293    0.302    0.465   17.085
  359.570   79.117    0.306    0.470   17.238
  359.820   78.054    0.299    0.477   17.455
  360.070   79.479    0.295    0.484   17.456
  360.320   80.511    0.299    0.478   17.438
  360.570   81.111    0.299    0.472   15.764
  360.820   81.453    0.300    0.468   11.845
  361.070   82.633    0.304    0.466    8.737
