~VERSION INFORMATION
 VERS.                 2.0:   CWLS LOG ASCII STANDARD -VERSION 2.0
 WRAP.                  NO:   ONE LINE PER DEPTH STEP
~WELL INFORMATION BLOCK
#MNEM.UNIT           DATA                    DESCRIPTION OF MNEMONIC
#---------    -------------------            -------------------------------
# Generated from Intellog Unique Number	CW_73_75/WELL/773
WELL.         CHEVRON ER AL ROCK 07-26       : Well_name    - WELL
LOC .         00/07-26-075-22W4/0            : Location     - LOCATION
UWI .         00/07-26-075-22W4/0            : Uwi          - UNIQUE WELL ID
ENTR.         JAYE                           : Entered      - ENTERED BY
SRVC.         WESTERN ATLAS                  : Scn          - SERVICE COMPANY
DATE.         6 JAN 74                       : Date         - LOG DATE
STRT.M        387.096                        : top_depth    - START DEPTH
STOP.M        612.596                        : bot_depth    - STOP DEPTH
STEP.M        0.25                           : increment    - STEP LENGTH
 NULL. -999.2500:NULL Value
~CURVE INFORMATION BLOCK
#MNEM UNIT       ERCB CURVE CODE    CURVE DESCRIPTION
#-----------   ------------------   ----------------------------------
DEPT.M        00 001 00 00         : DEPTH        - DEPTH
ILD .OHMM     00 120 00 00         : RESD         - DEEP RESISTIVITY (DIL)
NPHI.V/V      00 330 00 00         : PHIN         - NEUTRON POROSITY (SANDSTONE)
DPHI.V/V      00 890 00 00         : PHID         - DENSITY POROSITY (SANDSTONE)
GR  .API      00 310 00 00         : GR           - GAMMA RAY
CALI.MM       00 280 01 00         : CAL          - CALIPER
~PARAMETER INFORMATION
#MNEM.UNIT           DATA             DESCRIPTION OF MNEMONIC
#---------         -----------     ------------------------------
GL  .M        682.539              : gl           - GROUND LEVEL ELEVATION
EREF.M        685.648              : kb           - ELEVATION OF DEPTH REFERENCE
DATM.M        682.539              : datum        - DATUM ELEVATION
TDD .M        611.124              : tdd          - TOTAL DEPTH DRILLER
RUN .         ONE                  : Run          - RUN NUMBER
ENG .         SIMPSON              : Engineer     - RECORDING ENGINEER
WIT .         WONG/GOLL            : Witness      - WITNESSED BY
BASE.         EDM                  : Branch       - HOME BASE OF LOGGING UNIT
MUD .         FRESH GEL            : Mud_type     - MUD TYPE
MATR.         SANDSTONE            : Logunit      - NEUTRON MATRIX
TMAX.C        30.5556              : BHT          - MAXIMUM RECORDED TEMPERATURE
BHTD.M        612.648              : BHTDEP       - MAXIMUM RECORDED TEMPERATURE
RMT .C        18.8889              : MDTP         - TEMPERATURE OF MUD
MUDD.KG/M     1140                 : MWT          - MUD DENSITY
NEUT.         1                    : NEUTRON      - NEUTRON TYPE
RESI.         0                    : RESIST       - RESISTIVITY TYPE
RM  .OHMM     5.6                  : RM           - RESISTIVITY OF MUD
RMC .OHMM     5.2                  : RMC          - RESISTIVITY OF MUD CAKE
RMF .OHMM     4.57                 : RMF          - RESISTIVITY OF MUD FILTRATE
SUFT.C        -17.7778             : SUFT         - SURFACE TEMPERATURE
~A  DEPTH     RESD     PHIN     PHID       GR      CAL
# ...
  460.096    9.136    0.470    0.295   63.836  201.875
  460.346    9.500    0.468    0.304   64.627  202.183
  460.596    8.554    0.482    0.300   61.823  202.489
  460.846    7.931    0.479    0.291   58.592  202.590
  461.096    7.063    0.467    0.290   59.505  202.485
  461.346    6.235    0.455    0.301   61.026  202.585
  461.596    5.306    0.449    0.314   60.659  202.582
  461.846    4.803    0.447    0.333   58.647  202.580
  462.096    4.577    0.467    0.335   54.868  202.577
  462.346    4.506    0.491    0.326   53.526  202.575
  462.596    4.518    0.488    0.313   53.098  202.572
  462.846    4.572    0.474    0.314   54.620  202.570
  463.096    4.667    0.482    0.310   56.629  202.567
  463.346    4.766    0.475    0.290   55.896  202.565
  463.596    4.858    0.472    0.293   55.224  202.459
  463.846    4.961    0.485    0.303   54.918  202.353
  464.096    5.064    0.493    0.304   54.673  202.351
  464.346    5.116    0.490    0.301   54.611  202.348
  464.596    5.157    0.486    0.308   54.244  202.139
  464.846    5.170    0.477    0.326   56.740  202.137
  465.096    5.184    0.460    0.316   59.846  202.134
  465.346    5.189    0.477    0.314   59.966  201.925
  465.596    5.155    0.499    0.314   57.589  202.025
  465.846    5.113    0.486    0.305   53.749  201.920
  466.096    5.052    0.472    0.293   53.443  202.124
  466.346    5.029    0.482    0.296   55.452  202.225
  466.596    5.079    0.480    0.292   58.313  202.428
  466.846    5.205    0.469    0.295   58.495  202.426
  467.096    5.353    0.463    0.298   54.168  202.114
  467.346    5.417    0.469    0.298   53.922  202.008
  467.596    5.371    0.478    0.303   55.261  202.005
  467.846    5.289    0.474    0.300   56.295  202.002
  468.096    5.197    0.478    0.308   56.781  202.104
  468.346    5.099    0.481    0.322   58.120  202.101
  468.596    5.002    0.468    0.316   58.850  202.718
  468.846    4.915    0.460    0.315   59.884  203.024
  469.096    4.822    0.451    0.314   60.979  202.815
  469.346    4.746    0.441    0.297   61.343  202.709
  469.596    4.743    0.454    0.274   57.991  202.397
  469.846    4.704    0.472    0.269   55.979  202.395
  470.096    4.673    0.467    0.284   55.490  202.289
  470.346    4.643    0.469    0.287   55.671  202.183
  470.596    4.614    0.452    0.284   56.888  202.078
  470.846    4.583    0.442    0.296   57.800  201.972
  471.096    4.587    0.447    0.311   58.774  201.867
  471.346    4.583    0.463    0.296   59.564  201.864
  471.596    4.569    0.482    0.280   64.376  201.758
  471.846    4.557    0.487    0.278   62.059  201.962
  472.096    4.569    0.478    0.276   58.951  201.753
  472.346    4.564    0.464    0.271   59.497  201.853
  472.596    4.535    0.472    0.263   61.933  201.748
  472.846    4.505    0.483    0.248   64.673  201.539
  473.096    4.485    0.492    0.246   66.804  201.537
  473.346    4.440    0.504    0.257   68.082  201.431
  473.596    4.394    0.483    0.270   70.396  201.532
  473.846    4.350    0.489    0.281   73.684  201.735
  474.096    4.323    0.493    0.275   76.120  201.526
  474.346    4.303    0.475    0.257   78.860  200.905
  474.596    4.307    0.461    0.264   81.478  200.386
  474.846    4.278    0.474    0.271   85.193  199.558
  475.096    4.228    0.484    0.248   89.639  199.452
  475.346    4.095    0.503    0.203   92.197  199.863
  475.596    3.981    0.495    0.192   92.927  201.305
  475.846    3.731    0.495    0.201   90.671  202.437
  476.096    3.523    0.512    0.226   88.049  203.053
  476.346    3.455    0.539    0.210   85.123  203.463
  476.596    3.529    0.562    0.206   80.187  203.874
  476.846    3.730    0.580    0.218   78.845  203.871
  477.096    3.914    0.549    0.243   78.478  203.662
  477.346    4.114    0.526    0.249   78.476  203.453
  477.596    4.171    0.504    0.239   77.865  203.141
  477.846    4.205    0.508    0.235   78.290  203.035
  478.096    4.185    0.507    0.226   79.995  202.724
  478.346    4.196    0.498    0.216   82.491  202.514
  478.596    4.238    0.488    0.224   85.293  202.409
  478.846    4.319    0.480    0.220   84.316  202.303
  479.096    4.387    0.497    0.209   81.085  202.197
  479.346    4.447    0.485    0.213   79.805  201.988
  479.596    4.515    0.482    0.221   81.570  201.780
  479.846    4.619    0.488    0.227   84.676  201.880
  480.096    4.614    0.483    0.219   85.466  201.981
  480.346    4.519    0.494    0.220   85.343  202.391
  480.596    4.424    0.533    0.220   89.545  202.285
  480.846    4.444    0.511    0.222   91.067  202.282
  481.096    4.571    0.492    0.241   84.729  202.280
  481.346    5.225    0.498    0.260   74.370  202.380
  481.596    5.707    0.495    0.281   65.961  202.688
  481.846    5.892    0.492    0.297   64.924  202.788
  482.096    5.896    0.506    0.309   67.359  203.095
  482.346    5.774    0.497    0.303   69.673  202.989
  482.596    5.602    0.489    0.289   72.535  202.987
  482.846    5.486    0.485    0.276   74.361  202.571
  483.096    5.471    0.479    0.296   73.872  202.259
  483.346    5.678    0.476    0.284   72.408  201.947
  483.596    5.883    0.469    0.262   70.823  201.738
  483.846    6.029    0.485    0.255   71.248  201.633
  484.096    6.109    0.488    0.252   71.977  201.423
  484.346    6.104    0.466    0.232   72.951  201.421
  484.596    6.099    0.449    0.209   74.046  201.212
  484.846    6.070    0.449    0.230   75.141  201.210
  485.096    6.009    0.459    0.250   75.200  201.208
  485.346    6.004    0.474    0.235   74.529  201.205
  485.596    5.975    0.489    0.219   73.613  201.202
  485.846    5.926    0.480    0.230   73.429  201.303
  486.096    5.824    0.466    0.241   74.463  201.300
  486.346    5.735    0.468    0.252   74.462  201.401
  486.596    5.866    0.471    0.255   73.059  201.295
  486.846    6.132    0.467    0.248   71.230  201.190
  487.096    6.809    0.454    0.252   69.461  200.981
  487.346    7.397    0.396    0.231   66.231  201.185
  487.596    7.622    0.389    0.197   64.340  205.102
  487.846    7.615    0.396    0.165   65.131  207.473
  488.096    6.733    0.420    0.195   68.480  207.573
  488.346    5.997    0.482    0.248   69.697  205.507
  488.596    5.611    0.483    0.297   67.929  203.544
  488.846    5.336    0.477    0.297   68.963  202.614
  489.096    5.225    0.460    0.292   72.922  201.786
  489.346    5.211    0.461    0.275   74.505  201.680
  489.596    5.224    0.480    0.241   72.553  201.677
  489.846    5.237    0.491    0.241   73.405  201.468
  490.096    5.213    0.472    0.226   73.464  201.363
  490.346    5.170    0.455    0.220   71.391  201.154
  490.596    5.072    0.454    0.233   71.511  200.945
  490.846    4.931    0.463    0.242   73.094  200.426
  491.096    4.604    0.469    0.235   75.225  200.424
  491.346    4.316    0.478    0.227   77.478  200.730
  491.596    3.987    0.496    0.230   80.949  200.625
  491.846    3.806    0.505    0.237   81.862  200.623
  492.096    3.871    0.515    0.248   79.728  200.827
  492.346    4.085    0.504    0.255   76.923  201.030
  492.596    4.318    0.486    0.258   75.094  200.718
  492.846    4.564    0.473    0.268   73.143  200.303
  493.096    4.763    0.460    0.283   71.618  199.784
  493.346    4.926    0.444    0.302   69.058  199.988
  493.596    5.039    0.445    0.298   66.376  199.986
  493.846    5.534    0.459    0.293   64.668  199.983
  494.096    6.538    0.437    0.284   62.108  199.981
  494.346    8.067    0.416    0.265   59.487  199.978
  494.596   10.534    0.355    0.223   55.951  200.079
  494.846   13.679    0.249    0.176   52.416  200.283
  495.096   19.886    0.209    0.147   48.515  200.074
  495.346   26.110    0.194    0.101   48.940  199.968
  495.596   23.213    0.192    0.049   50.949  199.965
  495.846   19.083    0.238    0.068   54.969  200.169
  496.096   15.211    0.283    0.088   59.963  200.682
  496.346   11.732    0.454    0.127   61.363  200.989
