~VERSION INFORMATION
 VERS.                 2.0:   CWLS LOG ASCII STANDARD -VERSION 2.0
 WRAP.                  NO:   ONE LINE PER DEPTH STEP
~WELL INFORMATION BLOCK
#MNEM.UNIT           DATA                    DESCRIPTION OF MNEMONIC
#---------    -------------------            -------------------------------
# Generated from Intellog Unique Number	CS_73_76/WELL/3219
WELL.         BOW VALLEY INDUSTRIES          : Well_name    - WELL
LOC .         00/08-32-076-16W4/0            : Location     - LOCATION
UWI .         00/08-32-076-16W4/0            : Uwi          - UNIQUE WELL ID
ENTR.         SP                             : Entered      - ENTERED BY
SRVC.         SCHLUMBERGER                   : Scn          - SERVICE COMPANY
STRT.M        305                            : top_depth    - START DEPTH
STOP.M        555                            : bot_depth    - STOP DEPTH
STEP.M        0.25                           : increment    - STEP LENGTH
 NULL. -999.2500:NULL Value
~CURVE INFORMATION BLOCK
#MNEM UNIT       ERCB CURVE CODE    CURVE DESCRIPTION
#-----------   ------------------   ----------------------------------
DEPT.M        00 001 00 00         : DEPTH        - DEPTH
NPHI.V/V      00 330 00 00         : PHIN         - NEUTRON POROSITY (LIMESTONE)
DPHI.V/V      00 890 00 00         : PHID         - DENSITY POROSITY (LIMESTONE)
GR  .API      00 310 00 00         : GR           - GAMMA RAY
ILD .OHMM     00 120 00 00         : RESD         - DEEP RESISTIVITY (DIL)
~PARAMETER INFORMATION
#MNEM.UNIT           DATA             DESCRIPTION OF MNEMONIC
#---------         -----------     ------------------------------
GL  .M        680.5                : gl           - GROUND LEVEL ELEVATION
EREF.M        683.97               : kb           - ELEVATION OF DEPTH REFERENCE
DATM.M        680.5                : datum        - DATUM ELEVATION
TDD .M        642                  : tdd          - TOTAL DEPTH DRILLER
RUN .         ONE                  : Run          - RUN NUMBER
ENG .         BILL                 : Engineer     - RECORDING ENGINEER
WIT .         JIM                  : Witness      - WITNESSED BY
MUD .         GEL                  : Mud_type     - MUD TYPE
MATR.         LIMESTONE            : Logunit      - NEUTRON MATRIX
TMAX.C        17                   : BHT          - MAXIMUM RECORDED TEMPERATURE
BHTD.M        642                  : BHTDEP       - MAXIMUM RECORDED TEMPERATURE
MATR.         1                    : LOGUNIT      - NEUTRON MATRIX
RMT .C        25                   : MDTP         - TEMPERATURE OF MUD
NEUT.         1                    : NEUTRON      - NEUTRON TYPE
RESI.         0                    : RESIST       - RESISTIVITY TYPE
RMC .OHMM     0.25                 : RMC          - RESISTIVITY OF MUD CAKE
RMF .OHMM     0.25                 : RMF          - RESISTIVITY OF MUD FILTRATE
SUFT.C        15                   : SUFT         - SURFACE TEMPERATURE
~A  DEPTH     PHIN     PHID       GR     RESD
# ...
  392.000    0.418    0.346   38.706   10.665
  392.250    0.418    0.344   38.087   10.469
  392.500    0.407    0.342   39.947   10.087
  392.750    0.401    0.341   41.188    9.906
  393.000    0.409    0.340   41.189    9.727
  393.250    0.426    0.340   41.809    9.733
  393.500    0.424    0.337   42.430    9.739
  393.750    0.424    0.336   43.050    9.746
  394.000    0.439    0.336   43.671    9.943
  394.250    0.432    0.334   43.672    9.949
  394.500    0.401    0.334   42.433    9.954
  394.750    0.396    0.334   41.814    9.774
  395.000    0.412    0.334   43.054    9.781
  395.250    0.419    0.335   44.295    9.789
  395.500    0.419    0.335   44.916    9.798
  395.750    0.402    0.334   43.677    9.802
  396.000    0.406    0.332   42.438    9.810
  396.250    0.414    0.335   43.678    9.633
  396.500    0.427    0.337   46.778    9.638
  396.750    0.440    0.340   46.159    9.467
  397.000    0.444    0.342   43.061    9.473
  397.250    0.413    0.342   44.301    9.480
  397.500    0.425    0.340   47.401    9.487
  397.750    0.433    0.339   47.402    9.493
  398.000    0.422    0.337   46.783    9.500
  398.250    0.406    0.336   46.164    9.506
  398.500    0.413    0.335   44.305    9.157
  398.750    0.429    0.330   46.166    8.492
  399.000    0.433    0.321   47.406    7.581
  399.250    0.425    0.315   49.266    6.769
  399.500    0.402    0.305   51.746    6.277
  399.750    0.413    0.305   54.227    5.933
  400.000    0.414    0.305   59.186    5.825
  400.250    0.403    0.301   64.145    6.056
  400.500    0.409    0.294   67.245    6.060
  400.750    0.409    0.276   69.106    5.838
  401.000    0.404    0.279   72.206    5.312
  401.250    0.407    0.285   74.066    4.743
  401.500    0.421    0.284   72.827    4.747
  401.750    0.433    0.280   71.588    4.749
  402.000    0.454    0.276   69.730    4.753
  402.250    0.473    0.275   67.871    4.757
  402.500    0.465    0.278   68.492    4.760
  402.750    0.442    0.284   68.492    4.763
  403.000    0.447    0.284   67.253    4.678
  403.250    0.450    0.283   69.114    4.682
  403.500    0.458    0.286   73.453    4.684
  403.750    0.471    0.296   77.793    4.777
  404.000    0.452    0.286   76.554    4.781
  404.250    0.439    0.266   74.076    4.970
  404.500    0.434    0.270   70.977    5.070
  404.750    0.419    0.273   70.358    5.073
  405.000    0.399    0.271   70.359    5.273
  405.250    0.401    0.270   72.839    5.379
  405.500    0.422    0.265   71.600    5.383
  405.750    0.403    0.258   70.361    5.286
  406.000    0.401    0.247   74.701    5.092
  406.250    0.404    0.230   74.702    4.813
  406.500    0.391    0.211   73.463    4.637
  406.750    0.396    0.228   75.943    4.467
  407.000    0.404    0.239   77.803    4.303
  407.250    0.413    0.245   79.663    4.145
  407.500    0.424    0.245   80.284    4.070
  407.750    0.437    0.243   80.285    3.996
  408.000    0.447    0.239   80.286    4.000
  408.250    0.415    0.237   79.667    4.079
  408.500    0.407    0.237   79.048    4.082
  408.750    0.414    0.250   77.189    4.163
  409.000    0.425    0.260   75.330    4.328
  409.250    0.439    0.264   75.331    4.764
  409.500    0.439    0.258   75.952    5.344
  409.750    0.423    0.254   75.952    6.109
  410.000    0.409    0.254   75.953    6.231
  410.250    0.408    0.280   73.475    5.670
  410.500    0.415    0.296   70.376    4.872
  410.750    0.449    0.312   66.658    3.529
  411.000    0.495    0.324   64.799    2.705
  411.250    0.511    0.319   65.420    2.325
  411.500    0.507    0.311   70.999    2.036
  411.750    0.525    0.296   75.339    1.925
  412.000    0.516    0.279   79.679    1.854
  412.250    0.506    0.260   82.779    1.891
  412.500    0.529    0.255   84.019    1.893
  412.750    0.542    0.253   82.160    1.823
  413.000    0.548    0.248   82.781    1.724
  413.250    0.532    0.269   84.021    1.660
  413.500    0.527    0.281   85.882    1.694
  413.750    0.519    0.278   84.023    1.761
  414.000    0.509    0.266   84.644    1.901
  414.250    0.521    0.253   85.264    1.976
  414.500    0.535    0.263   84.025    2.094
  414.750    0.540    0.264   82.787    2.261
  415.000    0.505    0.260   81.548    2.442
  415.250    0.485    0.254   82.168    2.637
  415.500    0.486    0.249   84.648    2.741
  415.750    0.507    0.249   82.790    2.960
  416.000    0.527    0.249   82.171    3.321
  416.250    0.500    0.254   82.171    3.725
  416.500    0.476    0.264   80.933    4.100
  416.750    0.459    0.280   77.834    4.599
  417.000    0.439    0.302   72.876    4.967
  417.250    0.432    0.309   67.918    5.363
  417.500    0.429    0.306   64.200    5.682
  417.750    0.432    0.316   61.102    5.797
  418.000    0.423    0.321   61.103    5.802
  418.250    0.420    0.321   62.343    5.694
  418.500    0.413    0.319   62.964    5.593
  418.750    0.407    0.304   60.485    5.491
  419.000    0.402    0.275   57.387    5.289
  419.250    0.412    0.224   54.288    5.193
  419.500    0.417    0.219   55.529    5.002
  419.750    0.424    0.234   62.348    4.820
  420.000    0.432    0.253   64.828    4.732
  420.250    0.449    0.275   66.068    4.737
  420.500    0.464    0.286   67.929    4.739
  420.750    0.437    0.270   68.549    4.834
  421.000    0.418    0.278   66.071    4.838
  421.250    0.407    0.276   69.171    4.841
  421.500    0.397    0.275   71.031    4.845
  421.750    0.394    0.279   68.553    4.847
  422.000    0.400    0.289   65.454    4.852
  422.250    0.413    0.296   62.356    4.854
  422.500    0.415    0.296   61.117    4.858
  422.750    0.410    0.278   64.217    4.956
  423.000    0.405    0.263   66.697    4.959
  423.250    0.413    0.261   67.937    5.058
  423.500    0.423    0.281   67.319    5.158
  423.750    0.461    0.321   64.840    5.678
  424.000    0.470    0.342   59.882    6.016
  424.250    0.469    0.361   56.164    6.621
  424.500    0.489    0.369   53.065    7.287
  424.750    0.502    0.376   54.306    8.174
  425.000    0.477    0.374   51.208    8.827
  425.250    0.404    0.327   46.869    8.834
  425.500    0.326    0.290   40.052    7.592
  425.750    0.312    0.173   37.573    6.525
  426.000    0.317    0.193   41.293    5.937
  426.250    0.379    0.234   51.831    5.201
  426.500    0.439    0.325   55.551    5.010
  426.750    0.435    0.321   56.792    4.826
  427.000    0.428    0.314   61.131    4.739
  427.250    0.429    0.311   61.132    4.654
  427.500    0.436    0.311   61.133    4.657
  427.750    0.449    0.312   61.754    4.660
  428.000    0.444    0.314   61.754    4.665
  428.250    0.451    0.315   61.135    4.667
  428.500    0.459    0.314   59.896    4.670
  428.750    0.456    0.311   59.277    4.586
  429.000    0.453    0.309   58.038    4.589
  429.250    0.445    0.312   59.899    4.593
  429.500    0.438    0.316   61.139    4.596
  429.750    0.432    0.317   59.900    4.600
  430.000    0.433    0.316   56.802    4.602
  430.250    0.446    0.315   56.803    4.606
  430.500    0.446    0.316   61.762    4.697
  430.750    0.436    0.318   61.763    4.791
  431.000    0.420    0.321   61.764    4.794
  431.250    0.414    0.322   63.004    4.798
  431.500    0.405    0.318   61.146    4.802
  431.750    0.395    0.309   60.526    4.805
  432.000    0.394    0.300   61.767    4.718
  432.250    0.393    0.296   63.007    4.721
  432.500    0.399    0.292   63.628    4.549
  432.750    0.422    0.292   61.770    4.466
  433.000    0.430    0.291   61.770    4.644
  433.250    0.433    0.291   63.630    4.735
  433.500    0.413    0.292   66.110    4.830
  433.750    0.403    0.290   69.830    4.927
  434.000    0.407    0.279   73.550    4.930
  434.250    0.433    0.266   77.270    4.749
  434.500    0.436    0.275   80.370    4.489
  434.750    0.418    0.279   76.032    4.243
  435.000    0.413    0.284   71.694    4.166
  435.250    0.431    0.282   69.215    4.090
