~VERSION INFORMATION
 VERS.                 2.0:   CWLS LOG ASCII STANDARD -VERSION 2.0
 WRAP.                  NO:   ONE LINE PER DEPTH STEP
~WELL INFORMATION BLOCK
#MNEM.UNIT           DATA                    DESCRIPTION OF MNEMONIC
#---------    -------------------            -------------------------------
# Generated from Intellog Unique Number	CS_73_76/WELL/618
WELL.         AMOCO AEC IPIATIK              : Well_name    - WELL
LOC .         00/06-07-073-06W4/0            : Location     - LOCATION
UWI .         00/06-07-073-06W4/0            : Uwi          - UNIQUE WELL ID
ENTR.         SP                             : Entered      - ENTERED BY
SRVC.         SCHLUMBERGER                   : Scn          - SERVICE COMPANY
STRT.M        330                            : top_depth    - START DEPTH
STOP.M        550                            : bot_depth    - STOP DEPTH
STEP.M        0.25                           : increment    - STEP LENGTH
 NULL. -999.2500:NULL Value
~CURVE INFORMATION BLOCK
#MNEM UNIT       ERCB CURVE CODE    CURVE DESCRIPTION
#-----------   ------------------   ----------------------------------
DEPT.M        00 001 00 00         : DEPTH        - DEPTH
ILD .OHMM     00 120 00 00         : RESD         - DEEP RESISTIVITY (DIL)
DPHI.V/V      00 890 00 00         : PHID         - DENSITY POROSITY (LIMESTONE)
NPHI.V/V      00 330 00 00         : PHIN         - NEUTRON POROSITY (LIMESTONE)
GR  .API      00 310 00 00         : GR           - GAMMA RAY
~PARAMETER INFORMATION
#MNEM.UNIT           DATA             DESCRIPTION OF MNEMONIC
#---------         -----------     ------------------------------
GL  .M        711.41               : gl           - GROUND LEVEL ELEVATION
EREF.M        716.11               : kb           - ELEVATION OF DEPTH REFERENCE
DATM.M        711.41               : datum        - DATUM ELEVATION
TDD .M        576                  : tdd          - TOTAL DEPTH DRILLER
RUN .         ONE                  : Run          - RUN NUMBER
ENG .         BILL                 : Engineer     - RECORDING ENGINEER
WIT .         JIM                  : Witness      - WITNESSED BY
MUD .         GEL                  : Mud_type     - MUD TYPE
MATR.         LIMESTONE            : Logunit      - NEUTRON MATRIX
TMAX.C        12                   : BHT          - MAXIMUM RECORDED TEMPERATURE
BHTD.M        576                  : BHTDEP       - MAXIMUM RECORDED TEMPERATURE
MATR.         1                    : LOGUNIT      - NEUTRON MATRIX
RMT .C        25                   : MDTP         - TEMPERATURE OF MUD
NEUT.         1                    : NEUTRON      - NEUTRON TYPE
RESI.         0                    : RESIST       - RESISTIVITY TYPE
RMC .OHMM     0.25                 : RMC          - RESISTIVITY OF MUD CAKE
RMF .OHMM     0.25                 : RMF          - RESISTIVITY OF MUD FILTRATE
SUFT.C        15                   : SUFT         - SURFACE TEMPERATURE
~A  DEPTH     RESD     PHID     PHIN       GR
# ...
  504.000   44.682    0.327    0.313   76.554
  504.250   49.096    0.335    0.304   78.963
  504.500   50.988    0.341    0.293   77.741
  504.750   50.078    0.345    0.291   80.145
  505.000   49.165    0.333    0.308   84.365
  505.250   47.399    0.323    0.326   83.752
  505.500   47.415    0.333    0.339   87.974
  505.750   47.442    0.318    0.342   95.828
  506.000   48.352    0.295    0.337  106.098
  506.250   50.232    0.289    0.386   97.014
  506.500   53.158    0.299    0.400   78.253
  506.750   55.211    0.306    0.395   69.773
  507.000   57.346    0.303    0.382   63.714
  507.250   59.560    0.316    0.396   57.655
  507.500   59.598    0.327    0.396   50.385
  507.750   58.514    0.338    0.387   44.929
  508.000   52.324    0.342    0.377   42.497
  508.250   45.068    0.333    0.371   52.160
  508.500   35.350    0.332    0.382   58.805
  508.750   28.786    0.319    0.343   68.471
  509.000   23.885    0.303    0.310   79.346
  509.250   23.453    0.247    0.313   81.751
  509.500   30.502    0.264    0.343   69.039
  509.750   35.443    0.290    0.367   58.745
  510.000   42.763    0.303    0.379   50.873
  510.250   46.110    0.319    0.381   41.789
  510.500   47.002    0.331    0.401   43.592
  510.750   41.253    0.323    0.418   48.417
  511.000   35.534    0.313    0.427   52.639
  511.250   31.775    0.300    0.415   56.256
  511.500   30.621    0.286    0.421   56.244
  511.750   31.217    0.290    0.433   57.443
  512.000   31.825    0.291    0.426   58.638
  512.250   30.672    0.286    0.417   59.234
  512.500   27.947    0.295    0.414   58.013
  512.750   24.991    0.294    0.414   56.789
  513.000   22.770    0.271    0.415   56.780
  513.250   21.135    0.257    0.408   59.189
  513.500   19.990    0.248    0.392   58.572
  513.750   18.559    0.261    0.388   62.792
  514.000   19.275    0.263    0.380   61.573
  514.250   21.985    0.265    0.394   53.091
  514.500   27.029    0.289    0.404   50.059
  514.750   30.255    0.310    0.400   57.304
  515.000   32.016    0.310    0.396   62.733
  515.250   27.068    0.284    0.405   60.304
  515.500   23.317    0.284    0.427   63.316
  515.750   22.052    0.273    0.428   69.957
  516.000   22.909    0.254    0.408   67.528
  516.250   23.793    0.269    0.438   60.258
  516.500   25.178    0.292    0.443   56.010
  516.750   25.666    0.300    0.424   62.047
  517.000   23.829    0.289    0.380   70.504
  517.250   22.126    0.256    0.383   74.121
  517.500   22.131    0.233    0.395   73.506
  517.750   26.207    0.261    0.421   59.581
  518.000   32.824    0.277    0.440   51.709
  518.250   43.488    0.304    0.452   47.464
  518.500   62.109    0.320    0.418   49.872
  518.750   65.714    0.320    0.423   45.021
  519.000   64.525    0.321    0.443   45.611
  519.250   59.905    0.325    0.438   48.022
  519.500   53.565    0.316    0.429   54.055
  519.750   46.138    0.312    0.436   59.489
  520.000   36.873    0.322    0.441   69.154
  520.250   30.029    0.306    0.443   74.588
  520.500   26.850    0.287    0.419   81.831
  520.750   25.399    0.266    0.406   84.846
  521.000   29.519    0.265    0.419   63.061
  521.250   33.041    0.284    0.427   64.862
  521.500   39.870    0.307    0.428   67.876
  521.750   42.987    0.334    0.423   66.654
  522.000   47.228    0.333    0.418   60.594
  522.250   49.053    0.336    0.434   53.929
  522.500   43.055    0.321    0.455   51.500
  522.750   35.056    0.315    0.448   53.905
  523.000   29.086    0.324    0.436   62.359
  523.250   25.054    0.298    0.427   67.188
  523.500   23.257    0.284    0.425   66.573
  523.750   23.269    0.268    0.439   56.880
  524.000   25.573    0.306    0.451   53.849
  524.250   26.556    0.302    0.438   59.881
  524.500   29.182    0.289    0.423   62.898
  524.750   30.304    0.277    0.426   60.466
  525.000   31.476    0.295    0.434   55.617
  525.250   32.087    0.313    0.429   53.790
  525.500   28.699    0.323    0.421   53.174
  525.750   27.141    0.336    0.420   55.580
  526.000   24.275    0.338    0.415   59.198
  526.250   23.390    0.334    0.415   65.235
  526.500   21.311    0.319    0.418   68.248
  526.750   20.538    0.305    0.420   64.000
  527.000   20.167    0.297    0.427   65.198
  527.250   20.559    0.297    0.422   60.347
  527.500   20.957    0.301    0.419   57.314
  527.750   22.179    0.320    0.456   53.673
  528.000   19.466    0.331    0.428   51.243
  528.250   15.851    0.339    0.415   54.255
  528.500   12.433    0.342    0.425   63.312
  528.750    9.572    0.305    0.437   69.350
  529.000    7.942    0.276    0.447   65.107
  529.250    6.348    0.291    0.461   51.786
  529.500    5.267    0.330    0.470   46.940
  529.750    4.710    0.352    0.432   44.508
  530.000    4.372    0.346    0.415   48.730
  530.250    4.213    0.326    0.403   63.234
  530.500    4.296    0.309    0.381   74.108
  530.750    4.378    0.277    0.361   75.306
  531.000    4.464    0.263    0.401   69.246
  531.250    4.383    0.265    0.426   60.767
  531.500    4.304    0.277    0.409   54.102
  531.750    4.148    0.315    0.427   49.858
  532.000    3.998    0.338    0.427   48.634
  532.250    3.926    0.339    0.378   52.252
  532.500    3.927    0.320    0.371   55.870
  532.750    3.857    0.294    0.380   57.674
  533.000    3.787    0.312    0.385   54.033
  533.250    3.718    0.320    0.369   51.602
  533.500    3.584    0.332    0.365   50.381
  533.750    3.519    0.336    0.369   46.738
  534.000    3.456    0.329    0.377   44.914
  534.250    3.393    0.325    0.385   43.084
  534.500    3.395    0.328    0.383   42.472
  534.750    3.334    0.331    0.377   41.248
  535.000    3.335    0.331    0.371   40.632
  535.250    3.275    0.328    0.368   40.012
  535.500    3.277    0.324    0.367   40.005
  535.750    3.218    0.326    0.377   39.992
  536.000    3.220    0.333    0.393   41.191
  536.250    3.221    0.341    0.400   40.576
  536.500    3.163    0.341    0.387   39.352
  536.750    3.106    0.333    0.389   39.341
  537.000    3.107    0.331    0.388   39.936
  537.250    3.052    0.332    0.382   41.132
  537.500    3.054    0.335    0.386   38.701
  537.750    3.055    0.341    0.390   35.667
  538.000    3.056    0.348    0.390   33.236
  538.250    3.115    0.341    0.383   32.619
  538.500    3.236    0.336    0.371   36.237
  538.750    3.362    0.327    0.364   44.693
  539.000    3.427    0.319    0.361   51.939
  539.250    3.559    0.313    0.361   48.902
  539.500    3.628    0.307    0.360   42.843
  539.750    3.769    0.301    0.340   35.573
  540.000    3.841    0.290    0.317   34.952
  540.250    3.843    0.285    0.302   34.944
  540.500    3.992    0.289    0.302   32.512
  540.750    4.070    0.283    0.307   31.898
  541.000    4.149    0.272    0.307   31.887
  541.250    4.474    0.260    0.303   37.922
  541.500    4.560    0.260    0.310   53.633
  541.750    4.826    0.260    0.323   63.301
  542.000    4.919    0.141    0.337   80.226
  542.250    4.653    0.165    0.350   80.819
  542.500    4.084    0.221    0.352   68.711
  542.750    3.721    0.279    0.367   53.579
  543.000    3.454    0.301    0.384   47.518
  543.250    3.267    0.330    0.381   37.225
  543.500    3.149    0.351    0.365   31.164
  543.750    3.092    0.330    0.356   34.175
  544.000    3.094    0.321    0.361   37.191
  544.250    3.213    0.311    0.362   37.175
  544.500    3.950    0.306    0.334   36.561
  544.750    5.136    0.304    0.323   38.969
  545.000    5.749    0.290    0.310   46.820
  545.250    6.200    0.236    0.301   54.067
  545.500    6.685    0.187    0.324   70.384
  545.750    7.208    0.161    0.370   82.469
  546.000    7.920    0.151    0.381   87.901
  546.250    8.866    0.154    0.390   89.100
  546.500    9.740    0.133    0.390   78.201
  546.750   11.323    0.099    0.378   53.390
  547.000   12.207    0.086    0.344   47.333
  547.250   13.665    0.052    0.321   44.296
