~VERSION INFORMATION
 VERS.                 2.0:   CWLS LOG ASCII STANDARD -VERSION 2.0
 WRAP.                  NO:   ONE LINE PER DEPTH STEP
~WELL INFORMATION BLOCK
#MNEM.UNIT           DATA                    DESCRIPTION OF MNEMONIC
#---------    -------------------            -------------------------------
# Generated from Intellog Unique Number	CW_79_81/WELL/2462
WELL.         07-32-081-20W4                 : Well_name    - WELL
LOC .         00/07-32-081-20W4/0            : Location     - LOCATION
UWI .         00/07-32-081-20W4/0            : Uwi          - UNIQUE WELL ID
ENTR.         MAX                            : Entered      - ENTERED BY
SRVC.         COMPUTALOG                     : Scn          - SERVICE COMPANY
STRT.M        152.4                          : top_depth    - START DEPTH
STOP.M        383.90                         : bot_depth    - STOP DEPTH
STEP.M        0.25                           : increment    - STEP LENGTH
 NULL. -999.2500:NULL Value
~CURVE INFORMATION BLOCK
#MNEM UNIT       ERCB CURVE CODE    CURVE DESCRIPTION
#-----------   ------------------   ----------------------------------
DEPT.M        00 001 00 00         : DEPTH        - DEPTH
ILD .OHMM     00 120 00 00         : RESD         - DEEP RESISTIVITY (DIL)
NPHI.V/V      00 330 00 00         : PHIN         - NEUTRON POROSITY (SANDSTONE)
DPHI.V/V      00 890 00 00         : PHID         - DENSITY POROSITY (SANDSTONE)
GR  .API      00 310 00 00         : GR           - GAMMA RAY
CALI.MM       00 280 01 00         : CAL          - CALIPER
~PARAMETER INFORMATION
#MNEM.UNIT           DATA             DESCRIPTION OF MNEMONIC
#---------         -----------     ------------------------------
GL  .M        586.77               : gl           - GROUND LEVEL ELEVATION
EREF.M        590.123              : kb           - ELEVATION OF DEPTH REFERENCE
DATM.M        586.77               : datum        - DATUM ELEVATION
TDD .M        399.288              : tdd          - TOTAL DEPTH DRILLER
RUN .         ONE                  : Run          - RUN NUMBER
ENG .         BILL                 : Engineer     - RECORDING ENGINEER
WIT .         JIM                  : Witness      - WITNESSED BY
MUD .         GEL                  : Mud_type     - MUD TYPE
MATR.         SANDSTONE            : Logunit      - NEUTRON MATRIX
TMAX.C        16.6667              : BHT          - MAXIMUM RECORDED TEMPERATURE
BHTD.M        399.288              : BHTDEP       - MAXIMUM RECORDED TEMPERATURE
MATR.         1                    : LOGUNIT      - NEUTRON MATRIX
RMT .C        7.77778              : MDTP         - TEMPERATURE OF MUD
NEUT.         1                    : NEUTRON      - NEUTRON TYPE
RESI.         0                    : RESIST       - RESISTIVITY TYPE
RMC .OHMM     3.9                  : RMC          - RESISTIVITY OF MUD CAKE
RMF .OHMM     4.15                 : RMF          - RESISTIVITY OF MUD FILTRATE
SUFT.C        -20.5556             : SUFT         - SURFACE TEMPERATURE
~A  DEPTH     RESD     PHIN     PHID       GR      CAL
# ...
  225.400   10.027    0.447    0.322  139.574  170.487
  225.650   17.492    0.437    0.358  118.848  167.565
  225.900   20.543    0.417    0.393  104.208  165.042
  226.150   21.561    0.432    0.393   99.504  166.187
  226.400   23.092    0.439    0.390   96.203  165.851
  226.650   24.590    0.434    0.385   94.890  165.015
  226.900   25.571    0.421    0.379   95.449  164.573
  227.150   25.858    0.404    0.378   97.450  165.981
  227.400   25.889    0.381    0.382   99.373  169.232
  227.650   25.950    0.402    0.384   96.070  169.978
  227.900   25.942    0.404    0.383   97.857  170.139
  228.150   25.893    0.412    0.377   99.589  170.893
  228.400   25.837    0.426    0.369  100.092  172.432
  228.650   25.798    0.422    0.360  101.535  174.206
  228.900   25.764    0.434    0.355   98.337  175.408
  229.150   25.763    0.444    0.351   92.467  176.554
  229.400   25.739    0.457    0.340   93.960  173.245
  229.650   25.706    0.455    0.324   96.975  170.625
  229.900   25.674    0.436    0.319   98.998  170.084
  230.150   25.628    0.414    0.361  101.373  169.001
  230.400   25.562    0.398    0.368  104.024  167.715
  230.650   25.561    0.389    0.374  107.278  166.490
  230.900   25.536    0.409    0.380  108.947  164.961
  231.150   25.519    0.423    0.382  109.039  164.127
  231.400   25.510    0.424    0.382  107.673  164.088
  231.650   25.477    0.434    0.382  104.050  164.037
  231.900   25.476    0.451    0.382   98.906  163.993
  232.150   25.444    0.450    0.384   95.605  164.346
  232.400   25.388    0.439    0.388   93.360  164.994
  232.650   25.340    0.427    0.390   94.622  165.148
  232.900   25.315    0.418    0.390   98.222  164.711
  233.150   25.301    0.416    0.390   98.678  164.185
  233.400   25.234    0.435    0.390   95.237  163.724
  233.650   25.139    0.442    0.389   94.515  163.682
  233.900   24.973    0.433    0.390   93.966  163.633
  234.150   24.816    0.419    0.390   93.472  163.589
  234.400   24.650    0.409    0.391   92.743  163.551
  234.650   24.289    0.403    0.391   91.505  163.422
  234.900   23.898    0.417    0.392   92.454  162.965
  235.150   23.045    0.447    0.395   92.431  162.527
  235.400   22.389    0.446    0.397   91.525  162.380
  235.650   21.761    0.431    0.394   90.563  163.721
  235.900   21.097    0.416    0.391   90.250  166.059
  236.150   20.244    0.416    0.390   91.596  167.199
  236.400   19.436    0.438    0.385   93.759  167.151
  236.650   18.389    0.451    0.378   96.307  166.717
  236.900   15.911    0.452    0.368   98.154  166.280
  237.150   14.347    0.438    0.361  100.235  165.446
  237.400   13.919    0.420    0.362  102.841  164.413
  237.650   14.448    0.417    0.380  105.616  163.797
  237.900   15.637    0.433    0.384  105.587  162.928
  238.150   15.978    0.452    0.382  105.796  162.494
  238.400   15.513    0.461    0.377  109.690  162.057
  238.650   14.187    0.463    0.373  112.704  161.619
  238.900   12.502    0.462    0.369  113.730  161.280
  239.150   10.655    0.462    0.363  114.764  161.228
  239.400    9.143    0.450    0.356  113.028  161.180
  239.650    8.762    0.466    0.346  111.605  161.137
  239.900    8.600    0.471    0.332  110.001  160.801
  240.150    8.690    0.466    0.301  110.210  160.365
  240.400    9.083    0.449    0.274  111.824  160.026
  240.650   10.134    0.427    0.318  111.637  159.892
  240.900   11.636    0.444    0.343  109.660  159.431
  241.150   12.614    0.428    0.354  108.001  159.393
  241.400   13.162    0.443    0.359  105.461  159.349
  241.650   13.430    0.455    0.363  102.513  159.307
  241.900   13.554    0.448    0.367   99.158  159.365
  242.150   13.610    0.421    0.366   95.452  159.703
  242.400   13.739    0.408    0.363   98.106  159.668
  242.650   13.925    0.403    0.360   94.342  159.621
  242.900   14.018    0.393    0.358   91.276  159.581
  243.150   14.048    0.383    0.357   89.846  159.541
  243.400   14.023    0.380    0.357   90.287  159.598
  243.650   13.908    0.395    0.358   91.883  159.695
  243.900   13.810    0.403    0.358   90.637  158.409
  244.150   13.683    0.398    0.358   92.254  157.975
  244.400   13.533    0.393    0.359   93.516  158.129
  244.650   13.376    0.388    0.359   95.128  158.679
  244.900   13.218    0.386    0.360   96.331  159.527
  245.150   13.048    0.393    0.360   95.189  160.830
  245.400   12.982    0.399    0.360   96.622  161.615
  245.650   12.886    0.397    0.357   98.938  161.565
  245.900   12.838    0.395    0.354  100.728  161.527
  246.150   12.743    0.390    0.355  101.053  161.687
  246.400   12.578    0.384    0.357  100.266  162.038
  246.650   12.336    0.384    0.356  100.146  162.459
  246.900   12.075    0.389    0.357  100.854  162.837
  247.150   11.854    0.400    0.359  102.234  162.794
  247.400   11.705    0.406    0.358  102.911  162.746
  247.650   11.579    0.409    0.356  103.354  162.506
  247.900   11.461    0.410    0.354  103.680  162.171
  248.150   11.366    0.410    0.355  103.455  162.030
  248.400   11.365    0.409    0.356  102.452  161.578
  248.650   11.363    0.410    0.362  101.492  161.540
  248.900   11.315    0.410    0.364  100.709  161.499
  249.150   11.251    0.415    0.364  100.568  161.457
  249.400   11.180    0.420    0.362  101.361  161.512
  249.650   11.072    0.417    0.357  103.052  161.853
  249.900   11.005    0.428    0.353  102.293  161.809
  250.150   10.973    0.449    0.354  101.805  161.771
  250.400   10.964    0.433    0.355  104.120  162.027
  250.650   10.994    0.410    0.359  104.914  162.183
  250.900   11.040    0.396    0.363  103.895  162.139
  251.150   11.032    0.400    0.361  104.508  162.080
  251.400   10.998    0.410    0.359  103.020  162.041
  251.650   11.028    0.406    0.359   98.317  161.607
  251.900   11.174    0.387    0.356   98.174  161.467
  252.150   11.345    0.376    0.353   99.786  161.424
  252.400   11.493    0.377    0.349  101.456  161.380
  252.650   11.643    0.372    0.343  102.936  161.322
  252.900   11.772    0.361    0.339  104.612  161.282
  253.150   11.864    0.379    0.337  105.759  161.236
  253.400   11.934    0.401    0.342  107.432  161.193
  253.650   11.995    0.413    0.345  109.277  161.152
  253.900   12.049    0.415    0.346  110.712  161.112
  254.150   12.078    0.415    0.346  110.819  161.058
  254.400   12.077    0.416    0.348  110.308  161.019
  254.650   12.107    0.423    0.350  109.580  160.976
  254.900   12.114    0.423    0.353  108.328  160.931
  255.150   12.128    0.424    0.353  105.848  160.887
  255.400   12.151    0.431    0.351  102.548  160.844
  255.650   12.136    0.439    0.350   99.605  160.789
  255.900   12.070    0.418    0.355   97.874  160.750
  256.150   12.006    0.434    0.355   99.720  160.712
  256.400   11.919    0.433    0.355  102.968  160.671
  256.650   11.824    0.428    0.356  104.229  160.628
  256.900   11.745    0.429    0.356  103.328  160.684
  257.150   11.699    0.442    0.355  103.443  161.025
  257.400   11.632    0.428    0.353  104.145  160.981
  257.650   11.474    0.434    0.351  104.357  160.935
  257.900   11.434    0.442    0.349  104.913  160.898
  258.150   11.402    0.441    0.350  105.004  160.858
  258.400   11.338    0.431    0.354  104.572  160.812
  258.650   11.261    0.422    0.359  104.113  160.762
  258.900   11.195    0.420    0.362  103.113  160.723
  259.150   11.037    0.407    0.364  101.685  160.676
  259.400   10.903    0.403    0.365  100.255  160.633
  259.650   10.793    0.416    0.366   99.178  160.591
  259.900   10.690    0.434    0.368   98.628  160.648
  260.150   10.550    0.427    0.370   98.986  160.993
  260.400   10.484    0.450    0.373  100.911  160.949
  260.650   10.483    0.452    0.376  103.692  161.298
  260.900   10.459    0.448    0.376  104.893  161.357
  261.150   10.457    0.445    0.374  104.986  161.317
  261.400   10.511    0.443    0.371  104.614  161.275
  261.650   10.666    0.437    0.367  104.535  161.224
