~VERSION INFORMATION
 VERS.                 2.0:   CWLS LOG ASCII STANDARD -VERSION 2.0
 WRAP.                  NO:   ONE LINE PER DEPTH STEP
~WELL INFORMATION BLOCK
#MNEM.UNIT           DATA                    DESCRIPTION OF MNEMONIC
#---------    -------------------            -------------------------------
# Generated from Intellog Unique Number	CS_69_70/WELL/2885
NULL.         -999.25                        : NULL_VALUE
WELL.         AEC KIRBY                      : Well_name    - WELL              
LOC .         00/08-33-070-04W4/0            : Location     - LOCATION          
UWI .         00/08-33-070-04W4/0            : Uwi          - UNIQUE WELL ID    
ENTR.         TIM                            : Entered      - ENTERED BY        
SRVC.         SCHLUMBERGER                   : Scn          - SERVICE COMPANY   
DATE.         01/30/92                       : Date         - LOG DATE          
STRT.M        285                            : top_depth    - START DEPTH       
STOP.M        485                            : bot_depth    - STOP DEPTH        
STEP.M        0.25                           : increment    - STEP LENGTH       
~CURVE INFORMATION BLOCK
#MNEM UNIT       ERCB CURVE CODE    CURVE DESCRIPTION
#-----------   ------------------   ----------------------------------
DEPT.M        00 001 00 00         : DEPTH        - DEPTH                       
GR  .API      00 310 00 00         : GR           - GAMMA RAY                   
ILD .OHMM     00 120 00 00         : RESD         - DEEP RESISTIVITY (DIL)      
DPHI.V/V      00 890 00 00         : PHID         - DENSITY POROSITY (SANDSTONE)
NPHI.V/V      00 330 00 00         : PHIN         - NEUTRON POROSITY (SANDSTONE)
~PARAMETER INFORMATION       
#MNEM.UNIT           DATA             DESCRIPTION OF MNEMONIC
#---------         -----------     ------------------------------
GL  .M        660.7                : gl           - GROUND LEVEL ELEVATION      
EREF.M        664.3                : kb           - ELEVATION OF DEPTH REFERENCE
DATM.M        664.3                : datum        - DATUM ELEVATION             
TDD .M        497                  : tdd          - TOTAL DEPTH DRILLER         
RUN .         ONE                  : Run          - RUN NUMBER                  
ENG .         JO                   : Engineer     - RECORDING ENGINEER          
WIT .         TIM                  : Witness      - WITNESSED BY                
MUD .         GEL                  : Mud_type     - MUD TYPE                    
MATR.         SANDSTONE            : Logunit      - NEUTRON MATRIX              
TMAX.C        23                   : BHT          - MAXIMUM RECORDED TEMPERATURE
BHTD.M        497                  : BHTDEP       - MAXIMUM RECORDED TEMPERATURE
RMT .C        17                   : MDTP         - TEMPERATURE OF MUD          
MUDD.KG/M     1090                 : MWT          - MUD DENSITY                 
NEUT.         1                    : NEUTRON      - NEUTRON TYPE                
RESI.         0                    : RESIST       - RESISTIVITY TYPE            
RM  .OHMM     6.4                  : RM           - RESISTIVITY OF MUD          
RMC .OHMM     5.6                  : RMC          - RESISTIVITY OF MUD CAKE     
RMF .OHMM     4.9                  : RMF          - RESISTIVITY OF MUD FILTRATE 
SUFT.C        4                    : SUFT         - SURFACE TEMPERATURE         
~A  DEPTH       GR     RESD     PHID     PHIN
  285.000   98.308    3.735    0.250    0.516
  285.250   98.939    3.598    0.251    0.525
  285.500   98.955    3.531    0.251    0.533
  285.750   97.129    3.466    0.248    0.524
  286.000   81.791    4.033    0.244    0.507
  286.250   69.516    5.255    0.259    0.466
  286.500   62.160    8.753    0.293    0.261
  286.750   49.886   15.725    0.309    0.247
  287.000   42.534   29.333    0.320    0.239
  287.250   44.394   27.727    0.345    0.251
  287.500   49.326   24.765    0.354    0.266
  287.750   54.872   22.119    0.343    0.286
  288.000   65.333   19.026    0.294    0.319
  288.250   76.412   17.647    0.291    0.333
  288.500   77.654   17.000    0.285    0.334
  288.750   78.285   16.686    0.294    0.323
  289.000   77.687   16.381    0.313    0.322
  289.250   75.865   16.384    0.350    0.325
  289.500   77.725   16.390    0.354    0.332
  289.750   79.585   16.394    0.352    0.344
  290.000   81.453   16.402    0.345    0.352
  290.250   83.313   15.798    0.342    0.371
  290.500   85.164   14.934    0.339    0.386
  290.750   88.871   14.384    0.335    0.392
  291.000   91.342   13.342    0.331    0.383
  291.250   87.672   12.851    0.330    0.364
  291.500   84.003   11.921    0.337    0.367
  291.750   79.719   11.267    0.345    0.378
  292.000   82.193   10.453    0.340    0.396
  292.250   87.739   10.068    0.285    0.409
  292.500   94.514    9.164    0.266    0.427
  292.750   97.607    8.341    0.255    0.444
  293.000   95.776    7.884    0.249    0.412
  293.250   90.878    7.887    0.239    0.387
  293.500   85.365    8.040    0.239    0.374
  293.750   82.310    8.352    0.251    0.377
  294.000   84.793    8.354    0.260    0.380
  294.250   87.882    8.516    0.240    0.403
  294.500   89.737    8.519    0.242    0.432
  294.750   93.445    8.522    0.266    0.456
  295.000   96.533    8.365    0.276    0.462
  295.250  101.465    8.211    0.288    0.463
  295.500  107.621    8.061    0.300    0.465
  295.750  115.625    7.765    0.256    0.473
  296.000  107.655    7.766    0.210    0.475
  296.250   97.227    7.624    0.159    0.480
  296.500   99.087    7.484    0.187    0.480
  296.750  108.319    6.813    0.206    0.481
  297.000  121.856    6.319    0.228    0.488
  297.250  128.021    5.860    0.226    0.508
  297.500  129.881    5.137    0.230    0.521
  297.750  128.669    4.503    0.233    0.533
  298.000  126.224    4.256    0.241    0.536
  298.250  123.783    4.023    0.242    0.527
  298.500  121.957    3.803    0.231    0.521
  298.750  119.516    3.662    0.208    0.533
  299.000  118.304    3.528    0.192    0.548
  299.250  120.778    3.398    0.207    0.549
  299.500  125.710    3.399    0.220    0.537
  299.750  124.498    3.737    0.246    0.504
  300.000  117.142    4.431    0.254    0.471
  300.250  111.630    5.774    0.273    0.479
  300.500  105.503    8.114    0.318    0.474
  300.750   69.272   11.620    0.386    0.284
  301.000   54.544   14.041    0.408    0.284
  301.250   37.973   16.336    0.375    0.313
  301.500   34.917   17.295    0.348    0.320
  301.750   55.823   17.628    0.319    0.312
  302.000   66.284   17.636    0.320    0.252
  302.250   63.852   16.987    0.338    0.198
  302.500   61.403   16.673    0.365    0.166
  302.750   55.276   15.761    0.404    0.160
  303.000   43.005   17.004    0.421    0.160
  303.250   38.111   20.159    0.443    0.157
  303.500   36.280   30.551    0.446    0.169
  303.750   36.916   36.914    0.438    0.187
  304.000   40.004   45.455    0.426    0.207
  304.250   44.322   42.969    0.413    0.229
  304.500   52.940   39.849    0.398    0.252
  304.750   59.714   34.926    0.381    0.284
  305.000   66.493   30.612    0.375    0.300
  305.250   68.963   26.830    0.362    0.320
  305.500   70.823   24.421    0.342    0.326
  305.750   72.073   21.812    0.318    0.321
  306.000   69.632   19.853    0.342    0.311
  306.250   67.187   18.418    0.346    0.334
  306.500   64.132   17.408    0.339    0.343
  306.750   69.678   16.767    0.328    0.354
  307.000   76.453   15.264    0.313    0.360
  307.250   74.635   14.702    0.299    0.351
  307.500   71.580   14.430    0.300    0.324
  307.750   67.906   13.640    0.296    0.280
  308.000   63.008   13.389    0.291    0.259
  308.250   58.724   13.650    0.286    0.275
  308.500   59.974   13.915    0.298    0.342
  308.750   63.063   14.185    0.316    0.361
  309.000   66.147   14.460    0.282    0.373
  309.250   68.007   14.467    0.290    0.366
  309.500   69.867   14.200    0.311    0.366
  309.750   70.498   13.938    0.291    0.372
  310.000   70.515   12.687    0.284    0.380
  310.250   69.303   11.768    0.293    0.391
  310.500   68.091   10.915    0.303    0.406
  310.750   66.879   10.125    0.304    0.420
  311.000   66.896    9.391    0.275    0.430
  311.250   71.217    9.218    0.263    0.422
  311.500   73.691    8.714    0.259    0.403
  311.750   77.394    8.553    0.258    0.400
  312.000   84.169    8.085    0.260    0.414
  312.250   89.101    7.787    0.261    0.426
  312.500   92.804    7.361    0.261    0.440
  312.750   93.439    6.829    0.264    0.443
  313.000   94.070    6.702    0.265    0.463
  313.250   95.316    6.456    0.267    0.478
  313.500   97.180    6.103    0.270    0.481
  313.750   97.803    5.878    0.270    0.496
  314.000  101.510    5.771    0.270    0.508
  314.250  102.755    5.664    0.270    0.520
  314.500   98.467    5.456    0.265    0.515
  314.750   92.955    5.355    0.258    0.519
  315.000   89.904    5.257    0.254    0.528
  315.250   93.001    5.160    0.255    0.521
  315.500   93.009    5.162    0.257    0.508
  315.750   85.654    5.164    0.260    0.498
  316.000   90.590    5.264    0.263    0.485
  316.250   95.517    5.366    0.267    0.489
  316.500   97.381    5.471    0.273    0.497
  316.750   94.940    5.576    0.279    0.509
  317.000   94.339    5.578    0.285    0.505
  317.250   94.364    5.476    0.296    0.492
  317.500   94.372    5.478    0.301    0.480
  317.750   93.779    5.479    0.300    0.468
  318.000   92.567    5.481    0.296    0.442
  318.250   90.740    5.913    0.292    0.433
  318.500   89.533    6.379    0.279    0.430
  318.750   88.312    6.754    0.265    0.426
  319.000   84.643    7.015    0.260    0.417
  319.250   75.444    7.288    0.276    0.411
  319.500   73.622    7.571    0.303    0.400
  319.750   74.253    7.717    0.320    0.385
  320.000   76.727    8.018    0.340    0.365
  320.250   76.744    8.173    0.346    0.397
  320.500   73.693    7.874    0.332    0.423
  320.750   73.710    7.584    0.293    0.436
  321.000   76.798    7.304    0.304    0.453
  321.250   79.883    6.905    0.316    0.473
  321.500   76.828    6.777    0.314    0.451
  321.750   71.315    6.528    0.302    0.447
  322.000   70.107    6.409    0.288    0.442
  322.250   73.196    6.410    0.277    0.453
  322.500   75.056    6.414    0.276    0.462
  322.750   76.297    6.415    0.281    0.454
  323.000   78.161    6.298    0.304    0.446
  323.250   78.178    6.299    0.309    0.440
  323.500   76.347    6.184    0.316    0.436
  323.750   70.839    6.070    0.325    0.429
  324.000   66.551    5.958    0.338    0.416
  324.250   57.967    5.849    0.354    0.397
  324.500   48.154    5.635    0.364    0.382
  324.750   40.802    5.531    0.366    0.409
  325.000   43.895    5.327    0.362    0.450
  325.250   45.746    5.230    0.360    0.436
  325.500   48.221    5.133    0.359    0.437
  325.750   51.932    5.039    0.357    0.438
  326.000   55.016    4.946    0.356    0.432
  326.250   63.020    4.948    0.356    0.450
  326.500   72.867    4.857    0.356    0.465
  326.750   77.798    4.859    0.352    0.460
  327.000   76.595    4.860    0.350    0.460
  327.250   75.374    4.771    0.346    0.457
  327.500   74.162    4.772    0.346    0.456
  327.750   72.336    4.774    0.346    0.455
  328.000   71.743    4.686    0.346    0.456
  328.250   71.141    4.688    0.344    0.462
