~VERSION INFORMATION
 VERS.                 2.0:   CWLS LOG ASCII STANDARD -VERSION 2.0
 WRAP.                  NO:   ONE LINE PER DEPTH STEP
~WELL INFORMATION BLOCK
#MNEM.UNIT           DATA                    DESCRIPTION OF MNEMONIC
#---------    -------------------            -------------------------------
# Generated from Intellog Unique Number	CS_73_76/WELL/1032
WELL.         CANADIAN WORLDWIDE ENERGY      : Well_name    - WELL
LOC .         00/06-04-075-09W4/0            : Location     - LOCATION
UWI .         00/06-04-075-09W4/0            : Uwi          - UNIQUE WELL ID
ENTR.         SP                             : Entered      - ENTERED BY
SRVC.         SCHLUMBERGER                   : Scn          - SERVICE COMPANY
STRT.M        275                            : top_depth    - START DEPTH
STOP.M        494                            : bot_depth    - STOP DEPTH
STEP.M        0.25                           : increment    - STEP LENGTH
 NULL. -999.2500:NULL Value
~CURVE INFORMATION BLOCK
#MNEM UNIT       ERCB CURVE CODE    CURVE DESCRIPTION
#-----------   ------------------   ----------------------------------
DEPT.M        00 001 00 00         : DEPTH        - DEPTH
GR  .API      00 310 00 00         : GR           - GAMMA RAY
NPHI.V/V      00 330 00 00         : PHIN         - NEUTRON POROSITY (LIMESTONE)
DPHI.V/V      00 890 00 00         : PHID         - DENSITY POROSITY (LIMESTONE)
ILD .OHMM     00 120 00 00         : RESD         - DEEP RESISTIVITY (DIL)
~PARAMETER INFORMATION
#MNEM.UNIT           DATA             DESCRIPTION OF MNEMONIC
#---------         -----------     ------------------------------
GL  .M        662.5                : gl           - GROUND LEVEL ELEVATION
EREF.M        666                  : kb           - ELEVATION OF DEPTH REFERENCE
DATM.M        662.5                : datum        - DATUM ELEVATION
TDD .M        500                  : tdd          - TOTAL DEPTH DRILLER
RUN .         ONE                  : Run          - RUN NUMBER
ENG .         BILL                 : Engineer     - RECORDING ENGINEER
WIT .         JIM                  : Witness      - WITNESSED BY
MUD .         GEL                  : Mud_type     - MUD TYPE
MATR.         LIMESTONE            : Logunit      - NEUTRON MATRIX
TMAX.C        21                   : BHT          - MAXIMUM RECORDED TEMPERATURE
BHTD.M        500                  : BHTDEP       - MAXIMUM RECORDED TEMPERATURE
MATR.         1                    : LOGUNIT      - NEUTRON MATRIX
RMT .C        25                   : MDTP         - TEMPERATURE OF MUD
NEUT.         1                    : NEUTRON      - NEUTRON TYPE
RESI.         0                    : RESIST       - RESISTIVITY TYPE
RMC .OHMM     0.25                 : RMC          - RESISTIVITY OF MUD CAKE
RMF .OHMM     0.25                 : RMF          - RESISTIVITY OF MUD FILTRATE
SUFT.C        15                   : SUFT         - SURFACE TEMPERATURE
~A  DEPTH       GR     PHIN     PHID     RESD
# ...
  318.500   53.435    0.399    0.263   14.046
  318.750   49.797    0.410    0.279   13.783
  319.000   46.768    0.399    0.277   13.783
  319.250   51.024    0.367    0.272   13.525
  319.500   71.072    0.367    0.254   11.199
  319.750   94.763    0.423    0.231   10.582
  320.000  102.665    0.451    0.216    9.273
  320.250  105.710    0.489    0.229    8.280
  320.500  103.286    0.477    0.243    7.678
  320.750   98.435    0.480    0.264    7.973
  321.000   94.798    0.472    0.262    8.599
  321.250   94.199    0.472    0.242    8.929
  321.500   99.671    0.490    0.235    9.273
  321.750  102.714    0.497    0.230    9.450
  322.000  102.113    0.489    0.229    9.450
  322.250  102.729    0.468    0.230    9.630
  322.500  103.342    0.446    0.238    9.813
  322.750  101.528    0.433    0.253    9.813
  323.000   98.498    0.424    0.244   10.000
  323.250   94.253    0.425    0.236   10.000
  323.500   91.224    0.430    0.230   10.000
  323.750   90.623    0.420    0.228   10.191
  324.000   91.238    0.412    0.236   10.000
  324.250   90.031    0.413    0.239    9.630
  324.500   90.644    0.424    0.233    9.273
  324.750   91.867    0.459    0.215    8.599
  325.000   93.696    0.484    0.194    8.125
  325.250   94.918    0.472    0.189    7.824
  325.500   96.746    0.464    0.205    7.534
  325.750   99.180    0.468    0.232    7.534
  326.000  101.618    0.459    0.232    7.678
  326.250  103.447    0.445    0.217    7.678
  326.500  102.846    0.448    0.207    7.678
  326.750  101.032    0.465    0.209    7.678
  327.000   96.786    0.484    0.232    7.824
  327.250   82.827    0.498    0.260    8.125
  327.500   71.902    0.445    0.282    8.599
  327.750   65.228    0.397    0.296    9.450
  328.000   61.590    0.382    0.306   10.582
  328.250   63.419    0.381    0.291   11.630
  328.500   70.715    0.407    0.285   11.412
  328.750   78.616    0.441    0.279   10.191
  329.000   90.162    0.480    0.265    9.273
  329.250   98.671    0.465    0.258    8.438
  329.500  104.143    0.456    0.231    8.280
  329.750   96.862    0.446    0.222    7.973
  330.000   92.618    0.449    0.217    7.824
  330.250   91.412    0.458    0.221    7.824
  330.500   90.204    0.471    0.223    7.678
  330.750   88.996    0.436    0.222    7.678
  331.000   85.969    0.427    0.227    7.678
  331.250   85.367    0.424    0.230    7.678
  331.500   84.769    0.425    0.232    7.678
  331.750   84.771    0.415    0.226    7.973
  332.000   83.565    0.410    0.218    8.125
  332.250   82.356    0.409    0.216    8.599
  332.500   81.152    0.402    0.228    8.762
  332.750   81.155    0.407    0.237    9.099
  333.000   86.023    0.419    0.236    9.273
  333.250   89.065    0.425    0.229    9.273
  333.500   89.071    0.427    0.223    9.273
  333.750   83.616    0.408    0.225    9.273
  334.000   83.012    0.403    0.227    9.450
  334.250   84.842    0.415    0.230    9.630
  334.500   86.672    0.421    0.234   10.000
  334.750   86.676    0.433    0.220   10.191
  335.000   87.291    0.415    0.215   10.191
  335.250   86.083    0.403    0.224   10.385
  335.500   83.055    0.412    0.242   10.385
  335.750   82.455    0.421    0.247   10.191
  336.000   84.284    0.421    0.238   10.385
  336.250   81.253    0.444    0.233   10.784
  336.500   73.973    0.470    0.273   11.851
  336.750   69.120    0.472    0.294   12.542
  337.000   63.055    0.436    0.315   13.525
  337.250   59.417    0.428    0.324   14.313
  337.500   58.818    0.429    0.324   15.730
  337.750   60.646    0.429    0.330   16.963
  338.000   61.261    0.426    0.325   17.951
  338.250   60.053    0.423    0.320   18.642
  338.500   57.023    0.429    0.320   18.642
  338.750   53.993    0.427    0.327   18.293
  339.000   55.825    0.422    0.321   18.293
  339.250   58.865    0.423    0.322   17.951
  339.500   61.910    0.435    0.317   17.616
  339.750   61.917    0.443    0.310   17.616
  340.000   62.532    0.450    0.317   17.616
  340.250   63.145    0.441    0.311   17.286
  340.500   63.758    0.423    0.306   16.963
  340.750   64.980    0.418    0.306   16.646
  341.000   67.417    0.424    0.307   16.646
  341.250   71.069    0.406    0.298   16.029
  341.500   75.327    0.395    0.290   15.436
  341.750   80.801    0.410    0.284   14.313
  342.000   82.626    0.412    0.277   13.525
  342.250   87.495    0.405    0.270   12.542
  342.500   88.714    0.402    0.263   12.077
  342.750   91.153    0.416    0.254   11.412
  343.000   91.156    0.427    0.253   11.199
  343.250   91.163    0.427    0.254   10.784
  343.500   88.742    0.435    0.249   10.582
  343.750   91.785    0.445    0.259   10.582
  344.000   89.970    0.439    0.269   10.385
  344.250   83.904    0.438    0.275   10.582
  344.500   81.481    0.441    0.280   10.784
  344.750   79.060    0.446    0.269   11.199
  345.000   77.851    0.447    0.264   11.851
  345.250   76.037    0.440    0.258   12.307
  345.500   77.257    0.419    0.259   12.542
  345.750   82.731    0.397    0.259   12.542
  346.000   86.381    0.383    0.251   11.199
  346.250   90.032    0.370    0.233   10.385
  346.500   94.290    0.381    0.205    8.762
  346.750   99.156    0.435    0.175    7.534
  347.000  100.984    0.441    0.187    6.602
  347.250   99.171    0.441    0.198    5.677
  347.500   94.318    0.435    0.204    5.466
  347.750   78.536    0.435    0.232    6.007
  348.000   71.254    0.447    0.303    6.479
  348.250   65.189    0.447    0.330    7.394
  348.500   64.587    0.440    0.330    8.762
  348.750   66.416    0.434    0.317    9.813
  349.000   68.852    0.435    0.313   10.582
  349.250   66.430    0.442    0.318   11.412
  349.500   64.007    0.450    0.330   12.077
  349.750   61.586    0.441    0.336   12.781
  350.000   60.985    0.443    0.336   13.783
  350.250   60.386    0.457    0.293   14.864
  350.500   57.355    0.232    0.099   16.335
  350.750   54.326    0.214    0.058   17.951
  351.000   53.726    0.334    0.109   18.997
  351.250   56.161    0.386    0.221   19.359
  351.500   61.027    0.421    0.271   18.997
  351.750   64.677    0.448    0.299   16.335
  352.000   68.329    0.458    0.320   13.024
  352.250   69.550    0.453    0.326   11.630
  352.500   67.737    0.447    0.334   10.000
  352.750   65.920    0.449    0.326    9.450
  353.000   64.105    0.449    0.326    9.273
  353.250   66.542    0.443    0.328    9.273
  353.500   68.980    0.441    0.328    9.273
  353.750   69.592    0.449    0.326    9.099
  354.000   70.812    0.449    0.320    8.762
  354.250   77.501    0.457    0.294    7.678
  354.500   87.224    0.508    0.266    6.357
  354.750   98.770    0.530    0.240    4.974
  355.000  101.813    0.526    0.227    4.700
  355.250  101.821    0.526    0.227    4.042
  355.500  103.649    0.544    0.227    3.748
  355.750  100.012    0.544    0.225    3.609
  356.000   89.087    0.521    0.245    3.748
  356.250   78.165    0.497    0.266    4.442
  356.500   72.704    0.480    0.282    4.881
  356.750   67.852    0.465    0.308    5.466
  357.000   67.862    0.453    0.321    6.987
  357.250   69.080    0.444    0.326    7.534
  357.500   70.910    0.441    0.329    8.599
  357.750   72.133    0.439    0.330    9.273
  358.000   74.567    0.469    0.322    9.450
  358.250   75.788    0.473    0.310    9.099
  358.500   84.907    0.450    0.322    7.534
  358.750   90.985    0.465    0.287    6.987
  359.000   98.281    0.490    0.256    5.785
  359.250  101.933    0.518    0.224    4.700
  359.500  101.937    0.534    0.246    4.277
  359.750   92.837    0.548    0.250    3.966
  360.000   89.200    0.543    0.257    3.609
  360.250   87.383    0.526    0.263    3.223
  360.500   85.568    0.511    0.274    3.045
  360.750   80.717    0.529    0.293    3.045
  361.000   78.294    0.570    0.311    3.223
  361.250   81.947    0.560    0.333    3.541
  361.500   83.773    0.492    0.317    3.748
  361.750   86.211    0.455    0.288    4.197
