~VERSION INFORMATION
 VERS.                 2.0:   CWLS LOG ASCII STANDARD -VERSION 2.0
 WRAP.                  NO:   ONE LINE PER DEPTH STEP
~WELL INFORMATION BLOCK
#MNEM.UNIT           DATA                    DESCRIPTION OF MNEMONIC
#---------    -------------------            -------------------------------
# Generated from Intellog Unique Number	CS_69_70/WELL/800
WELL.         AEC FISHER CRK                 : Well_name    - WELL
LOC .         00/06-19-069-04W4/0            : Location     - LOCATION
UWI .         00/06-19-069-04W4/0            : Uwi          - UNIQUE WELL ID
ENTR.         SP                             : Entered      - ENTERED BY
SRVC.         SCHLUMBERGER                   : Scn          - SERVICE COMPANY
STRT.M        300                            : top_depth    - START DEPTH
STOP.M        550                            : bot_depth    - STOP DEPTH
STEP.M        0.25                           : increment    - STEP LENGTH
 NULL. -999.2500:NULL Value
~CURVE INFORMATION BLOCK
#MNEM UNIT       ERCB CURVE CODE    CURVE DESCRIPTION
#-----------   ------------------   ----------------------------------
DEPT.M        00 001 00 00         : DEPTH        - DEPTH
ILD .OHMM     00 120 00 00         : RESD         - DEEP RESISTIVITY (DIL)
DPHI.V/V      00 890 00 00         : PHID         - DENSITY POROSITY (LIMESTONE)
NPHI.V/V      00 330 00 00         : PHIN         - NEUTRON POROSITY (LIMESTONE)
GR  .API      00 310 00 00         : GR           - GAMMA RAY
~PARAMETER INFORMATION
#MNEM.UNIT           DATA             DESCRIPTION OF MNEMONIC
#---------         -----------     ------------------------------
GL  .M        687.9                : gl           - GROUND LEVEL ELEVATION
EREF.M        691.6                : kb           - ELEVATION OF DEPTH REFERENCE
DATM.M        687.9                : datum        - DATUM ELEVATION
TDD .M        557                  : tdd          - TOTAL DEPTH DRILLER
RUN .         ONE                  : Run          - RUN NUMBER
ENG .         BILL                 : Engineer     - RECORDING ENGINEER
WIT .         JIM                  : Witness      - WITNESSED BY
MUD .         GEL                  : Mud_type     - MUD TYPE
MATR.         LIMESTONE            : Logunit      - NEUTRON MATRIX
TMAX.C        21                   : BHT          - MAXIMUM RECORDED TEMPERATURE
BHTD.M        5572                 : BHTDEP       - MAXIMUM RECORDED TEMPERATURE
MATR.         1                    : LOGUNIT      - NEUTRON MATRIX
RMT .C        25                   : MDTP         - TEMPERATURE OF MUD
NEUT.         1                    : NEUTRON      - NEUTRON TYPE
RESI.         0                    : RESIST       - RESISTIVITY TYPE
RMC .OHMM     0.25                 : RMC          - RESISTIVITY OF MUD CAKE
RMF .OHMM     0.25                 : RMF          - RESISTIVITY OF MUD FILTRATE
SUFT.C        15                   : SUFT         - SURFACE TEMPERATURE
~A  DEPTH     RESD     PHID     PHIN       GR
# ...
  387.000    4.188    0.336    0.412   48.866
  387.250    4.219    0.347    0.416   50.143
  387.500    4.267    0.347    0.407   50.750
  387.750    4.242    0.333    0.397   50.566
  388.000    4.250    0.326    0.389   48.373
  388.250    4.242    0.340    0.382   44.232
  388.500    4.250    0.349    0.375   44.352
  388.750    4.281    0.343    0.374   44.899
  389.000    4.281    0.337    0.392   45.567
  389.250    4.273    0.335    0.394   45.139
  389.500    4.265    0.342    0.393   44.286
  389.750    4.264    0.352    0.404   45.806
  390.000    4.248    0.357    0.399   47.874
  390.250    4.248    0.350    0.397   50.186
  390.500    4.248    0.345    0.412   52.803
  390.750    4.247    0.341    0.420   54.688
  391.000    4.255    0.339    0.403   56.209
  391.250    4.263    0.339    0.393   52.311
  391.500    4.279    0.342    0.402   45.674
  391.750    4.319    0.354    0.408   49.021
  392.000    4.327    0.353    0.402   50.602
  392.250    4.367    0.347    0.408   49.992
  392.500    4.400    0.342    0.399   49.017
  392.750    4.433    0.336    0.387   49.563
  393.000    4.500    0.331    0.374   50.353
  393.250    4.542    0.329    0.381   50.352
  393.500    4.559    0.328    0.392   49.802
  393.750    4.542    0.331    0.388   49.009
  394.000    4.499    0.341    0.384   47.851
  394.250    4.465    0.354    0.413   47.728
  394.500    4.381    0.360    0.433   52.962
  394.750    4.308    0.355    0.444   56.370
  395.000    4.259    0.354    0.452   54.237
  395.250    4.243    0.351    0.446   50.827
  395.500    4.243    0.347    0.439   48.086
  395.750    4.235    0.346    0.435   47.111
  396.000    4.203    0.361    0.432   47.231
  396.250    4.179    0.370    0.425   49.786
  396.500    4.179    0.368    0.427   51.550
  396.750    4.218    0.362    0.422   52.523
  397.000    4.265    0.358    0.415   53.252
  397.250    4.321    0.352    0.424   55.381
  397.500    4.362    0.345    0.439   56.171
  397.750    4.378    0.346    0.443   53.734
  398.000    4.419    0.357    0.435   53.611
  398.250    4.436    0.349    0.429   54.827
  398.500    4.452    0.343    0.424   56.165
  398.750    4.452    0.345    0.428   57.746
  399.000    4.435    0.350    0.440   59.998
  399.250    4.435    0.349    0.451   62.553
  399.500    4.434    0.340    0.456   64.013
  399.750    4.426    0.334    0.441   60.237
  400.000    4.417    0.329    0.432   55.365
  400.250    4.425    0.327    0.426   57.007
  400.500    4.433    0.329    0.435   61.998
  400.750    4.433    0.333    0.442   66.501
  401.000    4.433    0.330    0.439   66.256
  401.250    4.458    0.328    0.437   64.611
  401.500    4.483    0.335    0.421   64.609
  401.750    4.499    0.341    0.404   64.912
  402.000    4.491    0.341    0.419   64.607
  402.250    4.490    0.340    0.437   62.779
  402.500    4.490    0.338    0.451   61.621
  402.750    4.490    0.330    0.461   63.689
  403.000    4.448    0.306    0.461   67.158
  403.250    4.406    0.285    0.458   73.000
  403.500    4.397    0.269    0.461   76.895
  403.750    4.413    0.299    0.451   74.824
  404.000    4.455    0.315    0.435   77.014
  404.250    4.522    0.295    0.412   79.630
  404.500    4.564    0.270    0.427   82.551
  404.750    4.607    0.261    0.450   83.828
  405.000    4.677    0.282    0.465   80.052
  405.250    4.756    0.288    0.441   75.667
  405.500    4.828    0.261    0.415   70.735
  405.750    4.892    0.254    0.404   66.837
  406.000    4.993    0.276    0.418   63.853
  406.250    5.107    0.296    0.430   61.356
  406.500    5.223    0.306    0.438   59.832
  406.750    5.282    0.296    0.427   60.561
  407.000    5.302    0.287    0.408   60.925
  407.250    5.311    0.303    0.406   59.706
  407.500    5.321    0.314    0.419   58.487
  407.750    5.311    0.307    0.427   59.399
  408.000    5.310    0.302    0.426   60.250
  408.250    5.340    0.305    0.416   59.213
  408.500    5.350    0.307    0.428   57.751
  408.750    5.370    0.314    0.437   57.445
  409.000    5.410    0.324    0.426   58.296
  409.250    5.461    0.320    0.419   59.634
  409.500    5.471    0.311    0.414   61.154
  409.750    5.368    0.306    0.408   63.588
  410.000    4.751    0.304    0.413   69.309
  410.250    4.111    0.288    0.417   76.612
  410.500    3.368    0.242    0.452   83.977
  410.750    2.898    0.230    0.506   90.733
  411.000    2.724    0.226    0.544   97.428
  411.250    2.613    0.227    0.565  103.210
  411.500    2.536    0.244    0.571   99.129
  411.750    2.484    0.262    0.580   98.093
  412.000    2.488    0.272    0.597   98.396
  412.250    2.484    0.279    0.600   98.456
  412.500    2.488    0.280    0.583   98.515
  412.750    2.530    0.275    0.570  100.948
  413.000    2.707    0.270    0.556  103.808
  413.250    2.908    0.268    0.566  105.207
  413.500    3.182    0.265    0.574   98.448
  413.750    3.615    0.260    0.553   93.577
  414.000    3.993    0.257    0.515   87.426
  414.250    4.495    0.253    0.485   83.529
  414.500    4.882    0.258    0.468   79.875
  414.750    5.302    0.262    0.457   83.892
  415.000    5.599    0.256    0.454   84.255
  415.250    5.835    0.245    0.451   83.523
  415.500    6.001    0.238    0.459   82.913
  415.750    5.989    0.250    0.468   82.303
  416.000    5.834    0.263    0.468   81.997
  416.250    5.524    0.260    0.467   81.935
  416.500    5.241    0.241    0.470   82.299
  416.750    5.066    0.223    0.471   83.149
  417.000    4.916    0.224    0.464   84.122
  417.250    4.833    0.224    0.459   86.008
  417.500    4.788    0.238    0.468   88.076
  417.750    4.760    0.248    0.478   88.866
  418.000    4.760    0.237    0.480   90.326
  418.250    4.760    0.233    0.468   89.107
  418.500    4.814    0.238    0.460   90.749
  418.750    4.786    0.244    0.453   94.521
  419.000    4.627    0.247    0.447   97.260
  419.250    4.439    0.248    0.464  100.546
  419.500    4.219    0.252    0.482  101.640
  419.750    3.884    0.255    0.489  103.465
  420.000    3.516    0.243    0.491  102.002
  420.250    3.243    0.219    0.499  101.514
  420.500    3.112    0.198    0.483  103.460
  420.750    3.008    0.207    0.456  104.920
  421.000    2.991    0.216    0.461  101.753
  421.250    3.047    0.207    0.486  102.056
  421.500    3.134    0.204    0.472  104.307
  421.750    3.297    0.221    0.464  101.201
  422.000    3.462    0.233    0.478   96.085
  422.250    3.649    0.248    0.480   92.310
  422.500    3.803    0.256    0.468   89.508
  422.750    3.889    0.244    0.460   87.741
  423.000    3.918    0.233    0.461   92.853
  423.250    3.845    0.230    0.497   99.305
  423.500    3.627    0.233    0.528   95.833
  423.750    3.526    0.241    0.530   91.388
  424.000    3.607    0.256    0.531   88.160
  424.250    3.939    0.275    0.512   85.358
  424.500    4.376    0.312    0.480   83.165
  424.750    4.780    0.320    0.459   82.677
  425.000    5.260    0.311    0.443   83.162
  425.250    5.670    0.311    0.428   85.657
  425.500    6.089    0.318    0.414   88.030
  425.750    6.298    0.321    0.403   86.871
  426.000    6.515    0.324    0.391   80.234
  426.250    6.688    0.336    0.376   76.276
  426.500    6.866    0.347    0.371   73.779
  426.750    7.182    0.355    0.361   72.803
  427.000    7.859    0.347    0.339   70.975
  427.250    8.552    0.218    0.316   65.800
  427.500    8.980    0.167    0.295   59.528
  427.750    9.288    0.105    0.271   54.778
  428.000    9.393    0.061    0.246   63.178
  428.250    9.165    0.162    0.229   70.116
  428.500    7.524    0.241    0.368   71.636
  428.750    6.560    0.326    0.425   66.460
  429.000    6.329    0.345    0.444   64.267
  429.250    6.164    0.351    0.460   63.657
  429.500    6.095    0.349    0.464   64.630
  429.750    5.993    0.340    0.445   65.663
  430.000    5.892    0.333    0.435   67.062
  430.250    5.793    0.330    0.442   70.470
