~VERSION INFORMATION
 VERS.                 2.0:   CWLS LOG ASCII STANDARD -VERSION 2.0
 WRAP.                  NO:   ONE LINE PER DEPTH STEP
~WELL INFORMATION BLOCK
#MNEM.UNIT           DATA                    DESCRIPTION OF MNEMONIC
#---------    -------------------            -------------------------------
# Generated from Intellog Unique Number	CW_73_75/WELL/199
WELL.         GLEN ISLE ET AL MITSUE 02-01   : Well_name    - WELL
LOC .         00/02-01-074-05W5/0            : Location     - LOCATION
UWI .         00/02-01-074-05W5/0            : Uwi          - UNIQUE WELL ID
ENTR.         JAYE                           : Entered      - ENTERED BY
SRVC.         WESTERN ATLAS                  : Scn          - SERVICE COMPANY
DATE.         8 DEC 88                       : Date         - LOG DATE
STRT.M        370                            : top_depth    - START DEPTH
STOP.M        630                            : bot_depth    - STOP DEPTH
STEP.M        0.25                           : increment    - STEP LENGTH
 NULL. -999.2500:NULL Value
~CURVE INFORMATION BLOCK
#MNEM UNIT       ERCB CURVE CODE    CURVE DESCRIPTION
#-----------   ------------------   ----------------------------------
DEPT.M        00 001 00 00         : DEPTH        - DEPTH
GR  .API      00 310 00 00         : GR           - GAMMA RAY
NPHI.V/V      00 330 00 00         : PHIN         - NEUTRON POROSITY (SANDSTONE)
DPHI.V/V      00 890 00 00         : PHID         - DENSITY POROSITY (SANDSTONE)
ILD .OHMM     00 120 00 00         : RESD         - DEEP RESISTIVITY (DIL)
CALI.MM       00 280 01 00         : CAL          - CALIPER
~PARAMETER INFORMATION
#MNEM.UNIT           DATA             DESCRIPTION OF MNEMONIC
#---------         -----------     ------------------------------
GL  .M        589.5                : gl           - GROUND LEVEL ELEVATION
EREF.M        593.84               : kb           - ELEVATION OF DEPTH REFERENCE
DATM.M        589.5                : datum        - DATUM ELEVATION
TDD .M        1650                 : tdd          - TOTAL DEPTH DRILLER
RUN .         ONE                  : Run          - RUN NUMBER
ENG .         YEAGER               : Engineer     - RECORDING ENGINEER
WIT .         PUTZ                 : Witness      - WITNESSED BY
BASE.         LEDUC                : Branch       - HOME BASE OF LOGGING UNIT
MATR.         SANDSTONE            : Logunit      - NEUTRON MATRIX
TMAX.C        51                   : BHT          - MAXIMUM RECORDED TEMPERATURE
BHTD.M        1650.3               : BHTDEP       - MAXIMUM RECORDED TEMPERATURE
RMT .C        51                   : MDTP         - TEMPERATURE OF MUD
MUDD.KG/M     1125                 : MWT          - MUD DENSITY
NEUT.         1                    : NEUTRON      - NEUTRON TYPE
RESI.         0                    : RESIST       - RESISTIVITY TYPE
RM  .OHMM     6.27                 : RM           - RESISTIVITY OF MUD
RMC .OHMM     4.87                 : RMC          - RESISTIVITY OF MUD CAKE
RMF .OHMM     8.75                 : RMF          - RESISTIVITY OF MUD FILTRATE
SUFT.C        0                    : SUFT         - SURFACE TEMPERATURE
~A  DEPTH       GR     PHIN     PHID     RESD      CAL
# ...
  406.500   49.903    0.360    0.474    6.068  231.038
  406.750   51.311    0.314    0.415    7.459  223.287
  407.000   51.554    0.308    0.346    7.721  219.923
  407.250   48.982    0.309    0.325    7.395  219.064
  407.500   47.636    0.312    0.338    7.057  218.651
  407.750   46.839    0.315    0.344    6.872  218.458
  408.000   44.143    0.316    0.346    6.792  218.268
  408.250   45.356    0.318    0.346    6.838  217.649
  408.500   49.768    0.319    0.346    6.910  217.330
  408.750   47.375    0.304    0.346    7.009  217.247
  409.000   47.806    0.289    0.348    7.030  217.540
  409.250   52.268    0.280    0.347    7.065  218.156
  409.500   55.385    0.263    0.341    7.009  218.859
  409.750   54.283    0.256    0.335    6.953  219.066
  410.000   53.854    0.255    0.331    6.910  218.849
  410.250   55.377    0.257    0.334    6.867  217.812
  410.500   49.263    0.268    0.341    6.787  217.324
  410.750   50.852    0.278    0.343    6.746  217.311
  411.000   48.830    0.286    0.336    6.630  217.510
  411.250   45.770    0.274    0.339    6.541  217.395
  411.500   44.791    0.262    0.336    6.370  217.899
  411.750   51.760    0.275    0.331    6.180  217.902
  412.000   47.535    0.276    0.340    6.030  217.892
  412.250   48.387    0.269    0.332    6.026  217.707
  412.500   47.778    0.259    0.329    6.284  216.579
  412.750   45.078    0.238    0.330    6.736  216.573
  413.000   51.436    0.237    0.335    6.999  216.676
  413.250   51.685    0.245    0.348    7.072  217.073
  413.500   51.127    0.254    0.354    7.029  216.759
  413.750   55.108    0.264    0.349    7.038  216.355
  414.000   44.401    0.255    0.344    6.918  215.950
  414.250   50.394    0.247    0.348    6.787  215.514
  414.500   46.599    0.251    0.357    6.609  215.318
  414.750   47.816    0.260    0.360    6.508  215.024
  415.000   50.876    0.261    0.353    6.421  214.710
  415.250   53.198    0.267    0.328    6.512  214.810
  415.500   52.216    0.280    0.303    6.617  214.912
  415.750   51.114    0.283    0.272    6.724  215.108
  416.000   52.945    0.283    0.280    6.819  215.596
  416.250   56.309    0.282    0.332    6.942  216.304
  416.500   58.134    0.273    0.344    7.029  216.628
  416.750   58.996    0.275    0.341    7.116  217.232
  417.000   60.768    0.284    0.339    7.124  218.039
  417.250   57.889    0.278    0.340    7.160  219.053
  417.500   54.945    0.286    0.343    7.155  219.562
  417.750   53.177    0.293    0.341    7.098  220.359
  418.000   49.752    0.302    0.339    7.093  220.686
  418.250   52.071    0.304    0.338    7.155  220.979
  418.500   64.364    0.303    0.338    7.230  220.874
  418.750   54.331    0.298    0.335    7.279  220.976
  419.000   61.178    0.302    0.332    6.744  221.180
  419.250   55.913    0.307    0.337    5.879  221.457
  419.500   51.387    0.305    0.347    5.219  221.580
  419.750   59.826    0.297    0.345    5.149  221.674
  420.000   62.205    0.289    0.335    5.242  221.669
  420.250   60.680    0.279    0.290    5.326  221.474
  420.500   65.266    0.282    0.291    5.432  221.056
  420.750   53.093    0.288    0.300    5.561  220.649
  421.000   53.394    0.294    0.316    5.640  221.226
  421.250   57.797    0.297    0.331    5.668  221.642
  421.500   57.061    0.296    0.346    5.728  222.767
  421.750   54.793    0.299    0.344    5.874  223.898
  422.000   55.162    0.297    0.317    6.137  222.460
  422.250   49.160    0.292    0.315    6.399  220.924
  422.500   52.647    0.288    0.330    6.491  219.697
  422.750   52.760    0.284    0.320    6.571  218.984
  423.000   50.135    0.280    0.307    6.652  218.480
  423.250   51.843    0.283    0.316    6.860  218.143
  423.500   55.574    0.289    0.325    7.154  218.258
  423.750   56.421    0.299    0.332    7.740  218.049
  424.000   55.443    0.307    0.333    8.438  218.154
  424.250   53.920    0.318    0.333    8.783  218.564
  424.500   50.002    0.324    0.350    8.680  220.171
  424.750   42.908    0.327    0.378    8.056  221.404
  425.000   35.626    0.328    0.471    7.534  222.937
  425.250   31.221    0.315    0.639    6.788  225.883
  425.500   53.237    0.314    0.399    6.028  228.527
  425.750   66.445    0.308    0.313    5.139  229.851
  426.000   72.496    0.307    0.193    4.563  230.457
  426.250   71.574    0.310    0.184    4.235  230.659
  426.500   71.634    0.309    0.205    4.049  230.552
  426.750   68.514    0.318    0.237    3.935  231.474
  427.000   76.033    0.340    0.307    3.882  235.136
  427.250   71.506    0.373    0.334    3.982  242.373
  427.500   81.903    0.363    0.320    4.324  232.177
  427.750   73.338    0.345    0.293    4.837  226.358
  428.000   69.362    0.325    0.284    5.451  224.214
  428.250   63.915    0.327    0.288    6.166  222.381
  428.500   58.347    0.343    0.307    6.277  220.236
  428.750   54.370    0.350    0.319    5.421  220.819
  429.000   63.483    0.350    0.327    4.462  222.052
  429.250   78.275    0.335    0.308    3.918  225.834
  429.500   70.325    0.315    0.257    3.670  231.027
  429.750   73.072    0.315    0.224    3.661  235.198
  430.000   69.589    0.318    0.223    3.832  238.361
  430.250   63.043    0.313    0.255    3.996  238.236
  430.500   74.417    0.308    0.285    4.128  237.622
  430.750   70.133    0.310    0.266    4.297  236.818
  431.000   69.517    0.323    0.264    4.382  234.575
  431.250   64.321    0.344    0.310    4.340  227.842
  431.500   70.371    0.368    0.448    4.210  230.281
  431.750   61.624    0.381    0.374    4.247  234.868
  432.000   53.367    0.379    0.320    4.331  234.048
  432.250   61.927    0.330    0.283    4.483  225.079
  432.500   61.247    0.304    0.278    4.762  224.142
  432.750   63.391    0.294    0.267    5.049  224.254
  433.000   67.058    0.289    0.259    5.464  224.040
  433.250   64.364    0.294    0.266    5.761  224.045
  433.500   61.728    0.311    0.309    5.897  222.100
  433.750   59.407    0.307    0.317    5.669  221.988
  434.000   62.767    0.307    0.316    5.311  222.492
  434.250   59.517    0.305    0.320    4.939  222.800
  434.500   58.361    0.302    0.304    4.467  224.219
  434.750   58.541    0.297    0.269    4.200  225.857
  435.000   66.430    0.291    0.240    4.252  226.672
  435.250   69.116    0.291    0.220    4.678  227.881
  435.500   65.200    0.297    0.215    5.252  228.174
  435.750   69.475    0.310    0.218    5.569  227.059
  436.000   72.660    0.315    0.207    5.690  225.635
  436.250   59.626    0.311    0.172    5.420  224.199
  436.500   49.106    0.283    0.027    5.096  222.773
  436.750   45.672    0.175    0.052    5.074  222.254
  437.000   49.227    0.199    0.171    5.204  222.149
  437.250   63.169    0.242    0.222    5.810  222.043
  437.500   71.117    0.274    0.266    6.548  221.936
  437.750   62.125    0.273    0.306    6.765  221.426
  438.000   61.997    0.269    0.338    6.723  220.897
  438.250   64.385    0.269    0.338    6.381  220.393
  438.500   68.358    0.266    0.343    5.911  219.784
  438.750   80.401    0.274    0.341    5.416  219.466
  439.000   76.852    0.278    0.327    5.026  219.377
  439.250   70.491    0.280    0.332    5.005  219.448
  439.500   64.799    0.267    0.314    5.114  219.855
  439.750   70.665    0.269    0.290    5.284  220.166
  440.000   70.179    0.272    0.266    5.581  220.686
  440.250   65.712    0.273    0.243    5.841  221.481
  440.500   68.890    0.272    0.253    6.013  221.287
  440.750   62.098    0.269    0.301    6.088  220.447
  441.000   57.757    0.275    0.330    5.950  219.444
  441.250   59.400    0.287    0.322    5.795  218.924
  441.500   62.399    0.287    0.322    5.550  219.024
  441.750   50.596    0.281    0.308    5.386  218.314
  442.000   59.399    0.285    0.299    5.264  217.911
  442.250   70.466    0.290    0.282    5.339  217.993
  442.500   57.863    0.294    0.296    5.455  218.604
  442.750   58.285    0.291    0.284    5.605  218.805
