~VERSION INFORMATION
 VERS.                 2.0:   CWLS LOG ASCII STANDARD -VERSION 2.0
 WRAP.                  NO:   ONE LINE PER DEPTH STEP
~WELL INFORMATION BLOCK
#MNEM.UNIT           DATA                    DESCRIPTION OF MNEMONIC
#---------    -------------------            -------------------------------
# Generated from Intellog Unique Number	CW_70_72/WELL/913
NULL.         -999.25                        : NULL_VALUE
WELL.         SUNDANCE CANAL 07-24           : Well_name    - WELL              
LOC .         07-24-071-23W4                 : Location     - LOCATION          
UWI .         00/07-24-071-23W4/0            : Uwi          - UNIQUE WELL ID    
ENTR.         JAYE                           : Entered      - ENTERED BY        
SRVC.         SCHLUMBERGER                   : Scn          - SERVICE COMPANY   
DATE.         21 FEB 77                      : Date         - LOG DATE          
STRT.M        432.816                        : top_depth    - START DEPTH       
STOP.M        658.316                        : bot_depth    - STOP DEPTH        
STEP.M        0.25                           : increment    - STEP LENGTH       
~CURVE INFORMATION BLOCK
#MNEM UNIT       ERCB CURVE CODE    CURVE DESCRIPTION
#-----------   ------------------   ----------------------------------
DEPT.M        00 001 00 00         : DEPTH        - DEPTH                       
DPHI.V/V      00 890 00 00         : PHID         - DENSITY POROSITY (SANDSTONE)
NPHI.V/V      00 330 00 00         : PHIN         - NEUTRON POROSITY (SANDSTONE)
GR  .API      00 310 00 00         : GR           - GAMMA RAY                   
CALI.MM       00 280 01 00         : CAL          - CALIPER                     
ILD .OHMM     00 120 00 00         : RESD         - DEEP RESISTIVITY (DIL)      
~PARAMETER INFORMATION       
#MNEM.UNIT           DATA             DESCRIPTION OF MNEMONIC
#---------         -----------     ------------------------------
GL  .M        641.909              : gl           - GROUND LEVEL ELEVATION      
EREF.M        645.566              : kb           - ELEVATION OF DEPTH REFERENCE
DATM.M        641.909              : datum        - DATUM ELEVATION             
TDD .M        669.036              : tdd          - TOTAL DEPTH DRILLER         
RUN .         ONE                  : Run          - RUN NUMBER                  
ENG .         BIGG/LEDUC           : Engineer     - RECORDING ENGINEER          
WIT .         CHRISTENSEN          : Witness      - WITNESSED BY                
BASE.         EDM                  : Branch       - HOME BASE OF LOGGING UNIT   
MUD .         GEL CHEN             : Mud_type     - MUD TYPE                    
MATR.         SANDSTONE            : Logunit      - NEUTRON MATRIX              
TMAX.C        -17.7778             : BHT          - MAXIMUM RECORDED TEMPERATURE
BHTD.M        669.95               : BHTDEP       - MAXIMUM RECORDED TEMPERATURE
RMT .C        15.5556              : MDTP         - TEMPERATURE OF MUD          
MUDD.KG/M     1104                 : MWT          - MUD DENSITY                 
NEUT.         1                    : NEUTRON      - NEUTRON TYPE                
RESI.         0                    : RESIST       - RESISTIVITY TYPE            
RM  .OHMM     2.18                 : RM           - RESISTIVITY OF MUD          
RMC .OHMM     0                    : RMC          - RESISTIVITY OF MUD CAKE     
RMF .OHMM     4.77                 : RMF          - RESISTIVITY OF MUD FILTRATE 
SUFT.C        0                    : SUFT         - SURFACE TEMPERATURE         
~A  DEPTH     PHID     PHIN       GR      CAL     RESD
# ...
  505.816    0.346    0.412   62.951  161.208    2.812
  506.066    0.347    0.414   65.240  160.428    2.831
  506.316    0.336    0.408   67.706  153.575    2.904
  506.566    0.326    0.398   70.966  151.050    2.945
  506.816    0.311    0.411   73.862  148.537    2.994
  507.066    0.294    0.435   76.939  147.859    3.036
  507.316    0.272    0.454   80.688  148.841    3.091
  507.566    0.295    0.429   80.840  152.520    3.146
  507.816    0.327    0.421   81.002  154.836    3.239
  508.066    0.325    0.422   82.065  156.846    3.372
  508.316    0.319    0.422   83.739  158.758    3.529
  508.566    0.308    0.427   87.552  160.364    3.721
  508.816    0.295    0.422   90.140  161.448    3.939
  509.066    0.276    0.392   93.582  162.116    4.319
  509.316    0.253    0.333   91.360  162.998    4.761
  509.566    0.224    0.255   82.258  163.576    5.337
  509.816    0.143    0.230   76.258  163.928    5.808
  510.066    0.167    0.321   77.451  164.088    6.204
  510.316    0.240    0.368   76.693  164.046    5.888
  510.566    0.239    0.408   75.877  163.686    5.485
  510.816    0.217    0.352   75.904  163.437    5.203
  511.066    0.191    0.371   78.368  163.073    4.767
  511.316    0.204    0.392   85.772  162.400    4.448
  511.566    0.232    0.395   92.136  162.042    4.205
  511.816    0.262    0.417   88.517  159.211    3.866
  512.066    0.323    0.427   85.441  154.936    3.555
  512.316    0.308    0.440   84.987  154.988    3.354
  512.566    0.299    0.451   89.221  158.658    3.266
  512.816    0.298    0.462   92.237  160.148    3.157
  513.066    0.301    0.437   90.505  160.930    3.097
  513.316    0.314    0.409   84.505  161.089    3.051
  513.566    0.306    0.416   75.950  161.138    3.031
  513.816    0.299    0.428   76.655  160.786    3.023
  514.066    0.291    0.445   79.189  160.423    2.999
  514.316    0.281    0.434   80.010  160.485    2.981
  514.566    0.277    0.404   79.797  160.539    2.985
  514.816    0.288    0.397   79.888  160.190    3.005
  515.066    0.299    0.393   80.471  159.829    3.020
  515.316    0.297    0.388   82.698  159.574    3.075
  515.566    0.292    0.394   87.236  159.527    3.131
  515.816    0.293    0.402   91.528  159.772    3.174
  516.066    0.294    0.406   93.692  159.830    3.250
  516.316    0.298    0.408   88.184  159.885    3.315
  516.566    0.301    0.410   83.159  159.946    3.393
  516.816    0.307    0.412   76.917  160.002    3.513
  517.066    0.311    0.415   76.829  160.360    3.759
  517.316    0.314    0.418   76.433  160.307    4.301
  517.566    0.322    0.420   75.857  160.471    5.192
  517.816    0.322    0.418   74.614  160.214    6.801
  518.066    0.315    0.404   72.085  160.279    8.425
  518.316    0.305    0.360   70.352  160.223   10.134
  518.566    0.266    0.318   69.899  159.960   11.657
  518.816    0.228    0.268   70.232  159.816   11.934
  519.066    0.177    0.298   71.118  159.658   10.208
  519.316    0.184    0.347   73.467  159.609    8.571
  519.566    0.232    0.404   75.567  160.084    7.000
  519.816    0.318    0.434   76.757  159.827    6.425
  520.066    0.323    0.437   75.326  157.920    6.302
  520.316    0.275    0.368   72.436  155.908    7.117
  520.566    0.232    0.332   68.876  156.692    8.900
  520.816    0.204    0.306   65.925  158.294   10.354
  521.066    0.167    0.280   62.670  159.588   11.267
  521.316    0.127    0.257   65.745  160.265   10.417
  521.566    0.109    0.286   70.711  160.620    8.002
  521.816    0.116    0.331   75.247  160.994    6.024
  522.066    0.165    0.358   80.092  161.143    5.021
  522.316    0.190    0.387   79.028  161.196    4.448
  522.566    0.335    0.380   74.431  161.148    4.513
  522.816    0.317    0.356   69.408  161.001    4.866
  523.066    0.236    0.328   63.350  160.850    5.314
  523.316    0.202    0.327   62.835  160.592    5.583
  523.566    0.210    0.319   66.339  160.341    5.153
  523.816    0.224    0.309   69.843  159.869    4.668
  524.066    0.246    0.352   72.859  159.210    4.182
  524.316    0.303    0.373   75.025  158.536    3.789
  524.566    0.327    0.389   74.389  156.836    3.529
  524.816    0.325    0.398   71.799  155.759    3.417
  525.066    0.310    0.415   73.050  155.096    3.346
  525.316    0.289    0.426   76.190  155.458    3.314
  525.566    0.300    0.419   78.107  155.717    3.281
  525.816    0.313    0.402   79.300  155.872    3.273
  526.066    0.309    0.389   79.880  155.830    3.277
  526.316    0.288    0.398   80.034  155.991    3.287
  526.566    0.296    0.419   77.811  156.970    3.304
  526.816    0.312    0.399   79.246  158.875    3.326
  527.066    0.313    0.392   78.117  161.198    3.342
  527.316    0.323    0.405   79.186  154.551    3.377
  527.566    0.340    0.419   92.434  154.811    3.445
  527.816    0.259    0.412  103.430  156.309    3.546
  528.066    0.234    0.413  117.045  157.708    3.685
  528.316    0.214    0.423  121.704  161.074    3.893
  528.566    0.201    0.433  125.209  163.382    4.067
  528.816    0.184    0.443  124.940  165.813    4.171
  529.066    0.178    0.437  125.579  166.797    4.223
  529.316    0.198    0.423  127.014  167.057    4.220
  529.566    0.198    0.426  128.812  167.219    4.233
  529.816    0.189    0.426  128.904  167.481    4.246
  530.066    0.184    0.414  126.014  167.648    4.252
  530.316    0.190    0.431  122.267  167.697    4.264
  530.566    0.197    0.423  115.847  167.636    4.286
  530.816    0.212    0.398  109.360  166.557    4.371
  531.066    0.232    0.375  100.500  162.799    4.609
  531.316    0.251    0.342   89.933  158.104    4.979
  531.566    0.215    0.273   83.816  156.516    5.241
  531.816    0.152    0.218   82.324  156.158    5.445
  532.066    0.111    0.248   85.888  156.004    5.554
  532.316    0.122    0.320   91.037  156.165    5.339
  532.566    0.182    0.362   91.318  157.153    4.669
  532.816    0.232    0.396   89.092  157.410    3.957
  533.066    0.262    0.429   89.857  157.150    3.461
  533.316    0.298    0.406   96.649  156.084    3.123
  533.566    0.316    0.409  102.043  155.416    3.157
  533.816    0.318    0.409  105.971  154.746    3.335
  534.066    0.295    0.411  110.022  154.477    3.510
  534.316    0.275    0.416  116.509  154.540    3.779
  534.566    0.254    0.418  118.127  155.624    3.992
  534.816    0.237    0.421  116.031  157.426    4.209
  535.066    0.207    0.426  114.354  160.579    4.488
  535.316    0.214    0.436  111.949  163.010    4.723
  535.566    0.224    0.425  108.570  164.091    4.935
  535.816    0.231    0.391  107.993  164.869    4.978
  536.066    0.222    0.391  115.032  166.054    4.911
  536.316    0.207    0.412  120.545  167.253    4.844
  536.566    0.193    0.417  122.831  168.330    4.718
  536.816    0.196    0.420  121.036  169.413    4.569
  537.066    0.190    0.426  117.536  170.605    4.287
  537.316    0.174    0.435  116.592  168.799    3.949
  537.566    0.248    0.448  109.990  161.539    3.651
  537.816    0.290    0.444  102.831  156.842    3.389
  538.066    0.313    0.423   95.493  153.808    3.221
  538.316    0.321    0.420   88.338  153.863    3.108
  538.566    0.311    0.409   86.665  156.085    3.187
  538.816    0.310    0.399   91.023  158.816    3.405
  539.066    0.317    0.409   91.060  161.136    3.624
  539.316    0.312    0.418   90.418  160.582    3.844
  539.566    0.268    0.418   90.634  156.717    3.956
  539.816    0.229    0.358   92.126  152.745    4.088
  540.066    0.204    0.356   95.570  151.355    4.200
  540.316    0.226    0.405  101.024  151.823    4.300
  540.566    0.255    0.448  105.805  152.906    4.321
  540.816    0.269    0.460  107.546  155.038    4.256
  541.066    0.274    0.459  103.985  156.626    4.197
  541.316    0.285    0.449  103.953  159.677    4.179
  541.566    0.284    0.431  107.701  162.937    4.326
  541.816    0.265    0.430  114.799  164.742    4.579
  542.066    0.217    0.442  120.618  166.128    4.819
