~VERSION INFORMATION
 VERS.                 2.0:   CWLS LOG ASCII STANDARD -VERSION 2.0
 WRAP.                  NO:   ONE LINE PER DEPTH STEP
~WELL INFORMATION BLOCK
#MNEM.UNIT           DATA                    DESCRIPTION OF MNEMONIC
#---------    -------------------            -------------------------------
# Generated from Intellog Unique Number	CX_WELLS/WELL/2922
WELL.         GULF SURMONT                   : Well_name    - WELL
LOC .         00/06-12-082-09W4/0            : Location     - LOCATION
UWI .         00/06-12-082-09W400            : Uwi          - UNIQUE WELL ID
ENTR.         T                              : Entered      - ENTERED BY
SRVC.         SCHLUMBERGER                   : Scn          - SERVICE COMPANY
STRT.F        950                            : top_depth    - START DEPTH
STOP.F        1689.83                        : bot_depth    - STOP DEPTH
STEP.F        0.82                           : increment    - STEP LENGTH
 NULL. -999.2500:NULL Value
~CURVE INFORMATION BLOCK
#MNEM UNIT       ERCB CURVE CODE    CURVE DESCRIPTION
#-----------   ------------------   ----------------------------------
DEPT.F        00 001 00 00         : DEPTH        - DEPTH
GR  .API      00 310 00 00         : GR           - GAMMA RAY
NPHI.V/V      00 330 00 00         : PHIN         - NEUTRON POROSITY (SANDSTONE)
DPHI.V/V      00 890 00 00         : PHID         - DENSITY POROSITY (SANDSTONE)
ILD .OHMM     00 120 00 00         : RESD         - DEEP RESISTIVITY (OTHER)
~PARAMETER INFORMATION
#MNEM.UNIT           DATA             DESCRIPTION OF MNEMONIC
#---------         -----------     ------------------------------
GL  .F        2413                 : gl           - GROUND LEVEL ELEVATION
EREF.F        2425                 : kb           - ELEVATION OF DEPTH REFERENCE
DATM.F        2425                 : datum        - DATUM ELEVATION
TDD .F        1705                 : tdd          - TOTAL DEPTH DRILLER
RUN .         ONE                  : Run          - RUN NUMBER
ENG .         BILL                 : Engineer     - RECORDING ENGINEER
WIT .         JIM                  : Witness      - WITNESSED BY
MUD .         GEL                  : Mud_type     - MUD TYPE
MATR.         SANDSTONE            : Logunit      - NEUTRON MATRIX
TMAX.F        71.6                 : BHT          - MAXIMUM RECORDED TEMPERATURE
BHTD.F        1710                 : BHTDEP       - MAXIMUM RECORDED TEMPERATURE
MATR.         1                    : LOGUNIT      - NEUTRON MATRIX
RMT .F        73                   : MDTP         - TEMPERATURE OF MUD
NEUT.         1                    : NEUTRON      - NEUTRON TYPE
RESI.         4.65                 : RESIST       - RESISTIVITY TYPE
RMC .OHMM     5.05                 : RMC          - RESISTIVITY OF MUD CAKE
RMF .OHMM     5.05                 : RMF          - RESISTIVITY OF MUD FILTRATE
SUFT.F        35                   : SUFT         - SURFACE TEMPERATURE
~A  DEPTH       GR     PHIN     PHID     RESD
  950.000   99.151    0.498    0.254    4.038
  950.820   97.401    0.505    0.257    4.119
  951.640   95.067    0.522    0.262    4.280
  952.461   95.083    0.503    0.274    4.797
  953.281   97.469    0.469    0.278    5.480
  954.101   99.850    0.452    0.272    6.260
  954.921  100.462    0.444    0.262    7.014
  955.741  101.663    0.446    0.251    7.862
  956.562  102.279    0.453    0.253    8.812
  957.382  102.879    0.452    0.251    8.823
  958.202  102.900    0.447    0.259    8.829
  959.022  104.101    0.439    0.232    8.513
  959.843  106.488    0.438    0.223    8.055
  960.663  108.285    0.440    0.221    7.761
  961.483  109.486    0.450    0.225    7.481
  962.303  110.692    0.476    0.232    7.078
  963.123  110.708    0.489    0.243    6.951
  963.944  110.734    0.476    0.262    6.958
  964.764  110.154    0.473    0.280    7.372
  965.584  109.585    0.480    0.296    8.263
  966.404  107.835    0.496    0.310   10.177
  967.224  104.315    0.515    0.326   14.302
  968.045   87.808    0.532    0.327   21.674
  968.865   34.128    0.484    0.325   30.467
  969.685   28.843    0.399    0.321   32.893
  970.505   28.273    0.390    0.320   34.199
  971.325   28.884    0.380    0.320   34.867
  972.146   30.080    0.364    0.319   35.574
  972.966   33.057    0.361    0.317   34.291
  973.786   34.253    0.373    0.328   32.438
  974.606   37.230    0.380    0.332   30.692
  975.427   38.426    0.372    0.329   30.134
  976.247   41.397    0.372    0.326   27.986
  977.067   45.549    0.378    0.328   26.467
  977.887   53.241    0.390    0.326   25.513
  978.707   65.070    0.396    0.321   23.247
  979.528   70.992    0.399    0.307   22.403
  980.348   76.329    0.400    0.302   21.601
  981.168   80.475    0.412    0.301   20.817
  981.988   82.272    0.417    0.300   20.443
  982.808   83.478    0.418    0.298   19.706
  983.629   84.669    0.416    0.295   19.001
  984.449   85.875    0.416    0.296   18.669
  985.269   87.076    0.417    0.298   18.329
  986.089   85.917    0.419    0.286   18.352
  986.909   85.348    0.422    0.239   18.365
  987.730   84.183    0.415    0.231   18.742
  988.550   75.942    0.412    0.229   18.756
  989.370   70.067    0.424    0.282   19.127
  990.190   71.274    0.435    0.324   19.515
  991.010   72.470    0.435    0.317   19.534
  991.831   76.026    0.431    0.315   19.926
  992.651   78.407    0.429    0.319   20.325
  993.471   77.253    0.422    0.320   20.340
  994.291   74.914    0.416    0.321   20.752
  995.112   73.749    0.421    0.322   21.168
  995.932   71.409    0.425    0.326   21.587
  996.752   71.430    0.425    0.326   22.438
  997.572   75.587    0.426    0.322   22.887
  998.392   79.739    0.431    0.316   23.346
  999.213   84.481    0.438    0.308   22.515
 1000.030   87.458    0.448    0.307   22.111
 1000.850   88.653    0.455    0.308   21.319
 1001.670   89.270    0.462    0.311   21.335
 1002.490   89.876    0.461    0.316   20.952
 1003.310   90.487    0.456    0.319   20.983
 1004.130   90.507    0.450    0.323   20.999
 1004.950   91.124    0.444    0.326   21.029
 1005.770   91.139    0.436    0.326   21.040
 1006.590   91.160    0.432    0.328   21.061
 1007.410   91.186    0.433    0.327   21.081
 1008.230   91.212    0.439    0.325   21.102
 1009.060   91.813    0.441    0.318   21.123
 1009.880   92.424    0.445    0.319   20.754
 1010.700   94.220    0.445    0.316   20.391
 1011.520   95.416    0.446    0.310   20.401
 1012.340   98.393    0.450    0.299   19.666
 1013.160  101.955    0.453    0.290   18.962
 1013.980  106.106    0.456    0.288   17.606
 1014.800  111.438    0.457    0.285   17.290
 1015.620  115.000    0.460    0.289   16.360
 1016.440  119.157    0.464    0.291   15.762
 1017.260  117.402    0.460    0.290   15.194
 1018.080  112.112    0.455    0.284   14.646
 1018.900  106.232    0.454    0.266   13.599
 1019.720  110.974    0.463    0.230   12.157
 1020.540  118.666    0.489    0.209   11.497
 1021.360  125.178    0.505    0.187   10.473
 1022.180  131.100    0.520    0.181    9.362
 1023.000  131.126    0.539    0.176    8.062
 1023.820  126.426    0.553    0.169    7.340
 1024.640  124.087    0.561    0.161    6.319
 1025.460  126.468    0.560    0.162    5.545
 1026.280  128.844    0.553    0.189    5.051
 1027.100  131.226    0.549    0.214    4.961
 1027.920  131.252    0.553    0.244    5.254
 1028.740  127.137    0.557    0.258    6.351
 1029.560  120.076    0.524    0.275    7.823
 1030.380  110.655    0.451    0.302   10.587
 1031.200  100.644    0.453    0.330   15.161
 1032.020   92.993    0.458    0.347   19.033
 1032.840   88.293    0.453    0.353   21.739
 1033.660   82.413    0.443    0.349   21.761
 1034.480   79.488    0.440    0.338   20.981
 1035.300   80.099    0.449    0.341   20.225
 1036.120   81.890    0.459    0.347   20.245
 1036.940   84.272    0.458    0.339   20.260
 1037.760   86.653    0.454    0.332   20.290
 1038.580   88.439    0.452    0.334   20.691
 1039.400   89.050    0.454    0.337   20.711
 1040.220   85.530    0.458    0.338   21.126
 1041.040   84.376    0.455    0.332   21.142
 1041.860   86.757    0.449    0.327   20.772
 1042.680   90.314    0.443    0.314   20.400
 1043.500   95.061    0.438    0.305   19.297
 1044.320  100.393    0.435    0.294   17.913
 1045.140  105.725    0.432    0.285   16.318
 1045.960  112.827    0.434    0.276   14.868
 1046.780  113.449    0.439    0.268   13.291
 1047.600  112.279    0.444    0.255   12.105
 1048.430  113.485    0.454    0.231   10.226
 1049.250  117.637    0.466    0.212    9.315
 1050.070  121.193    0.471    0.239    9.325
 1050.890  122.990    0.460    0.274   11.059
 1051.710  119.470    0.446    0.304   13.117
 1052.530  114.765    0.430    0.329   15.858
 1053.350  105.939    0.421    0.326   17.438
 1054.170  100.649    0.419    0.305   18.471
 1054.990   97.124    0.425    0.319   18.489
 1055.810   95.374    0.438    0.332   17.822
 1056.630   97.165    0.446    0.333   16.548
 1057.450  100.137    0.446    0.309   15.361
 1058.270  103.704    0.443    0.296   14.260
 1059.090  107.850    0.444    0.267   13.746
 1059.910  116.133    0.446    0.267   13.250
 1060.730  119.694    0.450    0.273   13.019
 1061.550  115.590    0.448    0.277   13.028
 1062.370  113.250    0.442    0.270   13.038
 1063.190  110.911    0.433    0.269   13.051
 1064.010  109.161    0.423    0.270   13.063
 1064.830  107.412    0.418    0.273   13.076
 1065.650  105.657    0.413    0.275   14.390
 1066.470  103.907    0.418    0.278   14.397
 1067.290   98.617    0.428    0.271   14.972
 1068.110   97.458    0.443    0.260   15.272
 1068.930   96.299    0.451    0.241   15.284
 1069.750   94.549    0.416    0.215   15.894
 1070.570   90.444    0.405    0.189   15.906
 1071.390   93.410    0.398    0.182   15.624
 1072.210   99.933    0.397    0.212   13.967
 1073.030  103.490    0.398    0.229   12.720
 1073.850  108.822    0.403    0.231   11.159
 1074.670  113.563    0.412    0.224    9.789
 1075.490  119.485    0.423    0.222    9.258
 1076.310  124.227    0.427    0.224    8.759
 1077.130  128.379    0.436    0.222    8.284
 1077.950  130.766    0.442    0.219    8.137
 1078.770  132.552    0.453    0.219    7.844
 1079.590  133.163    0.447    0.218    7.561
 1080.410  133.774    0.441    0.217    7.714
 1081.230  133.204    0.439    0.223    8.651
 1082.050  130.865    0.438    0.237    9.161
 1082.870  126.165    0.437    0.251    9.701
 1083.690  122.645    0.436    0.265   10.673
 1084.510  118.535    0.436    0.263   11.520
 1085.330  118.556    0.434    0.248   11.529
 1086.150  120.347    0.434    0.246   11.540
 1086.980  125.094    0.434    0.241   10.916
 1087.800  129.836    0.438    0.238   10.329
 1088.620  129.857    0.444    0.232    9.770
 1089.440  129.293    0.450    0.228    9.418
 1090.260  128.724    0.456    0.225    9.425
 1091.080  126.379    0.460    0.228    9.797
 1091.900  124.039    0.462    0.238   10.580
