~VERSION INFORMATION
 VERS.                 2.0:   CWLS LOG ASCII STANDARD -VERSION 2.0
 WRAP.                  NO:   ONE LINE PER DEPTH STEP
~WELL INFORMATION BLOCK
#MNEM.UNIT           DATA                    DESCRIPTION OF MNEMONIC
#---------    -------------------            -------------------------------
# Generated from Intellog Unique Number	CW_70_72/WELL/637
NULL.         -999.25                        : NULL_VALUE
WELL.         SUN ET AL TOMATO 06-12         : Well_name    - WELL              
LOC .         06-12-072-23W4                 : Location     - LOCATION          
UWI .         00/06-12-072-23W4/0            : Uwi          - UNIQUE WELL ID    
ENTR.         JAYE                           : Entered      - ENTERED BY        
SRVC.         COMPUTALOG                     : Scn          - SERVICE COMPANY   
DATE.         17 FEB 79                      : Date         - LOG DATE          
STRT.M        380                            : top_depth    - START DEPTH       
STOP.M        600                            : bot_depth    - STOP DEPTH        
STEP.M        0.25                           : increment    - STEP LENGTH       
~CURVE INFORMATION BLOCK
#MNEM UNIT       ERCB CURVE CODE    CURVE DESCRIPTION
#-----------   ------------------   ----------------------------------
DEPT.M        00 001 00 00         : DEPTH        - DEPTH                       
DPHI.V/V      00 890 00 00         : PHID         - DENSITY POROSITY (SANDSTONE)
NPHI.V/V      00 330 00 00         : PHIN         - NEUTRON POROSITY (SANDSTONE)
GR  .API      00 310 00 00         : GR           - GAMMA RAY                   
CALI.MM       00 280 01 00         : CAL          - CALIPER                     
ILD .OHMM     00 120 00 00         : RESD         - DEEP RESISTIVITY (DIL)      
~PARAMETER INFORMATION       
#MNEM.UNIT           DATA             DESCRIPTION OF MNEMONIC
#---------         -----------     ------------------------------
GL  .M        619.96               : gl           - GROUND LEVEL ELEVATION      
EREF.M        623.3                : kb           - ELEVATION OF DEPTH REFERENCE
DATM.M        619.96               : datum        - DATUM ELEVATION             
TDD .M        612                  : tdd          - TOTAL DEPTH DRILLER         
RUN .         ONE                  : Run          - RUN NUMBER                  
ENG .         ADAMS                : Engineer     - RECORDING ENGINEER          
WIT .         BOYAN                : Witness      - WITNESSED BY                
BASE.         EDM                  : Branch       - HOME BASE OF LOGGING UNIT   
MUD .         GEL CHEM             : Mud_type     - MUD TYPE                    
MATR.         SANDSTONE            : Logunit      - NEUTRON MATRIX              
TMAX.C        21                   : BHT          - MAXIMUM RECORDED TEMPERATURE
BHTD.M        614                  : BHTDEP       - MAXIMUM RECORDED TEMPERATURE
RMT .C        13                   : MDTP         - TEMPERATURE OF MUD          
MUDD.KG/M     1100                 : MWT          - MUD DENSITY                 
NEUT.         1                    : NEUTRON      - NEUTRON TYPE                
RESI.         0                    : RESIST       - RESISTIVITY TYPE            
RM  .OHMM     3.7                  : RM           - RESISTIVITY OF MUD          
RMC .OHMM     0                    : RMC          - RESISTIVITY OF MUD CAKE     
RMF .OHMM     0                    : RMF          - RESISTIVITY OF MUD FILTRATE 
SUFT.C        0                    : SUFT         - SURFACE TEMPERATURE         
~A  DEPTH     PHID     PHIN       GR      CAL     RESD
# ...
  562.500    0.104    0.352  112.795  171.220    5.594
  562.750    0.110    0.339  103.362  170.909    5.515
  563.000    0.120    0.316   99.018  170.495    5.448
  563.250    0.127    0.327  100.755  170.391    5.381
  563.500    0.080    0.350   94.549  170.391    5.276
  563.750    0.057    0.322   85.488  170.184    5.282
  564.000    0.082    0.355   94.114  170.183    5.256
  564.250    0.096    0.369   96.348  170.286    5.057
  564.500    0.133    0.384  100.071  170.286    4.939
  564.750    0.127    0.387  109.877  170.596    4.860
  565.000    0.131    0.370  104.788  170.802    4.930
  565.250    0.125    0.308   98.581  171.112    5.222
  565.500    0.120    0.294   95.975  171.319    5.722
  565.750    0.114    0.283   94.112  171.319    6.649
  566.000    0.104    0.251   91.009  171.318    7.286
  566.250    0.036    0.239   91.195  170.904    7.645
  566.500    0.073    0.249   99.449  170.180    7.004
  566.750    0.117    0.284  101.000  169.869    6.611
  567.000    0.124    0.301  103.048  169.765    5.389
  567.250    0.135    0.320  109.254  169.765    4.991
  567.500    0.143    0.333  109.254  170.075    4.829
  567.750    0.136    0.350  105.716  170.488    5.020
  568.000    0.138    0.373  112.418  171.212    5.219
  568.250    0.132    0.350  106.647  171.418    5.413
  568.500    0.088    0.298   96.034  171.315    5.755
  568.750    0.057    0.247   89.331  170.487    6.050
  569.000    0.079    0.245  101.619  169.969    6.301
  569.250    0.112    0.271  107.577  170.383    6.391
  569.500    0.119    0.285   97.957  171.003    6.290
  569.750    0.106    0.297   94.171  171.416    5.838
  570.000    0.092    0.314  103.604  170.795    5.491
  570.250    0.116    0.347  119.678  169.554    5.293
  570.500    0.141    0.366  124.208  169.036    5.218
  570.750    0.157    0.382  110.492  169.450    5.292
  571.000    0.153    0.400  111.175  169.863    5.491
  571.250    0.141    0.399  104.720  170.380    5.751
  571.500    0.126    0.268  109.312  170.586    6.022
  571.750    0.113    0.240  115.394  170.483    6.428
  572.000    0.092    0.231  112.849  170.379    6.887
  572.250    0.077    0.226   99.320  170.172    7.392
  572.500    0.088    0.215   86.225  169.861    8.130
  572.750    0.097    0.224   76.668  170.171    9.535
  573.000    0.083    0.218   62.890  169.964   11.184
  573.250    0.045    0.179   43.155  167.171   12.800
  573.500   -0.001    0.123   34.342  163.343   13.764
  573.750   -0.006    0.099   36.017  162.515   10.016
  574.000    0.018    0.205   43.588  164.894    7.219
  574.250    0.052    0.244   50.229  167.583    5.549
  574.500    0.172    0.280   47.436  166.238    3.925
  574.750    0.215    0.296   30.493  161.686    3.156
  575.000    0.220    0.306   30.927  157.135    2.752
  575.250    0.216    0.287   36.450  154.963    3.016
  575.500    0.212    0.292   40.298  155.169    3.505
  575.750    0.202    0.297   44.332  156.617    4.065
  576.000    0.186    0.283   90.815  159.099    4.225
  576.250    0.188    0.294  104.220  161.995    4.118
  576.500    0.208    0.323  110.177  165.718    4.091
  576.750    0.221    0.392  105.833  168.924    4.269
  577.000    0.248    0.510  105.770  170.889    5.093
  577.250    0.352    0.457  107.880  172.026    5.425
  577.500    0.396    0.541   85.476  172.336    5.064
  577.750    0.555    0.823   34.711  171.405    4.350
  578.000    0.457    0.804   25.401  166.750    3.723
  578.250    0.289    0.601   21.181  160.854    3.192
  578.500    0.259    0.338   21.429  158.785    2.717
  578.750    0.246    0.331   23.229  157.750    2.396
  579.000    0.241    0.323   25.525  157.543    2.258
  579.250    0.243    0.313   28.689  157.543    2.198
  579.500    0.249    0.340   24.779  157.749    2.183
  579.750    0.264    0.339   26.082  158.059    2.181
  580.000    0.269    0.321   31.544  158.369    2.166
  580.250    0.268    0.344   34.646  158.472    2.160
  580.500    0.264    0.345   35.143  158.679    2.171
  580.750    0.259    0.326   31.605  158.885    2.181
  581.000    0.257    0.323   34.460  159.402    2.216
  581.250    0.258    0.317   40.976  159.402    2.278
  581.500    0.264    0.301   44.947  159.608    2.431
  581.750    0.276    0.322   41.348  159.815    2.624
  582.000    0.278    0.365   45.319  160.021    2.986
  582.250    0.257    0.369   54.318  160.124    3.463
  582.500    0.220    0.340   69.585  160.227    4.290
  582.750    0.307    0.307   55.000  160.124    5.952
  583.000    0.384    0.571   45.070  159.813    7.249
  583.250    0.269    0.755   37.809  159.399    8.297
  583.500    0.405    0.765   28.376  159.088    8.938
  583.750    0.444    0.767   22.107  158.881    9.703
  584.000    0.232    0.763   23.907  158.674   10.534
  584.250    0.245    0.754   22.417  158.363   11.263
  584.500    0.332    0.732   29.430  158.156   12.020
  584.750    0.392    0.712   53.757  158.259   13.197
  585.000    0.465    0.693   86.587  158.672   12.963
  585.250    0.542    0.675  106.694  159.603   10.825
  585.500    0.319    0.633  123.699  160.947    8.559
  585.750    0.171    0.608  139.027  162.809    7.480
  586.000    0.137    0.587  153.053  165.911    7.007
  586.250    0.129    0.538  161.927  168.187    6.910
  586.500    0.123    0.489  166.644  169.324    7.062
  586.750    0.118    0.470  163.727  170.358    7.312
  587.000    0.113    0.463  175.642  170.668    7.529
  587.250    0.119    0.481  182.779  170.874    7.621
  587.500    0.115    0.462  190.970  170.667    7.388
  587.750    0.110    0.443  193.763  170.563    6.988
  588.000    0.102    0.436  192.521  171.184    6.723
  588.250    0.092    0.423  185.260  173.045    6.505
  588.500    0.084    0.407  167.511  177.182    6.341
  588.750    0.074    0.394  163.539  179.354    6.420
  589.000    0.030    0.360  157.953  177.181    6.438
  589.250    0.019    0.359  153.484  172.423    6.010
  589.500    0.035    0.345  162.855  170.458    5.391
  589.750    0.048    0.331  174.150  170.044    4.554
  590.000    0.046    0.363  169.744  170.353    3.868
  590.250    0.008    0.371  161.676  170.353    3.386
  590.500    0.022    0.351  155.718  170.146    3.038
  590.750    0.049    0.313  159.441  169.939    2.956
  591.000    0.072    0.289  169.929  170.042    3.270
  591.250    0.075    0.363  163.723  170.352    3.659
  591.500    0.071    0.385  157.579  170.765    4.171
  591.750    0.052    0.359  149.635  170.972    4.702
  592.000    0.028    0.292  127.541  170.764    4.340
  592.250   -0.021    0.273   98.310  169.833    3.577
  592.500   -0.039    0.263   81.492  167.557    3.032
  592.750    0.160    0.573   33.953  164.454    2.923
  593.000    0.204    0.587   24.272  159.075    3.114
  593.250    0.270    0.564   18.872  155.765    3.916
  593.500    0.262    0.520   17.383  153.696    5.095
  593.750    0.249    0.463   18.748  151.420    6.618
  594.000    0.240    0.485   19.864  150.695    7.559
  594.250    0.266    0.457   19.864  151.005    8.362
  594.500    0.283    0.484   19.430  153.487    8.958
  594.750    0.279    0.489   18.747  155.763    9.086
  595.000    0.267    0.429   18.312  148.108    9.079
  595.250    0.247    0.426   18.312  145.936    8.833
  595.500    0.217    0.454   19.056  147.176    8.245
  595.750    0.191    0.472   19.863  149.659    7.872
  596.000    0.166    0.388   20.732  152.761    7.474
  596.250    0.157    0.363   21.290  155.347    6.531
  596.500    0.170    0.352   21.414  156.277    6.028
  596.750    0.187    0.343   21.290  156.484    5.832
  597.000    0.179    0.359   21.165  156.173    5.719
  597.250    0.161    0.373   21.165  155.138    5.637
  597.500    0.140    0.375   21.165  154.104    5.434
  597.750    0.123    0.355   20.916  153.483    5.198
  598.000    0.187    0.362   20.358  154.103    4.982
  598.250    0.191    0.340   20.295  155.137    4.766
  598.500    0.147    0.342   20.543  156.171    4.594
  598.750    0.126    0.303   21.350  160.618    4.504
