~VERSION INFORMATION
 VERS.                 2.0:   CWLS LOG ASCII STANDARD -VERSION 2.0
 WRAP.                  NO:   ONE LINE PER DEPTH STEP
~WELL INFORMATION BLOCK
#MNEM.UNIT           DATA                    DESCRIPTION OF MNEMONIC
#---------    -------------------            -------------------------------
# Generated from Intellog Unique Number	CS_67_68/WELL/2167
WELL.         06-13-067-07W4                 : Well_name    - WELL
LOC .         00/06-13-067-07W4/0            : Location     - LOCATION
UWI .         00/06-13-067-07W4/0            : Uwi          - UNIQUE WELL ID
ENTR.         SP                             : Entered      - ENTERED BY
SRVC.         SCHLUMBERGER                   : Scn          - SERVICE COMPANY
STRT.M        330                            : top_depth    - START DEPTH
STOP.M        545                            : bot_depth    - STOP DEPTH
STEP.M        0.25                           : increment    - STEP LENGTH
 NULL. -999.2500:NULL Value
~CURVE INFORMATION BLOCK
#MNEM UNIT       ERCB CURVE CODE    CURVE DESCRIPTION
#-----------   ------------------   ----------------------------------
DEPT.M        00 001 00 00         : DEPTH        - DEPTH
ILD .OHMM     00 120 00 00         : RESD         - DEEP RESISTIVITY (DIL)
DPHI.V/V      00 890 00 00         : PHID         - DENSITY POROSITY (LIMESTONE)
NPHI.V/V      00 330 00 00         : PHIN         - NEUTRON POROSITY (LIMESTONE)
GR  .API      00 310 00 00         : GR           - GAMMA RAY
CALI.MM       00 280 01 00         : CAL          - CALIPER
~PARAMETER INFORMATION
#MNEM.UNIT           DATA             DESCRIPTION OF MNEMONIC
#---------         -----------     ------------------------------
GL  .M        648.63               : gl           - GROUND LEVEL ELEVATION
EREF.M        652.41               : kb           - ELEVATION OF DEPTH REFERENCE
DATM.M        652.41               : datum        - DATUM ELEVATION
TDD .M        553                  : tdd          - TOTAL DEPTH DRILLER
RUN .         ONE                  : Run          - RUN NUMBER
ENG .         BILL                 : Engineer     - RECORDING ENGINEER
WIT .         JIM                  : Witness      - WITNESSED BY
MUD .         GEL                  : Mud_type     - MUD TYPE
MATR.         LIMESTONE            : Logunit      - NEUTRON MATRIX
TMAX.C        21                   : BHT          - MAXIMUM RECORDED TEMPERATURE
BHTD.M        501                  : BHTDEP       - MAXIMUM RECORDED TEMPERATURE
MATR.         1                    : LOGUNIT      - NEUTRON MATRIX
RMT .C        25                   : MDTP         - TEMPERATURE OF MUD
NEUT.         1                    : NEUTRON      - NEUTRON TYPE
RESI.         0                    : RESIST       - RESISTIVITY TYPE
RMC .OHMM     0.25                 : RMC          - RESISTIVITY OF MUD CAKE
RMF .OHMM     0.25                 : RMF          - RESISTIVITY OF MUD FILTRATE
SUFT.C        15                   : SUFT         - SURFACE TEMPERATURE
~A  DEPTH     RESD     PHID     PHIN       GR      CAL
# ...
  403.000    5.207    0.263    0.385   85.512  156.181
  403.250    5.119    0.271    0.390   87.335  156.071
  403.500    5.023    0.273    0.390   80.382  156.164
  403.750    4.995    0.272    0.410   72.698  156.462
  404.000    5.033    0.284    0.432   67.573  156.454
  404.250    5.208    0.299    0.418   68.056  156.854
  404.500    5.450    0.311    0.377   71.770  156.845
  404.750    5.682    0.263    0.356   77.190  158.260
  405.000    5.946    0.251    0.374   82.183  161.301
  405.250    6.071    0.268    0.412   87.542  162.614
  405.500    6.164    0.285    0.432   83.393  162.604
  405.750    6.072    0.295    0.435   70.162  162.192
  406.000    5.619    0.285    0.428   69.853  161.575
  406.250    5.339    0.275    0.472   72.408  161.872
  406.500    5.380    0.263    0.509   74.781  163.794
  406.750    5.452    0.264    0.524   73.495  164.904
  407.000    5.452    0.280    0.487   72.760  164.693
  407.250    5.483    0.280    0.459   72.999  163.974
  407.500    5.525    0.274    0.432   73.665  163.052
  407.750    5.546    0.267    0.422   76.099  162.434
  408.000    5.599    0.261    0.419   77.801  162.021
  408.250    5.652    0.257    0.419   77.126  161.809
  408.500    5.642    0.253    0.423   74.134  161.395
  408.750    5.526    0.266    0.441   74.739  161.389
  409.000    5.371    0.283    0.454   74.003  161.381
  409.250    5.114    0.296    0.440   71.926  161.475
  409.500    4.813    0.297    0.422   74.725  161.670
  409.750    4.609    0.274    0.429   77.646  162.170
  410.000    4.421    0.264    0.436   81.421  163.380
  410.250    4.330    0.253    0.447   85.622  164.998
  410.500    4.249    0.267    0.474   89.396  167.837
  410.750    4.347    0.262    0.478   90.183  171.486
  411.000    4.396    0.260    0.461   89.692  168.837
  411.250    4.388    0.256    0.453   88.163  164.257
  411.500    4.339    0.254    0.447   89.500  163.944
  411.750    4.282    0.247    0.444   93.152  164.649
  412.000    4.194    0.262    0.451   92.965  165.860
  412.250    4.131    0.284    0.466   93.630  167.883
  412.500    4.092    0.268    0.480   94.479  170.010
  412.750    4.077    0.274    0.500   93.439  175.996
  413.000    4.077    0.285    0.508   91.423  180.661
  413.250    4.077    0.291    0.509   91.296  178.622
  413.500    4.039    0.297    0.513   93.242  173.738
  413.750    3.993    0.290    0.511   95.309  170.886
  414.000    3.956    0.277    0.514   96.707  171.588
  414.250    3.897    0.262    0.518   94.203  176.965
  414.500    3.781    0.324    0.545   92.309  182.749
  414.750    3.689    0.419    0.554   88.282  190.664
  415.000    3.613    0.458    0.549   88.094  197.870
  415.250    3.539    0.480    0.531   89.004  196.033
  415.500    3.492    0.404    0.513   90.279  180.583
  415.750    3.486    0.374    0.503   90.031  170.317
  416.000    3.473    0.380    0.524   86.186  162.487
  416.250    3.440    0.404    0.535   85.694  166.642
  416.500    3.389    0.389    0.551   87.214  168.871
  416.750    3.331    0.401    0.600   88.794  171.403
  417.000    3.251    0.437    0.601   89.154  168.754
  417.250    3.178    0.463    0.599   88.418  164.987
  417.500    3.107    0.492    0.610   88.780  164.472
  417.750    2.974    0.501    0.594   88.714  164.768
  418.000    2.379    0.489    0.578   88.465  165.472
  418.250    1.819    0.465    0.572   90.289  166.786
  418.500    1.502    0.443    0.590   92.601  171.147
  418.750    1.367    0.411    0.612   94.608  177.640
  419.000    1.775    0.370    0.626   94.847  192.362
  419.250    2.357    0.427    0.634   91.978  203.021
  419.500    3.185    0.480    0.620   86.914  217.642
  419.750    3.944    0.504    0.602   85.020  226.066
  420.000    4.418    0.279    0.570   84.162  180.040
  420.250    4.866    0.249    0.530   83.487  167.334
  420.500    5.239    0.238    0.496   83.665  165.092
  420.750    5.608    0.231    0.475   84.209  166.404
  421.000    5.869    0.226    0.467   86.277  166.802
  421.250    5.577    0.222    0.448   89.138  166.795
  421.500    4.969    0.223    0.437   91.693  169.023
  421.750    4.581    0.278    0.495   90.043  175.415
  422.000    4.280    0.379    0.512   87.966  186.479
  422.250    4.176    0.409    0.510   89.180  194.091
  422.500    4.256    0.397    0.504   90.577  192.865
  422.750    4.437    0.270    0.496   91.426  176.501
  423.000    4.741    0.242    0.486   92.153  165.523
  423.250    4.970    0.231    0.480   92.635  164.600
  423.500    5.152    0.226    0.475   92.448  166.013
  423.750    5.231    0.231    0.483   91.955  166.820
  424.000    4.804    0.230    0.494   91.098  168.133
  424.250    4.488    0.223    0.508   91.764  169.140
  424.500    4.514    0.218    0.497   92.491  169.641
  424.750    4.760    0.214    0.471   92.303  169.227
  425.000    5.009    0.220    0.459   91.384  168.915
  425.250    5.212    0.237    0.458   90.222  167.993
  425.500    5.322    0.227    0.457   91.193  166.867
  425.750    5.282    0.216    0.464   94.600  166.657
  426.000    5.183    0.209    0.483   95.998  166.955
  426.250    5.086    0.205    0.493   95.750  168.775
  426.500    4.944    0.263    0.491   94.526  171.306
  426.750    4.843    0.290    0.496   92.693  170.180
  427.000    4.779    0.270    0.509   90.921  166.923
  427.250    4.672    0.252    0.505   89.880  165.088
  427.500    4.490    0.300    0.490   88.779  181.029
  427.750    4.373    0.404    0.510   87.494  201.846
  428.000    4.132    0.450    0.538   89.012  208.747
  428.250    3.882    0.460    0.550   89.801  182.326
  428.500    3.592    0.395    0.515   89.735  180.896
  428.750    3.459    0.371    0.515   88.755  189.320
  429.000    3.356    0.334    0.506   88.629  193.376
  429.250    3.281    0.309    0.520   87.710  196.010
  429.500    3.388    0.378    0.555   84.597  192.548
  429.750    3.579    0.411    0.574   80.021  184.820
  430.000    3.781    0.430    0.525   75.506  174.247
  430.250    3.942    0.413    0.500   73.490  163.370
  430.500    4.040    0.390    0.510   78.117  165.496
  430.750    4.141    0.433    0.532   80.856  183.062
  431.000    4.220    0.359    0.531   82.924  179.702
  431.250    4.269    0.318    0.513   84.565  158.870
  431.500    4.285    0.306    0.499   83.585  155.103
  431.750    4.261    0.315    0.493   82.361  153.064
  432.000    4.229    0.324    0.485   84.185  154.275
  432.250    4.118    0.329    0.472   82.169  154.978
  432.500    4.080    0.319    0.457   76.801  155.479
  432.750    4.057    0.323    0.496   71.372  155.573
  433.000    4.049    0.327    0.494   66.491  155.565
  433.250    4.034    0.331    0.476   64.719  155.557
  433.500    4.050    0.335    0.465   63.373  155.245
  433.750    4.884    0.338    0.483   60.564  154.830
  434.000    4.712    0.303    0.508   55.806  155.839
  434.250    4.469    0.124    0.259   50.742  157.456
  434.500    4.254    0.130    0.243   51.164  158.059
  434.750    3.952    0.270    0.381   57.742  158.050
  435.000    3.885    0.302    0.429   62.553  157.331
  435.250    3.871    0.319    0.458   64.377  156.917
  435.500    3.952    0.332    0.479   60.776  157.113
  435.750    4.005    0.334    0.493   59.248  157.410
  436.000    4.020    0.325    0.489   61.132  157.706
  436.250    4.043    0.320    0.471   62.286  158.005
  436.500    3.953    0.321    0.456   63.562  158.504
  436.750    3.864    0.320    0.459   64.837  158.904
  437.000    3.813    0.326    0.469   65.747  159.404
  437.250    3.749    0.332    0.476   64.401  159.397
  437.500    3.707    0.330    0.475   61.593  159.389
  437.750    3.665    0.339    0.470   59.515  159.177
  438.000    3.583    0.349    0.464   59.145  159.068
  438.250    3.529    0.347    0.452   59.202  158.756
  438.500    3.490    0.342    0.445   60.355  158.139
  438.750    3.530    0.341    0.452   61.447  157.520
  439.000    3.624    0.338    0.462   61.992  156.803
  439.250    3.729    0.335    0.471   60.585  155.779
