~VERSION INFORMATION
 VERS.                 2.0:   CWLS LOG ASCII STANDARD -VERSION 2.0
 WRAP.                  NO:   ONE LINE PER DEPTH STEP
~WELL INFORMATION BLOCK
#MNEM.UNIT           DATA                    DESCRIPTION OF MNEMONIC
#---------    -------------------            -------------------------------
# Generated from Intellog Unique Number	CS_77_79/WELL/849
WELL.         ICGR LOCHIEL GRAHAM            : Well_name    - WELL
LOC .         00/03-34-078-05W4/0            : Location     - LOCATION
UWI .         00/03-34-078-05W4/0            : Uwi          - UNIQUE WELL ID
ENTR.         JHS                            : Entered      - ENTERED BY
SRVC.         SCHLUMBERGER                   : Scn          - SERVICE COMPANY
STRT.M        100                            : top_depth    - START DEPTH
STOP.M        360                            : bot_depth    - STOP DEPTH
STEP.M        0.25                           : increment    - STEP LENGTH
 NULL. -999.2500:NULL Value
~CURVE INFORMATION BLOCK
#MNEM UNIT       ERCB CURVE CODE    CURVE DESCRIPTION
#-----------   ------------------   ----------------------------------
DEPT.M        00 001 00 00         : DEPTH        - DEPTH
DPHI.V/V      00 890 00 00         : PHID         - DENSITY POROSITY (LIMESTONE)
NPHI.V/V      00 330 00 00         : PHIN         - NEUTRON POROSITY (LIMESTONE)
GR  .API      00 310 00 00         : GR           - GAMMA RAY
ILD .OHMM     00 120 00 00         : RESD         - DEEP RESISTIVITY (DIL)
RHOB.KG/M3    00 350 00 00         : DENS         - BULK DENSITY
~PARAMETER INFORMATION
#MNEM.UNIT           DATA             DESCRIPTION OF MNEMONIC
#---------         -----------     ------------------------------
GL  .M        528.9                : gl           - GROUND LEVEL ELEVATION
EREF.M        532.4                : kb           - ELEVATION OF DEPTH REFERENCE
DATM.M        532.4                : datum        - DATUM ELEVATION
TDD .M        367                  : tdd          - TOTAL DEPTH DRILLER
RUN .         ONE                  : Run          - RUN NUMBER
ENG .         BILL                 : Engineer     - RECORDING ENGINEER
WIT .         JIM                  : Witness      - WITNESSED BY
MUD .         GEL                  : Mud_type     - MUD TYPE
MATR.         LIMESTONE            : Logunit      - NEUTRON MATRIX
TMAX.C        17.2                 : BHT          - MAXIMUM RECORDED TEMPERATURE
BHTD.M        367                  : BHTDEP       - MAXIMUM RECORDED TEMPERATURE
MATR.         1                    : LOGUNIT      - NEUTRON MATRIX
RMT .C        25                   : MDTP         - TEMPERATURE OF MUD
NEUT.         1                    : NEUTRON      - NEUTRON TYPE
RESI.         0                    : RESIST       - RESISTIVITY TYPE
RMC .OHMM     0.25                 : RMC          - RESISTIVITY OF MUD CAKE
RMF .OHMM     0.25                 : RMF          - RESISTIVITY OF MUD FILTRATE
SUFT.C        15                   : SUFT         - SURFACE TEMPERATURE
~A  DEPTH     PHID     PHIN       GR     RESD     DENS
# ...
  282.500    0.277    0.315   46.481    5.113 2236.610
  282.750    0.274    0.300   36.108    5.303 2240.710
  283.000    0.287    0.296   32.440    5.300 2220.080
  283.250    0.302    0.290   32.431    5.202 2193.270
  283.500    0.315    0.285   29.375    5.104 2170.570
  283.750    0.319    0.283   25.099    5.010 2164.360
  284.000    0.318    0.300   19.602    4.916 2166.400
  284.250    0.312    0.312   25.693    4.825 2176.660
  284.500    0.309    0.316   31.171    4.822 2180.760
  284.750    0.302    0.314   32.992    4.820 2193.090
  285.000    0.299    0.313   37.252    4.818 2199.250
  285.250    0.290    0.316   42.732    4.907 2213.640
  285.500    0.288    0.329   45.162    4.996 2217.730
  285.750    0.300    0.341   43.934    4.994 2197.100
  286.000    0.313    0.348   45.146    5.086 2174.400
  286.250    0.313    0.355   45.747    5.084 2174.390
  286.500    0.299    0.348   45.739    5.081 2199.080
  286.750    0.293    0.349   53.048    5.080 2209.340
  287.000    0.293    0.343   57.308    5.172 2209.320
  287.250    0.284    0.334   58.518    5.171 2223.720
  287.500    0.272    0.325   64.608    5.265 2244.290
  287.750    0.266    0.323   76.794    5.263 2254.560
  288.000    0.268    0.336   88.982    5.261 2252.480
  288.250    0.274    0.360  102.997    5.259 2242.140
  288.500    0.271    0.372   95.671    5.355 2246.240
  288.750    0.260    0.388   82.249    5.453 2264.750
  289.000    0.245    0.393   78.582    5.656 2291.510
  289.250    0.236    0.381   83.451    5.976 2305.900
  289.500    0.223    0.377   93.198    6.199 2328.530
  289.750    0.212    0.391   99.899    6.671 2347.050
  290.000    0.209    0.417  108.426    7.180 2353.200
  290.250    0.238    0.435  112.686    7.311 2303.730
  290.500    0.252    0.412  112.067    7.445 2278.980
  290.750    0.253    0.380  101.085    7.172 2276.890
  291.000    0.258    0.345   80.955    6.783 2268.620
  291.250    0.239    0.357   77.899    6.781 2301.550
  291.500    0.223    0.350   92.524    6.778 2328.310
  291.750    0.205    0.333  102.880    7.030 2359.190
  292.000    0.205    0.323  106.530    7.291 2359.160
  292.250    0.211    0.332  105.302    7.425 2348.830
  292.500    0.204    0.346  101.637    7.422 2361.170
  292.750    0.200    0.358   92.483    7.283 2367.310
  293.000    0.214    0.368   83.325    7.148 2344.620
  293.250    0.227    0.379   83.319    6.514 2321.940
  293.500    0.231    0.374   86.969    6.276 2315.730
  293.750    0.221    0.378   89.401    5.827 2332.180
  294.000    0.234    0.390   78.416    5.311 2309.490
  294.250    0.264    0.347   61.946    5.023 2257.960
  294.500    0.280    0.325   49.742    4.839 2231.150
  294.750    0.286    0.315   33.272    4.576 2220.820
  295.000    0.286    0.317   30.824    4.491 2220.790
  295.250    0.285    0.329   34.473    4.407 2222.830
  295.500    0.281    0.356   36.905    4.405 2228.980
  295.750    0.276    0.364   33.848    4.323 2237.190
  296.000    0.280    0.354   27.743    4.322 2230.970
  296.250    0.279    0.339   30.172    4.320 2233.010
  296.500    0.275    0.334   29.554    4.399 2239.160
  296.750    0.275    0.328   28.325    4.479 2239.140
  297.000    0.273    0.315   30.148    4.732 2243.230
  297.250    0.263    0.326   43.554    5.000 2259.680
  297.500    0.255    0.337   56.349    5.187 2274.080
  297.750    0.239    0.351   63.659    5.480 2300.830
  298.000    0.221    0.340   75.234    6.008 2331.710
  298.250    0.200    0.328   84.982    6.586 2368.760
  298.500    0.184    0.338   92.291    6.706 2395.510
  298.750    0.178    0.366   98.381    6.582 2405.790
  299.000    0.176    0.402   89.836    6.111 2409.880
  299.250    0.215    0.400   65.438    5.570 2341.870
  299.500    0.268    0.384   47.747    4.892 2251.190
  299.750    0.307    0.377   53.226    4.459 2185.240
  300.000    0.298    0.377   67.243    4.140 2199.630
  300.250    0.291    0.389   80.648    3.988 2211.970
  300.500    0.290    0.407   75.762    3.987 2213.990
  300.750    0.305    0.417   56.243    3.912 2189.240
  301.000    0.313    0.389   42.820    3.911 2174.790
  301.250    0.315    0.372   33.054    3.909 2170.650
  301.500    0.313    0.359   40.973    3.981 2174.740
  301.750    0.307    0.360   51.332    4.053 2185.010
  302.000    0.293    0.418   59.249    4.204 2209.710
  302.250    0.287    0.430   65.339    4.281 2219.980
  302.500    0.293    0.413   65.938    4.124 2209.650
  302.750    0.305    0.402   62.881    4.048 2189.020
  303.000    0.320    0.408   60.436    3.972 2162.210
  303.250    0.316    0.419   64.085    4.119 2170.420
  303.500    0.300    0.410   68.346    4.195 2197.180
  303.750    0.285    0.400   68.337    4.515 2221.870
  304.000    0.295    0.402   65.890    4.859 2205.360
  304.250    0.282    0.412   81.126    5.230 2228.000
  304.500    0.237    0.417   93.311    5.629 2304.200
  304.750    0.195    0.401  100.621    5.948 2376.280
  305.000    0.205    0.390  103.051    6.056 2359.760
  305.250    0.208    0.392  107.312    5.834 2353.550
  305.500    0.227    0.422  103.645    5.415 2322.630
  305.750    0.274    0.423   86.563    5.414 2242.250
  306.000    0.288    0.415   80.457    5.512 2217.500
  306.250    0.268    0.413   79.839    5.718 2252.490
  306.500    0.257    0.418   84.098    6.155 2271.010
  306.750    0.245    0.403   88.970    6.624 2291.580
  307.000    0.234    0.388   95.058    6.998 2310.090
  307.250    0.221    0.386   98.708    7.127 2332.730
  307.500    0.205    0.384  101.748    7.123 2359.490
  307.750    0.185    0.363  100.521    6.863 2394.480
  308.000    0.197    0.351   88.319    6.255 2373.850
  308.250    0.272    0.380   71.237    5.701 2244.030
  308.500    0.275    0.376   60.864    5.392 2239.880
  308.750    0.267    0.376   55.976    5.194 2254.280
  309.000    0.257    0.386   54.137    5.192 2270.730
  309.250    0.262    0.400   52.910    5.287 2262.460
  309.500    0.271    0.395   52.903    5.484 2245.960
  309.750    0.277    0.369   58.382    5.902 2235.620
  310.000    0.261    0.357   65.692    6.010 2264.440
  310.250    0.234    0.351   73.610    6.349 2309.730
  310.500    0.206    0.345   76.651    6.348 2357.080
  310.750    0.216    0.346   72.983    6.230 2340.570
  311.000    0.237    0.358   68.097    5.892 2305.530
  311.250    0.261    0.364   62.601    5.572 2264.300
  311.500    0.280    0.370   60.155    5.173 2231.310
  311.750    0.274    0.374   61.366    5.077 2241.570
  312.000    0.272    0.372   63.797    4.981 2245.670
  312.250    0.278    0.368   61.349    4.979 2235.340
  312.500    0.275    0.363   59.512    5.071 2239.440
  312.750    0.263    0.364   63.161    5.069 2260.000
  313.000    0.257    0.374   64.372    4.706 2270.280
  313.250    0.264    0.381   68.633    4.704 2257.890
  313.500    0.287    0.368   77.771    4.880 2218.720
  313.750    0.273    0.357   86.908    5.349 2243.420
  314.000    0.242    0.351   91.777    5.865 2296.950
  314.250    0.230    0.358   83.233    6.197 2317.530
  314.500    0.227    0.355   78.957    6.794 2321.620
  314.750    0.178    0.344   89.923    7.311 2406.060
  315.000    0.162    0.354   97.233    7.445 2432.810
  315.250    0.150    0.346  101.492    7.443 2453.390
  315.500    0.163    0.336   95.385    6.910 2430.700
  315.750    0.178    0.359   87.452    6.415 2405.950
  316.000    0.209    0.379   77.688    6.068 2352.360
  316.250    0.250    0.385   69.752    5.530 2282.280
  316.500    0.275    0.386   63.037    4.948 2238.990
  316.750    0.291    0.389   57.541    4.680 2212.180
  317.000    0.302    0.384   52.046    4.765 2193.610
  317.250    0.285    0.366   47.160    4.943 2222.420
  317.500    0.268    0.353   56.297    5.319 2251.240
  317.750    0.253    0.338   65.434    5.417 2277.990
  318.000    0.255    0.350   72.134    5.218 2273.840
  318.250    0.279    0.378   72.735    5.120 2232.610
  318.500    0.291    0.380   70.286    5.025 2211.970
  318.750    0.295    0.391   64.792    4.841 2205.770
