~VERSION INFORMATION
 VERS.                 2.0:   CWLS LOG ASCII STANDARD -VERSION 2.0
 WRAP.                  NO:   ONE LINE PER DEPTH STEP
~WELL INFORMATION BLOCK
#MNEM.UNIT           DATA                    DESCRIPTION OF MNEMONIC
#---------    -------------------            -------------------------------
# Generated from Intellog Unique Number	CW_76_78/WELL/468
WELL.         PCP MARTIN HILLS 06-05         : Well_name    - WELL
LOC .         00/06-05-076-04W5/0            : Location     - LOCATION
UWI .         00/06-05-076-04W5/0            : Uwi          - UNIQUE WELL ID
ENTR.         JAYE                           : Entered      - ENTERED BY
SRVC.         SCHLUMBERGER                   : Scn          - SERVICE COMPANY
DATE.         8 MAR 74                       : Date         - LOG DATE
STRT.M        682.752                        : top_depth    - START DEPTH
STOP.M        905.252                        : bot_depth    - STOP DEPTH
STEP.M        0.25                           : increment    - STEP LENGTH
 NULL. -999.2500:NULL Value
~CURVE INFORMATION BLOCK
#MNEM UNIT       ERCB CURVE CODE    CURVE DESCRIPTION
#-----------   ------------------   ----------------------------------
DEPT.M        00 001 00 00         : DEPTH        - DEPTH
ILD .OHMM     00 120 00 00         : RESD         - DEEP RESISTIVITY (DIL)
NPHI.V/V      00 330 00 00         : PHIN         - NEUTRON POROSITY (SANDSTONE)
DPHI.V/V      00 890 00 00         : PHID         - DENSITY POROSITY (SANDSTONE)
GR  .API      00 310 00 00         : GR           - GAMMA RAY
CALI.MM       00 280 01 00         : CAL          - CALIPER
~PARAMETER INFORMATION
#MNEM.UNIT           DATA             DESCRIPTION OF MNEMONIC
#---------         -----------     ------------------------------
GL  .M        955.243              : gl           - GROUND LEVEL ELEVATION
EREF.M        958.596              : kb           - ELEVATION OF DEPTH REFERENCE
DATM.M        955.243              : datum        - DATUM ELEVATION
TDD .M        920.496              : tdd          - TOTAL DEPTH DRILLER
RUN .         ONE                  : Run          - RUN NUMBER
BASE.         EDM                  : Branch       - HOME BASE OF LOGGING UNIT
MATR.         SANDSTONE            : Logunit      - NEUTRON MATRIX
TMAX.C        33.3333              : BHT          - MAXIMUM RECORDED TEMPERATURE
BHTD.M        825.094              : BHTDEP       - MAXIMUM RECORDED TEMPERATURE
RMT .C        2.22222              : MDTP         - TEMPERATURE OF MUD
MUDD.KG/M     0                    : MWT          - MUD DENSITY
NEUT.         1                    : NEUTRON      - NEUTRON TYPE
RESI.         0                    : RESIST       - RESISTIVITY TYPE
RM  .OHMM     2.5                  : RM           - RESISTIVITY OF MUD
RMC .OHMM     0                    : RMC          - RESISTIVITY OF MUD CAKE
RMF .OHMM     4.8                  : RMF          - RESISTIVITY OF MUD FILTRATE
SUFT.C        -17.7778             : SUFT         - SURFACE TEMPERATURE
~A  DEPTH     RESD     PHIN     PHID       GR      CAL
# ...
  865.252    4.091    0.378    0.214   85.560  208.708
  865.502    4.012    0.384    0.228   83.448  208.413
  865.752    3.913    0.399    0.220   81.334  208.396
  866.002    3.874    0.412    0.198   81.334  208.298
  866.252    3.835    0.414    0.183   82.057  207.276
  866.502    3.831    0.407    0.195   84.108  204.191
  866.752    3.927    0.412    0.213   86.642  199.179
  867.002    4.010    0.428    0.213   89.599  198.563
  867.252    4.036    0.436    0.203   90.262  199.484
  867.502    4.137    0.437    0.186   83.738  201.632
  867.752    4.225    0.425    0.195   83.554  203.566
  868.002    4.252    0.411    0.210   88.686  205.212
  868.252    4.201    0.386    0.219   87.596  206.217
  868.502    4.009    0.381    0.216   85.428  207.143
  868.752    3.832    0.378    0.225   86.570  207.447
  869.002    3.800    0.387    0.219   90.735  206.517
  869.252    3.953    0.411    0.227   92.122  203.965
  869.502    4.313    0.401    0.226   91.878  201.408
  869.752    5.074    0.398    0.210   91.090  199.164
  870.002    5.938    0.424    0.210   89.337  197.833
  870.252    6.808    0.408    0.222   89.218  196.813
  870.502    7.763    0.381    0.214   89.577  195.895
  870.752    8.550    0.370    0.207   88.249  195.574
  871.002    9.590    0.386    0.216   85.591  194.953
  871.252   10.776    0.383    0.242   81.180  194.335
  871.502   12.108    0.368    0.254   77.619  192.904
  871.752   13.044    0.372    0.258   75.260  192.702
  872.002   13.695    0.381    0.258   72.481  193.725
  872.252   13.730    0.382    0.255   71.879  195.036
  872.502   13.247    0.385    0.248   72.663  196.980
  872.752   11.743    0.392    0.247   75.437  198.405
  873.002   11.623    0.408    0.244   79.421  199.743
  873.252   11.784    0.435    0.235   83.827  200.258
  873.502   12.011    0.442    0.248   82.616  200.550
  873.752   12.154    0.420    0.262   76.879  200.454
  874.002   12.300    0.397    0.274   73.257  200.454
  874.252   12.447    0.390    0.255   76.453  200.568
  874.502   12.504    0.383    0.232   79.111  200.748
  874.752   12.197    0.380    0.230   81.227  200.740
  875.002   12.410    0.382    0.244   79.227  200.455
  875.252   13.491    0.390    0.249   78.685  200.540
  875.502   14.774    0.399    0.254   77.597  200.838
  875.752   14.787    0.401    0.260   75.360  200.935
  876.002   13.673    0.398    0.259   73.005  200.954
  876.252   12.554    0.390    0.249   71.976  200.947
  876.502   11.610    0.383    0.235   75.718  201.350
  876.752   10.618    0.383    0.224   79.461  201.651
  877.002    9.946    0.386    0.225   81.028  202.157
  877.252    9.455    0.386    0.230   80.003  202.376
  877.502    8.972    0.383    0.223   81.750  202.463
  877.752    8.497    0.373    0.211   86.579  202.474
  878.002    8.258    0.362    0.206   87.909  202.771
  878.252    8.010    0.359    0.218   86.151  203.262
  878.502    7.770    0.368    0.217   86.095  204.510
  878.752    7.523    0.380    0.208   84.826  205.414
  879.002    7.325    0.395    0.206   84.034  206.012
  879.252    6.989    0.395    0.208   84.342  206.331
  879.502    6.583    0.389    0.215   84.943  206.321
  879.752    6.235    0.383    0.213   86.147  206.415
  880.002    5.895    0.376    0.211   88.016  206.123
  880.252    5.401    0.361    0.210   90.006  206.220
  880.502    4.895    0.384    0.212   91.820  206.621
  880.752    4.245    0.396    0.214   94.354  206.936
  881.002    3.555    0.403    0.206   97.248  207.532
  881.252    3.099    0.400    0.203   98.400  207.843
  881.502    2.947    0.385    0.211   99.537  208.054
  881.752    2.938    0.370    0.198  103.100  208.353
  882.002    3.011    0.388    0.181   99.113  209.073
  882.252    3.226    0.391    0.198   95.248  209.155
  882.502    3.727    0.380    0.189   91.804  206.510
  882.752    4.450    0.356    0.183   90.111  204.554
  883.002    5.083    0.367    0.191   91.022  203.218
  883.252    5.506    0.383    0.199   91.320  202.612
  883.502    5.728    0.394    0.197   89.145  202.718
  883.752    5.743    0.401    0.202   88.488  202.801
  884.002    5.642    0.386    0.200   88.656  202.905
  884.252    5.616    0.385    0.192   89.380  202.695
  884.502    5.611    0.390    0.209   90.528  202.191
  884.752    5.687    0.390    0.215   91.917  201.785
  885.002    5.756    0.387    0.209   90.467  201.577
  885.252    5.901    0.380    0.203   88.471  201.064
  885.502    6.137    0.363    0.200   87.567  200.740
  885.752    6.176    0.382    0.205   88.047  200.649
  886.002    6.182    0.396    0.209   89.615  200.651
  886.252    6.119    0.404    0.206   92.871  201.043
  886.502    5.958    0.385    0.204   92.934  202.176
  886.752    5.779    0.386    0.197   93.472  202.781
  887.002    5.565    0.389    0.189   94.558  203.503
  887.252    5.379    0.390    0.191   89.305  203.802
  887.502    5.305    0.386    0.191   89.906  204.009
  887.752    5.251    0.380    0.184   92.388  204.196
  888.002    5.226    0.388    0.176   94.014  204.509
  888.252    5.144    0.403    0.187   95.877  204.720
  888.502    5.055    0.392    0.192   97.929  204.812
  888.752    4.885    0.392    0.186   97.814  204.595
  889.002    4.662    0.397    0.170   95.575  204.089
  889.252    3.790    0.404    0.189   94.483  204.794
  889.502    2.710    0.419    0.208   95.569  206.329
  889.752    2.055    0.432    0.230   98.050  207.350
  890.002    1.393    0.485    0.257   98.706  202.438
  890.252    1.074    0.529    0.284   90.797  200.603
  890.502    0.931    0.614    0.296   89.950  200.909
  890.752    1.066    0.596    0.286   92.185  201.405
  891.002    1.303    0.404    0.261   95.018  202.242
  891.252    1.608    0.367    0.237   90.549  203.039
  891.502    2.649    0.366    0.218   83.725  204.469
  891.752    3.474    0.383    0.208   82.152  205.997
  892.002    4.163    0.393    0.207   83.361  207.325
  892.252    4.517    0.396    0.204   85.470  207.937
  892.502    4.302    0.400    0.192   88.250  208.236
  892.752    3.992    0.401    0.185   90.661  208.039
  893.002    3.810    0.400    0.207   91.685  204.774
  893.252    3.689    0.403    0.197   92.593  204.150
  893.502    3.624    0.410    0.191   93.495  205.169
  893.752    3.595    0.403    0.190   95.003  206.397
  894.002    3.545    0.390    0.186   95.369  206.813
  894.252    3.490    0.382    0.185   94.576  206.893
  894.502    3.455    0.381    0.182   93.126  207.004
  894.752    3.426    0.390    0.196   92.106  207.710
  895.002    3.492    0.403    0.206   90.888  207.816
  895.252    3.653    0.420    0.204   88.716  207.706
  895.502    3.993    0.404    0.195   85.089  207.093
  895.752    4.421    0.381    0.201   79.657  205.346
  896.002    4.950    0.363    0.243   73.920  203.825
  896.252    5.372    0.350    0.235   70.657  203.712
  896.502    5.639    0.342    0.225   73.554  204.423
  896.752    5.273    0.348    0.216   76.815  205.867
  897.002    4.359    0.366    0.219   79.653  206.974
  897.252    2.715    0.392    0.213   81.879  207.891
  897.502    2.167    0.420    0.218   84.536  207.389
  897.752    1.805    0.458    0.225   90.876  206.459
  898.002    1.612    0.508    0.230   95.826  205.230
  898.252    1.575    0.497    0.219   97.211  205.013
  898.502    1.612    0.449    0.207   96.786  205.424
  898.752    1.707    0.426    0.203   98.419  206.149
  899.002    1.799    0.431    0.201  100.105  206.854
  899.252    1.882    0.450    0.201   98.778  207.374
  899.502    1.990    0.446    0.200   97.746  207.763
  899.752    2.093    0.428    0.194   98.655  208.782
  900.002    2.217    0.416    0.184  101.668  209.319
  900.252    2.299    0.407    0.182  100.580  209.815
  900.502    2.418    0.409    0.183   98.840  209.798
  900.752    2.619    0.426    0.186   99.860  210.415
  901.002    3.014    0.395    0.185   98.946  210.512
  901.252    3.612    0.346    0.181   94.234  210.305
  901.502    4.425    0.237    0.168   84.334  209.903
