~VERSION INFORMATION
 VERS.                 2.0:   CWLS LOG ASCII STANDARD -VERSION 2.0
 WRAP.                  NO:   ONE LINE PER DEPTH STEP
~WELL INFORMATION BLOCK
#MNEM.UNIT           DATA                    DESCRIPTION OF MNEMONIC
#---------    -------------------            -------------------------------
# Generated from Intellog Unique Number	CW_82_90/WELL/3416
WELL.         PARA ET AL LIEGE               : Well_name    - WELL
LOC .         00/04-36-090-20W4/0            : Location     - LOCATION
UWI .         00/04-36-090-20W4/0            : Uwi          - UNIQUE WELL ID
ENTR.         MAX                            : Entered      - ENTERED BY
SRVC.         COMPUTALOG                     : Scn          - SERVICE COMPANY
STRT.M        75                             : top_depth    - START DEPTH
STOP.M        237                            : bot_depth    - STOP DEPTH
STEP.M        0.25                           : increment    - STEP LENGTH
 NULL. -999.2500:NULL Value
~CURVE INFORMATION BLOCK
#MNEM UNIT       ERCB CURVE CODE    CURVE DESCRIPTION
#-----------   ------------------   ----------------------------------
DEPT.M        00 001 00 00         : DEPTH        - DEPTH
GR  .API      00 310 00 00         : GR           - GAMMA RAY
CALI.MM       00 280 01 00         : CAL          - CALIPER
DPHI.V/V      00 890 00 00         : PHID         - DENSITY POROSITY (SANDSTONE)
NPHI.V/V      00 330 00 00         : PHIN         - NEUTRON POROSITY (SANDSTONE)
ILD .OHMM     00 120 00 00         : RESD         - DEEP RESISTIVITY (DIL)
~PARAMETER INFORMATION
#MNEM.UNIT           DATA             DESCRIPTION OF MNEMONIC
#---------         -----------     ------------------------------
GL  .M        517.6                : gl           - GROUND LEVEL ELEVATION
EREF.M        520.7                : kb           - ELEVATION OF DEPTH REFERENCE
DATM.M        517.6                : datum        - DATUM ELEVATION
TDD .M        238.1                : tdd          - TOTAL DEPTH DRILLER
RUN .         ONE                  : Run          - RUN NUMBER
ENG .         BILL                 : Engineer     - RECORDING ENGINEER
WIT .         JIM                  : Witness      - WITNESSED BY
MUD .         GEL                  : Mud_type     - MUD TYPE
MATR.         SANDSTONE            : Logunit      - NEUTRON MATRIX
TMAX.C        18                   : BHT          - MAXIMUM RECORDED TEMPERATURE
BHTD.M        238.1                : BHTDEP       - MAXIMUM RECORDED TEMPERATURE
MATR.         1                    : LOGUNIT      - NEUTRON MATRIX
RMT .C        16.7                 : MDTP         - TEMPERATURE OF MUD
NEUT.         1                    : NEUTRON      - NEUTRON TYPE
RESI.         0                    : RESIST       - RESISTIVITY TYPE
RMC .OHMM     3.07                 : RMC          - RESISTIVITY OF MUD CAKE
RMF .OHMM     3.05                 : RMF          - RESISTIVITY OF MUD FILTRATE
SUFT.C        -10                  : SUFT         - SURFACE TEMPERATURE
~A  DEPTH       GR      CAL     PHID     PHIN     RESD
# ...
  148.000   97.753  166.998    0.233    0.363   11.195
  148.250  110.849  168.008    0.230    0.406    8.821
  148.500  113.539  169.521    0.189    0.435    7.827
  148.750  107.306  171.026    0.142    0.441    7.541
  149.000  104.346  172.039    0.141    0.435    7.890
  149.250  108.523  173.051    0.181    0.424    8.639
  149.500  115.672  173.576    0.190    0.397    8.795
  149.750  118.660  173.589    0.174    0.391    9.201
  150.000  116.589  172.619    0.173    0.385    9.983
  150.250  112.439  169.180    0.159    0.379   10.255
  150.500  109.480  167.216    0.145    0.376    9.972
  150.750  111.870  164.261    0.192    0.411    8.849
  151.000  122.589  162.303    0.208    0.431    7.781
  151.250  124.685  161.831    0.205    0.443    7.294
  151.500  119.938  162.841    0.198    0.437    7.630
  151.750  108.652  163.850    0.185    0.426    8.205
  152.000  103.610  163.877    0.150    0.417    9.236
  152.250   99.757  163.400    0.134    0.392   11.083
  152.500   96.499  162.926    0.162    0.369   12.589
  152.750   96.811  164.434    0.173    0.353   14.041
  153.000  101.581  166.440    0.158    0.331   15.376
  153.250   96.539  167.948    0.139    0.349   16.531
  153.500   90.307  163.512    0.125    0.370   16.674
  153.750   92.401  163.533    0.136    0.375   16.362
  154.000   95.686  164.050    0.178    0.371   15.910
  154.250   97.779  164.074    0.209    0.375   15.471
  154.500   99.576  164.092    0.251    0.382   14.771
  154.750  101.075  164.113    0.247    0.386   14.102
  155.000  102.874  164.132    0.235    0.389   13.100
  155.250  104.078  164.153    0.222    0.385   12.738
  155.500  102.602  164.670    0.213    0.373   13.447
  155.750   91.316  164.204    0.190    0.357   13.942
  156.000   82.408  164.220    0.104    0.326   14.453
  156.250   83.015  163.250    0.093    0.322   14.053
  156.500   92.543  162.778    0.178    0.357   12.357
  156.750  108.317  162.797    0.206    0.411   11.269
  157.000  118.142  162.823    0.222    0.444    9.642
  157.250  112.505  163.337    0.239    0.468    8.714
  157.500  100.921  162.370    0.267    0.427    9.370
  157.750   93.798  162.389    0.263    0.403   11.347
  158.000   84.593  162.906    0.256    0.392   12.655
  158.250   75.390  163.441    0.244    0.402   14.245
  158.500   78.671  160.968    0.203    0.397   16.033
  158.750   82.847  160.990    0.167    0.384   16.468
  159.000   83.754  161.504    0.177    0.372   15.580
  159.250   86.444  161.030    0.203    0.366   13.088
  159.500   90.321  161.056    0.206    0.375   12.047
  159.750   94.498  161.075    0.208    0.390   11.088
  160.000   97.187  161.096    0.205    0.388   10.301
  160.250   98.685  160.622    0.194    0.382    9.656
  160.500  100.485  161.138    0.180    0.384    9.219
  160.750  100.796  162.153    0.178    0.391    8.721
  161.000  100.806  162.668    0.197    0.387    8.480
  161.250   99.332  164.178    0.210    0.382    8.322
  161.500   94.886  164.200    0.199    0.399    9.895
  161.750  101.736  163.230    0.183    0.411   11.875
  162.000  110.078  161.271    0.164    0.402   15.902
  162.250  111.281  160.797    0.138    0.381   19.611
  162.500  111.293  160.815    0.092    0.354   23.108
  162.750  111.305  161.335    0.098    0.323   26.732
  163.000  110.424  160.869    0.097    0.308   28.225
  163.250  103.004  160.887    0.098    0.306   28.467
  163.500   89.933  161.894    0.100    0.302   27.679
  163.750   72.404  162.414    0.090    0.293   27.163
  164.000   70.036  159.954    0.086    0.282   26.410
  164.250   70.049  158.494    0.093    0.277   25.447
  164.500   73.037  158.513    0.089    0.272   25.202
  164.750   81.081  158.537    0.074    0.265   24.283
  165.000   83.470  159.051    0.022    0.266   21.547
  165.250   89.132  159.568    0.067    0.293   18.100
  165.500   96.281  160.085    0.178    0.321   16.508
  165.750  106.407  158.622    0.232    0.357   14.252
  166.000  109.094  159.139    0.221    0.375   12.532
  166.250  118.027  161.635    0.200    0.393   11.122
  166.500  121.608  165.626    0.186    0.401   10.143
  166.750  120.729  167.627    0.189    0.398    9.251
  167.000  117.175  168.645    0.188    0.394    8.832
  167.250  116.890  168.664    0.188    0.390    8.356
  167.500  122.255  168.682    0.189    0.386    8.582
  167.750  124.947  168.703    0.191    0.384    9.062
  168.000  121.091  168.232    0.186    0.390   10.107
  168.250  102.966  164.787    0.131    0.387   10.671
  168.500   88.706  160.843    0.092    0.373   10.961
  168.750   90.503  159.378    0.144    0.383   11.156
  169.000   95.870  158.901    0.234    0.378   11.460
  169.250   99.449  158.925    0.221    0.355   11.665
  169.500  104.520  158.943    0.204    0.347   12.092
  169.750  107.504  158.964    0.208    0.356   12.422
  170.000  110.193  158.986    0.216    0.362   13.113
  170.250  107.827  159.012    0.220    0.360   13.595
  170.500  105.461  158.045    0.229    0.357   14.486
  170.750  104.582  159.055    0.222    0.359   15.154
  171.000  108.759  160.560    0.216    0.367   15.417
  171.250  103.717  161.573    0.209    0.360   15.699
  171.500   95.404  161.594    0.153    0.331   17.826
  171.750   85.604  161.618    0.028    0.270   18.829
  172.000   70.748  162.135    0.018    0.252   18.817
  172.250   86.522  163.150    0.047    0.274   18.132
  172.500   95.158  164.159    0.161    0.323   17.152
  172.750  115.988  163.685    0.171    0.348   15.788
  173.000  109.457  163.706    0.163    0.360   14.268
  173.250  111.850  164.226    0.168    0.374   13.498
  173.500  114.240  165.235    0.176    0.381   13.006
  173.750  114.253  165.760    0.183    0.391   12.416
  174.000  113.969  166.277    0.189    0.399   11.963
  174.250  115.470  167.287    0.195    0.390   11.422
  174.500  116.675  167.801    0.187    0.372   11.521
  174.750  114.008  167.822    0.167    0.369   12.502
  175.000  103.007  166.578    0.101    0.378   13.541
  175.250  116.520  167.091    0.176    0.384   13.645
  175.500  121.229  169.560    0.199    0.388   13.622
  175.750  119.191  169.580    0.208    0.386   13.474
  176.000  116.564  166.186    0.219    0.357   13.451
  176.250  113.348  163.761    0.216    0.344   14.181
  176.500  110.136  162.321    0.198    0.345   15.644
  176.750  107.217  162.347    0.148    0.332   16.493
  177.000  102.241  162.365    0.112    0.319   16.920
  177.250  100.495  162.877    0.112    0.308   17.046
  177.500  107.552  163.396    0.163    0.313   17.014
  177.750  114.022  163.903    0.209    0.324   16.683
  178.000  111.101  163.443    0.231    0.339   16.061
  178.250  111.412  162.975    0.248    0.342   15.463
  178.500  112.013  163.001    0.225    0.344   15.022
  178.750  112.319  163.022    0.204    0.355   14.588
  179.000  116.735  164.512    0.186    0.363   14.564
  179.250  122.327  166.498    0.184    0.359   14.411
  179.500  122.049  167.983    0.190    0.347   14.251
  179.750  120.009  168.502    0.197    0.348   14.233
  180.000  117.967  167.544    0.207    0.349   14.464
  180.250  113.581  162.677    0.209    0.343   14.845
  180.500  110.953  163.679    0.182    0.336   15.092
  180.750  106.858  163.702    0.132    0.327   15.066
  181.000  110.981  164.215    0.145    0.333   14.502
  181.250  116.277  167.173    0.183    0.359   14.089
  181.500  123.334  170.626    0.196    0.374   13.684
  181.750  126.871  172.114    0.186    0.381   13.294
  182.000  119.256  171.162    0.093    0.353   13.642
  182.250  107.825  168.248    0.067    0.335   13.616
  182.500  109.307  164.851    0.096    0.330   13.468
  182.750  109.908  164.880    0.174    0.346   13.571
  183.000  105.520  164.901    0.144    0.369   13.062
  183.250   99.372  165.408    0.089    0.369   11.591
  183.500  100.266  163.964    0.094    0.345    9.561
  183.750  110.845  164.480    0.157    0.361    8.105
  184.000  126.707  166.949    0.188    0.393    7.060
  184.250  141.687  168.929    0.216    0.422    6.207
