~VERSION INFORMATION
 VERS.                 2.0:   CWLS LOG ASCII STANDARD -VERSION 2.0
 WRAP.                  NO:   ONE LINE PER DEPTH STEP
~WELL INFORMATION BLOCK
#MNEM.UNIT           DATA                    DESCRIPTION OF MNEMONIC
#---------    -------------------            -------------------------------
# Generated from Intellog Unique Number	CS_73_76/WELL/799
WELL.         SULPETRO LIMITED               : Well_name    - WELL
LOC .         00/09-29-073-10W4/0            : Location     - LOCATION
UWI .         00/09-29-073-10W4/0            : Uwi          - UNIQUE WELL ID
ENTR.         SP                             : Entered      - ENTERED BY
SRVC.         SCHLUMBERGER                   : Scn          - SERVICE COMPANY
STRT.M        295                            : top_depth    - START DEPTH
STOP.M        515                            : bot_depth    - STOP DEPTH
STEP.M        0.25                           : increment    - STEP LENGTH
 NULL. -999.2500:NULL Value
~CURVE INFORMATION BLOCK
#MNEM UNIT       ERCB CURVE CODE    CURVE DESCRIPTION
#-----------   ------------------   ----------------------------------
DEPT.M        00 001 00 00         : DEPTH        - DEPTH
ILD .OHMM     00 120 00 00         : RESD         - DEEP RESISTIVITY (DIL)
DPHI.V/V      00 890 00 00         : PHID         - DENSITY POROSITY (LIMESTONE)
NPHI.V/V      00 330 00 00         : PHIN         - NEUTRON POROSITY (LIMESTONE)
GR  .API      00 310 00 00         : GR           - GAMMA RAY
~PARAMETER INFORMATION
#MNEM.UNIT           DATA             DESCRIPTION OF MNEMONIC
#---------         -----------     ------------------------------
GL  .M        557.9                : gl           - GROUND LEVEL ELEVATION
EREF.M        660                  : kb           - ELEVATION OF DEPTH REFERENCE
DATM.M        557.9                : datum        - DATUM ELEVATION
TDD .M        520                  : tdd          - TOTAL DEPTH DRILLER
RUN .         ONE                  : Run          - RUN NUMBER
ENG .         BILL                 : Engineer     - RECORDING ENGINEER
WIT .         JIM                  : Witness      - WITNESSED BY
MUD .         GEL                  : Mud_type     - MUD TYPE
MATR.         LIMESTONE            : Logunit      - NEUTRON MATRIX
TMAX.C        25                   : BHT          - MAXIMUM RECORDED TEMPERATURE
BHTD.M        520                  : BHTDEP       - MAXIMUM RECORDED TEMPERATURE
MATR.         1                    : LOGUNIT      - NEUTRON MATRIX
RMT .C        25                   : MDTP         - TEMPERATURE OF MUD
NEUT.         1                    : NEUTRON      - NEUTRON TYPE
RESI.         0                    : RESIST       - RESISTIVITY TYPE
RMC .OHMM     0.25                 : RMC          - RESISTIVITY OF MUD CAKE
RMF .OHMM     0.25                 : RMF          - RESISTIVITY OF MUD FILTRATE
SUFT.C        15                   : SUFT         - SURFACE TEMPERATURE
~A  DEPTH     RESD     PHID     PHIN       GR
# ...
  338.500   11.217    0.241    0.507  112.053
  338.750   10.810    0.245    0.516  112.653
  339.000   10.418    0.252    0.522  116.263
  339.250   10.227    0.259    0.506  118.669
  339.500   10.040    0.262    0.497  121.076
  339.750   10.042    0.264    0.489  122.879
  340.000   10.043    0.271    0.479  122.274
  340.250   10.233    0.276    0.482  120.462
  340.500   10.234    0.280    0.488  118.653
  340.750   10.235    0.279    0.492  115.638
  341.000   10.237    0.276    0.487  114.429
  341.250   10.238    0.274    0.481  113.220
  341.500   10.239    0.274    0.481  112.614
  341.750   10.240    0.273    0.489  113.816
  342.000   10.053    0.267    0.497  115.018
  342.250    9.869    0.253    0.493  116.821
  342.500    9.870    0.250    0.477  119.227
  342.750    9.871    0.256    0.470  121.031
  343.000    9.873    0.261    0.459  118.618
  343.250    9.692    0.265    0.435  115.001
  343.500    9.694    0.269    0.427  117.407
  343.750    9.517    0.257    0.427  121.620
  344.000    9.518    0.247    0.432  124.628
  344.250    9.519    0.241    0.438  122.817
  344.500    9.880    0.232    0.440  120.406
  344.750   10.447    0.229    0.425  118.595
  345.000   12.123    0.232    0.325  110.157
  345.250   13.807    0.138    0.209   99.311
  345.500   14.331    0.103    0.167   90.874
  345.750   15.154    0.035    0.157   81.232
  346.000   15.440    0.069    0.157   71.590
  346.250   14.879    0.104    0.211   64.961
  346.500   13.562    0.156    0.311   78.210
  346.750   12.133    0.184    0.375   95.676
  347.000   11.266    0.209    0.439  107.118
  347.250    9.894    0.227    0.463  115.549
  347.500    9.534    0.238    0.478  123.377
  347.750    8.853    0.239    0.487  117.950
  348.000    8.374    0.229    0.491  117.345
  348.250    8.071    0.226    0.497  118.547
  348.500    8.071    0.249    0.472  120.349
  348.750    8.072    0.269    0.464  121.551
  349.000    8.224    0.276    0.450  121.549
  349.250    8.697    0.273    0.442  113.111
  349.500    9.027    0.263    0.445  107.686
  349.750    9.370    0.250    0.450  104.671
  350.000    9.725    0.256    0.443  101.052
  350.250    9.909    0.257    0.437   99.243
  350.500    9.910    0.254    0.428   99.841
  350.750    9.730    0.236    0.422  101.645
  351.000    9.552    0.230    0.419  104.050
  351.250    9.553    0.215    0.424  105.855
  351.500    9.378    0.227    0.434  107.658
  351.750    9.379    0.225    0.438  110.065
  352.000    9.208    0.231    0.434  112.472
  352.250    9.209    0.232    0.428  116.082
  352.500    9.210    0.225    0.422  117.886
  352.750    9.212    0.233    0.419  115.473
  353.000    9.385    0.243    0.421  111.853
  353.250    9.386    0.255    0.422  110.645
  353.500    9.743    0.265    0.422  110.041
  353.750   10.303    0.269    0.412  108.230
  354.000   10.496    0.271    0.403  105.818
  354.250   10.896    0.261    0.397  102.802
  354.500   11.309    0.257    0.394   98.582
  354.750   11.310    0.251    0.404   95.567
  355.000   11.524    0.247    0.418   95.563
  355.250   11.741    0.250    0.433   95.560
  355.500   11.526    0.269    0.445   95.557
  355.750   11.528    0.277    0.448  101.577
  356.000   11.746    0.279    0.445  106.995
  356.250   11.968    0.274    0.444  102.172
  356.500   12.193    0.283    0.448   99.158
  356.750   12.195    0.286    0.450   93.732
  357.000   12.196    0.291    0.454   90.716
  357.250   11.753    0.283    0.455   93.123
  357.500   10.712    0.279    0.455   97.337
  357.750   10.133    0.271    0.454  100.345
  358.000    9.066    0.256    0.454  105.161
  358.250    8.111    0.247    0.470  111.181
  358.500    7.123    0.262    0.484  115.395
  358.750    6.492    0.278    0.505  115.391
  359.000    6.615    0.291    0.497  109.966
  359.250    7.534    0.306    0.474  102.131
  359.500    8.581    0.312    0.449   95.501
  359.750    9.244    0.302    0.432   90.077
  360.000   10.144    0.291    0.426   84.050
  360.250   10.530    0.280    0.437   97.297
  360.500   10.728    0.268    0.444  100.307
  360.750   10.730    0.262    0.444  102.714
  361.000   10.932    0.279    0.440  100.903
  361.250   10.933    0.294    0.436   97.285
  361.500   10.734    0.297    0.430   96.679
  361.750   10.735    0.291    0.423   98.483
  362.000   10.539    0.271    0.418  102.695
  362.250   10.157    0.259    0.418  105.704
  362.500    9.971    0.254    0.425  109.316
  362.750    9.788    0.261    0.431  113.529
  363.000    9.789    0.273    0.440  115.936
  363.250    9.611    0.281    0.453  117.137
  363.500    9.436    0.273    0.460  117.736
  363.750    9.437    0.260    0.469  116.527
  364.000    9.264    0.244    0.469  114.717
  364.250    9.265    0.231    0.456  113.507
  364.500    9.096    0.212    0.453  114.108
  364.750    8.765    0.204    0.455  116.513
  365.000    7.989    0.205    0.464  116.511
  365.250    7.699    0.208    0.469  112.892
  365.500    7.282    0.226    0.476  111.082
  365.750    6.762    0.232    0.483  109.272
  366.000    6.638    0.242    0.491  108.063
  366.250    6.517    0.249    0.493  108.662
  366.500    6.518    0.251    0.494  109.863
  366.750    6.641    0.257    0.495  109.859
  367.000    6.766    0.263    0.485  109.857
  367.250    7.023    0.270    0.483  108.046
  367.500    7.290    0.281    0.475  106.236
  367.750    8.000    0.313    0.461  102.016
  368.000    9.112    0.349    0.453   98.398
  368.250    9.815    0.367    0.453   93.575
  368.500   10.974    0.386    0.461   91.162
  368.750   11.604    0.383    0.464   86.941
  369.000   12.501    0.358    0.469   84.529
  369.250   13.466    0.340    0.470   82.116
  369.500   14.240    0.330    0.470   80.305
  369.750   14.508    0.325    0.471   79.097
  370.000   15.059    0.318    0.469   81.503
  370.250   15.342    0.309    0.474   81.500
  370.500   15.346    0.305    0.474   77.279
  370.750   15.635    0.300    0.469   73.661
  371.000   15.637    0.300    0.464   71.248
  371.250   15.638    0.310    0.462   68.835
  371.500   15.933    0.322    0.464   66.422
  371.750   15.643    0.333    0.469   65.215
  372.000   15.644    0.343    0.466   70.029
  372.250   15.076    0.347    0.460   71.231
  372.500   14.800    0.352    0.454   72.433
  372.750   14.530    0.362    0.451   74.237
  373.000   14.002    0.366    0.450   71.824
  373.250   14.004    0.369    0.454   68.205
  373.500   14.006    0.370    0.463   66.998
  373.750   14.270    0.412    0.438   68.200
  374.000   15.090    0.283    0.362   68.799
  374.250   15.374    0.251    0.310   65.180
  374.500   16.873    0.282    0.282   63.369
  374.750   17.190    0.327    0.338   63.969
  375.000   17.514    0.341    0.369   66.375
  375.250   17.195    0.342    0.399   69.985
  375.500   16.880    0.340    0.429   72.391
  375.750   15.674    0.328    0.440   73.594
  376.000   14.286    0.318    0.444   76.000
  376.250   13.767    0.311    0.450   77.202
  376.500   12.783    0.318    0.453   77.800
  376.750   12.550    0.330    0.456   75.990
  377.000   12.551    0.335    0.454   73.576
  377.250   12.552    0.342    0.450   72.971
  377.500   12.554    0.346    0.447   73.569
  377.750   12.556    0.333    0.453   75.975
  378.000   12.557    0.328    0.451   78.382
  378.250   12.560    0.334    0.447   81.390
  378.500   12.330    0.334    0.459   81.990
  378.750   12.331    0.320    0.464   83.191
  379.000   12.333    0.312    0.468   83.186
  379.250   12.334    0.312    0.465   83.184
  379.500   12.108    0.314    0.456   83.783
  379.750   11.454    0.324    0.463   85.587
  380.000   11.038    0.333    0.471   84.981
  380.250   10.441    0.340    0.485   84.375
  380.500   10.442    0.350    0.492   84.974
  380.750   10.444    0.340    0.497   86.778
  381.000   10.641    0.328    0.499   88.582
  381.250   10.841    0.323    0.498   86.168
  381.500   11.253    0.328    0.493   84.358
  381.750   11.680    0.327    0.473   83.752
