~VERSION INFORMATION
 VERS.                 2.0:   CWLS LOG ASCII STANDARD -VERSION 2.0
 WRAP.                  NO:   ONE LINE PER DEPTH STEP
~WELL INFORMATION BLOCK
#MNEM.UNIT           DATA                    DESCRIPTION OF MNEMONIC
#---------    -------------------            -------------------------------
# Generated from Intellog Unique Number	CW_70_72/WELL/3015
NULL.         -999.25                        : NULL_VALUE
WELL.         CHIEFCO POR ET AL DANCING 07-0 : Well_name    - WELL              
LOC .         07-01-070-27W4                 : Location     - LOCATION          
UWI .         00/07-01-070-27W4/0            : Uwi          - UNIQUE WELL ID    
ENTR.         J                              : Entered      - ENTERED BY        
SRVC.         SCHLUMBERGER                   : Scn          - SERVICE COMPANY   
DATE.         20 DEC 75                      : Date         - LOG DATE          
STRT.M        484.632                        : top_depth    - START DEPTH       
STOP.M        737.632                        : bot_depth    - STOP DEPTH        
STEP.M        0.25                           : increment    - STEP LENGTH       
~CURVE INFORMATION BLOCK
#MNEM UNIT       ERCB CURVE CODE    CURVE DESCRIPTION
#-----------   ------------------   ----------------------------------
DEPT.M        00 001 00 00         : DEPTH        - DEPTH                       
ILD .OHMM     00 120 00 00         : RESD         - DEEP RESISTIVITY (DIL)      
CALI.MM       00 280 01 00         : CAL          - CALIPER                     
GR  .API      00 310 00 00         : GR           - GAMMA RAY                   
NPHI.V/V      00 330 00 00         : PHIN         - NEUTRON POROSITY (SANDSTONE)
DPHI.V/V      00 890 00 00         : PHID         - DENSITY POROSITY (SANDSTONE)
~PARAMETER INFORMATION       
#MNEM.UNIT           DATA             DESCRIPTION OF MNEMONIC
#---------         -----------     ------------------------------
GL  .M        648.005              : gl           - GROUND LEVEL ELEVATION      
EREF.M        650.748              : kb           - ELEVATION OF DEPTH REFERENCE
DATM.M        648.005              : datum        - DATUM ELEVATION             
TDD .M        754.38               : tdd          - TOTAL DEPTH DRILLER         
RUN .         ONE                  : Run          - RUN NUMBER                  
ENG .         ROBSON               : Engineer     - RECORDING ENGINEER          
BASE.         RD                   : Branch       - HOME BASE OF LOGGING UNIT   
MUD .         GEL                  : Mud_type     - MUD TYPE                    
MATR.         SANDSTONE            : Logunit      - NEUTRON MATRIX              
TMAX.C        27.7778              : BHT          - MAXIMUM RECORDED TEMPERATURE
BHTD.M        754.075              : BHTDEP       - MAXIMUM RECORDED TEMPERATURE
RMT .C        17.7778              : MDTP         - TEMPERATURE OF MUD          
MUDD.KG/M     1176                 : MWT          - MUD DENSITY                 
NEUT.         1                    : NEUTRON      - NEUTRON TYPE                
RESI.         0                    : RESIST       - RESISTIVITY TYPE            
RM  .OHMM     3.72                 : RM           - RESISTIVITY OF MUD          
RMC .OHMM     2.5                  : RMC          - RESISTIVITY OF MUD CAKE     
RMF .OHMM     4.21                 : RMF          - RESISTIVITY OF MUD FILTRATE 
SUFT.C        -17.7778             : SUFT         - SURFACE TEMPERATURE         
~A  DEPTH     RESD      CAL       GR     PHIN     PHID
# ...
  703.632    6.455  156.818   93.785    0.386    0.137
  703.882    6.999  156.955   95.630    0.369    0.141
  704.132    7.505  158.021   89.343    0.332    0.110
  704.382    7.803  159.291   79.235    0.310    0.063
  704.632    7.809  160.257   69.553    0.263    0.039
  704.882    7.270  160.905   91.105    0.244    0.002
  705.132    6.397  160.744  108.109    0.367   -0.007
  705.382    5.558  160.467  115.288    0.408    0.140
  705.632    5.665  159.994  119.190    0.416    0.165
  705.882    5.955  159.823  110.356    0.414    0.130
  706.132    6.114  159.146   99.951    0.398    0.111
  706.382    6.197  158.354   94.329    0.373    0.102
  706.632    6.125  155.721   85.738    0.381    0.116
  706.882    5.849  153.393   70.961    0.348    0.211
  707.132    5.564  151.377   67.464    0.325    0.226
  707.382    5.226  150.083   68.033    0.315    0.193
  707.632    4.918  154.227   65.203    0.338    0.179
  707.882    4.757  158.167   63.770    0.344    0.227
  708.132    4.964  158.509   69.674    0.331    0.237
  708.382    5.208  150.225   73.701    0.320    0.206
  708.632    5.386  144.819   77.663    0.332    0.181
  708.882    5.333  147.221   81.993    0.321    0.168
  709.132    5.147  152.598   84.742    0.299    0.176
  709.382    4.861  156.226   90.771    0.299    0.161
  709.632    4.616  157.810   87.698    0.313    0.152
  709.882    4.384  157.123   78.989    0.328    0.154
  710.132    4.194  156.346   73.852    0.335    0.183
  710.382    4.041  156.066   69.567    0.331    0.196
  710.632    3.872  156.212   67.648    0.328    0.173
  710.882    3.744  156.245   68.096    0.326    0.171
  711.132    3.601  154.543   73.153    0.328    0.196
  711.382    3.476  151.905   74.631    0.332    0.215
  711.632    3.455  149.372   74.952    0.331    0.199
  711.882    3.501  146.945   75.585    0.329    0.182
  712.132    3.837  148.623   77.187    0.329    0.194
  712.382    4.198  150.817   78.840    0.331    0.208
  712.632    4.634  151.273   84.080    0.331    0.177
  712.882    5.033  151.507   88.283    0.336    0.131
  713.132    5.214  152.467   93.037    0.333    0.106
  713.382    5.182  154.665   83.903    0.311    0.086
  713.632    5.065  156.241   77.616    0.313    0.098
  713.882    4.961  157.203   73.333    0.320    0.150
  714.132    4.816  158.164   75.962    0.328    0.182
  714.382    4.724  158.816   81.382    0.323    0.177
  714.632    4.535  159.477   86.254    0.316    0.170
  714.882    4.299  160.236   92.280    0.307    0.161
  715.132    4.082  160.467   85.145    0.301    0.140
  715.382    3.773  160.608   78.555    0.319    0.134
  715.632    3.628  159.718   70.694    0.325    0.155
  715.882    3.605  158.726   68.653    0.315    0.162
  716.132    3.846  157.637   79.289    0.306    0.153
  716.382    4.079  156.649   86.531    0.295    0.111
  716.632    4.358  154.936   92.795    0.295    0.088
  716.882    4.573  149.529   99.975    0.309    0.079
  717.132    4.586  147.824   98.117    0.318    0.073
  717.382    4.253  148.684   92.686    0.312    0.096
  717.632    3.709  152.724   88.213    0.301    0.100
  717.882    3.153  155.736   77.802    0.290    0.119
  718.132    2.374  157.626   68.605    0.308    0.150
  718.382    2.189  158.585   59.226    0.353    0.179
  718.632    2.009  158.624   58.525    0.338    0.219
  718.882    2.190  158.557   59.999    0.338    0.253
  719.132    2.479  158.076   62.144    0.361    0.249
  719.382    2.912  158.017   61.678    0.342    0.221
  719.632    3.462  158.150   62.127    0.302    0.190
  719.882    3.949  158.198   68.095    0.281    0.152
  720.132    4.048  158.129   71.753    0.285    0.142
  720.382    4.058  158.161   74.263    0.295    0.146
  720.632    4.033  157.596   75.316    0.307    0.140
  720.882    3.985  157.623   77.524    0.307    0.131
  721.132    4.047  157.965   80.148    0.311    0.116
  721.382    4.263  158.307   84.840    0.325    0.128
  721.632    4.448  158.655   88.987    0.330    0.168
  721.882    4.469  159.001   92.707    0.315    0.177
  722.132    4.251  159.348   97.826    0.309    0.144
  722.382    3.816  159.385  104.642    0.322    0.111
  722.632    3.488  159.728  110.242    0.394    0.094
  722.882    3.160  160.076  105.775    0.354    0.081
  723.132    2.952  160.106   89.238    0.317    0.055
  723.382    2.870  160.142   79.861    0.280    0.027
  723.632    2.936  160.501   79.162    0.276    0.041
  723.882    3.172  160.627   79.967    0.302    0.054
  724.132    3.414  160.873   85.082    0.299    0.021
  724.382    3.687  161.221   98.568    0.309    0.077
  724.632    4.049  161.363  111.506    0.326    0.128
  724.882    4.209  161.603  118.140    0.364    0.108
  725.132    3.919  161.740  120.107    0.400    0.105
  725.382    3.511  162.092  115.696    0.387    0.116
  725.632    3.152  161.924  110.023    0.371    0.104
  725.882    2.971  161.951  106.827    0.370    0.085
  726.132    3.146  161.785  106.788    0.396    0.010
  726.382    3.694  161.511  112.326    0.415    0.078
  726.632    4.229  161.342  116.595    0.422    0.106
  726.882    4.405  159.747  118.743    0.385    0.102
  727.132    3.919  159.267  119.068    0.349    0.096
  727.382    3.230  159.196  118.842    0.348    0.087
  727.632    2.777  159.036  117.353    0.361    0.082
  727.882    2.794  159.268  115.921    0.379    0.078
  728.132    3.164  159.000  114.604    0.394    0.055
  728.382    3.487  159.036  119.479    0.437   -0.002
  728.632    3.705  159.072  125.684    0.476    0.038
  728.882    3.635  159.106  132.741    0.461    0.102
  729.132    3.118  159.149  125.242    0.429    0.110
  729.382    2.125  159.500  117.075    0.406    0.077
  729.632    1.526  159.938  111.943    0.392    0.029
  729.882    1.569  160.182  118.333    0.417    0.003
  730.132    1.836  160.427  112.656    0.405    0.026
  730.382    1.987  160.868  103.214    0.409   -0.010
  730.632    1.803  161.214  116.216    0.439   -0.009
  730.882    1.522  161.562  125.091    0.448    0.087
  731.132    1.399  161.297  129.784    0.466    0.103
  731.382    1.405  161.323  121.983    0.461    0.083
  731.632    1.467  160.855  107.022    0.445    0.043
  731.882    1.593  159.961  116.505    0.434    0.017
  732.132    1.755  154.554  122.350    0.418    0.057
  732.382    1.952  154.384  118.915    0.412    0.078
  732.632    2.147  156.477  113.602    0.399    0.107
  732.882    2.344  159.289  111.134    0.413    0.060
  733.132    2.583  160.967  104.849    0.403    0.014
  733.382    2.841  161.725  114.271    0.416   -0.010
  733.632    3.064  162.074  117.873    0.432    0.048
  733.882    3.250  162.109  118.201    0.450    0.084
  734.132    3.361  162.153  119.128    0.472    0.065
  734.382    3.274  162.182  120.668    0.503    0.047
  734.632    3.165  162.218  120.751    0.517    0.030
  734.882    3.095  162.254  119.194    0.492    0.044
  735.132    3.177  162.499  113.757    0.478    0.070
  735.382    3.364  162.222  105.109    0.488    0.057
  735.632    3.504  161.953   99.062    0.486    0.065
  735.882    3.565  161.680   91.203    0.462    0.070
  736.132    3.454  160.588   68.538    0.431    0.059
  736.382    3.262  156.623   52.124    0.383    0.039
  736.632    3.081  151.419   34.860    0.366    0.031
  736.882    2.852  148.382   24.146    0.358    0.057
  737.132    2.496  152.005   19.259    0.365    0.090
  737.382    2.189  156.364   18.977    0.386    0.104
  737.632    1.874  157.832   18.510    0.412    0.140
