~VERSION INFORMATION
 VERS.                 2.0:   CWLS LOG ASCII STANDARD -VERSION 2.0
 WRAP.                  NO:   ONE LINE PER DEPTH STEP
~WELL INFORMATION BLOCK
#MNEM.UNIT           DATA                    DESCRIPTION OF MNEMONIC
#---------    -------------------            -------------------------------
# Generated from Intellog Unique Number	CS_67_68/WELL/954
WELL.         NOVALTA TWEEDIE                : Well_name    - WELL
LOC .         00/05-04-068-11W4/0            : Location     - LOCATION
UWI .         00/05-04-068-11W4/0            : Uwi          - UNIQUE WELL ID
ENTR.         T                              : Entered      - ENTERED BY
SRVC.         SCHLUMBERGER                   : Scn          - SERVICE COMPANY
STRT.M        300                            : top_depth    - START DEPTH
STOP.M        515                            : bot_depth    - STOP DEPTH
STEP.M        0.25                           : increment    - STEP LENGTH
 NULL. -999.2500:NULL Value
~CURVE INFORMATION BLOCK
#MNEM UNIT       ERCB CURVE CODE    CURVE DESCRIPTION
#-----------   ------------------   ----------------------------------
DEPT.M        00 001 00 00         : DEPTH        - DEPTH
GR  .API      00 310 00 00         : GR           - GAMMA RAY
CALI.MM       00 280 01 00         : CAL          - CALIPER
NPHI.V/V      00 330 00 00         : PHIN         - NEUTRON POROSITY (SANDSTONE)
DPHI.V/V      00 890 00 00         : PHID         - DENSITY POROSITY (SANDSTONE)
ILD .OHMM     00 120 00 00         : RESD         - DEEP RESISTIVITY (DLL)
~PARAMETER INFORMATION
#MNEM.UNIT           DATA             DESCRIPTION OF MNEMONIC
#---------         -----------     ------------------------------
GL  .M        613.7                : gl           - GROUND LEVEL ELEVATION
EREF.M        617                  : kb           - ELEVATION OF DEPTH REFERENCE
DATM.M        617                  : datum        - DATUM ELEVATION
TDD .M        515                  : tdd          - TOTAL DEPTH DRILLER
RUN .         ONE                  : Run          - RUN NUMBER
ENG .         BILL                 : Engineer     - RECORDING ENGINEER
WIT .         JIM                  : Witness      - WITNESSED BY
MUD .         GEL                  : Mud_type     - MUD TYPE
MATR.         SANDSTONE            : Logunit      - NEUTRON MATRIX
TMAX.C        5                    : BHT          - MAXIMUM RECORDED TEMPERATURE
BHTD.M        25                   : BHTDEP       - MAXIMUM RECORDED TEMPERATURE
RMT .C        515                  : MDTP         - TEMPERATURE OF MUD
MUDD.KG/M     17                   : MWT          - MUD DENSITY
NEUT.         1100                 : NEUTRON      - NEUTRON TYPE
RESI.         1                    : RESIST       - RESISTIVITY TYPE
RM  .OHMM     0                    : RM           - RESISTIVITY OF MUD
RMC .OHMM     2.6                  : RMC          - RESISTIVITY OF MUD CAKE
RMF .OHMM     2.6                  : RMF          - RESISTIVITY OF MUD FILTRATE
SUFT.C        2.7                  : SUFT         - SURFACE TEMPERATURE
SUFT.C        15                   : SUFT         - SURFACE TEMPERATURE
~A  DEPTH       GR      CAL     PHIN     PHID     RESD
# ...
  446.000   95.241  162.583    0.414    0.207    4.121
  446.250   96.425  162.586    0.419    0.211    4.052
  446.500   95.853  162.590    0.423    0.212    4.058
  446.750   95.275  162.594    0.425    0.213    3.991
  447.000   94.700  162.598    0.427    0.213    3.994
  447.250   94.126  161.617    0.426    0.209    4.001
  447.500   91.206  161.621    0.405    0.201    4.155
  447.750   84.771  161.624    0.360    0.177    4.998
  448.000   70.716  161.629    0.317    0.035    6.350
  448.250   64.866  161.632    0.219    0.023    7.498
  448.500   61.947  161.636    0.252    0.036    7.508
  448.750   78.369  160.658    0.323    0.062    6.495
  449.000   87.174  160.663    0.366    0.111    5.618
  449.250   89.533  160.664    0.397    0.185    4.860
  449.500   89.544  160.668    0.419    0.205    4.361
  449.750   90.725  160.671    0.431    0.213    4.134
  450.000   93.081  160.675    0.429    0.216    4.067
  450.250   93.092  160.680    0.420    0.207    4.072
  450.500   93.109  160.682    0.421    0.199    4.076
  450.750   93.701  160.687    0.415    0.191    4.082
  451.000   94.301  159.708    0.409    0.182    4.089
  451.250   94.895  159.710    0.407    0.197    4.097
  451.500   96.665  159.716    0.402    0.223    4.101
  451.750   97.268  159.719    0.401    0.232    4.110
  452.000   95.521  159.723    0.408    0.218    4.113
  452.250   92.605  159.727    0.416    0.205    4.118
  452.500   90.269  159.730    0.408    0.200    4.124
  452.750   89.694  159.733    0.391    0.191    4.130
  453.000   93.219  159.739    0.393    0.174    4.064
  453.250   99.091  159.741    0.406    0.185    3.994
  453.500   97.344  158.763    0.422    0.222    3.999
  453.750   93.839  157.782    0.426    0.206    3.935
  454.000   90.334  156.802    0.415    0.194    3.866
  454.250   89.759  155.824    0.404    0.206    3.873
  454.500   93.287  153.862    0.405    0.223    3.878
  454.750   93.298  152.882    0.415    0.238    3.883
  455.000   89.796  152.886    0.425    0.238    3.888
  455.250   96.254  151.905    0.428    0.234    3.970
  455.500  103.299  150.926    0.412    0.231    3.974
  455.750  103.313  149.946    0.394    0.226    4.052
  456.000  100.393  149.951    0.394    0.219    4.058
  456.250   97.474  148.970    0.410    0.216    4.063
  456.500   95.138  147.993    0.422    0.205    4.071
  456.750   90.467  147.995    0.431    0.197    4.075
  457.000   88.128  147.999    0.424    0.188    4.156
  457.250   84.623  147.019    0.412    0.179    4.239
  457.500   86.981  147.023    0.394    0.171    4.168
  457.750   90.506  147.028    0.398    0.175    4.100
  458.000   90.523  147.031    0.406    0.194    4.030
  458.250   87.018  149.002    0.417    0.213    3.892
  458.500   82.341  150.972    0.409    0.201    3.827
  458.750   78.246  151.959    0.341    0.185    4.048
  459.000   79.430  152.944    0.324    0.200    4.442
  459.250   84.716  153.931    0.340    0.231    4.449
  459.500   90.588  154.919    0.361    0.240    4.141
  459.750   94.705  155.906    0.376    0.249    3.854
  460.000   94.719  155.909    0.405    0.258    3.458
  460.250   94.725  156.897    0.476    0.267    2.937
  460.500   94.736  156.900    0.503    0.262    2.405
  460.750   95.334  155.922    0.478    0.257    2.042
  461.000   97.106  154.941    0.468    0.252    1.901
  461.250  100.634  153.962    0.457    0.245    1.940
  461.500  102.992  152.982    0.457    0.237    1.978
  461.750  102.417  151.021    0.469    0.232    2.094
  462.000  102.429  150.042    0.488    0.234    2.134
  462.250  104.198  150.043    0.477    0.241    2.176
  462.500  105.382  150.048    0.469    0.247    2.220
  462.750  104.804  150.051    0.465    0.250    2.224
  463.000  104.229  151.039    0.467    0.251    2.226
  463.250  105.416  151.043    0.468    0.247    2.230
  463.500  106.013  152.030    0.464    0.236    2.275
  463.750  106.613  153.017    0.457    0.236    2.278
  464.000  105.450  154.004    0.454    0.234    2.326
  464.250  101.361  154.990    0.459    0.227    2.327
  464.500   97.270  154.993    0.465    0.215    2.373
  464.750   94.351  155.981    0.469    0.211    2.420
  465.000   95.534  155.986    0.474    0.241    2.469
  465.250   97.304  155.988    0.482    0.247    2.614
  465.500   97.315  155.993    0.494    0.253    2.665
  465.750   94.979  155.996    0.481    0.251    2.716
  466.000   94.404  155.998    0.458    0.241    2.929
  466.250   94.416  156.004    0.439    0.234    3.041
  466.500   94.427  155.023    0.466    0.231    3.160
  466.750   94.438  155.028    0.470    0.222    3.343
  467.000   95.622  155.032    0.442    0.212    3.540
  467.250  100.911  155.034    0.425    0.195    3.542
  467.500  105.028  155.038    0.439    0.195    3.679
  467.750  106.208  155.042    0.455    0.195    3.751
  468.000  101.531  155.045    0.441    0.172    3.898
  468.250   95.095  155.049    0.415    0.166    3.974
  468.500   92.762  154.070    0.398    0.141    4.055
  468.750   95.704  154.073    0.389    0.140    4.136
  469.000   99.232  154.078    0.399    0.150    4.218
  469.250  102.762  154.081    0.405    0.158    4.224
  469.500  103.360  155.069    0.404    0.164    3.860
  469.750  105.132  155.073    0.416    0.167    3.465
  470.000  107.488  156.060    0.454    0.173    3.283
  470.250  109.843  156.062    0.493    0.179    3.115
  470.500  107.513  157.050    0.517    0.187    3.060
  470.750  105.763  157.054    0.528    0.193    2.901
  471.000  106.361  157.058    0.523    0.172    2.801
  471.250  106.375  157.060    0.521    0.172    2.754
  471.500  106.383  157.064    0.511    0.189    2.708
  471.750  106.978  157.068    0.493    0.201    2.662
  472.000  108.164  156.090    0.472    0.207    2.618
  472.250  109.934  156.095    0.461    0.209    2.622
  472.500  114.048  156.096    0.487    0.204    2.626
  472.750  119.334  156.100    0.505    0.202    2.679
  473.000  117.001  156.104    0.490    0.198    2.731
  473.250   96.496  156.107    0.473    0.193    2.837
  473.500   84.200  157.094    0.407    0.184    3.003
  473.750   77.178  157.100    0.334    0.167    3.417
  474.000   95.361  156.119    0.326    0.131    3.682
  474.250  102.991  156.122    0.409    0.162    3.756
  474.500  109.450  155.144    0.433    0.172    3.902
  474.750  109.461  155.147    0.456    0.187    3.979
  475.000  100.681  155.151    0.407    0.198    4.366
  475.250   88.384  155.155    0.371    0.179    5.450
  475.500   81.362  155.158    0.329    0.152    6.202
  475.750   73.754  155.165    0.302    0.118    7.595
  476.000   67.319  155.167    0.296    0.088    9.134
  476.250   62.055  155.169    0.289    0.084   11.397
  476.500   59.725  155.174    0.283    0.077   12.973
  476.750   59.736  155.177    0.255    0.059   13.730
  477.000   60.334  155.180    0.229    0.065   13.251
  477.250   65.037  155.184    0.242    0.094   11.255
  477.500   69.734  155.189    0.287    0.102    9.559
  477.750   78.536  155.194    0.321    0.120    7.685
  478.000   82.064  155.196    0.327    0.140    6.409
  478.250   80.320  156.183    0.338    0.157    5.447
  478.500   66.849  156.187    0.348    0.197    5.160
  478.750   48.105  156.191    0.346    0.256    4.716
  479.000   41.086  157.178    0.361    0.294    4.233
  479.250   41.097  157.181    0.371    0.306    3.939
  479.500   41.108  157.184    0.375    0.306    3.734
  479.750   42.881  157.188    0.367    0.303    3.541
  480.000   44.059  157.191    0.352    0.299    3.479
  480.250   48.175  157.195    0.345    0.292    3.360
  480.500   51.700  157.199    0.352    0.287    3.364
  480.750   59.334  158.187    0.357    0.279    3.370
  481.000   64.623  158.190    0.368    0.272    3.373
  481.250   67.562  159.179    0.355    0.257    3.504
  481.500   71.679  159.181    0.328    0.219    3.709
  481.750   73.445  159.186    0.323    0.163    3.997
  482.000   77.559  159.188    0.327    0.149    4.229
  482.250   81.673  159.193    0.340    0.184    4.472
