~VERSION INFORMATION
 VERS.                 2.0:   CWLS LOG ASCII STANDARD -VERSION 2.0
 WRAP.                  NO:   ONE LINE PER DEPTH STEP
~WELL INFORMATION BLOCK
#MNEM.UNIT           DATA                    DESCRIPTION OF MNEMONIC
#---------    -------------------            -------------------------------
# Generated from Intellog Unique Number	CS_73_76/WELL/2172
WELL.         BOW VALLEY INDUSTRIES LTD      : Well_name    - WELL
LOC .         00/06-34-074-16W4/0            : Location     - LOCATION
UWI .         00/06-34-074-16W4/0            : Uwi          - UNIQUE WELL ID
ENTR.         SP                             : Entered      - ENTERED BY
SRVC.         SCHLUMBERGER                   : Scn          - SERVICE COMPANY
STRT.M        316.992                        : top_depth    - START DEPTH
STOP.M        517.992                        : bot_depth    - STOP DEPTH
STEP.M        0.25                           : increment    - STEP LENGTH
 NULL. -999.2500:NULL Value
~CURVE INFORMATION BLOCK
#MNEM UNIT       ERCB CURVE CODE    CURVE DESCRIPTION
#-----------   ------------------   ----------------------------------
DEPT.M        00 001 00 00         : DEPTH        - DEPTH
GR  .API      00 310 00 00         : GR           - GAMMA RAY
DPHI.V/V      00 890 00 00         : PHID         - DENSITY POROSITY (SANDSTONE)
NPHI.V/V      00 330 00 00         : PHIN         - NEUTRON POROSITY (SANDSTONE)
ILD .OHMM     00 120 00 00         : RESD         - DEEP RESISTIVITY (DIL)
~PARAMETER INFORMATION
#MNEM.UNIT           DATA             DESCRIPTION OF MNEMONIC
#---------         -----------     ------------------------------
GL  .M        666.902              : gl           - GROUND LEVEL ELEVATION
EREF.M        669.95               : kb           - ELEVATION OF DEPTH REFERENCE
DATM.M        666.902              : datum        - DATUM ELEVATION
TDD .M        521.513              : tdd          - TOTAL DEPTH DRILLER
RUN .         ONE                  : Run          - RUN NUMBER
ENG .         BILL                 : Engineer     - RECORDING ENGINEER
WIT .         JIM                  : Witness      - WITNESSED BY
MUD .         GEL                  : Mud_type     - MUD TYPE
MATR.         SANDSTONE            : Logunit      - NEUTRON MATRIX
TMAX.C        28.8889              : BHT          - MAXIMUM RECORDED TEMPERATURE
BHTD.M        521.513              : BHTDEP       - MAXIMUM RECORDED TEMPERATURE
MATR.         1                    : LOGUNIT      - NEUTRON MATRIX
RMT .C        25                   : MDTP         - TEMPERATURE OF MUD
NEUT.         1                    : NEUTRON      - NEUTRON TYPE
RESI.         0                    : RESIST       - RESISTIVITY TYPE
RMC .OHMM     0.25                 : RMC          - RESISTIVITY OF MUD CAKE
RMF .OHMM     0.25                 : RMF          - RESISTIVITY OF MUD FILTRATE
SUFT.C        15                   : SUFT         - SURFACE TEMPERATURE
~A  DEPTH       GR     PHID     PHIN     RESD
# ...
  447.492  108.581    0.224    0.467    5.368
  447.742  108.071    0.224    0.476    5.597
  447.992  107.172    0.247    0.519    6.002
  448.242  104.616    0.264    0.488    6.435
  448.492  100.084    0.243    0.463    6.830
  448.742  100.373    0.209    0.437    7.240
  448.992  102.516    0.219    0.459    7.507
  449.242  101.598    0.223    0.482    7.380
  449.492  101.334    0.248    0.495    7.301
  449.742   89.303    0.228    0.461    7.210
  449.992   80.523    0.203    0.352    7.068
  450.242   84.539    0.168    0.352    7.109
  450.492   90.566    0.186    0.400    7.193
  450.742   95.395    0.250    0.460    7.321
  450.992   94.198    0.252    0.471    7.467
  451.242   89.687    0.246    0.411    7.447
  451.492   89.066    0.235    0.381    7.441
  451.742   90.769    0.197    0.397    7.436
  451.992   89.732    0.234    0.415    7.443
  452.242   89.354    0.248    0.432    7.283
  452.492   93.781    0.256    0.440    7.133
  452.742   95.670    0.275    0.431    6.784
  452.992   97.983    0.281    0.429    6.513
  453.242  101.346    0.279    0.418    6.046
  453.492  101.447    0.253    0.425    5.633
  453.742   94.173    0.233    0.444    5.471
  453.992   84.877    0.272    0.466    5.400
  454.242   91.251    0.283    0.436    5.398
  454.492  101.114    0.271    0.420    5.408
  454.742  106.524    0.238    0.438    5.568
  454.992  104.461    0.225    0.463    5.858
  455.242  102.897    0.227    0.453    6.018
  455.492   98.884    0.244    0.458    5.932
  455.742   95.268    0.264    0.465    5.586
  455.992   94.747    0.270    0.472    5.367
  456.242   94.696    0.269    0.471    5.355
  456.492   95.675    0.258    0.486    5.471
  456.742   97.667    0.240    0.512    5.455
  456.992   99.880    0.250    0.519    5.629
  457.242   97.919    0.273    0.505    5.673
  457.492   95.065    0.285    0.502    5.755
  457.742   89.609    0.283    0.494    5.750
  457.992   88.914    0.281    0.482    5.744
  458.242   90.860    0.285    0.479    5.742
  458.492   93.613    0.290    0.483    5.782
  458.742   92.601    0.276    0.481    5.836
  458.992   88.925    0.274    0.494    5.834
  459.242   90.787    0.277    0.475    5.829
  459.492   87.513    0.270    0.462    5.824
  459.742   86.075    0.265    0.456    5.894
  459.992   86.772    0.250    0.462    5.921
  460.242   89.811    0.243    0.459    5.919
  460.492   89.239    0.233    0.450    5.914
  460.742   88.187    0.245    0.467    5.906
  460.992   90.973    0.262    0.472    6.003
  461.242   89.384    0.262    0.455    6.009
  461.492   86.240    0.268    0.457    6.006
  461.742   88.834    0.277    0.469    6.002
  461.992   91.142    0.260    0.485    5.998
  462.242   92.343    0.266    0.481    5.992
  462.492   95.912    0.250    0.461    5.989
  462.742   96.371    0.257    0.450    5.983
  462.992   96.906    0.259    0.450    5.979
  463.242   98.227    0.258    0.459    5.975
  463.492   95.124    0.259    0.460    5.972
  463.742   92.873    0.265    0.456    5.965
  463.992   91.763    0.261    0.461    5.900
  464.242   92.899    0.254    0.467    5.838
  464.492   93.391    0.249    0.470    5.649
  464.742   94.983    0.256    0.470    5.432
  464.992   97.548    0.244    0.454    5.212
  465.242   98.282    0.245    0.446    4.889
  465.492  102.497    0.240    0.473    4.730
  465.742  110.109    0.230    0.479    4.583
  465.992  111.631    0.225    0.488    4.770
  466.242  114.984    0.217    0.507    5.209
  466.492  116.049    0.209    0.540    6.004
  466.742   94.182    0.204    0.540    6.447
  466.992   81.009    0.202    0.455    6.893
  467.242   83.584    0.170    0.356    7.449
  467.492   90.050    0.146    0.388    7.929
  467.742   94.817    0.166    0.438    8.231
  467.992   92.687    0.183    0.492    8.493
  468.242   86.543    0.200    0.298    8.516
  468.492   81.599    0.150    0.284    8.335
  468.742   90.085    0.093    0.390    8.043
  468.992   94.983    0.230    0.436    8.753
  469.242   93.294    0.236    0.448   10.184
  469.492   87.702    0.235    0.456   12.751
  469.742   74.212    0.137    0.445   15.432
  469.992   51.379    0.093    0.279   16.464
  470.242   48.339    0.040    0.231   15.274
  470.492   59.319    0.009    0.219   13.268
  470.742   69.185    0.064    0.247   11.978
  470.992   84.827    0.125    0.390   10.350
  471.242   95.474    0.183    0.403    9.184
  471.492   95.518    0.198    0.438    8.384
  471.742   96.439    0.173    0.460    7.947
  471.992  101.600    0.173    0.443    7.961
  472.242  102.003    0.189    0.433    8.198
  472.492  100.673    0.188    0.453    8.390
  472.742  102.010    0.185    0.452    8.697
  472.992  104.043    0.184    0.449    8.850
  473.242  104.035    0.182    0.443    9.672
  473.492  104.503    0.182    0.442   11.276
  473.742  104.047    0.176    0.463   13.345
  473.992   94.814    0.172    0.469   16.152
  474.242   81.955    0.133    0.456   18.470
  474.492   71.595    0.069    0.243   19.410
  474.742   76.944    0.029    0.224   18.356
  474.992   84.855    0.059    0.303   16.596
  475.242   87.100    0.103    0.321   14.049
  475.492   86.000    0.110    0.312   12.265
  475.742   95.233    0.107    0.323   10.587
  475.992  111.790    0.096    0.362    9.292
  476.242  118.197    0.143    0.414    8.964
  476.492  116.366    0.166    0.440    8.600
  476.742  112.904    0.176    0.434    8.430
  476.992  111.067    0.179    0.436    8.440
  477.242  110.576    0.178    0.422    8.434
  477.492  111.698    0.174    0.416    8.428
  477.742  115.116    0.179    0.416    8.420
  477.992  118.775    0.199    0.416    8.411
  478.242  115.634    0.189    0.408    8.404
  478.492  116.454    0.202    0.429    8.239
  478.742  117.942    0.192    0.406    8.251
  478.992  115.154    0.188    0.408    8.090
  479.242  112.731    0.200    0.412    8.083
  479.492  106.433    0.194    0.416    8.074
  479.742  100.631    0.184    0.431    8.068
  479.992   96.903    0.173    0.393    8.028
  480.242  103.213    0.170    0.403    7.242
  480.492  107.424    0.180    0.425    6.222
  480.742  110.821    0.183    0.420    5.139
  480.992  113.287    0.192    0.411    3.935
  481.242  111.189    0.214    0.463    3.043
  481.492  109.460    0.224    0.506    2.714
  481.742  107.304    0.245    0.546    2.560
  481.992  106.205    0.261    0.552    2.484
  482.242  109.464    0.254    0.533    2.415
  482.492  110.784    0.241    0.510    2.417
  482.742  113.839    0.224    0.482    2.438
  482.992  114.471    0.230    0.493    2.601
  483.242  115.876    0.238    0.521    3.028
  483.492  119.909    0.212    0.552    3.496
  483.742  117.018    0.197    0.579    3.860
  483.992  108.710    0.175    0.583    4.569
  484.242   97.205    0.131    0.395    5.473
  484.492  101.567    0.135    0.355    6.284
  484.742  110.420    0.152    0.374    7.218
  484.992  114.142    0.160    0.417    8.071
  485.242  109.838    0.147    0.453    8.381
  485.492   97.437    0.092    0.398    8.546
  485.742   94.574    0.055    0.338    8.528
  485.992  100.323    0.109    0.356    8.523
  486.242  106.890    0.142    0.424    8.508
  486.492  100.753    0.166    0.450    8.720
  486.742   92.048    0.155    0.384    9.124
  486.992   95.473    0.136    0.352    9.341
  487.242  100.173    0.120    0.402    9.113
  487.492   99.662    0.141    0.417    8.660
  487.742  102.411    0.146    0.406    8.608
  487.992  111.411    0.153    0.436    8.160
  488.242  104.512    0.177    0.440    8.165
  488.492   95.406    0.161    0.426    8.152
  488.742   95.052    0.133    0.400    8.147
  488.992   99.717    0.099    0.376    8.153
  489.242  105.239    0.124    0.401    7.949
  489.492  108.011    0.148    0.420    7.712
  489.742  110.121    0.145    0.427    7.501
  489.992  106.742    0.126    0.420    6.956
  490.242  100.455    0.112    0.422    6.559
  490.492  107.396    0.101    0.422    6.205
  490.742  114.503    0.142    0.432    6.026
