~VERSION INFORMATION
 VERS.                 2.0:   CWLS LOG ASCII STANDARD -VERSION 2.0
 WRAP.                  NO:   ONE LINE PER DEPTH STEP
~WELL INFORMATION BLOCK
#MNEM.UNIT           DATA                    DESCRIPTION OF MNEMONIC
#---------    -------------------            -------------------------------
# Generated from Intellog Unique Number	nealta/WELL/2348
WELL.         CDN-SUP MARTEN 07-01           : Well_name    - WELL
LOC .         07-01-077-03W5                 : Location     - LOCATION
UWI .         00/07-01-077-03W5/0            : Uwi          - UNIQUE WELL ID
ENTR.         JAYE                           : Entered      - ENTERED BY
SRVC.         SCHLUMBERGER                   : Scn          - SERVICE COMPANY
DATE.         10 JAN 78                      : Date         - LOG DATE
STRT.M        480.06                         : top_depth    - START DEPTH
STOP.M        707.06                         : bot_depth    - STOP DEPTH
STEP.M        0.25                           : increment    - STEP LENGTH
 NULL. -999.2500:NULL Value
~CURVE INFORMATION BLOCK
#MNEM UNIT       ERCB CURVE CODE    CURVE DESCRIPTION
#-----------   ------------------   ----------------------------------
DEPT.M        00 001 00 00         : DEPTH        - DEPTH
NPHI.V/V      00 330 00 00         : PHIN         - NEUTRON POROSITY (SANDSTONE)
DPHI.V/V      00 890 00 00         : PHID         - DENSITY POROSITY (SANDSTONE)
ILD .OHMM     00 120 00 00         : RESD         - DEEP RESISTIVITY (DIL)
GR  .API      00 310 00 00         : GR           - GAMMA RAY
CALI.MM       00 280 01 00         : CAL          - CALIPER
~PARAMETER INFORMATION
#MNEM.UNIT           DATA             DESCRIPTION OF MNEMONIC
#---------         -----------     ------------------------------
GL  .M        769.925              : gl           - GROUND LEVEL ELEVATION
EREF.M        774.192              : kb           - ELEVATION OF DEPTH REFERENCE
DATM.M        769.925              : datum        - DATUM ELEVATION
TDD .M        736.092              : tdd          - TOTAL DEPTH DRILLER
RUN .         ONE                  : Run          - RUN NUMBER
ENG .         ACKERMAN/VAN STEENBE : Engineer     - RECORDING ENGINEER
WIT .         CRAIMAIN/SMAILES     : Witness      - WITNESSED BY
BASE.         EDMONTON             : Branch       - HOME BASE OF LOGGING UNIT
MUD .         GEL                  : Mud_type     - MUD TYPE
MATR.         SANDSTONE            : Logunit      - NEUTRON MATRIX
TMAX.C        27.7778              : BHT          - MAXIMUM RECORDED TEMPERATURE
BHTD.M        736.092              : BHTDEP       - MAXIMUM RECORDED TEMPERATURE
RMT .C        10                   : MDTP         - TEMPERATURE OF MUD
MUDD.KG/M     1140                 : MWT          - MUD DENSITY
NEUT.         1                    : NEUTRON      - NEUTRON TYPE
RESI.         0                    : RESIST       - RESISTIVITY TYPE
RM  .OHMM     2.95                 : RM           - RESISTIVITY OF MUD
RMC .OHMM     0                    : RMC          - RESISTIVITY OF MUD CAKE
RMF .OHMM     3.82                 : RMF          - RESISTIVITY OF MUD FILTRATE
SUFT.C        4.5                  : SUFT         - SURFACE TEMPERATURE
~A  DEPTH     PHIN     PHID     RESD       GR      CAL
# ...
  626.060    0.461    0.168    9.383   86.859  185.627
  626.310    0.438    0.142    9.277   87.083  185.070
  626.560    0.402    0.211    8.528   88.871  184.706
  626.810    0.388    0.219    7.825   92.408  184.349
  627.060    0.459    0.206    7.439   94.257  183.888
  627.310    0.486    0.213    7.246   94.487  183.741
  627.560    0.495    0.245    7.137   92.898  183.808
  627.810    0.486    0.232    6.990   91.253  184.084
  628.060    0.473    0.233    6.847   92.164  184.364
  628.310    0.470    0.229    6.706   90.085  184.748
  628.560    0.483    0.228    6.643   89.624  185.027
  628.810    0.495    0.235    6.654   90.605  185.410
  629.060    0.505    0.231    6.702   92.388  185.691
  629.310    0.493    0.228    6.713   94.419  185.226
  629.560    0.487    0.218    6.724   96.649  184.446
  629.810    0.480    0.211    6.824   96.434  184.091
  630.060    0.470    0.201    6.912   94.725  184.474
  630.310    0.462    0.214    6.924   92.894  185.706
  630.560    0.455    0.215    6.935   92.249  185.871
  630.810    0.447    0.213    6.908   92.852  186.467
  631.060    0.470    0.212    6.907   93.821  187.066
  631.310    0.486    0.226    6.983   95.296  186.816
  631.560    0.493    0.222    7.060   96.709  186.877
  631.810    0.479    0.210    7.232   95.935  187.264
  632.060    0.472    0.224    7.298   95.849  187.966
  632.310    0.468    0.222    7.434   97.386  188.563
  632.560    0.464    0.217    7.802   99.110  189.258
  632.810    0.457    0.200    8.173   99.212  189.538
  633.060    0.446    0.194    9.054   94.322  189.924
  633.310    0.442    0.191    9.772   90.306  190.199
  633.560    0.442    0.163    9.954   86.286  190.262
  633.810    0.425    0.141    9.498   84.142  190.647
  634.060    0.369    0.178    8.538   84.994  190.928
  634.310    0.392    0.186    7.776   92.456  191.424
  634.560    0.432    0.191    7.029   99.300  191.908
  634.810    0.448    0.207    6.596  103.146  192.500
  635.060    0.457    0.205    6.306  104.995  193.417
  635.310    0.463    0.206    6.153  107.342  194.320
  635.560    0.470    0.215    6.187  108.880  194.807
  635.810    0.483    0.203    6.232  109.984  195.193
  636.060    0.504    0.207    6.395  110.892  195.470
  636.310    0.499    0.209    6.902  104.630  194.583
  636.560    0.491    0.197    7.632   99.863  193.277
  636.810    0.476    0.193    8.346   94.410  192.396
  637.060    0.461    0.185    8.808   89.706  191.721
  637.310    0.465    0.152    8.790   85.253  191.151
  637.560    0.465    0.136    8.626   83.983  190.697
  637.810    0.439    0.135    8.624   84.019  190.441
  638.060    0.423    0.209    9.034   87.118  190.399
  638.310    0.409    0.228   10.045  100.323  190.045
  638.560    0.446    0.249   11.381  101.674  187.361
  638.810    0.492    0.278   12.260   95.472  185.107
  639.060    0.474    0.239   12.031   91.330  185.379
  639.310    0.448    0.169   11.480   89.122  187.139
  639.560    0.431    0.185   11.016   86.291  189.322
  639.810    0.453    0.210   10.750   89.450  190.862
  640.060    0.467    0.221   10.373   92.238  188.712
  640.310    0.474    0.223   10.066   89.715  187.403
  640.560    0.463    0.214    9.878   85.825  188.208
  640.810    0.470    0.201    9.730   85.118  189.753
  641.060    0.472    0.207    9.673   85.343  190.573
  641.310    0.474    0.213    9.653   85.632  191.168
  641.560    0.481    0.219    9.651   86.609  191.332
  641.810    0.489    0.222    9.613   89.266  189.289
  642.060    0.498    0.231    9.486   89.740  188.078
  642.310    0.497    0.237    9.223   87.975  188.468
  642.560    0.487    0.231    9.084   88.076  189.376
  642.810    0.479    0.212    8.931   88.425  189.971
  643.060    0.474    0.207    8.813   90.210  190.247
  643.310    0.471    0.211    8.713   93.057  190.522
  643.560    0.473    0.209    8.663   92.348  191.119
  643.810    0.475    0.206    8.661   91.138  190.769
  644.060    0.476    0.204    8.724   89.493  189.562
  644.310    0.478    0.215    9.104   85.849  189.000
  644.560    0.463    0.206    9.449   85.267  188.956
  644.810    0.460    0.194   10.047   89.110  189.349
  645.060    0.472    0.192   10.905   94.641  189.303
  645.310    0.483    0.200   12.058   93.309  188.940
  645.560    0.487    0.199   12.774   87.793  188.597
  645.810    0.465    0.192   13.531   84.715  188.340
  646.060    0.437    0.213   14.122   83.441  187.664
  646.310    0.434    0.240   14.601   82.049  186.993
  646.560    0.438    0.254   15.012   80.337  186.638
  646.810    0.444    0.260   15.378   79.004  186.276
  647.060    0.448    0.258   15.900   84.224  186.028
  647.310    0.450    0.253   16.532   85.447  185.774
  647.560    0.445    0.243   17.447   81.304  186.051
  647.810    0.438    0.228   18.413   80.720  187.069
  648.060    0.436    0.200   19.469   77.763  189.146
  648.310    0.438    0.179   20.320   71.876  190.377
  648.560    0.428    0.156   22.012   69.917  190.338
  648.810    0.401    0.064   23.669   69.209  189.764
  649.060    0.308    0.051   25.073   70.181  189.836
  649.310    0.279    0.059   26.216   70.035  190.222
  649.560    0.266    0.062   25.967   66.515  190.393
  649.810    0.262    0.069   25.292   62.812  190.140
  650.060    0.270    0.081   23.512   62.041  189.676
  650.310    0.296    0.132   21.898   62.018  189.212
  650.560    0.324    0.195   20.206   63.739  188.432
  650.810    0.363    0.216   18.028   69.394  187.765
  651.060    0.434    0.236   16.176   77.237  187.085
  651.310    0.452    0.240   14.925   79.895  186.419
  651.560    0.460    0.233   14.895   81.434  186.268
  651.810    0.468    0.232   15.457   81.596  186.123
  652.060    0.477    0.234   16.162   81.759  186.192
  652.310    0.486    0.222   16.249   83.359  186.254
  652.560    0.493    0.224   15.856   81.151  186.222
  652.810    0.491    0.228   15.358   76.884  186.602
  653.060    0.490    0.215   14.628   75.862  187.514
  653.310    0.487    0.215   13.855   76.714  188.636
  653.560    0.482    0.227   12.454   78.128  189.447
  653.810    0.479    0.232   12.108   78.916  189.828
  654.060    0.480    0.229   12.778   79.453  190.108
  654.310    0.479    0.217   13.562   79.866  190.699
  654.560    0.469    0.213   13.944   82.340  191.403
  654.810    0.457    0.222   13.709   81.941  191.890
  655.060    0.464    0.227   13.082   78.424  192.060
  655.310    0.465    0.220   12.093   74.655  191.599
  655.560    0.458    0.212   11.096   72.765  191.555
  655.810    0.452    0.214   10.373   74.921  191.836
  656.060    0.460    0.202    9.447   85.322  192.111
  656.310    0.472    0.201    8.445   89.855  192.390
  656.560    0.462    0.194    7.691   94.886  193.414
  656.810    0.460    0.184    7.271  102.101  193.685
  657.060    0.452    0.174    6.964  103.391  192.806
  657.310    0.446    0.164    6.758   99.245  191.492
  657.560    0.436    0.163    6.582   97.540  190.607
  657.810    0.431    0.174    6.447   97.014  189.939
  658.060    0.430    0.159    6.457   97.244  190.106
  658.310    0.431    0.160    6.541   97.970  190.815
  658.560    0.434    0.171    6.663   99.754  191.295
  658.810    0.437    0.163    6.774  101.792  191.897
  659.060    0.442    0.173    6.836  103.516  192.168
  659.310    0.448    0.189    7.003  105.239  192.130
  659.560    0.444    0.176    7.586  106.151  192.091
  659.810    0.443    0.165    8.006  104.694  192.261
  660.060    0.449    0.142    8.706  101.050  192.224
  660.310    0.445    0.151    9.361   97.909  192.292
  660.560    0.425    0.177   10.122   99.883  192.040
  660.810    0.419    0.186   11.110  102.606  190.316
  661.060    0.400    0.191   12.704  101.899  189.318
  661.310    0.394    0.191   14.555   96.690  188.328
  661.560    0.408    0.184   16.707   90.554  187.555
  661.810    0.402    0.167   19.684   86.910  187.302
  662.060    0.391    0.145   23.192   84.388  187.058
  662.310    0.379    0.099   25.886   80.191  187.330
