~VERSION INFORMATION
 VERS.                 2.0:   CWLS LOG ASCII STANDARD -VERSION 2.0
 WRAP.                  NO:   ONE LINE PER DEPTH STEP
~WELL INFORMATION BLOCK
#MNEM.UNIT           DATA                    DESCRIPTION OF MNEMONIC
#---------    -------------------            -------------------------------
# Generated from Intellog Unique Number	CW_76_78/WELL/2563
WELL.         SCURRY ET AL DOUCETTE          : Well_name    - WELL
LOC .         00/02-08-078-02W5/0            : Location     - LOCATION
UWI .         00/02-08-078-02W5/0            : Uwi          - UNIQUE WELL ID
ENTR.         MAX                            : Entered      - ENTERED BY
SRVC.         WESTERN ATLAS                  : Scn          - SERVICE COMPANY
STRT.M        355                            : top_depth    - START DEPTH
STOP.M        605                            : bot_depth    - STOP DEPTH
STEP.M        0.25                           : increment    - STEP LENGTH
 NULL. -999.2500:NULL Value
~CURVE INFORMATION BLOCK
#MNEM UNIT       ERCB CURVE CODE    CURVE DESCRIPTION
#-----------   ------------------   ----------------------------------
DEPT.M        00 001 00 00         : DEPTH        - DEPTH
ILD .OHMM     00 120 00 00         : RESD         - DEEP RESISTIVITY (DIL)
NPHI.V/V      00 330 00 00         : PHIN         - NEUTRON POROSITY (SANDSTONE)
DPHI.V/V      00 890 00 00         : PHID         - DENSITY POROSITY (SANDSTONE)
CALI.MM       00 280 01 00         : CAL          - CALIPER
GR  .API      00 310 00 00         : GR           - GAMMA RAY
~PARAMETER INFORMATION
#MNEM.UNIT           DATA             DESCRIPTION OF MNEMONIC
#---------         -----------     ------------------------------
GL  .M        647.79               : gl           - GROUND LEVEL ELEVATION
EREF.M        652.05               : kb           - ELEVATION OF DEPTH REFERENCE
DATM.M        647.79               : datum        - DATUM ELEVATION
TDD .M        628                  : tdd          - TOTAL DEPTH DRILLER
RUN .         ONE                  : Run          - RUN NUMBER
ENG .         BILL                 : Engineer     - RECORDING ENGINEER
WIT .         JIM                  : Witness      - WITNESSED BY
MUD .         GEL                  : Mud_type     - MUD TYPE
MATR.         SANDSTONE            : Logunit      - NEUTRON MATRIX
TMAX.C        30                   : BHT          - MAXIMUM RECORDED TEMPERATURE
BHTD.M        627.3                : BHTDEP       - MAXIMUM RECORDED TEMPERATURE
RMT .C        13                   : MDTP         - TEMPERATURE OF MUD
MUDD.KG/M     1190                 : MWT          - MUD DENSITY
NEUT.         1                    : NEUTRON      - NEUTRON TYPE
RESI.         0                    : RESIST       - RESISTIVITY TYPE
RM  .OHMM     3.5                  : RM           - RESISTIVITY OF MUD
RMC .OHMM     2.2                  : RMC          - RESISTIVITY OF MUD CAKE
RMF .OHMM     3.9                  : RMF          - RESISTIVITY OF MUD FILTRATE
SUFT.C        -10                  : SUFT         - SURFACE TEMPERATURE
~A  DEPTH     RESD     PHIN     PHID      CAL       GR
  355.000    2.319    0.438    0.232  208.534   98.922
  355.250    2.319    0.440    0.230  209.024   98.924
  355.500    2.320    0.447    0.232  210.003   99.803
  355.750    2.265    0.459    0.239  210.982  100.976
  356.000    2.229    0.459    0.247  210.984  101.855
  356.250    2.212    0.449    0.247  210.500  100.394
  356.500    2.212    0.444    0.243  210.990   97.469
  356.750    2.249    0.439    0.239  211.969   95.422
  357.000    2.344    0.432    0.236  211.972   94.253
  357.250    2.503    0.420    0.231  210.512   96.303
  357.500    2.630    0.404    0.231  209.051   91.330
  357.750    2.808    0.389    0.237  207.591   84.015
  358.000    3.175    0.364    0.235  205.643   64.116
  358.250    3.770    0.323    0.186  205.646   59.727
  358.500    3.897    0.282    0.169  205.648   67.046
  358.750    3.742    0.363    0.204  206.139   73.486
  359.000    3.179    0.403    0.237  206.142   81.390
  359.250    2.860    0.415    0.241  206.146   84.611
  359.500    2.861    0.432    0.243  206.636   84.613
  359.750    2.981    0.446    0.262  208.590   85.493
  360.000    3.511    0.444    0.286  211.520   84.617
  360.250    4.102    0.421    0.297  208.109   79.058
  360.500    4.792    0.408    0.303  205.185   74.962
  360.750    5.737    0.401    0.314  201.285   77.305
  361.000    6.868    0.392    0.315  199.825   76.429
  361.250    8.426    0.387    0.316  200.316   69.407
  361.500   10.422    0.378    0.324  200.807   62.384
  361.750   12.579    0.376    0.326  200.322   55.362
  362.000   16.207    0.372    0.320  200.812   55.071
  362.250   19.562    0.371    0.313  200.328   55.951
  362.500   20.054    0.371    0.313  199.843   55.075
  362.750   19.102    0.371    0.327  198.383   52.443
  363.000   19.743    0.370    0.331  197.898   53.615
  363.250   21.429    0.366    0.330  197.901   54.788
  363.500   23.642    0.364    0.325  198.879   53.326
  363.750   24.238    0.364    0.323  199.370   52.450
  364.000   24.048    0.363    0.319  200.348   52.159
  364.250   23.283    0.360    0.317  202.302   48.356
  364.500   21.465    0.360    0.318  204.745   49.529
  364.750   17.942    0.358    0.324  204.259   52.750
  365.000   15.495    0.359    0.321  202.311   55.678
  365.250   14.170    0.362    0.316  200.851   55.095
  365.500   13.831    0.361    0.314  200.854   55.096
  365.750   13.611    0.357    0.315  200.857   55.098
  366.000   13.617    0.355    0.325  201.347   55.978
  366.250   13.617    0.354    0.335  201.838   57.150
  366.500   13.738    0.356    0.340  202.816   56.274
  366.750   13.968    0.358    0.340  203.308   54.227
  367.000   14.087    0.360    0.335  202.823   54.229
  367.250   13.979    0.358    0.335  201.363   55.109
  367.500   13.869    0.355    0.337  200.390   58.330
  367.750   13.649    0.355    0.340  200.393   60.381
  368.000   13.432    0.356    0.341  200.396   60.675
  368.250   13.438    0.355    0.342  200.398   56.872
  368.500   13.551    0.350    0.345  200.402   53.947
  368.750   14.121    0.340    0.348  199.917   52.485
  369.000   14.595    0.324    0.336  199.920   53.658
  369.250   14.961    0.312    0.301  199.923   53.075
  369.500   15.337    0.311    0.227  200.413   51.613
  369.750   15.469    0.331    0.224  200.417   51.030
  370.000   15.474    0.355    0.302  199.444   53.080
  370.250   14.982    0.371    0.336  198.471   55.716
  370.500   14.271    0.377    0.352  197.987   55.717
  370.750   13.264    0.381    0.354  197.990   56.304
  371.000   12.842    0.386    0.351  197.992   58.355
  371.250   12.434    0.393    0.347  197.996   58.942
  371.500   12.237    0.396    0.347  198.486   58.944
  371.750   12.141    0.398    0.342  199.465   59.824
  372.000   12.245    0.401    0.342  199.468   60.411
  372.250   12.350    0.402    0.342  199.471   59.534
  372.500   12.659    0.404    0.339  198.986   57.780
  372.750   13.300    0.404    0.335  198.501   55.440
  373.000   13.860    0.388    0.312  198.504   51.931
  373.250   14.091    0.375    0.283  198.507   52.810
  373.500   14.212    0.366    0.253  198.510   56.324
  373.750   14.217    0.389    0.280  199.001   59.837
  374.000   14.222    0.391    0.318  199.004   61.303
  374.250   14.460    0.388    0.325  198.519   58.671
  374.500   14.704    0.391    0.328  198.034   57.209
  374.750   15.322    0.393    0.328  199.013   54.577
  375.000   16.361    0.380    0.306  200.968   51.652
  375.250   19.429    0.368    0.284  201.945   48.727
  375.500   20.916    0.332    0.209  203.412   44.339
  375.750   24.635    0.214    0.158  203.902   42.585
  376.000   26.522    0.185    0.116  204.394   46.684
  376.250   25.679    0.179    0.092  204.884   51.953
  376.500   20.272    0.229    0.095  203.911   55.467
  376.750   16.267    0.317    0.187  202.451   56.640
  377.000   14.753    0.387    0.346  200.502   54.886
  377.250   14.168    0.393    0.351  199.043   51.961
  377.500   13.386    0.392    0.354  199.045   51.670
  377.750   12.751    0.395    0.356  197.585   52.842
  378.000   12.245    0.402    0.356  195.637   55.478
  378.250   11.952    0.403    0.354  197.591   56.651
  378.500   11.952    0.402    0.351  200.033   56.653
  378.750   11.768    0.400    0.346  201.011   56.654
  379.000   11.770    0.396    0.346  200.526   55.485
  379.250   11.774    0.397    0.347  200.042   54.609
  379.500   11.875    0.399    0.348  200.533   54.904
  379.750   11.875    0.403    0.348  200.535   55.491
  380.000   11.883    0.401    0.350  201.026   55.492
  380.250   11.887    0.396    0.352  201.029   57.543
  380.500   11.891    0.402    0.352  201.032   58.130
  380.750   11.897    0.405    0.355  200.060   58.424
  381.000   11.899    0.401    0.358  200.551   61.060
  381.250   11.903    0.397    0.357  201.041   64.867
  381.500   11.908    0.390    0.354  201.532   63.698
  381.750   11.719    0.380    0.351  202.511   61.358
  382.000   11.532    0.380    0.344  203.001   58.433
  382.250   11.166    0.381    0.344  203.003   56.972
  382.500   10.378    0.377    0.342  202.031   56.681
  382.750    8.890    0.374    0.330  201.059   57.853
  383.000    7.740    0.374    0.328  199.598   58.148
  383.250    6.907    0.369    0.326  199.113   58.734
  383.500    6.526    0.360    0.284  199.604   54.346
  383.750    6.912    0.350    0.274  199.607   47.910
  384.000    8.009    0.359    0.302  200.098   48.789
  384.250    9.355    0.365    0.342  200.101   48.498
  384.500   11.018    0.364    0.349  200.592   44.989
  384.750   12.257    0.362    0.351  201.082   41.771
  385.000   12.564    0.362    0.352  201.574   42.066
  385.250   12.673    0.361    0.360  201.088   43.531
  385.500   12.676    0.362    0.362  200.604   44.118
  385.750   12.577    0.362    0.361  199.631   44.412
  386.000   12.479    0.363    0.358  198.170   44.707
  386.250   12.483    0.373    0.363  196.710   45.293
  386.500   12.386    0.377    0.368  195.250   46.466
  386.750   12.190    0.372    0.366  195.740   47.053
  387.000   11.996    0.371    0.366  197.207   46.470
  387.250   11.428    0.379    0.375  198.673   45.593
  387.500   10.884    0.379    0.376  200.627   43.546
  387.750   10.367    0.375    0.371  201.119   42.377
  388.000    9.480    0.375    0.356  201.122   45.891
  388.250    8.459    0.386    0.348  200.636   49.405
  388.500    7.799    0.399    0.356  200.151   52.919
  388.750    7.428    0.409    0.362  199.179   54.091
  389.000    7.370    0.416    0.353  199.179   53.508
  389.250    6.963    0.409    0.352  198.697   60.533
  389.500    6.264    0.411    0.348  198.700   67.852
  389.750    4.825    0.424    0.322  199.678   76.048
  390.000    3.316    0.441    0.298  200.658   83.074
  390.250    2.771    0.473    0.287  201.148   88.636
  390.500    2.473    0.471    0.279  201.638   92.736
  390.750    2.434    0.460    0.273  201.642   92.445
  391.000    2.557    0.448    0.271  201.157   86.593
  391.250    2.938    0.434    0.300  200.672   79.571
