~VERSION INFORMATION
 VERS.                 2.0:   CWLS LOG ASCII STANDARD -VERSION 2.0
 WRAP.                  NO:   ONE LINE PER DEPTH STEP
~WELL INFORMATION BLOCK
#MNEM.UNIT           DATA                    DESCRIPTION OF MNEMONIC
#---------    -------------------            -------------------------------
# Generated from Intellog Unique Number	CS_71_72/WELL/833
WELL.         BOW VALLEY INDUSTRIES          : Well_name    - WELL
LOC .         00/07-35-071-17W4/2            : Location     - LOCATION
UWI .         00/07-35-071-17W4/2            : Uwi          - UNIQUE WELL ID
ENTR.         SP                             : Entered      - ENTERED BY
SRVC.         SCHLUMBERGER                   : Scn          - SERVICE COMPANY
STRT.M        274.32                         : top_depth    - START DEPTH
STOP.M        446.07                         : bot_depth    - STOP DEPTH
STEP.M        0.25                           : increment    - STEP LENGTH
 NULL. -999.2500:NULL Value
~CURVE INFORMATION BLOCK
#MNEM UNIT       ERCB CURVE CODE    CURVE DESCRIPTION
#-----------   ------------------   ----------------------------------
DEPT.M        00 001 00 00         : DEPTH        - DEPTH
GR  .API      00 310 00 00         : GR           - GAMMA RAY
DPHI.V/V      00 890 00 00         : PHID         - DENSITY POROSITY (SANDSTONE)
NPHI.V/V      00 330 00 00         : PHIN         - NEUTRON POROSITY (SANDSTONE)
ILD .OHMM     00 120 00 00         : RESD         - DEEP RESISTIVITY (DIL)
~PARAMETER INFORMATION
#MNEM.UNIT           DATA             DESCRIPTION OF MNEMONIC
#---------         -----------     ------------------------------
GL  .M        583.387              : gl           - GROUND LEVEL ELEVATION
EREF.M        586.435              : kb           - ELEVATION OF DEPTH REFERENCE
DATM.M        583.387              : datum        - DATUM ELEVATION
TDD .M        452.628              : tdd          - TOTAL DEPTH DRILLER
RUN .         ONE                  : Run          - RUN NUMBER
ENG .         BILL                 : Engineer     - RECORDING ENGINEER
WIT .         JIM                  : Witness      - WITNESSED BY
MUD .         GEL                  : Mud_type     - MUD TYPE
MATR.         SANDSTONE            : Logunit      - NEUTRON MATRIX
TMAX.C        25.5556              : BHT          - MAXIMUM RECORDED TEMPERATURE
BHTD.M        452.628              : BHTDEP       - MAXIMUM RECORDED TEMPERATURE
MATR.         1                    : LOGUNIT      - NEUTRON MATRIX
RMT .C        25                   : MDTP         - TEMPERATURE OF MUD
NEUT.         1                    : NEUTRON      - NEUTRON TYPE
RESI.         0                    : RESIST       - RESISTIVITY TYPE
RMC .OHMM     0.25                 : RMC          - RESISTIVITY OF MUD CAKE
RMF .OHMM     0.25                 : RMF          - RESISTIVITY OF MUD FILTRATE
SUFT.C        15                   : SUFT         - SURFACE TEMPERATURE
~A  DEPTH       GR     PHID     PHIN     RESD
# ...
  317.820   51.787    0.056    0.348   21.010
  318.070   55.947    0.106    0.407   23.294
  318.320   58.034    0.174    0.461   23.866
  318.570   59.935    0.226    0.487   21.214
  318.820   63.029    0.267    0.500   14.470
  319.070   63.562    0.285    0.505   10.598
  319.320   63.239    0.276    0.508    8.259
  319.570   69.540    0.273    0.492    6.818
  319.820   70.644    0.254    0.478    5.966
  320.070   70.378    0.232    0.479    5.591
  320.320   71.755    0.208    0.474    5.340
  320.570   77.587    0.219    0.476    5.205
  320.820   84.485    0.225    0.479    5.061
  321.070   91.053    0.214    0.491    4.960
  321.320   95.501    0.214    0.509    4.867
  321.570   96.303    0.240    0.531    4.673
  321.820   94.633    0.261    0.571    4.566
  322.070   92.326    0.274    0.594    4.489
  322.320   91.099    0.273    0.569    4.459
  322.570   88.374    0.261    0.545    4.527
  322.820   85.763    0.243    0.496    4.644
  323.070   81.707    0.229    0.484    4.834
  323.320   79.213    0.216    0.490    5.008
  323.570   77.668    0.227    0.506    5.161
  323.820   81.039    0.239    0.513    5.310
  324.070   85.314    0.251    0.506    5.418
  324.320   90.390    0.237    0.519    5.492
  324.570   93.373    0.221    0.512    5.499
  324.820   94.753    0.213    0.496    5.420
  325.070   94.913    0.211    0.503    5.201
  325.320   95.907    0.206    0.526    4.850
  325.570   96.176    0.204    0.526    4.466
  325.820   95.310    0.219    0.572    4.237
  326.070   91.812    0.241    0.572    4.256
  326.320   87.647    0.261    0.565    4.423
  326.570   83.245    0.275    0.561    4.682
  326.820   78.532    0.297    0.631    5.135
  327.070   73.705    0.363    0.663    5.467
  327.320   67.796    0.401    0.711    5.831
  327.570   63.024    0.427    0.714    6.213
  327.820   58.238    0.340    0.584    6.569
  328.070   54.555    0.311    0.489    6.774
  328.320   53.522    0.294    0.444    6.885
  328.570   53.963    0.305    0.450    6.903
  328.820   55.177    0.313    0.453    6.773
  329.070   56.102    0.317    0.454    6.577
  329.320   56.691    0.319    0.452    6.348
  329.570   56.491    0.322    0.448    6.141
  329.820   55.797    0.324    0.441    5.900
  330.070   55.065    0.325    0.436    5.716
  330.320   54.517    0.319    0.433    5.564
  330.570   54.358    0.312    0.434    5.470
  330.820   55.207    0.311    0.442    5.477
  331.070   56.315    0.312    0.447    5.506
  331.320   56.730    0.308    0.448    5.526
  331.570   55.469    0.307    0.441    5.555
  331.820   53.948    0.301    0.438    5.562
  332.070   53.379    0.305    0.443    5.569
  332.320   52.952    0.311    0.459    5.580
  332.570   53.381    0.316    0.467    5.575
  332.820   54.390    0.316    0.469    5.573
  333.070   55.602    0.311    0.471    5.563
  333.320   56.551    0.318    0.472    5.579
  333.570   57.146    0.323    0.476    5.586
  333.820   56.625    0.322    0.480    5.602
  334.070   57.075    0.318    0.484    5.642
  334.320   56.394    0.316    0.490    5.699
  334.570   54.890    0.312    0.492    5.733
  334.820   53.430    0.313    0.493    5.771
  335.070   53.684    0.318    0.493    5.820
  335.320   55.370    0.324    0.491    5.865
  335.570   55.369    0.328    0.486    5.861
  335.820   55.118    0.319    0.490    5.830
  336.070   56.765    0.313    0.502    5.782
  336.320   57.560    0.310    0.510    5.749
  336.570   57.847    0.315    0.504    5.660
  336.820   56.616    0.308    0.486    5.620
  337.070   56.206    0.298    0.489    5.611
  337.320   57.023    0.294    0.501    5.567
  337.570   58.079    0.301    0.495    5.515
  337.820   58.978    0.312    0.485    5.522
  338.070   58.469    0.318    0.477    5.534
  338.320   57.424    0.311    0.501    5.539
  338.570   56.240    0.303    0.520    5.554
  338.820   56.283    0.297    0.527    5.560
  339.070   56.725    0.297    0.532    5.531
  339.320   57.973    0.307    0.538    5.521
  339.570   59.453    0.314    0.542    5.485
  339.820   60.153    0.314    0.523    5.474
  340.070   60.105    0.319    0.511    5.481
  340.320   59.161    0.322    0.503    5.489
  340.570   57.446    0.319    0.508    5.491
  340.820   56.653    0.311    0.510    5.515
  341.070   56.061    0.309    0.523    5.531
  341.320   56.967    0.311    0.538    5.545
  341.570   58.590    0.314    0.544    5.545
  341.820   59.273    0.316    0.535    5.604
  342.070   58.939    0.318    0.529    5.628
  342.320   58.260    0.320    0.529    5.690
  342.570   58.628    0.323    0.530    5.720
  342.820   58.530    0.326    0.518    5.769
  343.070   58.408    0.325    0.509    5.806
  343.320   58.273    0.313    0.507    5.850
  343.570   58.811    0.306    0.506    5.884
  343.820   59.597    0.306    0.498    5.893
  344.070   60.469    0.308    0.494    5.934
  344.320   60.986    0.313    0.498    5.965
  344.570   61.230    0.317    0.494    5.972
  344.820   61.216    0.313    0.487    6.013
  345.070   61.133    0.302    0.481    6.021
  345.320   60.822    0.299    0.477    6.039
  345.570   60.511    0.309    0.478    6.055
  345.820   59.600    0.312    0.478    6.070
  346.070   58.359    0.307    0.478    6.071
  346.320   58.470    0.306    0.487    5.975
  346.570   59.571    0.312    0.494    5.792
  346.820   61.110    0.311    0.500    5.569
  347.070   62.710    0.294    0.501    5.336
  347.320   63.854    0.281    0.492    5.206
  347.570   65.061    0.291    0.485    5.125
  347.820   66.017    0.286    0.473    5.138
  348.070   68.361    0.271    0.465    5.229
  348.320   70.490    0.256    0.465    5.341
  348.570   71.117    0.257    0.496    5.410
  348.820   69.570    0.289    0.518    5.372
  349.070   67.009    0.308    0.517    5.298
  349.320   65.073    0.307    0.518    5.211
  349.570   64.946    0.297    0.537    5.131
  349.820   65.633    0.294    0.553    5.057
  350.070   67.985    0.290    0.561    4.972
  350.320   71.423    0.280    0.543    4.895
  350.570   74.332    0.266    0.528    4.786
  350.820   77.114    0.263    0.537    4.679
  351.070   79.611    0.265    0.552    4.519
  351.320   80.716    0.268    0.531    4.402
  351.570   81.648    0.262    0.516    4.280
  351.820   84.390    0.253    0.529    4.211
  352.070   86.272    0.247    0.546    4.125
  352.320   88.719    0.242    0.554    4.075
  352.570   89.073    0.244    0.546    4.032
  352.820   89.077    0.240    0.522    3.981
  353.070   90.885    0.245    0.530    3.932
  353.320   93.597    0.233    0.551    3.889
  353.570   96.398    0.223    0.563    3.848
  353.820   97.278    0.241    0.540    3.784
  354.070   97.501    0.229    0.529    3.736
  354.320   96.935    0.215    0.544    3.697
  354.570   96.655    0.209    0.565    3.693
  354.820   96.938    0.213    0.575    3.706
  355.070   97.261    0.224    0.570    3.691
  355.320   96.486    0.231    0.530    3.687
  355.570   95.175    0.234    0.522    3.728
  355.820   92.876    0.237    0.535    3.794
  356.070   89.944    0.246    0.559    3.862
  356.320   88.069    0.245    0.583    3.967
  356.570   86.004    0.242    0.596    4.047
  356.820   83.893    0.254    0.586    4.137
  357.070   81.517    0.263    0.551    4.237
  357.320   78.723    0.264    0.527    4.299
  357.570   75.431    0.266    0.502    4.341
  357.820   71.207    0.270    0.488    4.335
  358.070   65.808    0.280    0.478    4.322
  358.320   59.820    0.293    0.464    4.298
  358.570   54.140    0.298    0.451    4.261
  358.820   48.657    0.290    0.452    4.248
  359.070   44.473    0.289    0.451    4.256
  359.320   42.605    0.307    0.441    4.262
  359.570   42.710    0.314    0.442    4.261
  359.820   42.946    0.311    0.452    4.242
  360.070   43.076    0.312    0.452    4.207
  360.320   43.297    0.312    0.447    4.123
  360.570   44.089    0.306    0.447    4.063
  360.820   45.037    0.299    0.448    3.996
  361.070   48.551    0.297    0.458    3.949
