~VERSION INFORMATION
 VERS.                 2.0:   CWLS LOG ASCII STANDARD -VERSION 2.0
 WRAP.                  NO:   ONE LINE PER DEPTH STEP
~WELL INFORMATION BLOCK
#MNEM.UNIT           DATA                    DESCRIPTION OF MNEMONIC
#---------    -------------------            -------------------------------
# Generated from Intellog Unique Number	CS_69_70/WELL/784
NULL.         -999.25                        : NULL_VALUE
WELL.         ET AL TWEEDIE                  : Well_name    - WELL              
LOC .         00/06-31-070-11W4/0            : Location     - LOCATION          
UWI .         00/06-31-070-11W4/0            : Uwi          - UNIQUE WELL ID    
ENTR.         SP                             : Entered      - ENTERED BY        
SRVC.         SCHLUMBERGER                   : Scn          - SERVICE COMPANY   
STRT.M        265                            : top_depth    - START DEPTH       
STOP.M        470                            : bot_depth    - STOP DEPTH        
STEP.M        0.25                           : increment    - STEP LENGTH       
~CURVE INFORMATION BLOCK
#MNEM UNIT       ERCB CURVE CODE    CURVE DESCRIPTION
#-----------   ------------------   ----------------------------------
DEPT.M        00 001 00 00         : DEPTH        - DEPTH                       
ILD .OHMM     00 120 00 00         : RESD         - DEEP RESISTIVITY (DIL)      
DPHI.V/V      00 890 00 00         : PHID         - DENSITY POROSITY (LIMESTONE)
NPHI.V/V      00 330 00 00         : PHIN         - NEUTRON POROSITY (LIMESTONE)
GR  .API      00 310 00 00         : GR           - GAMMA RAY                   
~PARAMETER INFORMATION       
#MNEM.UNIT           DATA             DESCRIPTION OF MNEMONIC
#---------         -----------     ------------------------------
GL  .M        601.69               : gl           - GROUND LEVEL ELEVATION      
EREF.M        605.66               : kb           - ELEVATION OF DEPTH REFERENCE
DATM.M        601.69               : datum        - DATUM ELEVATION             
TDD .M        488                  : tdd          - TOTAL DEPTH DRILLER         
RUN .         ONE                  : Run          - RUN NUMBER                  
ENG .         BILL                 : Engineer     - RECORDING ENGINEER          
WIT .         JIM                  : Witness      - WITNESSED BY                
MUD .         GEL                  : Mud_type     - MUD TYPE                    
MATR.         LIMESTONE            : Logunit      - NEUTRON MATRIX              
TMAX.C        18.5                 : BHT          - MAXIMUM RECORDED TEMPERATURE
BHTD.M        488                  : BHTDEP       - MAXIMUM RECORDED TEMPERATURE
MATR.         1                    : LOGUNIT      - NEUTRON MATRIX              
RMT .C        25                   : MDTP         - TEMPERATURE OF MUD          
NEUT.         1                    : NEUTRON      - NEUTRON TYPE                
RESI.         0                    : RESIST       - RESISTIVITY TYPE            
RMC .OHMM     0.25                 : RMC          - RESISTIVITY OF MUD CAKE     
RMF .OHMM     0.25                 : RMF          - RESISTIVITY OF MUD FILTRATE 
SUFT.C        15                   : SUFT         - SURFACE TEMPERATURE         
~A  DEPTH     RESD     PHID     PHIN       GR
# ...
  308.500    6.702    0.246    0.474   96.837
  308.750    6.556    0.258    0.463   96.117
  309.000    5.637    0.249    0.454  100.792
  309.250    4.498    0.238    0.467  104.193
  309.500    3.963    0.229    0.518  107.109
  309.750    3.420    0.227    0.552  108.995
  310.000    3.087    0.233    0.545  108.336
  310.250    3.043    0.236    0.527  111.194
  310.500    3.299    0.237    0.516  113.441
  310.750    3.679    0.240    0.506  116.298
  311.000    4.165    0.242    0.491  112.971
  311.250    4.740    0.243    0.479  109.039
  311.500    5.178    0.265    0.466  103.348
  311.750    5.635    0.283    0.453   90.688
  312.000    6.065    0.298    0.442   78.513
  312.250    6.393    0.315    0.451   72.823
  312.500    6.817    0.324    0.445   75.619
  312.750    6.935    0.325    0.435   78.475
  313.000    6.798    0.325    0.445   79.088
  313.250    6.287    0.321    0.459   80.792
  313.500    6.093    0.289    0.471   83.527
  313.750    6.062    0.266    0.455   86.807
  314.000    6.249    0.262    0.457   89.966
  314.250    6.638    0.266    0.467   92.155
  314.500    6.946    0.265    0.475   89.738
  314.750    7.200    0.257    0.474   84.169
  315.000    7.285    0.256    0.460   86.297
  315.250    7.275    0.261    0.447   89.276
  315.500    7.118    0.267    0.446   91.100
  315.750    6.963    0.269    0.454   91.410
  316.000    6.785    0.268    0.461   94.388
  316.250    6.516    0.266    0.467   96.516
  316.500    6.409    0.265    0.477   98.947
  316.750    6.436    0.260    0.484  101.561
  317.000    6.320    0.245    0.483  103.932
  317.250    6.102    0.234    0.481  105.697
  317.500    5.936    0.222    0.483  107.038
  317.750    5.829    0.210    0.471  106.984
  318.000    5.799    0.236    0.447  104.445
  318.250    5.958    0.257    0.427  100.695
  318.500    6.118    0.273    0.434  103.188
  318.750    6.510    0.280    0.441  101.800
  319.000    6.710    0.264    0.448   97.626
  319.250    6.802    0.255    0.465   97.815
  319.500    6.458    0.251    0.481   98.246
  319.750    6.282    0.271    0.483   91.344
  320.000    6.392    0.290    0.430   82.806
  320.250    6.765    0.308    0.413   78.934
  320.500    7.281    0.316    0.411   76.396
  320.750    7.365    0.320    0.429   76.403
  321.000    7.565    0.325    0.441   77.258
  321.250    7.597    0.323    0.448   78.417
  321.500    7.530    0.325    0.447   78.364
  321.750    7.421    0.329    0.446   79.341
  322.000    7.301    0.319    0.452   81.834
  322.250    7.263    0.305    0.464   84.507
  322.500    7.322    0.289    0.464   86.091
  322.750    7.449    0.280    0.454   88.340
  323.000    7.722    0.277    0.448   91.195
  323.250    8.097    0.286    0.451   91.325
  323.500    8.206    0.293    0.443   90.361
  323.750    8.302    0.293    0.437   87.278
  324.000    8.322    0.286    0.427   83.406
  324.250    8.310    0.280    0.421   81.959
  324.500    8.240    0.275    0.415   84.027
  324.750    8.242    0.253    0.403   87.973
  325.000    8.338    0.231    0.396   93.374
  325.250    8.499    0.228    0.411   95.565
  325.500    8.632    0.245    0.428   94.905
  325.750    8.685    0.264    0.440   91.214
  326.000    8.753    0.279    0.432   86.373
  326.250    8.692    0.286    0.423   84.562
  326.500    8.551    0.291    0.414   86.995
  326.750    8.367    0.266    0.404   91.668
  327.000    8.245    0.248    0.403   98.342
  327.250    8.112    0.242    0.414  100.652
  327.500    7.995    0.238    0.411  100.356
  327.750    7.633    0.226    0.416  109.031
  328.000    7.193    0.214    0.432  114.251
  328.250    7.064    0.206    0.443  111.287
  328.500    7.120    0.230    0.451  100.628
  328.750    7.354    0.266    0.438   88.635
  329.000    7.594    0.305    0.430   74.580
  329.250    7.888    0.324    0.425   65.800
  329.500    8.148    0.310    0.435   65.141
  329.750    8.257    0.304    0.443   66.905
  330.000    8.309    0.310    0.432   66.064
  330.250    8.298    0.313    0.421   61.707
  330.500    8.254    0.320    0.416   65.169
  330.750    8.212    0.333    0.422   68.874
  331.000    8.217    0.339    0.451   69.971
  331.250    8.312    0.330    0.463   67.919
  331.500    8.427    0.321    0.449   65.017
  331.750    8.446    0.320    0.439   60.116
  332.000    8.434    0.328    0.429   60.424
  332.250    8.424    0.321    0.430   67.281
  332.500    8.444    0.317    0.448   71.106
  332.750    8.446    0.317    0.437   72.143
  333.000    8.482    0.326    0.442   72.332
  333.250    8.470    0.315    0.454   76.220
  333.500    8.412    0.302    0.462   80.712
  333.750    8.399    0.295    0.449   85.385
  334.000    8.372    0.297    0.439   90.181
  334.250    8.375    0.298    0.434   93.824
  334.500    8.317    0.291    0.426   92.862
  334.750    8.290    0.288    0.426   94.020
  335.000    8.217    0.297    0.429   95.603
  335.250    8.053    0.316    0.431   94.338
  335.500    7.908    0.323    0.432   85.132
  335.750    7.781    0.315    0.417   80.230
  336.000    7.712    0.291    0.401   79.025
  336.250    7.700    0.266    0.410   77.942
  336.500    7.747    0.257    0.432   73.040
  336.750    7.795    0.302    0.447   69.532
  337.000    7.827    0.332    0.457   66.327
  337.250    7.860    0.347    0.455   62.940
  337.500    7.879    0.341    0.452   64.525
  337.750    7.780    0.329    0.441   67.864
  338.000    7.442    0.321    0.435   72.235
  338.250    6.781    0.313    0.438   75.696
  338.500    6.167    0.311    0.452   78.189
  338.750    5.966    0.315    0.470   74.984
  339.000    6.208    0.323    0.484   71.537
  339.250    6.718    0.324    0.490   70.271
  339.500    7.189    0.324    0.487   72.278
  339.750    7.356    0.318    0.489   74.286
  340.000    7.210    0.318    0.482   74.353
  340.250    6.292    0.313    0.470   78.543
  340.500    5.472    0.288    0.467   83.822
  340.750    4.939    0.271    0.463   90.620
  341.000    4.577    0.271    0.455   92.989
  341.250    4.935    0.272    0.451   90.208
  341.500    5.370    0.279    0.452   82.155
  341.750    6.113    0.301    0.442   76.707
  342.000    7.197    0.315    0.446   72.655
  342.250    7.891    0.328    0.454   70.781
  342.500    8.984    0.328    0.446   68.971
  342.750    9.173    0.325    0.449   67.826
  343.000    9.178    0.331    0.458   65.531
  343.250    8.829    0.326    0.457   62.933
  343.500    8.588    0.325    0.438   60.334
  343.750    8.496    0.336    0.427   57.736
  344.000    8.628    0.342    0.417   56.468
  344.250    8.912    0.345    0.414   54.780
  344.500    9.136    0.348    0.414   54.543
  344.750    9.295    0.350    0.425   55.460
  345.000    9.335    0.351    0.434   56.558
  345.250    9.339    0.351    0.430   56.565
  345.500    9.342    0.350    0.422   52.875
  345.750    9.347    0.348    0.415   50.822
  346.000    9.439    0.344    0.406   53.738
  346.250    9.550    0.340    0.400   55.381
  346.500    9.573    0.338    0.418   55.874
  346.750    9.226    0.341    0.429   51.034
  347.000    9.196    0.344    0.422   48.555
  347.250    9.235    0.347    0.405   47.047
  347.500    9.291    0.348    0.409   47.660
  347.750    9.365    0.351    0.416   47.728
  348.000    9.423    0.351    0.422   48.583
  348.250    9.480    0.350    0.427   50.469
  348.500    9.452    0.349    0.430   50.174
  348.750    9.384    0.348    0.428   50.605
  349.000    9.335    0.343    0.422   52.128
  349.250    9.287    0.337    0.417   53.407
  349.500    9.275    0.329    0.413   53.415
  349.750    9.296    0.321    0.419   53.847
  350.000    9.406    0.317    0.427   54.945
  350.250    9.463    0.334    0.420   56.043
  350.500    9.432    0.339    0.406   55.566
  350.750    9.419    0.336    0.411   54.361
  351.000    9.370    0.330    0.415   53.398
  351.250    9.341    0.328    0.402   53.102
  351.500    9.345    0.332    0.400   54.504
  351.750    9.370    0.329    0.414   56.329
