~VERSION INFORMATION
 VERS.                 2.0:   CWLS LOG ASCII STANDARD -VERSION 2.0
 WRAP.                  NO:   ONE LINE PER DEPTH STEP
~WELL INFORMATION BLOCK
#MNEM.UNIT           DATA                    DESCRIPTION OF MNEMONIC
#---------    -------------------            -------------------------------
# Generated from Intellog Unique Number	CW_82_90/WELL/642
WELL.         08-09-082-21W4                 : Well_name    - WELL
LOC .         00/08-09-082-21W4/0            : Location     - LOCATION
UWI .         00/08-09-082-21W4/0            : Uwi          - UNIQUE WELL ID
ENTR.         JAYE                           : Entered      - ENTERED BY
SRVC.         SCHLUMBERGER                   : Scn          - SERVICE COMPANY
DATE.         01 FEB 1974                    : Date         - LOG DATE
STRT.M        234.696                        : top_depth    - START DEPTH
STOP.M        444.946                        : bot_depth    - STOP DEPTH
STEP.M        0.25                           : increment    - STEP LENGTH
 NULL. -999.2500:NULL Value
~CURVE INFORMATION BLOCK
#MNEM UNIT       ERCB CURVE CODE    CURVE DESCRIPTION
#-----------   ------------------   ----------------------------------
DEPT.M        00 001 00 00         : DEPTH        - DEPTH
CALI.MM       00 280 01 00         : CAL          - CALIPER
GR  .API      00 310 00 00         : GR           - GAMMA RAY
DPHI.V/V      00 890 00 00         : PHID         - DENSITY POROSITY (SANDSTONE)
NPHI.V/V      00 330 00 00         : PHIN         - NEUTRON POROSITY (SANDSTONE)
ILD .OHMM     00 120 00 00         : RESD         - DEEP RESISTIVITY (DLL)
~PARAMETER INFORMATION
#MNEM.UNIT           DATA             DESCRIPTION OF MNEMONIC
#---------         -----------     ------------------------------
GL  .M        631.241              : gl           - GROUND LEVEL ELEVATION
EREF.M        627.583              : kb           - ELEVATION OF DEPTH REFERENCE
DATM.M        631.241              : datum        - DATUM ELEVATION
TDD .M        458.724              : tdd          - TOTAL DEPTH DRILLER
RUN .         ONE                  : Run          - RUN NUMBER
ENG .         STRUYK               : Engineer     - RECORDING ENGINEER
BASE.         EDMONTON             : Branch       - HOME BASE OF LOGGING UNIT
MUD .         GEL CHEM             : Mud_type     - MUD TYPE
MATR.         SANDSTONE            : Logunit      - NEUTRON MATRIX
TMAX.C        11.6667              : BHT          - MAXIMUM RECORDED TEMPERATURE
BHTD.M        458.724              : BHTDEP       - MAXIMUM RECORDED TEMPERATURE
RMT .C        11.6667              : MDTP         - TEMPERATURE OF MUD
MUDD.KG/M     8900                 : MWT          - MUD DENSITY
NEUT.         0                    : NEUTRON      - NEUTRON TYPE
RESI.         1                    : RESIST       - RESISTIVITY TYPE
RM  .OHMM     4.2                  : RM           - RESISTIVITY OF MUD
RMC .OHMM     3.9                  : RMC          - RESISTIVITY OF MUD CAKE
RMF .OHMM     0.25                 : RMF          - RESISTIVITY OF MUD FILTRATE
SUFT.C        4                    : SUFT         - SURFACE TEMPERATURE
~A  DEPTH      CAL       GR     PHID     PHIN     RESD
  234.696  178.292   68.514    0.251    0.589    3.690
  234.946  177.139   55.530    0.245    0.585    5.045
  235.196  170.115   43.581    0.240    0.484    6.304
  235.446  166.592   34.861    0.215    0.402   11.466
  235.696  165.336   29.550    0.260    0.407   15.702
  235.946  166.347   28.623    0.306    0.415   21.464
  236.196  168.177   28.917    0.311    0.412   25.115
  236.446  169.600   30.000    0.319    0.436   32.083
  236.696  174.731   31.085    0.320    0.466   40.316
  236.946  177.596   30.038    0.327    0.516   48.931
  237.196  173.148   31.061    0.342    0.516   62.624
  237.446  170.244   30.745    0.333    0.512   69.102
  237.696  169.913   30.124    0.320    0.499   74.737
  237.946  169.269   29.868    0.317    0.488   81.423
  238.196  169.252   32.415    0.307    0.491   85.521
  238.446  169.442   34.716    0.312    0.497   84.405
  238.696  169.519   37.994    0.310    0.499   72.486
  238.946  169.298   42.367    0.307    0.481   62.940
  239.196  169.380   46.556    0.321    0.478   49.146
  239.446  169.050   50.077    0.324    0.507   37.473
  239.696  168.824   50.979    0.324    0.510   31.026
  239.946  169.730   49.382    0.326    0.520   28.668
  240.196  170.843   46.933    0.329    0.531   29.135
  240.446  171.030   45.400    0.333    0.535   34.910
  240.696  170.905   44.109    0.330    0.524   55.753
  240.946  171.402   42.637    0.325    0.512   74.421
  241.196  172.411   40.553    0.333    0.532   75.357
  241.446  171.771   40.603    0.337    0.543   67.870
  241.696  169.900   42.539    0.337    0.532   55.782
  241.946  167.817   45.633    0.327    0.518   49.874
  242.196  166.561   49.215    0.316    0.568   44.837
  242.446  165.715   52.980    0.305    0.586   42.195
  242.696  165.181   56.438    0.297    0.592   40.963
  242.946  164.752   58.130    0.313    0.581   40.430
  243.196  164.625   59.217    0.324    0.577   40.269
  243.446  164.606   61.090    0.333    0.557   40.551
  243.696  165.202   60.532    0.336    0.561   42.436
  243.946  165.701   56.318    0.339    0.551   47.431
  244.196  167.427   51.068    0.342    0.545   51.676
  244.446  168.442   49.230    0.340    0.562   56.608
  244.696  169.657   51.410    0.342    0.568   62.468
  244.946  170.765   51.946    0.348    0.569   68.432
  245.196  170.955   51.750    0.347    0.569   74.553
  245.446  171.245   53.381    0.346    0.557   76.463
  245.696  171.943   53.433    0.347    0.559   70.525
  245.946  172.441   52.871    0.341    0.567   55.881
  246.196  171.593   51.642    0.339    0.575   41.380
  246.446  170.954   51.753    0.337    0.583   27.355
  246.696  168.359   53.139    0.322    0.566   21.477
  246.946  166.384   51.788    0.309    0.530   18.445
  247.196  166.467   49.889    0.293    0.511   17.043
  247.446  168.093   49.267    0.274    0.528   22.338
  247.696  169.723   51.386    0.256    0.527   27.561
  247.946  169.805   53.691    0.268    0.479   28.736
  248.196  167.726   57.516    0.282    0.471   29.098
  248.446  166.263   59.452    0.304    0.486   29.141
  248.696  166.137   58.710    0.317    0.611   29.724
  248.946  165.297   55.225    0.330    0.620   30.653
  249.196  164.554   54.606    0.329    0.596   31.727
  249.446  164.122   54.776    0.324    0.578   31.950
  249.696  164.100   54.764    0.325    0.549   30.792
  249.946  164.289   53.229    0.330    0.536   27.081
  250.196  164.678   53.035    0.322    0.514   21.262
  250.446  165.175   54.545    0.305    0.486   15.179
  250.696  165.877   60.501    0.289    0.460    9.258
  250.946  167.294   70.720    0.247    0.462    5.900
  251.196  169.029   74.607    0.247    0.524    3.585
  251.446  171.275   75.874    0.249    0.593    3.684
  251.696  173.109   74.583    0.269    0.585    3.663
  251.946  175.045   70.246    0.258    0.591    4.317
  252.196  168.845   65.181    0.264    0.612    5.648
  252.446  164.601   57.007    0.275    0.538    7.294
  252.696  165.714   50.721    0.284    0.502   11.438
  252.946  166.822   50.710    0.283    0.498   12.973
  253.196  165.984   52.770    0.289    0.504   13.040
  253.446  167.199   57.931    0.310    0.519   12.050
  253.696  167.479   60.659    0.313    0.518   10.559
  253.946  167.354   62.843    0.311    0.504    8.985
  254.196  167.445   66.242    0.296    0.510    7.975
  254.446  167.941   71.407    0.284    0.521    7.222
  254.696  167.922   70.359    0.263    0.535    7.516
  254.946  168.005   64.317    0.261    0.531    8.699
  255.196  167.880   61.383    0.269    0.520   10.309
  255.446  167.551   65.634    0.275    0.478   10.908
  255.696  166.913   68.850    0.279    0.493   10.321
  255.946  168.334   74.198    0.280    0.506    8.719
  256.196  169.961   81.007    0.265    0.536    7.101
  256.446  172.210   87.938    0.249    0.534    5.912
  256.696  176.000   94.380    0.216    0.564    5.247
  256.946  178.349   94.125    0.226    0.581    4.938
  257.196  174.310   91.861    0.212    0.569    4.972
  257.446  177.890   90.508    0.219    0.567    5.915
  257.696  181.069   88.972    0.234    0.562    6.491
  257.946  181.048   88.109    0.251    0.544    7.059
  258.196  177.836   86.697    0.235    0.538    7.691
  258.446  175.034   85.891    0.214    0.521    8.077
  258.696  172.644   84.785    0.223    0.495    8.848
  258.946  169.635   82.337    0.243    0.476    9.483
  259.196  167.661   80.802    0.248    0.453    9.942
  259.446  167.844   80.730    0.241    0.409   10.196
  259.696  169.163   84.493    0.239    0.388   10.155
  259.946  170.484   87.341    0.224    0.418    9.698
  260.196  169.431   89.463    0.208    0.457    8.978
  260.446  168.795   86.710    0.203    0.478    8.716
  260.696  169.600   87.185    0.217    0.503    8.493
  260.946  172.258   93.813    0.236    0.544    7.161
  261.196  174.192  101.839    0.241    0.579    4.884
  261.446  174.793  106.639    0.229    0.622    3.985
  261.696  173.639  107.114    0.218    0.654    3.770
  261.946  170.837  105.031    0.200    0.636    3.818
  262.196  168.550  104.713    0.180    0.623    3.844
  262.446  168.634  105.739    0.181    0.609    4.083
  262.696  170.260  106.275    0.172    0.598    4.415
  262.946  171.684  105.045    0.191    0.614    4.463
  263.196  170.736  101.378    0.192    0.633    4.177
  263.446  169.789  100.697    0.173    0.653    3.945
  263.696  168.841   99.344    0.180    0.668    3.553
  263.946  168.100   98.724    0.200    0.679    3.247
  264.196  168.081   96.946    0.212    0.659    3.306
  264.446  167.340   91.331    0.248    0.643    4.065
  264.696  165.976   84.741    0.287    0.602    5.250
  264.946  164.721   83.390    0.294    0.566    7.150
  265.196  163.261   83.803    0.292    0.462    8.630
  265.446  163.241   82.209    0.284    0.456    9.933
  265.696  163.943   80.734    0.290    0.487   10.021
  265.946  165.981   77.130    0.281    0.489    9.729
  266.196  167.198   70.540    0.277    0.479   10.088
  266.446  167.484   63.463    0.267    0.491   12.243
  266.696  167.365   56.813    0.276    0.484   14.457
  266.946  163.735   50.590    0.287    0.470   16.458
  267.196  169.276   47.226    0.298    0.457   18.096
  267.446  170.084   46.546    0.294    0.471   18.971
  267.696  167.796   46.594    0.293    0.487   20.630
  267.946  164.479   46.156    0.306    0.476   22.352
  268.196  164.769   45.474    0.314    0.484   24.353
  268.446  166.192   46.682    0.324    0.504   26.049
  268.696  167.713   47.644    0.317    0.511   27.261
  268.946  169.855   47.144    0.309    0.532   29.001
  269.196  170.355   47.986    0.308    0.549   30.966
  269.446  170.848   50.348    0.321    0.540   32.943
  269.696  171.237   50.337    0.324    0.522   34.601
  269.946  171.119   50.993    0.325    0.522   33.900
  270.196  171.509   52.992    0.334    0.535   31.787
  270.446  171.075   53.344    0.316    0.542   27.751
  270.696  170.439   53.332    0.321    0.530   30.737
  270.946  170.210   53.992    0.328    0.514   40.211
