~VERSION INFORMATION
 VERS.                 2.0:   CWLS LOG ASCII STANDARD -VERSION 2.0
 WRAP.                  NO:   ONE LINE PER DEPTH STEP
~WELL INFORMATION BLOCK
#MNEM.UNIT           DATA                    DESCRIPTION OF MNEMONIC
#---------    -------------------            -------------------------------
# Generated from Intellog Unique Number	CS_77_79/WELL/897
WELL.         KANDEX CAN-SUP THORNBURY       : Well_name    - WELL
LOC .         00/07-14-078-13W4/0            : Location     - LOCATION
UWI .         00/07-14-078-13W4/0            : Uwi          - UNIQUE WELL ID
ENTR.         JHS                            : Entered      - ENTERED BY
SRVC.         SCHLUMBERGER                   : Scn          - SERVICE COMPANY
STRT.M        259.080                        : top_depth    - START DEPTH
STOP.M        487.330                        : bot_depth    - STOP DEPTH
STEP.M        0.25                           : increment    - STEP LENGTH
 NULL. -999.2500:NULL Value
~CURVE INFORMATION BLOCK
#MNEM UNIT       ERCB CURVE CODE    CURVE DESCRIPTION
#-----------   ------------------   ----------------------------------
DEPT.M        00 001 00 00         : DEPTH        - DEPTH
RHOB.KG/M3    00 350 00 00         : DENS         - BULK DENSITY
GR  .API      00 310 00 00         : GR           - GAMMA RAY
DPHI.V/V      00 890 00 00         : PHID         - DENSITY POROSITY (SANDSTONE)
NPHI.V/V      00 330 00 00         : PHIN         - NEUTRON POROSITY (SANDSTONE)
ILD .OHMM     00 120 00 00         : RESD         - DEEP RESISTIVITY (DIL)
~PARAMETER INFORMATION
#MNEM.UNIT           DATA             DESCRIPTION OF MNEMONIC
#---------         -----------     ------------------------------
GL  .M        681.533              : gl           - GROUND LEVEL ELEVATION
EREF.M        684.886              : kb           - ELEVATION OF DEPTH REFERENCE
DATM.M        684.886              : datum        - DATUM ELEVATION
TDD .M        492.252              : tdd          - TOTAL DEPTH DRILLER
RUN .         ONE                  : Run          - RUN NUMBER
ENG .         BILL                 : Engineer     - RECORDING ENGINEER
WIT .         JIM                  : Witness      - WITNESSED BY
MUD .         GEL                  : Mud_type     - MUD TYPE
MATR.         SANDSTONE            : Logunit      - NEUTRON MATRIX
TMAX.C        21.1111              : BHT          - MAXIMUM RECORDED TEMPERATURE
BHTD.M        492.252              : BHTDEP       - MAXIMUM RECORDED TEMPERATURE
MATR.         1                    : LOGUNIT      - NEUTRON MATRIX
RMT .C        25                   : MDTP         - TEMPERATURE OF MUD
NEUT.         1                    : NEUTRON      - NEUTRON TYPE
RESI.         0                    : RESIST       - RESISTIVITY TYPE
RMC .OHMM     0.25                 : RMC          - RESISTIVITY OF MUD CAKE
RMF .OHMM     0.25                 : RMF          - RESISTIVITY OF MUD FILTRATE
SUFT.C        15                   : SUFT         - SURFACE TEMPERATURE
~A  DEPTH     DENS       GR     PHID     PHIN     RESD
  259.080    0.000  105.132    0.293    0.573    2.800
  259.330    0.000  106.113    0.272    0.587    2.766
  259.580    0.000  105.507    0.273    0.599    2.752
  259.830    0.000  108.182    0.277    0.604    2.755
  260.080    0.000  109.019    0.292    0.617    2.693
  260.330    0.000  107.395    0.294    0.612    2.761
  260.580    0.000  105.384    0.274    0.589    2.757
  260.830    0.000  104.554    0.281    0.564    2.759
  261.080    0.000  105.416    0.294    0.583    2.761
  261.330    0.000  108.215    0.288    0.608    2.763
  261.580    0.000  107.470    0.303    0.613    2.765
  261.830    0.000  105.820    0.305    0.603    2.767
  262.080    0.000  103.144    0.289    0.600    2.824
  262.330    0.000  102.136    0.280    0.593    2.837
  262.580    0.000  102.865    0.282    0.604    2.877
  262.830    0.000  102.277    0.276    0.601    2.913
  263.080    0.000  101.701    0.280    0.613    2.944
  263.330    0.000  102.844    0.289    0.619    2.993
  263.580    0.000  103.753    0.285    0.580    3.024
  263.830    0.000  101.486    0.268    0.555    3.057
  264.080    0.000  101.109    0.271    0.530    3.108
  264.330    0.000  101.365    0.260    0.525    3.205
  264.580    0.000  102.471    0.243    0.545    3.234
  264.830    0.000  105.503    0.233    0.562    3.348
  265.080    0.000  109.081    0.249    0.573    3.376
  265.330    0.000  111.012    0.253    0.590    3.490
  265.580    0.000  109.275    0.265    0.583    3.609
  265.830    0.000  106.472    0.269    0.560    3.644
  266.080    0.000  105.533    0.246    0.546    3.695
  266.330    0.000  106.887    0.250    0.568    3.770
  266.580    0.000  108.163    0.259    0.568    3.859
  266.830    0.000  108.505    0.254    0.566    3.982
  267.080    0.000  112.323    0.233    0.567    4.156
  267.330    0.000  111.399    0.238    0.570    4.240
  267.580    0.000  103.239    0.217    0.562    4.388
  267.830    0.000   98.922    0.193    0.535    4.451
  268.080    0.000  104.010    0.173    0.521    4.393
  268.330    0.000  110.280    0.203    0.535    4.267
  268.580    0.000  112.310    0.224    0.558    4.050
  268.830    0.000  104.560    0.215    0.559    3.936
  269.080    0.000  100.497    0.206    0.536    3.892
  269.330    0.000  101.593    0.204    0.533    3.868
  269.580    0.000  101.500    0.189    0.522    3.868
  269.830    0.000  100.774    0.177    0.524    3.871
  270.080    0.000  100.866    0.195    0.548    3.872
  270.330    0.000  102.437    0.244    0.559    3.873
  270.580    0.000  104.488    0.246    0.557    3.845
  270.830    0.000  106.541    0.238    0.539    3.809
  271.080    0.000  109.711    0.220    0.523    3.801
  271.330    0.000  109.406    0.258    0.520    3.886
  271.580    0.000  107.628    0.257    0.533    3.960
  271.830    0.000  104.755    0.241    0.531    4.038
  272.080    0.000  103.302    0.230    0.520    4.022
  272.330    0.000  102.811    0.232    0.516    3.896
  272.580    0.000  102.436    0.250    0.491    3.784
  272.830    0.000  102.115    0.262    0.489    3.691
  273.080    0.000  101.094    0.247    0.530    3.803
  273.330    0.000   99.154    0.241    0.558    4.241
  273.580    0.000   96.289    0.227    0.547    4.866
  273.830    0.000   93.063    0.241    0.479    5.974
  274.080    0.000   69.903    0.216    0.445    6.844
  274.330    0.000   66.718    0.204    0.435    7.118
  274.580    0.000   73.437    0.271    0.460    7.276
  274.830    0.000   78.159    0.269    0.483    7.077
  275.080    0.000   78.337    0.275    0.444    6.868
  275.330    0.000   80.744    0.289    0.439    6.718
  275.580    0.000   82.741    0.293    0.454    6.865
  275.830    0.000   82.746    0.284    0.481    7.244
  276.080    0.000   81.221    0.253    0.491    7.609
  276.330    0.000   77.958    0.245    0.486    8.586
  276.580    0.000   76.062    0.258    0.469    9.537
  276.830    0.000   75.341    0.284    0.458   11.120
  277.080    0.000   74.636    0.324    0.449   12.392
  277.330    0.000   70.879    0.334    0.445   13.468
  277.580    0.000   71.382    0.327    0.450   13.607
  277.830    0.000   73.002    0.302    0.456   14.075
  278.080    0.000   73.941    0.289    0.469   14.261
  278.330    0.000   71.893    0.295    0.474   14.348
  278.580    0.000   68.201    0.310    0.462   14.360
  278.830    0.000   64.879    0.315    0.470   14.092
  279.080    0.000   60.920    0.326    0.484   13.204
  279.330    0.000   66.283    0.314    0.482   11.805
  279.580    0.000   72.041    0.294    0.458   11.049
  279.830    0.000   78.338    0.277    0.442   10.885
  280.080    0.000   76.554    0.288    0.445   10.852
  280.330    0.000   70.001    0.304    0.454   10.931
  280.580    0.000   71.436    0.259    0.433   10.667
  280.830    0.000   76.672    0.225    0.417    9.976
  281.080    0.000   83.361    0.226    0.420    9.555
  281.330    0.000   87.883    0.236    0.426    9.222
  281.580    0.000   90.186    0.246    0.446    9.141
  281.830    0.000   84.821    0.261    0.452    8.889
  282.080    0.000   81.698    0.265    0.445    8.745
  282.330    0.000   85.718    0.254    0.441    8.402
  282.580    0.000   89.466    0.231    0.443    8.102
  282.830    0.000   91.009    0.248    0.442    8.121
  283.080    0.000   92.552    0.247    0.456    8.235
  283.330    0.000   94.177    0.238    0.478    8.778
  283.580    0.000   91.118    0.234    0.468    9.192
  283.830    0.000   85.135    0.248    0.460    9.583
  284.080    0.000   88.753    0.241    0.442   11.006
  284.330    0.000   92.272    0.246    0.434   11.994
  284.580    0.000   90.734    0.272    0.434   13.312
  284.830    0.000   85.190    0.329    0.452   14.797
  285.080    0.000   78.606    0.346    0.476   16.366
  285.330    0.000   80.537    0.313    0.463   17.715
  285.580    0.000   81.318    0.299    0.450   18.231
  285.830    0.000   81.247    0.310    0.451   18.078
  286.080    0.000   77.909    0.310    0.461   17.910
  286.330    0.000   77.332    0.289    0.437   17.615
  286.580    0.000   79.864    0.293    0.425   17.777
  286.830    0.000   77.589    0.306    0.442   17.984
  287.080    0.000   75.431    0.312    0.449   18.575
  287.330    0.000   75.967    0.330    0.431   19.092
  287.580    0.000   77.800    0.334    0.433   18.692
  287.830    0.000   82.537    0.325    0.441   18.517
  288.080    0.000   87.547    0.305    0.448   18.029
  288.330    0.000   91.841    0.303    0.444   17.433
  288.580    0.000   93.816    0.287    0.441   16.588
  288.830    0.000   91.164    0.270    0.446   15.798
  289.080    0.000   87.588    0.254    0.437   15.610
  289.330    0.000   83.038    0.245    0.409   15.164
  289.580    0.000   76.107    0.225    0.392   14.396
  289.830    0.000   73.509    0.233    0.389   13.945
  290.080    0.000   78.439    0.245    0.416   14.248
  290.330    0.000   75.358    0.273    0.440   13.927
  290.580    0.000   72.972    0.282    0.417   13.229
  290.830    0.000   80.549    0.288    0.416   11.351
  291.080    0.000   88.255    0.271    0.427    9.807
  291.330    0.000   97.623    0.242    0.438    8.566
  291.580    0.000  104.025    0.225    0.447    7.997
  291.830    0.000  107.396    0.206    0.456    7.046
  292.080    0.000  110.481    0.229    0.479    6.405
  292.330    0.000  116.530    0.220    0.497    6.116
  292.580    0.000  118.419    0.177    0.507    5.733
  292.830    0.000  120.771    0.158    0.512    5.509
  293.080    0.000  122.425    0.211    0.516    5.287
  293.330    0.000  122.612    0.184    0.533    5.264
  293.580    0.000  121.645    0.175    0.538    5.440
  293.830    0.000  123.037    0.178    0.531    5.615
  294.080    0.000  121.938    0.197    0.514    5.737
  294.330    0.000  119.006    0.205    0.513    5.590
  294.580    0.000  119.874    0.216    0.514    5.333
  294.830    0.000  122.609    0.207    0.518    4.920
  295.080    0.000  124.650    0.198    0.514    4.524
  295.330    0.000  128.267    0.205    0.521    4.136
