~VERSION INFORMATION
 VERS.                 2.0:   CWLS LOG ASCII STANDARD -VERSION 2.0
 WRAP.                  NO:   ONE LINE PER DEPTH STEP
~WELL INFORMATION BLOCK
#MNEM.UNIT           DATA                    DESCRIPTION OF MNEMONIC
#---------    -------------------            -------------------------------
# Generated from Intellog Unique Number	CC_80_83/WELL/1043
WELL.         01-25-083-02W4                 : Well_name    - WELL
LOC .         00/01-25-083-02W4/0            : Location     - LOCATION
UWI .         00/01-25-083-02W400            : Uwi          - UNIQUE WELL ID
ENTR.         DW                             : Entered      - ENTERED BY
SRVC.         SCHLUMBERGER                   : Scn          - SERVICE COMPANY
STRT.M        90                             : top_depth    - START DEPTH
STOP.M        304.75                         : bot_depth    - STOP DEPTH
STEP.M        0.25                           : increment    - STEP LENGTH
 NULL. -999.2500:NULL Value
~CURVE INFORMATION BLOCK
#MNEM UNIT       ERCB CURVE CODE    CURVE DESCRIPTION
#-----------   ------------------   ----------------------------------
DEPT.M        00 001 00 00         : DEPTH        - DEPTH
GR  .API      00 310 00 00         : GR           - GAMMA RAY
DPHI.V/V      00 890 00 00         : PHID         - DENSITY POROSITY (LIMESTONE)
NPHI.V/V      00 330 00 00         : PHIN         - NEUTRON POROSITY (LIMESTONE)
ILD .OHMM     00 120 00 00         : RESD         - DEEP RESISTIVITY (DIL)
~PARAMETER INFORMATION
#MNEM.UNIT           DATA             DESCRIPTION OF MNEMONIC
#---------         -----------     ------------------------------
GL  .M        477.33               : gl           - GROUND LEVEL ELEVATION
EREF.M        480.33               : kb           - ELEVATION OF DEPTH REFERENCE
DATM.M        480.33               : datum        - DATUM ELEVATION
TDD .M        318                  : tdd          - TOTAL DEPTH DRILLER
RUN .         ONE                  : Run          - RUN NUMBER
ENG .         BILL                 : Engineer     - RECORDING ENGINEER
WIT .         JIM                  : Witness      - WITNESSED BY
MUD .         GEL                  : Mud_type     - MUD TYPE
MATR.         LIMESTONE            : Logunit      - NEUTRON MATRIX
TMAX.C        28                   : BHT          - MAXIMUM RECORDED TEMPERATURE
BHTD.M        318                  : BHTDEP       - MAXIMUM RECORDED TEMPERATURE
MATR.         1                    : LOGUNIT      - NEUTRON MATRIX
RMT .C        25                   : MDTP         - TEMPERATURE OF MUD
NEUT.         1                    : NEUTRON      - NEUTRON TYPE
RESI.         0                    : RESIST       - RESISTIVITY TYPE
RMC .OHMM     0.25                 : RMC          - RESISTIVITY OF MUD CAKE
RMF .OHMM     0.25                 : RMF          - RESISTIVITY OF MUD FILTRATE
SUFT.C        15                   : SUFT         - SURFACE TEMPERATURE
~A  DEPTH       GR     PHID     PHIN     RESD
   90.000   48.191    0.332    0.357   17.925
   90.250   38.661    0.337    0.353   18.765
   90.500   33.704    0.340    0.355   19.721
   90.750   35.864    0.341    0.359   20.424
   91.000   47.138    0.334    0.356   21.149
   91.250   60.686    0.312    0.346   22.244
   91.500   66.553    0.294    0.349   23.710
   91.750   68.822    0.324    0.373   25.686
   92.000   63.534    0.346    0.395   27.026
   92.250   59.709    0.360    0.406   28.583
   92.500   61.630    0.382    0.412   31.648
   92.750   64.659    0.382    0.423   34.901
   93.000   67.219    0.372    0.449   37.083
   93.250   70.408    0.468    0.488   40.915
   93.500   65.942    0.533    0.543   42.149
   93.750   59.859    0.491    0.487   42.942
   94.000   62.264    0.425    0.390   44.329
   94.250   68.526    0.385    0.371   46.026
   94.500   68.502    0.329    0.372   49.052
   94.750   69.722    0.324    0.379   50.761
   95.000   66.622    0.327    0.388   51.366
   95.250   53.422    0.322    0.398   53.333
   95.500   51.002    0.314    0.409   55.479
   95.750   68.550    0.310    0.409   55.916
   96.000   79.538    0.322    0.390   55.903
   96.250   73.559    0.350    0.371   55.934
   96.500   65.646    0.344    0.361   55.443
   96.750   62.165    0.334    0.354   53.533
   97.000   65.328    0.357    0.365   50.853
   97.250   68.168    0.390    0.385   48.742
   97.500   61.908    0.392    0.428   48.184
   97.750   61.630    0.377    0.576   49.762
   98.000   68.031    0.358    0.526   50.423
   98.250   74.696    0.331    0.414   52.848
   98.500   75.076    0.310    0.394   55.682
   98.750   71.136    0.308    0.408   55.845
   99.000   71.115    0.313    0.393   55.944
   99.250   74.235    0.320    0.352   58.614
   99.500   75.339    0.320    0.258   60.352
   99.750   70.690    0.303    0.270   59.392
  100.000   66.849    0.280    0.369   57.266
  100.250   68.597    0.282    0.409   55.707
  100.500   70.565    0.302    0.390   54.932
  100.750   70.447    0.280    0.370   54.926
  101.000   67.258    0.307    0.355   54.900
  101.250   69.104    0.356    0.360   55.123
  101.500   72.360    0.389    0.389   54.381
  101.750   69.825    0.412    0.404   52.700
  102.000   65.135    0.428    0.370   51.968
  102.250   60.888    0.447    0.347   50.504
  102.500   58.585    0.480    0.372   48.145
  102.750   56.387    0.443    0.398   46.724
  103.000   53.919    0.364    0.409   46.383
  103.250   54.973    0.324    0.399   46.633
  103.500   59.705    0.313    0.359   47.367
  103.750   58.559    0.315    0.357   46.219
  104.000   55.309    0.328    0.367   42.418
  104.250   52.983    0.341    0.379   39.089
  104.500   50.900    0.342    0.385   37.206
  104.750   49.208    0.329    0.387   36.574
  105.000   50.002    0.315    0.387   37.898
  105.250   53.045    0.313    0.363   39.205
  105.500   55.025    0.321    0.357   39.406
  105.750   50.897    0.329    0.377   39.433
  106.000   43.745    0.338    0.395   40.932
  106.250   39.870    0.352    0.385   42.449
  106.500   40.912    0.364    0.362   41.612
  106.750   48.970    0.367    0.374   41.116
  107.000   67.044    0.366    0.379   38.639
  107.250   79.903    0.297    0.378   35.024
  107.500   83.352    0.240    0.382   29.348
  107.750   85.344    0.258    0.383   22.783
  108.000   85.501    0.262    0.377   19.765
  108.250   79.066    0.252    0.369   17.956
  108.500   78.940    0.241    0.373   17.187
  108.750   83.113    0.236    0.385   19.723
  109.000   85.591    0.237    0.401   25.477
  109.250   85.260    0.243    0.413   32.265
  109.500   81.899    0.257    0.416   37.941
  109.750   75.411    0.288    0.414   40.566
  110.000   68.550    0.304    0.414   41.975
  110.250   62.703    0.300    0.372   42.674
  110.500   58.694    0.294    0.332   37.902
  110.750   60.574    0.295    0.335   29.699
  111.000   69.150    0.296    0.337   26.645
  111.250   73.538    0.291    0.339   24.584
  111.500   74.974    0.288    0.354   23.753
  111.750   67.334    0.310    0.405   24.232
  112.000   53.190    0.339    0.420   25.028
  112.250   42.658    0.342    0.369   25.905
  112.500   40.538    0.322    0.344   27.157
  112.750   45.795    0.323    0.355   27.701
  113.000   47.392    0.337    0.370   27.099
  113.250   47.676    0.345    0.359   25.956
  113.500   45.753    0.344    0.344   24.703
  113.750   41.164    0.344    0.352   23.705
  114.000   40.596    0.353    0.360   23.407
  114.250   42.453    0.359    0.364   23.411
  114.500   45.384    0.363    0.366   23.507
  114.750   43.367    0.362    0.364   24.931
  115.000   38.096    0.358    0.358   26.814
  115.250   35.552    0.347    0.350   27.870
  115.500   38.216    0.329    0.344   28.209
  115.750   47.489    0.322    0.346   26.962
  116.000   53.465    0.319    0.370   25.636
  116.250   56.242    0.318    0.389   22.680
  116.500   55.527    0.326    0.394   19.639
  116.750   47.650    0.336    0.383   18.589
  117.000   40.104    0.334    0.355   18.050
  117.250   50.344    0.335    0.347   17.961
  117.500   59.669    0.347    0.346   18.750
  117.750   63.337    0.392    0.386   19.345
  118.000   66.916    0.411    0.424   19.530
  118.250   77.369    0.375    0.418   19.322
  118.500   93.234    0.338    0.411   18.397
  118.750   96.169    0.300    0.401   17.867
  119.000   91.612    0.307    0.397   16.866
  119.250   74.147    0.326    0.391   16.085
  119.500   57.773    0.328    0.400   15.672
  119.750   54.371    0.320    0.411   15.190
  120.000   53.031    0.314    0.392   15.277
  120.250   56.562    0.310    0.384   16.539
  120.500   58.909    0.307    0.377   17.152
  120.750   59.308    0.307    0.387   16.753
  121.000   58.911    0.317    0.410   15.625
  121.250   58.638    0.336    0.421   14.179
  121.500   59.804    0.340    0.417   13.168
  121.750   61.353    0.321    0.415   12.903
  122.000   62.598    0.302    0.418   13.194
  122.250   62.999    0.303    0.407   13.887
  122.500   62.757    0.312    0.385   15.570
  122.750   62.105    0.318    0.378   17.268
  123.000   61.083    0.323    0.385   17.417
  123.250   60.550    0.324    0.371   18.029
  123.500   60.333    0.333    0.369   17.700
  123.750   61.367    0.339    0.381   17.205
  124.000   65.988    0.330    0.395   16.997
  124.250   73.641    0.303    0.417   16.757
  124.500   78.219    0.270    0.436   16.787
  124.750   74.857    0.271    0.401   17.021
  125.000   72.243    0.298    0.390   17.541
  125.250   75.135    0.316    0.402   17.935
  125.500   78.419    0.304    0.416   17.351
  125.750   78.093    0.285    0.423   15.885
  126.000   77.061    0.295    0.417   14.741
  126.250   75.669    0.317    0.416   14.259
  126.500   72.903    0.321    0.412   14.009
  126.750   69.813    0.308    0.410   13.905
  127.000   68.181    0.290    0.410   14.010
  127.250   69.887    0.280    0.405   14.262
  127.500   74.068    0.279    0.405   14.475
  127.750   73.787    0.279    0.429   14.479
  128.000   67.029    0.282    0.442   14.495
  128.250   62.465    0.289    0.424   14.367
  128.500   64.706    0.284    0.403   14.116
  128.750   70.408    0.265    0.403   13.911
  129.000   75.958    0.255    0.409   13.693
  129.250   81.142    0.258    0.411   13.463
  129.500   84.999    0.259    0.408   13.455
  129.750   85.693    0.250    0.411   13.325
  130.000   83.368    0.236    0.421   13.168
  130.250   80.372    0.239    0.429   13.203
  130.500   78.458    0.269    0.426   13.198
  130.750   76.222    0.286    0.416   13.200
  131.000   70.726    0.305    0.403   13.194
  131.250   64.612    0.302    0.385   13.220
  131.500   59.322    0.286    0.377   13.139
  131.750   56.411    0.298    0.388   12.918
  132.000   58.385    0.332    0.393   12.720
  132.250   61.489    0.334    0.389   12.498
  132.500   63.715    0.329    0.388   12.542
  132.750   63.185    0.326    0.387   12.166
  133.000   61.605    0.330    0.385   11.680
  133.250   61.620    0.338    0.385   10.875
