~VERSION INFORMATION
 VERS.                 2.0:   CWLS LOG ASCII STANDARD -VERSION 2.0
 WRAP.                  NO:   ONE LINE PER DEPTH STEP
~WELL INFORMATION BLOCK
#MNEM.UNIT           DATA                    DESCRIPTION OF MNEMONIC
#---------    -------------------            -------------------------------
# Generated from Intellog Unique Number	CW_79_81/WELL/2443
WELL.         04-01-080-22W4                 : Well_name    - WELL
LOC .         00/04-01-080-22W4/0            : Location     - LOCATION
UWI .         00/04-01-080-22W4/0            : Uwi          - UNIQUE WELL ID
ENTR.         MAX                            : Entered      - ENTERED BY
SRVC.         COMPUTALOG                     : Scn          - SERVICE COMPANY
STRT.M        215                            : top_depth    - START DEPTH
STOP.M        474.75                         : bot_depth    - STOP DEPTH
STEP.M        0.25                           : increment    - STEP LENGTH
 NULL. -999.2500:NULL Value
~CURVE INFORMATION BLOCK
#MNEM UNIT       ERCB CURVE CODE    CURVE DESCRIPTION
#-----------   ------------------   ----------------------------------
DEPT.M        00 001 00 00         : DEPTH        - DEPTH
ILD .OHMM     00 120 00 00         : RESD         - DEEP RESISTIVITY (DIL)
NPHI.V/V      00 330 00 00         : PHIN         - NEUTRON POROSITY (SANDSTONE)
DPHI.V/V      00 890 00 00         : PHID         - DENSITY POROSITY (SANDSTONE)
GR  .API      00 310 00 00         : GR           - GAMMA RAY
CALI.MM       00 280 01 00         : CAL          - CALIPER
~PARAMETER INFORMATION
#MNEM.UNIT           DATA             DESCRIPTION OF MNEMONIC
#---------         -----------     ------------------------------
GL  .M        585.4                : gl           - GROUND LEVEL ELEVATION
EREF.M        590                  : kb           - ELEVATION OF DEPTH REFERENCE
DATM.M        585.4                : datum        - DATUM ELEVATION
TDD .M        477                  : tdd          - TOTAL DEPTH DRILLER
RUN .         ONE                  : Run          - RUN NUMBER
ENG .         BILL                 : Engineer     - RECORDING ENGINEER
WIT .         JIM                  : Witness      - WITNESSED BY
MUD .         GEL                  : Mud_type     - MUD TYPE
MATR.         SANDSTONE            : Logunit      - NEUTRON MATRIX
TMAX.C        30                   : BHT          - MAXIMUM RECORDED TEMPERATURE
BHTD.M        477                  : BHTDEP       - MAXIMUM RECORDED TEMPERATURE
MATR.         1                    : LOGUNIT      - NEUTRON MATRIX
RMT .C        20                   : MDTP         - TEMPERATURE OF MUD
NEUT.         1                    : NEUTRON      - NEUTRON TYPE
RESI.         0                    : RESIST       - RESISTIVITY TYPE
RMC .OHMM     8                    : RMC          - RESISTIVITY OF MUD CAKE
RMF .OHMM     10                   : RMF          - RESISTIVITY OF MUD FILTRATE
SUFT.C        -20                  : SUFT         - SURFACE TEMPERATURE
~A  DEPTH     RESD     PHIN     PHID       GR      CAL
# ...
  397.500   28.067    0.204    0.039   71.740  223.603
  397.750   22.251    0.314    0.134   71.227  223.168
  398.000   20.334    0.363    0.171   75.743  222.792
  398.250   19.478    0.372    0.187   79.598  222.436
  398.500   19.078    0.397    0.188   76.087  221.774
  398.750   18.961    0.423    0.180   73.234  221.210
  399.000   19.021    0.442    0.169   73.676  220.945
  399.250   19.219    0.438    0.160   74.860  221.071
  399.500   19.388    0.411    0.157   75.885  221.527
  399.750   19.277    0.391    0.164   78.543  222.364
  400.000   19.156    0.377    0.173   80.660  222.899
  400.250   18.613    0.365    0.184   82.718  222.936
  400.500   17.704    0.367    0.194   84.179  222.276
  400.750   16.713    0.400    0.194   82.240  220.227
  401.000   16.105    0.416    0.197   76.024  217.772
  401.250   15.773    0.404    0.200   81.554  217.803
  401.500   15.534    0.383    0.197   82.236  219.043
  401.750   15.382    0.368    0.178   83.457  219.882
  402.000   15.287    0.361    0.152   87.551  220.116
  402.250   15.151    0.360    0.148   95.352  221.203
  402.500   14.943    0.369    0.173  103.111  222.490
  402.750   14.848    0.370    0.179  105.769  223.324
  403.000   14.755    0.360    0.172  103.936  223.561
  403.250   14.610    0.356    0.159  101.922  223.799
  403.500   14.415    0.360    0.150  101.585  224.237
  403.750   14.136    0.362    0.153  102.283  224.682
  404.000   13.730    0.344    0.164  102.053  224.719
  404.250   13.447    0.358    0.168  105.669  224.765
  404.500   13.242    0.372    0.155  108.207  224.803
  404.750   13.064    0.379    0.143  105.594  224.836
  405.000   12.864    0.380    0.136  100.047  224.869
  405.250   12.561    0.393    0.110  101.524  224.998
  405.500   12.386    0.414    0.031  108.782  225.450
  405.750   12.497    0.418    0.083  112.161  225.489
  406.000   12.741    0.398    0.119  112.301  225.527
  406.250   13.180    0.374    0.142  111.005  225.368
  406.500   13.794    0.353    0.158  108.932  225.109
  406.750   14.378    0.326    0.172  105.953  225.152
  407.000   14.070    0.317    0.169  107.724  225.188
  407.250   13.374    0.338    0.161  115.412  225.223
  407.500   13.078    0.360    0.148  115.015  225.560
  407.750   13.141    0.352    0.119  104.256  225.798
  408.000   13.569    0.314    0.077   91.462  225.636
  408.250   14.551    0.291    0.051   97.059  224.880
  408.500   15.261    0.322    0.111  104.569  224.916
  408.750   15.276    0.340    0.137  108.904  225.753
  409.000   15.379    0.358    0.145  107.131  226.893
  409.250   15.737    0.366    0.155  103.082  227.129
  409.500   16.546    0.359    0.169   99.093  226.165
  409.750   18.364    0.326    0.173   95.056  224.368
  410.000   19.711    0.304    0.156   90.336  223.157
  410.250   20.172    0.271    0.112   84.609  223.998
  410.500   20.310    0.266    0.100   88.763  224.830
  410.750   20.337    0.293    0.116   92.739  224.865
  411.000   20.476    0.328    0.138   92.702  224.005
  411.250   21.124    0.306    0.119   89.805  222.937
  411.500   21.978    0.292    0.082   83.589  223.389
  411.750   23.161    0.287    0.077   78.341  223.827
  412.000   23.238    0.296    0.070   89.441  223.965
  412.250   22.495    0.312    0.070  100.723  224.202
  412.500   21.184    0.328    0.091  104.699  224.536
  412.750   19.298    0.332    0.152  101.523  224.580
  413.000   18.596    0.330    0.176   96.307  224.624
  413.250   18.208    0.336    0.171   97.525  225.062
  413.500   17.930    0.336    0.154   94.973  225.195
  413.750   17.689    0.330    0.141   92.719  225.429
  414.000   17.449    0.323    0.135   93.639  225.766
  414.250   17.195    0.337    0.125  101.911  225.811
  414.500   17.090    0.359    0.124  114.412  225.859
  414.750   17.108    0.364    0.133  109.163  226.289
  415.000   18.081    0.362    0.156   93.674  226.423
  415.250   19.955    0.356    0.178   79.561  226.463
  415.500   23.637    0.350    0.193   70.601  226.307
  415.750   34.760    0.349    0.209   62.873  225.218
  416.000   41.641    0.371    0.217   63.643  223.586
  416.250   47.831    0.390    0.233   63.666  221.633
  416.500   51.102    0.395    0.238   59.915  221.167
  416.750   53.460    0.389    0.242   56.227  220.603
  417.000   56.459    0.374    0.248   53.617  219.146
  417.250   60.715    0.350    0.252   49.386  216.884
  417.500   64.656    0.334    0.245   44.919  217.336
  417.750   70.658    0.356    0.244   42.786  218.177
  418.000   74.807    0.367    0.246   44.784  219.012
  418.250   76.879    0.364    0.248   47.083  220.646
  418.500   76.383    0.352    0.250   47.407  222.579
  418.750   71.398    0.345    0.255   45.286  222.851
  419.000   65.757    0.330    0.258   46.555  222.064
  419.250   62.042    0.336    0.252   53.285  219.704
  419.500   59.566    0.350    0.241   53.009  217.642
  419.750   57.920    0.358    0.232   52.553  216.681
  420.000   56.826    0.357    0.231   54.013  216.818
  420.250   56.086    0.344    0.238   55.007  217.844
  420.500   56.144    0.331    0.245   56.279  220.804
  420.750   56.208    0.352    0.246   54.625  222.032
  421.000   57.533    0.368    0.248   52.790  222.965
  421.250   58.474    0.369    0.246   51.854  223.602
  421.500   57.882    0.355    0.239   51.877  223.942
  421.750   54.408    0.333    0.226   51.903  223.902
  422.000   49.734    0.327    0.213   51.930  223.526
  422.250   44.187    0.350    0.225   56.499  223.565
  422.500   38.150    0.349    0.233   58.198  223.897
  422.750   32.721    0.335    0.241   63.372  224.134
  423.000   28.108    0.324    0.244   72.977  224.374
  423.250   23.530    0.335    0.228   83.040  225.381
  423.500   20.715    0.324    0.214   85.305  226.249
  423.750   18.547    0.319    0.182   95.867  227.090
  424.000   16.422    0.329    0.135  102.478  227.623
  424.250   14.390    0.334    0.112  104.177  227.861
  424.500   12.542    0.333    0.122  103.540  227.904
  424.750   10.865    0.348    0.141  106.931  227.779
  425.000   10.469    0.351    0.144  108.203  226.980
  425.250   10.559    0.385    0.154  105.352  226.220
  425.500   11.360    0.408    0.158   97.289  225.760
  425.750   13.786    0.401    0.168   85.332  225.200
  426.000   19.190    0.362    0.181   74.215  224.638
  426.250   26.606    0.302    0.174   70.737  224.848
  426.500   26.233    0.242    0.124   64.022  225.725
  426.750   24.202    0.184    0.033   65.722  226.558
  427.000   19.595    0.200    0.033   86.646  226.499
  427.250   16.249    0.274    0.084  106.194  226.535
  427.500   14.237    0.352    0.141  117.295  227.268
  427.750   12.720    0.333    0.156  124.929  228.915
  428.000   11.983    0.310    0.141  117.464  228.951
  428.250   11.995    0.302    0.142  113.179  228.982
  428.500   13.288    0.330    0.142  110.146  229.022
  428.750   15.354    0.381    0.151  102.740  228.663
  429.000   18.464    0.422    0.171   88.628  227.702
  429.250   27.208    0.387    0.199   67.923  225.977
  429.500   36.751    0.364    0.224   63.708  225.186
  429.750   39.289    0.370    0.232   68.279  225.225
  430.000   39.800    0.363    0.220   67.823  225.560
  430.250   38.826    0.343    0.211   65.571  225.796
  430.500   37.054    0.318    0.210   64.335  225.934
  430.750   34.037    0.306    0.203   66.266  226.376
  431.000   29.973    0.305    0.195   65.047  226.416
  431.250   27.035    0.306    0.189   66.982  226.455
  431.500   24.539    0.290    0.177   75.747  226.496
  431.750   22.151    0.274    0.162   86.430  226.136
  432.000   20.076    0.272    0.150   94.417  225.471
  432.250   18.454    0.290    0.145   94.254  225.028
  432.500   17.388    0.289    0.141   88.539  224.657
  432.750   16.901    0.280    0.118   80.895  224.692
  433.000   16.613    0.290    0.101   85.827  224.732
  433.250   16.450    0.302    0.103   86.090  224.569
  433.500   16.381    0.309    0.117   77.550  224.302
  433.750   16.505    0.308    0.119   68.442  224.428
