~VERSION INFORMATION
 VERS.                 2.0:   CWLS LOG ASCII STANDARD -VERSION 2.0
 WRAP.                  NO:   ONE LINE PER DEPTH STEP
~WELL INFORMATION BLOCK
#MNEM.UNIT           DATA                    DESCRIPTION OF MNEMONIC
#---------    -------------------            -------------------------------
# Generated from Intellog Unique Number	CC_84_87/WELL/1054
NULL.         -999.25                        : NULL_VALUE
WELL.         PETROREP ET AL HOUSE           : Well_name    - WELL
LOC .         04-23-085-17W4                 : Location     - LOCATION          
UWI .         00/04-23-085-17W400            : Uwi          - UNIQUE WELL ID    
ENTR.         DW                             : Entered      - ENTERED BY        
SRVC.         COMPUTALOG                     : Scn          - SERVICE COMPANY   
DATE.         01 FEB 81                      : Date         - LOG DATE
STRT.M        100                            : top_depth    - START DEPTH       
STOP.M        253.002                        : bot_depth    - STOP DEPTH        
STEP.M        0.3                            : increment    - STEP LENGTH       
~CURVE INFORMATION BLOCK
#MNEM UNIT       ERCB CURVE CODE    CURVE DESCRIPTION
#-----------   ------------------   ----------------------------------
DEPT.M        00 001 00 00         : DEPTH        - DEPTH                       
DPHI.V/V      00 890 00 00         : PHID         - DENSITY POROSITY (LIMESTONE)
NPHI.V/V      00 330 00 00         : PHIN         - NEUTRON POROSITY (LIMESTONE)
GR  .API      00 310 00 00         : GR           - GAMMA RAY                   
ILD .OHMM     00 120 00 00         : RESD         - DEEP RESISTIVITY (DIL)      
~PARAMETER INFORMATION       
#MNEM.UNIT           DATA             DESCRIPTION OF MNEMONIC
#---------         -----------     ------------------------------
GL  .M        512.2                : gl           - GROUND LEVEL ELEVATION      
EREF.M        515.86               : kb           - ELEVATION OF DEPTH REFERENCE
DATM.M        515.86               : datum        - DATUM ELEVATION             
TDD .M        254                  : tdd          - TOTAL DEPTH DRILLER         
RUN .         ONE                  : Run          - RUN NUMBER                  
ENG .         BILL                 : Engineer     - RECORDING ENGINEER          
WIT .         JIM                  : Witness      - WITNESSED BY                
MUD .         GEL                  : Mud_type     - MUD TYPE                    
MATR.         LIMESTONE            : Logunit      - NEUTRON MATRIX              
TMAX.C        16                   : BHT          - MAXIMUM RECORDED TEMPERATURE
BHTD.M        254                  : BHTDEP       - MAXIMUM RECORDED TEMPERATURE
MATR.         1                    : LOGUNIT      - NEUTRON MATRIX              
RMT .C        25                   : MDTP         - TEMPERATURE OF MUD          
NEUT.         1                    : NEUTRON      - NEUTRON TYPE                
RESI.         0                    : RESIST       - RESISTIVITY TYPE            
RMC .OHMM     0.25                 : RMC          - RESISTIVITY OF MUD CAKE     
RMF .OHMM     0.25                 : RMF          - RESISTIVITY OF MUD FILTRATE 
SUFT.C        15                   : SUFT         - SURFACE TEMPERATURE         
~A  DEPTH     PHID     PHIN       GR     RESD
# ...
  204.401    0.140    0.423   90.229   12.270
  204.701    0.129    0.344   88.361   10.959
  205.001    0.162    0.360  110.696    8.908
  205.301    0.203    0.421  115.034    7.956
  205.601    0.188    0.460  115.026    7.663
  205.901    0.152    0.440  111.297    7.810
  206.201    0.135    0.375  107.567    8.266
  206.501    0.144    0.355  110.044    8.748
  206.801    0.167    0.348  116.243    9.086
  207.101    0.178    0.350  114.995    9.088
  207.401    0.180    0.375  117.470    9.089
  207.701    0.162    0.402  123.050    8.590
  208.001    0.153    0.452  128.009    8.275
  208.301    0.168    0.381  131.104    8.433
  208.601    0.172    0.359  132.339    9.096
  208.901    0.161    0.365  130.472    9.446
  209.201    0.176    0.387  124.258   10.579
  209.501    0.173    0.401  123.012   12.073
  209.801    0.095    0.415  126.729   12.778
  210.101    0.125    0.429  131.067   12.781
  210.401    0.168    0.404  125.475   12.310
  210.701    0.173    0.355  119.883   12.081
  211.001    0.170    0.333  119.254   11.637
  211.301    0.171    0.342  119.869   11.421
  211.601    0.167    0.354  119.863   11.423
  211.901    0.162    0.388  117.995   11.642
  212.201    0.181    0.407  113.645   12.321
  212.501    0.199    0.360  110.536   12.797
  212.801    0.214    0.321  109.288   13.043
  213.101    0.221    0.345  106.799   13.045
  213.401    0.204    0.370  104.310   12.803
  213.701    0.203    0.365  100.578   12.805
  214.001    0.209    0.350   97.469   13.052
  214.301    0.167    0.342   94.983   13.053
  214.601    0.139    0.371   90.631   13.557
  214.901    0.186    0.375   89.383   15.183
  215.201    0.195    0.334   91.240   20.533
  215.501    0.172    0.358   91.853   26.240
  215.801    0.140    0.295   81.918   31.099
  216.101    0.003    0.145   67.638   31.695
  216.401    0.000    0.165   67.010   27.262
  216.701    0.000    0.253   75.072   22.581
  217.001    0.086    0.304   85.616   20.168
  217.301    0.116    0.315   90.574   16.706
  217.601    0.140    0.311   90.566   14.642
  217.901    0.186    0.312   91.181   13.839
  218.201    0.201    0.344   97.381   13.080
  218.501    0.208    0.354  101.718   13.331
  218.801    0.214    0.373   97.987   14.931
  219.101    0.210    0.382   92.397   15.507
  219.401    0.145    0.308   86.805   15.509
  219.701    0.137    0.285   86.177   14.386
  220.001    0.193    0.306   92.997   13.343
  220.301    0.193    0.364  102.300   12.850
  220.601    0.190    0.384  107.258   12.146
  220.901    0.196    0.389  107.252   12.379
  221.201    0.176    0.367  102.901   12.381
  221.501    0.158    0.346  102.895   12.383
  221.801    0.151    0.330  105.372   11.927
  222.101    0.179    0.331  109.709   11.705
  222.401    0.194    0.373  109.082   11.063
  222.701    0.182    0.394  103.490   10.457
  223.001    0.136    0.400  101.621    9.518
  223.301    0.122    0.402  103.478    9.167
  223.601    0.160    0.410  109.677    8.829
  223.901    0.181    0.407  109.670    8.189
  224.201    0.176    0.383  114.629    7.453
  224.501    0.172    0.368  122.070    6.174
  224.801    0.180    0.364  126.408    5.514
  225.101    0.179    0.361  118.953    5.114
  225.401    0.170    0.370  118.327    5.115
  225.701    0.166    0.405  130.111    5.517
  226.001    0.171    0.434  138.172    6.063
  226.301    0.172    0.396  140.649    7.051
  226.601    0.166    0.369  141.884    7.897
  226.901    0.145    0.369  131.327   10.284
  227.201    0.109    0.380  114.565   14.717
  227.501    0.059    0.320   99.663   19.167
  227.801    0.072    0.275   92.211   24.037
  228.101    0.115    0.347   67.381   30.719
  228.401    0.266    0.406   51.238   36.406
  228.701    0.262    0.382   43.164   43.148
  229.001    0.255    0.364   40.676   43.153
  229.301    0.255    0.394   44.391   40.027
  229.601    0.261    0.412   46.869   38.550
  229.901    0.273    0.403   48.724   37.129
  230.201    0.272    0.379   49.338   37.137
  230.501    0.269    0.407   49.952   35.769
  230.801    0.276    0.417   51.187   35.104
  231.101    0.291    0.398   53.662   31.355
  231.401    0.285    0.390   57.999   28.005
  231.701    0.282    0.401   62.959   24.089
  232.001    0.275    0.388   64.194   23.201
  232.301    0.265    0.376   63.564   22.346
  232.601    0.265    0.371   64.181   20.339
  232.901    0.265    0.368   69.139   17.493
  233.201    0.253    0.330   77.821   12.460
  233.501    0.218    0.309   85.262    7.926
  233.801    0.156    0.318   95.806    5.754
  234.101    0.157    0.341  103.245    4.766
  234.401    0.213    0.366  112.548    3.873
  234.701    0.219    0.440  122.471    3.661
  235.001    0.196    0.454  124.947    3.731
  235.301    0.178    0.436  122.458    4.024
  235.601    0.170    0.426  127.417    4.953
  235.901    0.161    0.494  131.755    6.211
  236.201    0.129    0.486  118.096    6.699
  236.501    0.033    0.277   97.609    6.213
  236.801    0.143    0.267  108.153    5.549
  237.101    0.190    0.360  129.247    4.684
  237.401    0.205    0.388  134.824    4.511
  237.701    0.206    0.398  135.439    5.552
  238.001    0.185    0.453  132.331    7.096
  238.301    0.088    0.427  115.567    9.068
  238.601    0.078    0.343  108.734   12.263
  238.901    0.136    0.311  105.005   15.970
  239.201    0.180    0.300  101.275   19.655
  239.501    0.206    0.379   88.236   23.294
  239.801    0.239    0.402   75.197   27.606
  240.101    0.245    0.363   72.085   30.340
  240.401    0.239    0.348   72.080   26.594
  240.701    0.237    0.370   75.178   24.205
  241.001    0.216    0.359   85.101   23.313
  241.301    0.205    0.357   98.127   23.315
  241.601    0.198    0.364  106.189   24.216
  241.901    0.193    0.349  109.905   26.614
  242.201    0.175    0.368   96.246   33.376
  242.501    0.184    0.333   82.587   41.857
  242.801    0.200    0.311   75.754   46.004
  243.101    0.231    0.340   83.814   38.830
  243.401    0.253    0.316   96.841   29.826
  243.701    0.211    0.319  114.832   25.654
  244.001    0.176    0.387  137.167   24.709
  244.301    0.178    0.372  128.471   25.182
  244.601    0.204    0.353  117.294   29.287
  244.901    0.230    0.369  109.220   39.607
  245.201    0.246    0.404  101.767   52.562
  245.501    0.264    0.389  101.140   65.918
  245.801    0.270    0.389  105.478   79.610
  246.101    0.267    0.437   84.992   89.158
  246.401    0.265    0.424   75.056   85.875
  246.701    0.268    0.392   81.876   71.127
  247.001    0.278    0.369   89.317   50.666
  247.301    0.279    0.356   94.894   43.580
  247.602    0.269    0.398   96.751   44.415
  247.902    0.217    0.435   98.604   56.765
  248.202    0.215    0.398   98.599   64.781
  248.502    0.242    0.339   99.835   75.341
  248.802    0.257    0.322  101.069   78.248
  249.102    0.263    0.359  102.302   67.304
  249.402    0.268    0.344  102.296   47.940
  249.702    0.240    0.301  101.671   34.800
  250.002    0.155    0.263   99.801   31.082
  250.302    0.147    0.297    8.569   31.679
  250.602    0.195    0.321   11.042   32.902
  250.902    0.237    0.300   12.279   33.534
  251.202    0.253    0.281   13.514   33.538
  251.502    0.219    0.291   15.369   32.304
  251.802    0.204    0.302   15.984   31.113
  252.102    0.209    0.305   17.218   29.965
  252.402    0.204    0.304   17.831   28.862
  252.702    0.193    0.284   17.826   27.798
  253.002    0.192    0.186   18.439   27.282
