~VERSION INFORMATION
 VERS.                 2.0:   CWLS LOG ASCII STANDARD -VERSION 2.0
 WRAP.                  NO:   ONE LINE PER DEPTH STEP
~WELL INFORMATION BLOCK
#MNEM.UNIT           DATA                    DESCRIPTION OF MNEMONIC
#---------    -------------------            -------------------------------
# Generated from Intellog Unique Number	CS_73_76/WELL/2391
WELL.         ALLIED ROXANA MINERALS LT      : Well_name    - WELL
LOC .         00/07-25-075-16W4/0            : Location     - LOCATION
UWI .         00/07-25-075-16W4/0            : Uwi          - UNIQUE WELL ID
ENTR.         SP                             : Entered      - ENTERED BY
SRVC.         SCHLUMBERGER                   : Scn          - SERVICE COMPANY
STRT.M        371.856                        : top_depth    - START DEPTH
STOP.M        581.856                        : bot_depth    - STOP DEPTH
STEP.M        0.25                           : increment    - STEP LENGTH
 NULL. -999.2500:NULL Value
~CURVE INFORMATION BLOCK
#MNEM UNIT       ERCB CURVE CODE    CURVE DESCRIPTION
#-----------   ------------------   ----------------------------------
DEPT.M        00 001 00 00         : DEPTH        - DEPTH
GR  .API      00 310 00 00         : GR           - GAMMA RAY
DPHI.V/V      00 890 00 00         : PHID         - DENSITY POROSITY (SANDSTONE)
NPHI.V/V      00 330 00 00         : PHIN         - NEUTRON POROSITY (SANDSTONE)
ILD .OHMM     00 120 00 00         : RESD         - DEEP RESISTIVITY (DIL)
~PARAMETER INFORMATION
#MNEM.UNIT           DATA             DESCRIPTION OF MNEMONIC
#---------         -----------     ------------------------------
GL  .M        742.493              : gl           - GROUND LEVEL ELEVATION
EREF.M        745.541              : kb           - ELEVATION OF DEPTH REFERENCE
DATM.M        742.493              : datum        - DATUM ELEVATION
TDD .M        600.456              : tdd          - TOTAL DEPTH DRILLER
RUN .         ONE                  : Run          - RUN NUMBER
ENG .         BILL                 : Engineer     - RECORDING ENGINEER
WIT .         JIM                  : Witness      - WITNESSED BY
MUD .         GEL                  : Mud_type     - MUD TYPE
MATR.         SANDSTONE            : Logunit      - NEUTRON MATRIX
TMAX.C        10.5556              : BHT          - MAXIMUM RECORDED TEMPERATURE
BHTD.M        448.056              : BHTDEP       - MAXIMUM RECORDED TEMPERATURE
MATR.         1                    : LOGUNIT      - NEUTRON MATRIX
RMT .C        25                   : MDTP         - TEMPERATURE OF MUD
NEUT.         1                    : NEUTRON      - NEUTRON TYPE
RESI.         0                    : RESIST       - RESISTIVITY TYPE
RMC .OHMM     0.25                 : RMC          - RESISTIVITY OF MUD CAKE
RMF .OHMM     0.25                 : RMF          - RESISTIVITY OF MUD FILTRATE
SUFT.C        15                   : SUFT         - SURFACE TEMPERATURE
~A  DEPTH       GR     PHID     PHIN     RESD
# ...
  502.356   98.365    0.213    0.469    5.584
  502.606   97.932    0.228    0.471    5.636
  502.856   98.714    0.219    0.483    5.592
  503.106   97.126    0.221    0.496    5.563
  503.356   95.019    0.230    0.502    5.425
  503.606   97.056    0.242    0.501    5.344
  503.856   99.292    0.232    0.488    4.981
  504.106  100.340    0.227    0.494    4.939
  504.356   99.516    0.221    0.498    4.922
  504.606   89.997    0.241    0.505    4.919
  504.856   85.775    0.239    0.481    5.294
  505.106   78.205    0.217    0.443    5.728
  505.356   71.077    0.186    0.426    6.643
  505.606   67.718    0.193    0.426    7.228
  505.856   64.461    0.251    0.433    8.004
  506.106   62.520    0.277    0.433    8.512
  506.356   62.369    0.299    0.426    8.992
  506.606   59.956    0.306    0.419    8.416
  506.856   60.581    0.308    0.424    7.611
  507.106   61.811    0.315    0.430    7.045
  507.356   63.129    0.304    0.438    6.569
  507.606   63.713    0.297    0.440    6.283
  507.856   63.713    0.305    0.436    6.161
  508.106   63.069    0.295    0.435    6.030
  508.356   62.081    0.303    0.443    6.031
  508.606   61.093    0.312    0.442    6.030
  508.856   60.094    0.303    0.440    6.029
  509.106   60.666    0.309    0.450    6.018
  509.356   62.785    0.326    0.459    6.101
  509.606   65.271    0.335    0.460    6.032
  509.856   67.210    0.329    0.452    5.954
  510.106   69.135    0.325    0.448    5.771
  510.356   70.133    0.332    0.453    5.669
  510.606   70.351    0.331    0.456    5.403
  510.856   72.063    0.322    0.458    5.385
  511.106   72.970    0.320    0.458    5.307
  511.356   74.843    0.326    0.458    5.310
  511.606   76.200    0.326    0.455    5.310
  511.856   76.160    0.319    0.461    5.310
  512.106   75.922    0.313    0.462    5.308
  512.356   72.245    0.308    0.462    5.314
  512.606   69.489    0.301    0.468    5.222
  512.856   68.343    0.292    0.470    5.229
  513.106   68.833    0.296    0.467    5.229
  513.356   71.076    0.301    0.462    5.229
  513.606   72.736    0.292    0.464    5.228
  513.856   75.487    0.278    0.471    5.282
  514.106   77.454    0.266    0.464    5.405
  514.356   79.157    0.236    0.362    5.709
  514.606   76.700    0.204    0.350    5.958
  514.856   75.455    0.182    0.361    6.315
  515.106   77.189    0.220    0.404    6.576
  515.356   80.602    0.271    0.465    6.321
  515.606   80.825    0.278    0.475    5.871
  515.856   80.286    0.265    0.474    5.325
  516.106   81.224    0.261    0.482    5.113
  516.356   82.156    0.268    0.487    4.908
  516.606   82.147    0.282    0.494    4.851
  516.856   81.017    0.282    0.494    4.734
  517.106   79.689    0.297    0.488    4.829
  517.356   78.625    0.283    0.478    4.886
  517.606   78.334    0.288    0.472    4.928
  517.856   77.898    0.281    0.470    4.987
  518.106   77.898    0.275    0.485    5.046
  518.356   77.928    0.283    0.491    4.980
  518.606   77.327    0.282    0.495    4.916
  518.856   76.961    0.287    0.490    4.778
  519.106   76.627    0.295    0.489    4.748
  519.356   75.565    0.279    0.500    4.740
  519.606   74.310    0.284    0.482    4.836
  519.856   72.974    0.287    0.477    4.832
  520.106   73.827    0.283    0.477    4.909
  520.356   74.239    0.273    0.474    4.905
  520.606   73.639    0.280    0.483    4.905
  520.856   73.034    0.283    0.496    4.904
  521.106   73.184    0.286    0.486    4.904
  521.356   74.186    0.291    0.484    4.904
  521.606   75.787    0.297    0.492    4.895
  521.856   77.502    0.288    0.501    4.990
  522.106   79.528    0.282    0.512    4.984
  522.356   79.642    0.276    0.503    5.022
  522.606   78.910    0.280    0.496    5.059
  522.856   78.407    0.284    0.489    5.127
  523.106   78.606    0.281    0.483    5.132
  523.356   79.635    0.280    0.475    5.224
  523.606   81.133    0.291    0.479    5.211
  523.856   81.573    0.302    0.472    5.308
  524.106   81.990    0.293    0.462    5.300
  524.356   82.240    0.301    0.462    5.354
  524.606   81.896    0.292    0.450    5.397
  524.856   80.834    0.281    0.441    5.457
  525.106   79.860    0.266    0.452    5.549
  525.356   78.923    0.258    0.464    5.551
  525.606   79.404    0.247    0.460    5.621
  525.856   81.042    0.257    0.456    5.626
  526.106   82.646    0.267    0.462    5.533
  526.356   84.072    0.274    0.470    5.547
  526.606   85.234    0.280    0.472    5.456
  526.856   85.569    0.282    0.467    5.377
  527.106   86.662    0.274    0.459    5.322
  527.356   88.946    0.258    0.469    5.282
  527.606   91.995    0.240    0.478    5.141
  527.856   95.761    0.230    0.482    4.962
  528.106   96.154    0.228    0.481    4.796
  528.356   96.218    0.219    0.503    4.438
  528.606   97.214    0.209    0.523    4.351
  528.856   98.176    0.207    0.512    4.177
  529.106   94.614    0.219    0.482    4.235
  529.356   91.092    0.233    0.458    4.484
  529.606   88.431    0.241    0.446    4.836
  529.856   86.123    0.258    0.438    5.225
  530.106   81.252    0.231    0.429    5.607
  530.356   78.305    0.172    0.417    6.170
  530.606   73.401    0.106    0.393    6.806
  530.856   70.731    0.064    0.346    7.305
  531.106   69.111    0.037    0.286    7.827
  531.356   76.365    0.083    0.325    8.177
  531.606   85.289    0.154    0.399    7.657
  531.856   90.672    0.189    0.456    6.795
  532.106   89.742    0.183    0.468    6.261
  532.356   87.099    0.176    0.473    5.736
  532.606   87.008    0.170    0.460    5.518
  532.856   88.703    0.171    0.453    5.643
  533.106   90.292    0.195    0.457    5.773
  533.356   92.056    0.190    0.460    5.771
  533.606   90.755    0.197    0.463    5.776
  533.856   90.222    0.186    0.469    5.693
  534.106   91.846    0.195    0.477    5.701
  534.356   92.671    0.202    0.473    5.602
  534.606   92.611    0.193    0.477    5.616
  534.856   92.592    0.183    0.485    5.525
  535.106   92.523    0.191    0.496    5.539
  535.356   92.034    0.191    0.485    5.670
  535.606   91.413    0.201    0.470    5.931
  535.856   90.077    0.198    0.452    6.102
  536.106   88.597    0.188    0.441    6.440
  536.356   85.535    0.194    0.430    6.790
  536.606   81.182    0.191    0.424    7.044
  536.856   77.586    0.194    0.421    7.220
  537.106   80.391    0.216    0.422    7.490
  537.356   83.433    0.213    0.425    7.674
  537.606   85.101    0.200    0.430    7.764
  537.856   87.371    0.183    0.427    7.750
  538.106   89.805    0.189    0.427    7.610
  538.356   93.258    0.180    0.431    7.426
  538.606   95.158    0.175    0.448    6.934
  538.856   97.691    0.160    0.462    6.690
  539.106   99.673    0.165    0.470    6.323
  539.356  100.957    0.153    0.469    6.158
  539.606  102.003    0.149    0.477    6.003
  539.856  102.212    0.165    0.460    5.910
  540.106  103.894    0.174    0.442    6.004
  540.356  105.583    0.185    0.427    6.053
  540.606  106.745    0.192    0.420    6.084
  540.856  104.111    0.202    0.420    6.021
  541.106  101.090    0.209    0.428    5.852
  541.356   98.845    0.205    0.439    5.566
  541.606   95.774    0.202    0.446    5.387
  541.856   93.443    0.188    0.455    5.154
  542.106   91.821    0.176    0.457    5.122
  542.356   92.070    0.178    0.447    5.042
  542.606   94.093    0.175    0.440    5.046
  542.856   96.080    0.179    0.441    4.964
  543.106   96.053    0.186    0.449    4.332
  543.356   96.087    0.200    0.502    3.988
  543.606   95.522    0.230    0.571    3.463
  543.856   93.491    0.265    0.594    3.173
  544.106   92.204    0.280    0.590    2.688
  544.356   91.600    0.260    0.576    2.441
  544.606   94.970    0.258    0.569    2.211
  544.856   96.867    0.259    0.559    2.084
  545.106   99.463    0.237    0.549    2.014
  545.356  100.899    0.226    0.555    2.018
  545.606  103.274    0.227    0.562    2.020
