~VERSION INFORMATION
 VERS.                 2.0:   CWLS LOG ASCII STANDARD -VERSION 2.0
 WRAP.                  NO:   ONE LINE PER DEPTH STEP
~WELL INFORMATION BLOCK
#MNEM.UNIT           DATA                    DESCRIPTION OF MNEMONIC
#---------    -------------------            -------------------------------
# Generated from Intellog Unique Number	CW_82_90/WELL/554
WELL.         PARAMOUNT ET AL GRANOR 07-01   : Well_name    - WELL
LOC .         00/07-01-084-19W4/0            : Location     - LOCATION
UWI .         00/07-01-084-19W400            : Uwi          - UNIQUE WELL ID
ENTR.         JAYE                           : Entered      - ENTERED BY
SRVC.         COMPUTALOG                     : Scn          - SERVICE COMPANY
DATE.         8 MAR 77                       : Date         - LOG DATE
STRT.M        207.264                        : top_depth    - START DEPTH
STOP.M        341.264                        : bot_depth    - STOP DEPTH
STEP.M        0.25                           : increment    - STEP LENGTH
 NULL. -999.2500:NULL Value
~CURVE INFORMATION BLOCK
#MNEM UNIT       ERCB CURVE CODE    CURVE DESCRIPTION
#-----------   ------------------   ----------------------------------
DEPT.M        00 001 00 00         : DEPTH        - DEPTH
CALI.MM       00 280 01 00         : CAL          - CALIPER
GR  .API      00 310 00 00         : GR           - GAMMA RAY
NPHI.V/V      00 330 00 00         : PHIN         - NEUTRON POROSITY (SANDSTONE)
DPHI.V/V      00 890 00 00         : PHID         - DENSITY POROSITY (SANDSTONE)
ILD .OHMM     00 120 00 00         : RESD         - DEEP RESISTIVITY (DLL)
~PARAMETER INFORMATION
#MNEM.UNIT           DATA             DESCRIPTION OF MNEMONIC
#---------         -----------     ------------------------------
GL  .M        579.272              : gl           - GROUND LEVEL ELEVATION
EREF.M        582.32               : kb           - ELEVATION OF DEPTH REFERENCE
DATM.M        579.272              : datum        - DATUM ELEVATION
TDD .M        342.29               : tdd          - TOTAL DEPTH DRILLER
RUN .         ONE                  : Run          - RUN NUMBER
ENG .         KING                 : Engineer     - RECORDING ENGINEER
WIT .         CONNELLY             : Witness      - WITNESSED BY
BASE.         MEDICINE HAT         : Branch       - HOME BASE OF LOGGING UNIT
MUD .         CHEM GEL             : Mud_type     - MUD TYPE
MATR.         SANDSTONE            : Logunit      - NEUTRON MATRIX
TMAX.C        16.6667              : BHT          - MAXIMUM RECORDED TEMPERATURE
BHTD.M        342.29               : BHTDEP       - MAXIMUM RECORDED TEMPERATURE
RMT .C        15.5556              : MDTP         - TEMPERATURE OF MUD
MUDD.KG/M     9500                 : MWT          - MUD DENSITY
NEUT.         0                    : NEUTRON      - NEUTRON TYPE
RESI.         1                    : RESIST       - RESISTIVITY TYPE
RM  .OHMM     4.2                  : RM           - RESISTIVITY OF MUD
RMC .OHMM     0                    : RMC          - RESISTIVITY OF MUD CAKE
RMF .OHMM     3.9                  : RMF          - RESISTIVITY OF MUD FILTRATE
SUFT.C        4                    : SUFT         - SURFACE TEMPERATURE
~A  DEPTH      CAL       GR     PHIN     PHID     RESD
# ...
  243.764  166.963   76.972    0.432    0.202    4.159
  244.014  166.540   76.474    0.433    0.211    4.320
  244.264  165.172   74.549    0.431    0.214    4.652
  244.514  162.963   72.873    0.414    0.218    4.912
  244.764  161.700   69.831    0.364    0.222    5.500
  245.014  161.278   64.865    0.360    0.223    6.514
  245.264  160.856   57.230    0.360    0.222    7.569
  245.514  160.748   58.408    0.356    0.220    8.493
  245.764  159.801   58.841    0.352    0.207    9.220
  246.014  158.643   53.130    0.339    0.184    9.233
  246.264  158.956   53.005    0.333    0.179    9.148
  246.514  159.585   57.534    0.353    0.203    9.046
  246.764  160.108   61.257    0.342    0.222    8.968
  247.014  160.527   65.103    0.335    0.227    9.006
  247.264  160.630   69.384    0.331    0.224    9.167
  247.514  160.417   66.839    0.340    0.220    9.483
  247.764  160.100   62.618    0.336    0.217    9.677
  248.014  159.888   58.955    0.330    0.219    9.797
  248.264  159.045   63.856    0.326    0.219    9.555
  248.514  157.993   65.034    0.346    0.221    9.059
  248.764  156.834   69.502    0.353    0.227    8.753
  249.014  156.412   68.073    0.361    0.226    8.429
  249.264  157.461   69.375    0.370    0.223    8.303
  249.514  158.615   68.319    0.378    0.224    8.398
  249.764  159.664   61.243    0.358    0.227    8.624
  250.014  158.191   57.518    0.332    0.229    8.916
  250.264  156.718   53.483    0.310    0.240    9.216
  250.514  155.980   49.013    0.301    0.247    9.607
  250.764  155.452   50.812    0.298    0.245    9.760
  251.014  155.240   54.721    0.304    0.236    9.674
  251.264  154.818   55.216    0.309    0.230    9.539
  251.514  154.816   52.670    0.304    0.238    9.495
  251.764  155.235   51.738    0.301    0.248    9.426
  252.014  156.389   54.033    0.329    0.240    9.357
  252.264  156.702   51.550    0.332    0.236    9.189
  252.514  157.120   46.398    0.340    0.243    9.063
  252.764  157.119   46.272    0.352    0.234    8.838
  253.014  155.540   48.692    0.357    0.239    8.490
  253.264  155.118   51.917    0.361    0.230    8.085
  253.514  154.486   58.309    0.365    0.220    7.457
  253.764  154.799   56.321    0.373    0.230    6.904
  254.014  155.637   58.120    0.382    0.232    6.613
  254.264  156.687   55.140    0.371    0.228    6.503
  254.514  160.047   53.215    0.354    0.230    6.402
  254.764  159.940   53.276    0.342    0.205    6.259
  255.014  156.681   53.213    0.338    0.224    6.092
  255.264  155.207   55.880    0.361    0.235    5.546
  255.514  155.205   60.782    0.390    0.239    5.092
  255.764  155.308   61.029    0.413    0.242    4.645
  256.014  155.517   57.925    0.423    0.246    4.346
  256.264  155.515   54.076    0.423    0.248    4.252
  256.514  155.512   43.462    0.424    0.251    4.356
  256.764  155.196   42.220    0.423    0.256    4.705
  257.014  154.248   39.488    0.406    0.270    5.120
  257.264  153.720   39.611    0.393    0.284    5.971
  257.514  154.454   44.264    0.379    0.287    7.190
  257.764  155.713   53.076    0.373    0.277    7.318
  258.014  156.552   55.123    0.358    0.264    7.569
  258.264  157.286   56.859    0.321    0.252    7.763
  258.514  157.074   55.927    0.323    0.253    7.890
  258.764  157.282   55.306    0.327    0.263    7.854
  259.014  157.490   59.524    0.356    0.256    7.055
  259.264  157.803   59.523    0.373    0.247    6.739
  259.514  158.222   59.646    0.378    0.241    6.654
  259.764  158.535   59.831    0.377    0.241    6.683
  260.014  158.638   54.927    0.374    0.238    6.811
  260.264  158.216   55.733    0.368    0.229    6.980
  260.514  158.214   53.560    0.360    0.224    7.125
  260.764  158.527   60.261    0.358    0.220    7.212
  261.014  159.261   59.950    0.358    0.215    6.937
  261.264  159.994   56.597    0.358    0.209    6.630
  261.514  161.254   62.678    0.362    0.208    6.307
  261.764  162.092   67.642    0.361    0.211    6.147
  262.014  162.721   67.765    0.356    0.210    6.201
  262.264  163.034   64.040    0.359    0.217    6.248
  262.514  163.032   60.749    0.344    0.218    6.491
  262.764  161.874   58.266    0.334    0.207    7.086
  263.014  161.032   54.355    0.327    0.206    7.755
  263.264  159.663   52.926    0.318    0.201    8.113
  263.514  159.136   47.402    0.308    0.191    8.676
  263.764  158.819   49.138    0.298    0.155    9.026
  264.014  158.501   50.130    0.281    0.181    8.883
  264.264  158.289   51.060    0.290    0.240    8.798
  264.514  158.077   53.417    0.303    0.251    8.769
  264.764  158.075   48.885    0.307    0.242    8.790
  265.014  158.284   45.719    0.302    0.230    9.091
  265.264  158.596   51.924    0.282    0.211   10.442
  265.514  158.910   51.799    0.209    0.151   12.104
  265.764  159.118   46.088    0.165    0.075   13.036
  266.014  159.432   36.778    0.197    0.099   14.149
  266.264  159.850   41.617    0.221    0.134   15.229
  266.514  160.374   48.381    0.235    0.171   14.306
  266.764  160.686   45.959    0.148    0.182   13.359
  267.014  160.895   33.980    0.031    0.149   16.400
  267.264  161.313   25.849    0.000    0.117   18.588
  267.514  161.416   26.158   -0.013    0.036   19.438
  267.764  161.520   28.329   -0.037    0.059   16.587
  268.014  161.623   29.011   -0.025    0.070   15.549
  268.264  161.936   31.864   -0.005    0.087   13.560
  268.514  162.249   43.221    0.018    0.114   12.261
  268.764  162.037   54.763    0.079    0.161    9.795
  269.014  161.825   60.285    0.184    0.207    9.537
  269.264  161.823   59.539    0.304    0.202    9.674
  269.514  161.296   57.800    0.315    0.195   10.105
  269.764  160.138   57.116    0.323    0.214   10.742
  270.014  159.820   55.563    0.324    0.223   11.140
  270.264  159.503   52.025    0.327    0.235   11.072
  270.514  159.396   56.058    0.331    0.222   10.559
  270.764  158.973   55.498    0.333    0.211   10.031
  271.014  158.972   55.373    0.334    0.199    9.937
  271.264  158.865   55.433    0.322    0.204   10.237
  271.514  158.863   54.315    0.278    0.206   10.907
  271.764  158.861   50.529    0.220    0.199   11.650
  272.014  159.385   49.038    0.178    0.190   12.139
  272.264  159.908   48.975    0.154    0.173   12.185
  272.514  160.326   50.835    0.154    0.101   12.042
  272.764  160.850   60.578    0.203    0.133   11.128
  273.014  161.478   61.321    0.262    0.208   10.419
  273.264  161.161   60.638    0.284    0.222   10.227
  273.514  160.423   58.898    0.286    0.216   10.386
  273.764  160.212   57.904    0.315    0.216   10.417
  274.014  159.894   56.228    0.315    0.204   10.363
  274.264  158.947   57.095    0.327    0.206   10.312
  274.514  159.365   58.522    0.341    0.208   10.210
  274.764  159.993   59.141    0.359    0.205   10.083
  275.014  160.517   58.644    0.364    0.196    9.964
  275.264  160.725   60.380    0.370    0.181    9.888
  275.514  161.354   62.861    0.352    0.185    9.802
  275.764  161.667   65.777    0.324    0.201    9.749
  276.014  161.455   68.631    0.303    0.205    9.680
  276.264  161.138   68.443    0.316    0.204    9.628
  276.514  160.400   64.843    0.334    0.200    9.567
  276.764  159.872   62.607    0.321    0.199    9.506
  277.014  159.871   61.241    0.318    0.206    9.486
  277.264  159.659   57.578    0.322    0.209    9.426
  277.514  159.551   59.004    0.310    0.203    9.365
  277.764  159.549   63.471    0.281    0.198    9.279
  278.014  159.653   57.202    0.289    0.179    9.186
  278.264  160.176   57.325    0.303    0.178    9.092
  278.514  160.700   61.544    0.316    0.203    8.835
  278.764  161.223   65.515    0.322    0.214    8.363
  279.014  161.747   69.734    0.339    0.219    8.073
  279.264  162.059   70.291    0.366    0.208    7.880
  279.514  162.373   71.531    0.371    0.204    7.844
  279.764  162.056   65.572    0.368    0.205    7.923
  280.014  161.844   61.909    0.365    0.206    8.215
