~VERSION INFORMATION
 VERS.                 2.0:   CWLS LOG ASCII STANDARD -VERSION 2.0
 WRAP.                  NO:   ONE LINE PER DEPTH STEP
~WELL INFORMATION BLOCK
#MNEM.UNIT           DATA                    DESCRIPTION OF MNEMONIC
#---------    -------------------            -------------------------------
# Generated from Intellog Unique Number	CX_WELLS/WELL/2902
NULL.         -999.25                        : NULL_VALUE
WELL.         GULF RISNNIN                   : Well_name    - WELL              
LOC .         00/07-24-082-06W4/0            : Location     - LOCATION          
UWI .         00/07-24-082-06W4/0            : Uwi          - UNIQUE WELL ID    
ENTR.         T                              : Entered      - ENTERED BY        
SRVC.         SCHLUMBERGER                   : Scn          - SERVICE COMPANY   
STRT.M        90                             : top_depth    - START DEPTH       
STOP.M        270                            : bot_depth    - STOP DEPTH        
STEP.M        0.25                           : increment    - STEP LENGTH       
~CURVE INFORMATION BLOCK
#MNEM UNIT       ERCB CURVE CODE    CURVE DESCRIPTION
#-----------   ------------------   ----------------------------------
DEPT.M        00 001 00 00         : DEPTH        - DEPTH                       
GR  .API      00 310 00 00         : GR           - GAMMA RAY                   
NPHI.V/V      00 330 00 00         : PHIN         - NEUTRON POROSITY (SANDSTONE)
DPHI.V/V      00 890 00 00         : PHID         - DENSITY POROSITY (SANDSTONE)
ILD .OHMM     00 120 00 00         : RESD         - DEEP RESISTIVITY (OTHER)    
~PARAMETER INFORMATION       
#MNEM.UNIT           DATA             DESCRIPTION OF MNEMONIC
#---------         -----------     ------------------------------
GL  .M        471.6                : gl           - GROUND LEVEL ELEVATION      
EREF.M        474.8                : kb           - ELEVATION OF DEPTH REFERENCE
DATM.M        474.8                : datum        - DATUM ELEVATION             
TDD .M        320                  : tdd          - TOTAL DEPTH DRILLER         
RUN .         ONE                  : Run          - RUN NUMBER                  
ENG .         BILL                 : Engineer     - RECORDING ENGINEER          
WIT .         JIM                  : Witness      - WITNESSED BY                
MUD .         GEL                  : Mud_type     - MUD TYPE                    
MATR.         SANDSTONE            : Logunit      - NEUTRON MATRIX              
TMAX.C        19                   : BHT          - MAXIMUM RECORDED TEMPERATURE
BHTD.M        320                  : BHTDEP       - MAXIMUM RECORDED TEMPERATURE
MATR.         1                    : LOGUNIT      - NEUTRON MATRIX              
RMT .C        17                   : MDTP         - TEMPERATURE OF MUD          
NEUT.         1                    : NEUTRON      - NEUTRON TYPE                
RESI.         4                    : RESIST       - RESISTIVITY TYPE            
RMC .OHMM     6.36                 : RMC          - RESISTIVITY OF MUD CAKE     
RMF .OHMM     6.36                 : RMF          - RESISTIVITY OF MUD FILTRATE 
SUFT.C        4                    : SUFT         - SURFACE TEMPERATURE         
~A  DEPTH       GR     PHIN     PHID     RESD
# ...
  220.500   52.087    0.364    0.290    1.323
  220.750   47.053    0.363    0.292    1.323
  221.000   44.277    0.358    0.297    1.323
  221.250   44.323    0.355    0.299    1.270
  221.500   48.331    0.361    0.299    1.218
  221.750   46.673    0.374    0.295    1.193
  222.000   43.332    0.378    0.294    1.169
  222.250   41.120    0.350    0.295    1.145
  222.500   45.129    0.335    0.295    1.145
  222.750   47.421    0.335    0.298    1.145
  223.000   46.903    0.345    0.307    1.170
  223.250   43.562    0.362    0.322    1.170
  223.500   39.657    0.368    0.336    1.195
  223.750   36.316    0.368    0.350    1.195
  224.000   34.104    0.359    0.352    1.195
  224.250   31.328    0.346    0.345    1.171
  224.500   29.680    0.340    0.336    1.147
  224.750   29.162    0.346    0.332    1.147
  225.000   30.349    0.360    0.330    1.101
  225.250   30.395    0.372    0.325    1.101
  225.500   29.888    0.364    0.319    1.078
  225.750   29.346    0.353    0.314    1.056
  226.000   30.533    0.348    0.306    1.056
  226.250   32.284    0.345    0.300    1.057
  226.500   33.470    0.338    0.290    1.057
  226.750   33.493    0.332    0.282    1.102
  227.000   33.539    0.317    0.267    1.149
  227.250   34.161    0.300    0.255    1.249
  227.500   34.219    0.280    0.246    1.302
  227.750   34.253    0.290    0.259    1.330
  228.000   34.288    0.305    0.285    1.330
  228.250   33.792    0.313    0.280    1.330
  228.500   33.816    0.304    0.269    1.303
  228.750   33.873    0.296    0.263    1.276
  229.000   33.908    0.293    0.259    1.250
  229.250   33.965    0.287    0.258    1.251
  229.500   34.034    0.282    0.257    1.277
  229.750   34.057    0.275    0.255    1.359
  230.000   34.126    0.271    0.255    1.360
  230.250   34.725    0.268    0.259    1.389
  230.500   35.336    0.267    0.261    1.389
  230.750   35.935    0.271    0.257    1.389
  231.000   36.545    0.277    0.252    1.419
  231.250   37.732    0.286    0.249    1.419
  231.500   38.907    0.294    0.246    1.419
  231.750   38.941    0.285    0.245    1.449
  232.000   38.423    0.275    0.252    1.480
  232.250   37.340    0.268    0.257    1.511
  232.500   36.269    0.269    0.252    1.543
  232.750   35.739    0.276    0.247    1.576
  233.000   34.667    0.279    0.241    1.609
  233.250   34.713    0.274    0.235    1.610
  233.500   35.324    0.271    0.232    1.610
  233.750   38.192    0.273    0.238    1.610
  234.000   41.072    0.284    0.244    1.611
  234.250   39.989    0.295    0.254    1.611
  234.500   38.895    0.283    0.246    1.578
  234.750   37.259    0.274    0.241    1.578
  235.000   37.870    0.279    0.238    1.578
  235.250   40.738    0.285    0.240    1.579
  235.500   43.606    0.291    0.244    1.579
  235.750   44.770    0.306    0.240    1.613
  236.000   43.710    0.313    0.234    1.613
  236.250   43.733    0.307    0.230    1.647
  236.500   41.544    0.297    0.227    1.647
  236.750   40.461    0.282    0.235    1.682
  237.000   39.379    0.274    0.241    1.682
  237.250   38.284    0.274    0.244    1.683
  237.500   37.224    0.274    0.234    1.683
  237.750   37.259    0.273    0.233    1.649
  238.000   36.752    0.273    0.244    1.649
  238.250   36.775    0.282    0.251    1.615
  238.500   36.256    0.289    0.252    1.616
  238.750   36.325    0.298    0.251    1.583
  239.000   36.360    0.295    0.249    1.550
  239.250   36.959    0.286    0.247    1.519
  239.500   37.593    0.279    0.245    1.488
  239.750   38.192    0.290    0.241    1.457
  240.000   38.791    0.298    0.239    1.458
  240.250   40.542    0.304    0.245    1.458
  240.500   41.152    0.310    0.266    1.428
  240.750   42.892    0.319    0.281    1.428
  241.000   44.631    0.307    0.281    1.370
  241.250   41.866    0.305    0.278    1.315
  241.500   39.643    0.315    0.277    1.261
  241.750   37.431    0.322    0.283    1.210
  242.000   35.219    0.329    0.287    1.161
  242.250   35.288    0.333    0.289    1.114
  242.500   35.311    0.334    0.289    1.069
  242.750   35.369    0.335    0.289    1.047
  243.000   35.415    0.335    0.288    1.047
  243.250   35.461    0.324    0.286    1.069
  243.500   35.495    0.309    0.285    1.092
  243.750   37.235    0.300    0.274    1.092
  244.000   38.421    0.306    0.267    1.092
  244.250   39.608    0.334    0.268    1.116
  244.500   39.631    0.341    0.270    1.116
  244.750   39.688    0.363    0.275    1.116
  245.000   38.594    0.372    0.286    1.116
  245.250   38.076    0.385    0.297    1.093
  245.500   37.004    0.373    0.303    1.071
  245.750   36.486    0.347    0.306    1.049
  246.000   35.967    0.331    0.307    1.028
  246.250   35.449    0.339    0.309    1.007
  246.500   35.518    0.359    0.311    0.986
  246.750   35.541    0.367    0.314    0.986
  247.000   35.610    0.369    0.317    0.966
  247.250   36.198    0.370    0.318    0.947
  247.500   38.525    0.367    0.319    0.947
  247.750   39.112    0.359    0.322    0.947
  248.000   39.734    0.354    0.323    0.947
  248.250   39.780    0.352    0.325    0.947
  248.500   39.826    0.347    0.326    0.967
  248.750   39.872    0.342    0.333    1.009
  249.000   39.365    0.343    0.338    1.052
  249.250   38.824    0.375    0.349    1.097
  249.500   42.268    0.389    0.354    1.143
  249.750   56.991    0.401    0.355    1.217
  250.000   59.859    0.376    0.332    1.296
  250.250   59.917    0.355    0.306    1.351
  250.500   57.705    0.360    0.291    1.409
  250.750   53.788    0.363    0.279    1.380
  251.000   49.883    0.363    0.284    1.244
  251.250   44.849    0.362    0.289    1.193
  251.500   40.379    0.359    0.297    1.098
  251.750   36.485    0.359    0.304    1.054
  252.000   35.425    0.364    0.314    1.032
  252.250   34.872    0.374    0.318    1.054
  252.500   34.930    0.383    0.321    1.076
  252.750   34.964    0.392    0.322    1.122
  253.000   35.022    0.404    0.319    1.146
  253.250   35.632    0.367    0.302    1.146
  253.500   35.690    0.322    0.286    1.147
  253.750   35.148    0.346    0.272    1.147
  254.000   31.819    0.370    0.271    1.123
  254.250   29.596    0.385    0.283    1.078
  254.500   26.831    0.391    0.297    1.013
  254.750   25.183    0.382    0.306    0.992
  255.000   25.218    0.369    0.305    0.972
  255.250   24.700    0.369    0.300    0.972
  255.500   29.296    0.378    0.295    0.993
  255.750   32.142    0.385    0.289    1.057
  256.000   33.328    0.384    0.290    1.102
  256.250   31.681    0.353    0.290    1.198
  256.500   35.666    0.335    0.286    1.302
  256.750   55.481    0.361    0.280    1.506
  257.000   78.682    0.387    0.264    1.742
  257.250   84.373    0.399    0.245    2.284
  257.500   82.725    0.408    0.219    3.120
  257.750   82.218    0.328    0.206    3.763
  258.000   83.946    0.333    0.194    3.686
  258.250   95.858    0.372    0.188    3.323
  258.500   98.162    0.388    0.168    3.122
  258.750   75.617    0.406    0.162    2.874
  259.000   62.116    0.416    0.162    2.645
  259.250   53.683    0.389    0.167    2.485
  259.500   41.875    0.365    0.179    2.434
  259.750   34.019    0.304    0.190    2.486
  260.000   34.629    0.291    0.187    2.539
  260.250   47.105    0.276    0.181    2.703
  260.500   52.232    0.266    0.172    2.818
  260.750   57.922    0.266    0.166    2.938
  261.000   66.436    0.270    0.158    3.063
  261.250   75.525    0.280    0.149    3.261
  261.500   93.070    0.306    0.134    3.620
  261.750  113.448    0.390    0.117    4.017
  262.000  105.592    0.446    0.087    4.845
  262.250   97.735    0.441    0.055    5.843
  262.500   92.136    0.402    0.024    6.621
  262.750  100.085    0.419    0.010    6.622
  263.000  108.034    0.430    0.012    6.486
  263.250   95.661    0.441    0.029    6.624
  263.500   75.939    0.437    0.037    7.052
  263.750   70.341    0.370    0.039    7.665
