~VERSION INFORMATION
 VERS.                 2.0:   CWLS LOG ASCII STANDARD -VERSION 2.0
 WRAP.                  NO:   ONE LINE PER DEPTH STEP
~WELL INFORMATION BLOCK
#MNEM.UNIT           DATA                    DESCRIPTION OF MNEMONIC
#---------    -------------------            -------------------------------
# Generated from Intellog Unique Number	CS_71_72/WELL/804
WELL.         BVX ET AL LYLE                 : Well_name    - WELL
LOC .         00/07-07-072-16W4/0            : Location     - LOCATION
UWI .         00/07-07-072-16W4/0            : Uwi          - UNIQUE WELL ID
ENTR.         SP                             : Entered      - ENTERED BY
SRVC.         SCHLUMBERGER                   : Scn          - SERVICE COMPANY
STRT.M        274.32                         : top_depth    - START DEPTH
STOP.M        450.82                         : bot_depth    - STOP DEPTH
STEP.M        0.25                           : increment    - STEP LENGTH
 NULL. -999.2500:NULL Value
~CURVE INFORMATION BLOCK
#MNEM UNIT       ERCB CURVE CODE    CURVE DESCRIPTION
#-----------   ------------------   ----------------------------------
DEPT.M        00 001 00 00         : DEPTH        - DEPTH
GR  .API      00 310 00 00         : GR           - GAMMA RAY
DPHI.V/V      00 890 00 00         : PHID         - DENSITY POROSITY (SANDSTONE)
NPHI.V/V      00 330 00 00         : PHIN         - NEUTRON POROSITY (SANDSTONE)
ILD .OHMM     00 120 00 00         : RESD         - DEEP RESISTIVITY (DIL)
~PARAMETER INFORMATION
#MNEM.UNIT           DATA             DESCRIPTION OF MNEMONIC
#---------         -----------     ------------------------------
GL  .M        594.36               : gl           - GROUND LEVEL ELEVATION
EREF.M        597.408              : kb           - ELEVATION OF DEPTH REFERENCE
DATM.M        594.36               : datum        - DATUM ELEVATION
TDD .M        454.152              : tdd          - TOTAL DEPTH DRILLER
RUN .         ONE                  : Run          - RUN NUMBER
ENG .         BILL                 : Engineer     - RECORDING ENGINEER
WIT .         JIM                  : Witness      - WITNESSED BY
MUD .         GEL                  : Mud_type     - MUD TYPE
MATR.         SANDSTONE            : Logunit      - NEUTRON MATRIX
TMAX.C        25.5556              : BHT          - MAXIMUM RECORDED TEMPERATURE
BHTD.M        454.152              : BHTDEP       - MAXIMUM RECORDED TEMPERATURE
MATR.         1                    : LOGUNIT      - NEUTRON MATRIX
RMT .C        25                   : MDTP         - TEMPERATURE OF MUD
NEUT.         1                    : NEUTRON      - NEUTRON TYPE
RESI.         0                    : RESIST       - RESISTIVITY TYPE
RMC .OHMM     0.25                 : RMC          - RESISTIVITY OF MUD CAKE
RMF .OHMM     0.25                 : RMF          - RESISTIVITY OF MUD FILTRATE
SUFT.C        15                   : SUFT         - SURFACE TEMPERATURE
~A  DEPTH       GR     PHID     PHIN     RESD
  274.320   94.640    0.216    0.599    3.095
  274.570   92.073    0.214    0.605    3.088
  274.820   90.093    0.222    0.612    3.182
  275.070   90.226    0.250    0.597    3.328
  275.320   96.589    0.251    0.598    3.555
  275.570   97.440    0.257    0.609    3.686
  275.820   94.810    0.261    0.611    3.752
  276.070   93.825    0.257    0.602    3.759
  276.320   92.870    0.249    0.562    3.665
  276.570   93.422    0.247    0.537    3.539
  276.820   93.767    0.232    0.552    3.407
  277.070   93.478    0.220    0.590    3.368
  277.320   91.967    0.241    0.630    3.366
  277.570   90.286    0.237    0.622    3.504
  277.820   89.980    0.227    0.603    3.693
  278.070   91.715    0.234    0.598    3.822
  278.320   93.206    0.217    0.620    3.933
  278.570   94.752    0.211    0.636    3.788
  278.820   95.044    0.214    0.607    3.754
  279.070   96.094    0.223    0.614    3.627
  279.320   96.540    0.232    0.638    3.637
  279.570   97.081    0.246    0.623    3.673
  279.820   95.317    0.231    0.608    3.720
  280.070   94.873    0.213    0.649    3.669
  280.320   92.971    0.215    0.704    3.537
  280.570   90.659    0.208    0.758    3.492
  280.820   91.090    0.230    0.625    3.706
  281.070   84.470    0.344    0.606    3.954
  281.320   75.240    0.394    0.585    4.432
  281.570   63.713    0.394    0.567    4.826
  281.820   57.124    0.321    0.528    5.206
  282.070   56.072    0.278    0.494    5.190
  282.320   55.989    0.305    0.464    5.031
  282.570   58.090    0.317    0.454    4.773
  282.820   60.930    0.318    0.452    4.642
  283.070   63.511    0.326    0.479    4.604
  283.320   64.528    0.324    0.507    4.559
  283.570   63.478    0.318    0.480    4.560
  283.820   64.418    0.311    0.463    4.560
  284.070   64.630    0.305    0.472    4.643
  284.320   65.869    0.298    0.489    4.716
  284.570   70.205    0.294    0.471    4.903
  284.820   76.231    0.294    0.451    4.966
  285.070   79.227    0.294    0.446    4.973
  285.320   76.799    0.293    0.454    4.980
  285.570   76.354    0.287    0.458    4.984
  285.820   78.630    0.272    0.462    5.018
  286.070   79.486    0.263    0.479    5.163
  286.320   77.628    0.273    0.482    5.312
  286.570   75.618    0.274    0.471    5.425
  286.820   76.611    0.272    0.458    5.556
  287.070   79.844    0.269    0.475    5.697
  287.320   80.687    0.276    0.486    5.734
  287.570   82.448    0.284    0.489    5.876
  287.820   85.096    0.276    0.474    6.014
  288.070   87.420    0.251    0.461    6.029
  288.320   89.438    0.239    0.453    5.968
  288.570   90.600    0.237    0.451    5.968
  288.820   86.212    0.256    0.461    6.078
  289.070   81.642    0.278    0.465    6.263
  289.320   80.734    0.242    0.444    6.712
  289.570   81.455    0.210    0.438    6.870
  289.820   82.473    0.191    0.405    7.177
  290.070   82.471    0.183    0.378    7.057
  290.320   76.795    0.177    0.410    6.714
  290.570   68.583    0.185    0.401    6.337
  290.820   59.948    0.194    0.387    5.876
  291.070   52.760    0.223    0.402    5.472
  291.320   50.056    0.256    0.420    5.291
  291.570   53.569    0.275    0.418    5.126
  291.820   58.631    0.275    0.408    4.991
  292.070   63.090    0.266    0.424    4.989
  292.320   69.239    0.257    0.456    4.995
  292.570   75.015    0.244    0.443    5.070
  292.820   79.573    0.228    0.419    5.011
  293.070   87.566    0.202    0.478    4.915
  293.320   93.135    0.211    0.535    4.606
  293.570  101.472    0.203    0.592    4.567
  293.820  103.443    0.212    0.616    4.376
  294.070  109.335    0.220    0.597    4.290
  294.320  114.350    0.224    0.604    4.298
  294.570  117.044    0.224    0.597    4.304
  294.820  117.974    0.225    0.605    4.353
  295.070  117.494    0.191    0.585    4.296
  295.320  116.669    0.170    0.571    4.108
  295.570  112.339    0.144    0.566    3.812
  295.820  109.618    0.132    0.594    3.601
  296.070  115.754    0.198    0.607    3.706
  296.320  119.372    0.230    0.620    4.097
  296.570  117.948    0.251    0.636    4.879
  296.820  115.787    0.252    0.656    5.363
  297.070  111.034    0.241    0.631    6.029
  297.320  105.201    0.257    0.536    6.530
  297.570   99.239    0.248    0.496    6.992
  297.820  101.142    0.242    0.487    7.045
  298.070  103.448    0.233    0.473    6.911
  298.320  104.038    0.245    0.476    6.745
  298.570  100.643    0.238    0.463    6.371
  298.820  101.653    0.211    0.471    5.893
  299.070  102.705    0.206    0.507    5.674
  299.320  100.705    0.209    0.532    5.468
  299.570   99.493    0.208    0.554    5.394
  299.820   96.914    0.204    0.569    5.398
  300.070   96.036    0.192    0.597    5.475
  300.320   94.251    0.217    0.623    5.775
  300.570   87.725    0.242    0.535    5.988
  300.820   80.596    0.271    0.529    6.191
  301.070   71.341    0.278    0.500    6.413
  301.320   70.603    0.279    0.473    6.628
  301.570   72.666    0.274    0.454    6.841
  301.820   73.785    0.265    0.452    7.004
  302.070   72.651    0.262    0.467    7.183
  302.320   68.948    0.262    0.480    7.405
  302.570   65.862    0.258    0.490    7.430
  302.820   62.174    0.257    0.465    7.263
  303.070   62.262    0.252    0.452    7.143
  303.320   65.625    0.256    0.439    6.672
  303.570   71.488    0.264    0.428    6.564
  303.820   75.439    0.270    0.458    6.425
  304.070   77.940    0.291    0.477    6.508
  304.320   80.934    0.284    0.473    6.564
  304.570   84.978    0.283    0.481    6.656
  304.820   88.960    0.277    0.469    6.645
  305.070   90.147    0.262    0.453    6.586
  305.320   93.076    0.243    0.456    6.370
  305.570   95.011    0.233    0.474    6.344
  305.820   95.736    0.231    0.515    6.264
  306.070   97.808    0.238    0.539    6.272
  306.320  102.097    0.266    0.552    6.275
  306.570  105.589    0.283    0.532    6.280
  306.820  108.747    0.262    0.484    6.295
  307.070  112.174    0.239    0.489    6.435
  307.320  114.684    0.231    0.501    6.564
  307.570  111.439    0.260    0.543    6.808
  307.820  102.846    0.271    0.572    7.078
  308.070   98.047    0.277    0.545    7.208
  308.320   95.608    0.238    0.471    7.341
  308.570   94.570    0.213    0.428    7.373
  308.820   95.505    0.205    0.411    7.147
  309.070   97.494    0.207    0.420    6.461
  309.320  100.281    0.218    0.426    5.860
  309.570  102.749    0.208    0.445    5.450
  309.820  104.626    0.200    0.471    5.141
  310.070  105.905    0.182    0.502    5.049
  310.320  107.938    0.192    0.541    5.237
  310.570  108.040    0.217    0.573    5.523
  310.820   97.933    0.242    0.588    5.585
  311.070   82.345    0.253    0.570    6.050
  311.320   76.669    0.273    0.559    6.235
  311.570   72.303    0.258    0.547    6.459
  311.820   73.891    0.232    0.525    6.581
  312.070   74.256    0.201    0.456    6.457
  312.320   70.543    0.190    0.445    6.236
  312.570   75.473    0.175    0.467    6.118
  312.820   82.499    0.224    0.491    5.987
  313.070   86.914    0.257    0.513    5.986
  313.320   89.781    0.284    0.524    6.093
  313.570   90.246    0.284    0.513    7.109
  313.820   89.244    0.275    0.495    7.738
  314.070   89.432    0.264    0.507    8.588
  314.320   80.199    0.288    0.536   10.138
  314.570   69.271    0.305    0.523   11.864
  314.820   62.078    0.296    0.521   13.087
  315.070   59.146    0.300    0.525   13.741
  315.320   60.195    0.314    0.487   13.604
  315.570   60.801    0.299    0.469   13.337
  315.820   60.873    0.291    0.488   13.285
  316.070   62.520    0.306    0.496   13.148
  316.320   63.718    0.298    0.498   12.787
  316.570   67.351    0.286    0.522   12.069
  316.820   70.188    0.279    0.545   11.620
  317.070   73.730    0.293    0.545   10.995
  317.320   76.594    0.313    0.518   10.188
  317.570   76.373    0.322    0.493    9.484
