~VERSION INFORMATION
 VERS.                 2.0:   CWLS LOG ASCII STANDARD -VERSION 2.0
 WRAP.                  NO:   ONE LINE PER DEPTH STEP
~WELL INFORMATION BLOCK
#MNEM.UNIT           DATA                    DESCRIPTION OF MNEMONIC
#---------    -------------------            -------------------------------
# Generated from Intellog Unique Number	CS_73_76/WELL/768
WELL.         MAYNARD EXPLORATION            : Well_name    - WELL
LOC .         00/07-11-073-12W4/0            : Location     - LOCATION
UWI .         00/07-11-073-12W4/0            : Uwi          - UNIQUE WELL ID
ENTR.         SP                             : Entered      - ENTERED BY
SRVC.         SCHLUMBERGER                   : Scn          - SERVICE COMPANY
STRT.M        300                            : top_depth    - START DEPTH
STOP.M        545                            : bot_depth    - STOP DEPTH
STEP.M        0.25                           : increment    - STEP LENGTH
 NULL. -999.2500:NULL Value
~CURVE INFORMATION BLOCK
#MNEM UNIT       ERCB CURVE CODE    CURVE DESCRIPTION
#-----------   ------------------   ----------------------------------
DEPT.M        00 001 00 00         : DEPTH        - DEPTH
ILD .OHMM     00 120 00 00         : RESD         - DEEP RESISTIVITY (DIL)
DPHI.V/V      00 890 00 00         : PHID         - DENSITY POROSITY (LIMESTONE)
NPHI.V/V      00 330 00 00         : PHIN         - NEUTRON POROSITY (LIMESTONE)
GR  .API      00 310 00 00         : GR           - GAMMA RAY
~PARAMETER INFORMATION
#MNEM.UNIT           DATA             DESCRIPTION OF MNEMONIC
#---------         -----------     ------------------------------
GL  .M        661.5                : gl           - GROUND LEVEL ELEVATION
EREF.M        665                  : kb           - ELEVATION OF DEPTH REFERENCE
DATM.M        661.5                : datum        - DATUM ELEVATION
TDD .M        562                  : tdd          - TOTAL DEPTH DRILLER
RUN .         ONE                  : Run          - RUN NUMBER
ENG .         BILL                 : Engineer     - RECORDING ENGINEER
WIT .         JIM                  : Witness      - WITNESSED BY
MUD .         GEL                  : Mud_type     - MUD TYPE
MATR.         LIMESTONE            : Logunit      - NEUTRON MATRIX
TMAX.C        21                   : BHT          - MAXIMUM RECORDED TEMPERATURE
BHTD.M        562                  : BHTDEP       - MAXIMUM RECORDED TEMPERATURE
MATR.         1                    : LOGUNIT      - NEUTRON MATRIX
RMT .C        25                   : MDTP         - TEMPERATURE OF MUD
NEUT.         1                    : NEUTRON      - NEUTRON TYPE
RESI.         0                    : RESIST       - RESISTIVITY TYPE
RMC .OHMM     0.25                 : RMC          - RESISTIVITY OF MUD CAKE
RMF .OHMM     0.25                 : RMF          - RESISTIVITY OF MUD FILTRATE
SUFT.C        15                   : SUFT         - SURFACE TEMPERATURE
~A  DEPTH     RESD     PHID     PHIN       GR
# ...
  430.500    4.718    0.300    0.504   87.617
  430.750    4.718    0.292    0.506   89.404
  431.000    4.796    0.279    0.512   89.416
  431.250    4.873    0.269    0.518   88.245
  431.500    4.951    0.288    0.506   87.066
  431.750    5.107    0.294    0.491   85.301
  432.000    5.185    0.302    0.474   84.724
  432.250    5.419    0.305    0.458   84.138
  432.500    5.574    0.293    0.446   84.146
  432.750    5.730    0.283    0.441   84.161
  433.000    5.808    0.273    0.439   84.169
  433.250    5.808    0.293    0.445   85.368
  433.500    5.651    0.309    0.457   85.382
  433.750    5.416    0.321    0.467   85.387
  434.000    5.260    0.328    0.475   84.213
  434.250    5.181    0.333    0.475   80.076
  434.500    5.181    0.334    0.471   77.120
  434.750    5.180    0.334    0.469   73.576
  435.000    5.180    0.329    0.467   72.400
  435.250    5.414    0.317    0.466   71.818
  435.500    5.492    0.313    0.461   71.830
  435.750    5.726    0.304    0.456   72.436
  436.000    5.803    0.296    0.454   73.634
  436.250    5.881    0.290    0.459   75.423
  436.500    5.724    0.285    0.469   77.210
  436.750    5.412    0.282    0.479   81.376
  437.000    4.942    0.285    0.488   82.570
  437.250    4.551    0.284    0.494   84.357
  437.500    4.395    0.275    0.489   86.744
  437.750    4.316    0.270    0.482   87.941
  438.000    4.550    0.266    0.479   89.134
  438.250    4.940    0.282    0.475   90.330
  438.500    5.096    0.282    0.467   90.344
  438.750    5.408    0.279    0.462   87.391
  439.000    5.564    0.286    0.455   84.434
  439.250    5.642    0.287    0.454   82.075
  439.500    5.642    0.313    0.463   82.684
  439.750    5.485    0.320    0.471   83.284
  440.000    5.484    0.327    0.475   83.295
  440.250    5.406    0.329    0.482   82.120
  440.500    5.406    0.330    0.488   80.950
  440.750    5.405    0.326    0.487   79.771
  441.000    5.483    0.325    0.476   78.007
  441.250    5.561    0.319    0.455   76.829
  441.500    5.638    0.313    0.443   75.655
  441.750    5.716    0.310    0.432   75.075
  442.000    5.794    0.307    0.437   74.493
  442.250    5.872    0.303    0.440   75.093
  442.500    5.949    0.298    0.447   76.292
  442.750    5.949    0.294    0.443   76.900
  443.000    5.949    0.287    0.436   76.906
  443.250    5.948    0.284    0.430   76.325
  443.500    5.948    0.288    0.426   76.338
  443.750    5.948    0.278    0.430   76.351
  444.000    5.869    0.267    0.438   76.360
  444.250    5.869    0.282    0.445   76.372
  444.500    5.790    0.289    0.447   76.384
  444.750    5.712    0.293    0.446   76.988
  445.000    5.633    0.285    0.450   77.000
  445.250    5.633    0.281    0.453   77.600
  445.500    5.554    0.273    0.457   78.797
  445.750    5.632    0.268    0.459   81.179
  446.000    5.632    0.267    0.458   82.374
  446.250    5.553    0.262    0.454   83.573
  446.500    5.553    0.260    0.449   83.582
  446.750    5.552    0.258    0.456   83.593
  447.000    5.552    0.268    0.461   84.790
  447.250    5.473    0.273    0.467   84.802
  447.500    5.395    0.286    0.472   84.223
  447.750    5.394    0.288    0.478   84.826
  448.000    5.238    0.277    0.479   83.648
  448.250    5.003    0.270    0.472   86.034
  448.500    4.612    0.267    0.470   89.604
  448.750    4.455    0.274    0.463   91.983
  449.000    4.221    0.274    0.448   95.552
  449.250    4.142    0.262    0.429   94.377
  449.500    4.220    0.252    0.408   88.461
  449.750    4.454    0.235    0.400   82.545
  450.000    5.157    0.223    0.401   77.813
  450.250    5.781    0.216    0.416   73.669
  450.500    6.328    0.216    0.433   70.716
  450.750    6.718    0.213    0.448   74.879
  451.000    6.718    0.226    0.468   81.415
  451.250    6.014    0.245    0.478   84.980
  451.500    5.545    0.238    0.490   89.734
  451.750    5.232    0.234    0.484   89.153
  452.000    4.841    0.247    0.476   86.794
  452.250    4.528    0.250    0.474   86.210
  452.500    4.606    0.253    0.475   86.815
  452.750    4.683    0.246    0.475   88.013
  453.000    4.839    0.237    0.471   90.399
  453.250    4.995    0.232    0.470   91.592
  453.500    4.995    0.234    0.470   92.791
  453.750    4.682    0.231    0.469   92.209
  454.000    4.603    0.225    0.472   91.622
  454.250    4.525    0.234    0.476   91.042
  454.500    4.681    0.240    0.464   93.425
  454.750    4.915    0.255    0.455   95.809
  455.000    5.539    0.266    0.447   97.596
  455.250    5.773    0.261    0.444   99.978
  455.500    5.695    0.256    0.458  101.177
  455.750    5.304    0.253    0.469  100.001
  456.000    5.147    0.249    0.479   99.421
  456.250    4.990    0.260    0.482   99.430
  456.500    4.912    0.267    0.470   99.441
  456.750    4.912    0.276    0.459   95.897
  457.000    4.989    0.288    0.451   91.163
  457.250    4.989    0.302    0.443   86.431
  457.500    5.067    0.314    0.438   81.701
  457.750    5.144    0.307    0.441   81.118
  458.000    5.144    0.289    0.435   81.725
  458.250    5.222    0.239    0.429   84.110
  458.500    5.299    0.200    0.422   85.900
  458.750    5.299    0.188    0.435   86.501
  459.000    5.377    0.217    0.448   88.888
  459.250    5.376    0.235    0.461   89.486
  459.500    5.298    0.269    0.471   90.682
  459.750    4.907    0.268    0.480   91.285
  460.000    4.672    0.260    0.488   90.704
  460.250    4.281    0.249    0.501   88.939
  460.500    3.890    0.243    0.515   88.948
  460.750    3.343    0.254    0.540   90.144
  461.000    2.952    0.268    0.559   91.344
  461.250    2.639    0.272    0.551   91.352
  461.500    2.326    0.271    0.540   90.772
  461.750    2.169    0.266    0.534   91.376
  462.000    1.935    0.257    0.542   93.166
  462.250    1.934    0.257    0.556   94.956
  462.500    2.012    0.258    0.566   96.154
  462.750    2.090    0.258    0.571   96.755
  463.000    2.168    0.258    0.556   97.359
  463.250    2.245    0.247    0.534   96.776
  463.500    2.479    0.236    0.493   95.602
  463.750    2.713    0.231    0.469   93.241
  464.000    3.181    0.225    0.458   87.327
  464.250    3.572    0.230    0.470   84.966
  464.500    3.806    0.225    0.465   83.788
  464.750    3.962    0.218    0.460   84.985
  465.000    3.883    0.225    0.454   86.776
  465.250    3.883    0.230    0.429   87.973
  465.500    4.039    0.214    0.399   84.430
  465.750    4.741    0.201    0.349   80.291
  466.000    5.210    0.181    0.324   77.927
  466.250    5.912    0.204    0.319   73.788
  466.500    6.381    0.254    0.336   71.428
  466.750    6.615    0.278    0.358   74.408
  467.000    6.536    0.249    0.331   75.007
  467.250    6.458    0.196    0.286   74.426
  467.500    6.614    0.117    0.196   72.658
  467.750    8.019    0.063    0.173   64.369
  468.000    9.347    0.136    0.194   58.451
  468.250   11.222    0.181    0.228   57.277
  468.500   11.378    0.223    0.292   59.661
  468.750    8.018    0.255    0.410   62.043
  469.000    6.455    0.276    0.432   64.427
  469.250    5.752    0.279    0.431   66.809
  469.500    5.126    0.276    0.421   68.003
  469.750    5.048    0.273    0.414   69.793
  470.000    5.047    0.266    0.424   71.585
  470.250    5.203    0.260    0.430   73.975
  470.500    5.359    0.242    0.422   75.170
  470.750    5.437    0.223    0.421   75.769
  471.000    5.514    0.226    0.433   73.406
  471.250    5.514    0.227    0.451   76.384
  471.500    5.436    0.235    0.465   79.951
  471.750    4.888    0.246    0.492   85.299
  472.000    4.341    0.250    0.520   90.054
  472.250    4.028    0.235    0.531   94.213
  472.500    3.559    0.242    0.537   98.374
  472.750    3.168    0.247    0.532  101.941
  473.000    2.855    0.257    0.527  104.919
  473.250    2.777    0.265    0.524  104.932
  473.500    2.698    0.248    0.521  104.940
  473.750    2.698    0.238    0.519  103.173
