~VERSION INFORMATION
 VERS.                 2.0:   CWLS LOG ASCII STANDARD -VERSION 2.0
 WRAP.                  NO:   ONE LINE PER DEPTH STEP
~WELL INFORMATION BLOCK
#MNEM.UNIT           DATA                    DESCRIPTION OF MNEMONIC
#---------    -------------------            -------------------------------
# Generated from Intellog Unique Number	CS_71_72/WELL/2057
WELL.         HUS BVX UNIGAS LYLE            : Well_name    - WELL
LOC .         00/07-13-071-16W4/0            : Location     - LOCATION
UWI .         00/07-13-071-16W4/0            : Uwi          - UNIQUE WELL ID
ENTR.         T                              : Entered      - ENTERED BY
SRVC.         WESTERN ATLAS                  : Scn          - SERVICE COMPANY
DATE.         01\13\92                       : Date         - LOG DATE
STRT.M        304.8                          : top_depth    - START DEPTH
STOP.M        499.8                          : bot_depth    - STOP DEPTH
STEP.M        0.25                           : increment    - STEP LENGTH
 NULL. -999.2500:NULL Value
~CURVE INFORMATION BLOCK
#MNEM UNIT       ERCB CURVE CODE    CURVE DESCRIPTION
#-----------   ------------------   ----------------------------------
DEPT.M        00 001 00 00         : DEPTH        - DEPTH
GR  .API      00 310 00 00         : GR           - GAMMA RAY
NPHI.V/V      00 330 00 00         : PHIN         - NEUTRON POROSITY (SANDSTONE)
ILD .OHMM     00 120 00 00         : RESD         - DEEP RESISTIVITY (DIL)
~PARAMETER INFORMATION
#MNEM.UNIT           DATA             DESCRIPTION OF MNEMONIC
#---------         -----------     ------------------------------
GL  .M        600.151              : gl           - GROUND LEVEL ELEVATION
EREF.M        603.199              : kb           - ELEVATION OF DEPTH REFERENCE
DATM.M        603.199              : datum        - DATUM ELEVATION
TDD .M        500.482              : tdd          - TOTAL DEPTH DRILLER
RUN .         ONE                  : Run          - RUN NUMBER
ENG .         JO                   : Engineer     - RECORDING ENGINEER
WIT .         TIM                  : Witness      - WITNESSED BY
MUD .         GEL                  : Mud_type     - MUD TYPE
MATR.         SANDSTONE            : Logunit      - NEUTRON MATRIX
TMAX.C        24.4444              : BHT          - MAXIMUM RECORDED TEMPERATURE
BHTD.M        500.482              : BHTDEP       - MAXIMUM RECORDED TEMPERATURE
RMT .C        14.4444              : MDTP         - TEMPERATURE OF MUD
MUDD.KG/M     9483.33              : MWT          - MUD DENSITY
NEUT.         1                    : NEUTRON      - NEUTRON TYPE
RESI.         0                    : RESIST       - RESISTIVITY TYPE
RM  .OHMM     4.16                 : RM           - RESISTIVITY OF MUD
RMC .OHMM     4.16                 : RMC          - RESISTIVITY OF MUD CAKE
RMF .OHMM     4.16                 : RMF          - RESISTIVITY OF MUD FILTRATE
SUFT.C        4                    : SUFT         - SURFACE TEMPERATURE
~A  DEPTH       GR     PHIN     RESD
# ...
  467.550   62.187    0.328    9.548
  467.800   64.560    0.334    8.414
  468.050   61.657    0.337    7.687
  468.300   63.082    0.335    7.413
  468.550   66.890    0.333    7.020
  468.800   73.095    0.336    7.020
  469.050   83.600    0.343    7.145
  469.300   86.451    0.351    7.676
  469.550   84.514    0.349    8.101
  469.800   85.931    0.356    8.705
  470.050   87.347    0.382    9.522
  470.300   83.980    0.390    9.870
  470.550   79.656    0.400   12.031
  470.800   73.897    0.388   15.761
  471.050   72.443    0.375   18.868
  471.300   71.467    0.363   22.588
  471.550   68.579    0.343   22.177
  471.800   59.466    0.322   20.261
  472.050   51.794    0.301   16.916
  472.300   44.600    0.288   14.123
  472.550   44.581    0.284   12.446
  472.800   45.519    0.292   11.167
  473.050   46.457    0.304    9.842
  473.300   47.395    0.310    9.322
  473.550   48.333    0.308    8.829
  473.800   55.489    0.307    8.514
  474.050   61.684    0.303    8.209
  474.300   61.666    0.301    8.208
  474.550   60.685    0.298    8.205
  474.800   56.845    0.294    8.353
  475.050   54.912    0.295    8.502
  475.300   60.634    0.313    8.500
  475.550   63.007    0.322    8.498
  475.800   52.943    0.314    8.496
  476.050   42.400    0.304    8.341
  476.300   42.381    0.298    8.191
  476.550   47.624    0.304    8.043
  476.800   55.738    0.306    8.040
  477.050   61.459    0.309    8.038
  477.300   63.828    0.312    8.036
  477.550   63.335    0.326    8.034
  477.800   61.403    0.329    8.031
  478.050   60.427    0.323    8.175
  478.300   59.916    0.313    8.322
  478.550   60.854    0.308    8.626
  478.800   61.323    0.310    8.940
  479.050   61.778    0.306    9.605
  479.300   59.372    0.303   10.321
  479.550   57.431    0.297    9.261
  479.800   56.938    0.291    7.593
  480.050   55.006    0.281    6.937
  480.300   54.031    0.269    6.570
  480.550   55.930    0.261    6.569
  480.800   61.173    0.348    6.808
  481.050   66.411    0.360    7.056
  481.300   70.698    0.368    7.446
  481.550   73.071    0.391    7.858
  481.800   69.708    0.403    8.292
  482.050   70.646    0.370    8.441
  482.300   73.971    0.330    8.139
  482.550   77.784    0.336    7.709
  482.800   83.984    0.346    7.171
  483.050   84.443    0.344    6.670
  483.300   81.071    0.340    6.550
  483.550   78.661    0.336    6.203
  483.800   77.202    0.332    6.202
  484.050   77.662    0.331    6.089
  484.300   78.600    0.331    6.198
  484.550   80.978    0.336    6.310
  484.800   85.259    0.342    6.780
  485.050   88.594    0.343    7.154
  485.300   90.967    0.339    7.550
  485.550   88.556    0.338    7.548
  485.800   85.667    0.350    7.149
  486.050   84.209    0.359    6.650
  486.300   80.368    0.350    6.298
  486.550   75.082    0.338    6.074
  486.800   71.237    0.330    6.072
  487.050   71.213    0.322    6.070
  487.300   68.808    0.313    6.069
  487.550   60.178    0.307    6.290
  487.800   52.023    0.303    6.519
  488.050   50.569    0.298    7.004
  488.300   49.593    0.294    7.259
  488.550   51.483    0.303    7.660
  488.800   53.861    0.311    7.939
  489.050   58.626    0.306    7.520
  489.300   63.869    0.318    6.748
  489.550   71.026    0.361    5.634
  489.800   76.269    0.363    4.537
  490.050   80.077    0.343    3.857
  490.300   84.363    0.325    3.399
  490.550   87.215    0.319    2.995
  490.800   80.977    0.329    2.786
  491.050   62.781    0.331    2.687
  491.300   51.282    0.329    2.686
  491.550   46.948    0.327    2.784
  491.800   48.843    0.333    2.885
  492.050   52.177    0.334    3.214
  492.300   59.812    0.334    5.227
  492.550   68.887    0.336    6.257
  492.800   82.262    0.341    6.845
  493.050   89.897    0.356    6.842
  493.300   87.482    0.353    6.719
  493.550   85.554    0.345    6.480
  493.800   83.130    0.340    6.363
  494.050   82.163    0.332    6.135
  494.300   81.179    0.333    6.024
  494.550   80.691    0.335    5.810
  494.800   80.189    0.338    5.503
  495.050   79.214    0.339    5.118
  495.300   77.755    0.340    4.847
  495.550   77.267    0.339    4.760
  495.800   74.378    0.334    4.845
  496.050   72.442    0.329    5.206
  496.300   62.377    0.318    9.433
  496.550   53.748    0.313   13.769
  496.800   43.206    0.301   16.483
  497.050   10.654    0.274   19.381
  497.300   11.587    0.242   22.379
  497.550   13.956    0.229   24.926
  497.800   14.903    0.214   27.763
  498.050   17.754    0.201   28.262
  498.300   20.606    0.189   28.771
  498.550   20.109    0.186   29.819
  498.800   18.655    0.186   30.905
  499.050   17.679    0.187   32.031
  499.300   16.226    0.188   32.603
  499.550   16.202    0.190   33.188
  499.800   17.140    0.191   33.181
