~VERSION INFORMATION
 VERS.                 2.0:   CWLS LOG ASCII STANDARD -VERSION 2.0
 WRAP.                  NO:   ONE LINE PER DEPTH STEP
~WELL INFORMATION BLOCK
#MNEM.UNIT           DATA                    DESCRIPTION OF MNEMONIC
#---------    -------------------            -------------------------------
# Generated from Intellog Unique Number	CS_73_76/WELL/4759
WELL.         AMOCO KIRBY                    : Well_name    - WELL
LOC .         00/07-35-073-05W4/0            : Location     - LOCATION
UWI .         00/07-35-073-05W4/0            : Uwi          - UNIQUE WELL ID
ENTR.         T                              : Entered      - ENTERED BY
SRVC.         SCHLUMBERGER                   : Scn          - SERVICE COMPANY
STRT.M        265                            : top_depth    - START DEPTH
STOP.M        495                            : bot_depth    - STOP DEPTH
STEP.M        0.25                           : increment    - STEP LENGTH
 NULL. -999.2500:NULL Value
~CURVE INFORMATION BLOCK
#MNEM UNIT       ERCB CURVE CODE    CURVE DESCRIPTION
#-----------   ------------------   ----------------------------------
DEPT.M        00 001 00 00         : DEPTH        - DEPTH
GR  .API      00 310 00 00         : GR           - GAMMA RAY
NPHI.V/V      00 330 00 00         : PHIN         - NEUTRON POROSITY (SANDSTONE)
DPHI.V/V      00 890 00 00         : PHID         - DENSITY POROSITY (SANDSTONE)
ILD .OHMM     00 120 00 00         : RESD         - DEEP RESISTIVITY (DIL)
~PARAMETER INFORMATION
#MNEM.UNIT           DATA             DESCRIPTION OF MNEMONIC
#---------         -----------     ------------------------------
GL  .M        660.7                : gl           - GROUND LEVEL ELEVATION
EREF.M        664.4                : kb           - ELEVATION OF DEPTH REFERENCE
DATM.M        664.4                : datum        - DATUM ELEVATION
TDD .M        500                  : tdd          - TOTAL DEPTH DRILLER
RUN .         ONE                  : Run          - RUN NUMBER
ENG .         BILL                 : Engineer     - RECORDING ENGINEER
WIT .         JIM                  : Witness      - WITNESSED BY
MUD .         GEL                  : Mud_type     - MUD TYPE
MATR.         SANDSTONE            : Logunit      - NEUTRON MATRIX
TMAX.C        24                   : BHT          - MAXIMUM RECORDED TEMPERATURE
BHTD.M        500                  : BHTDEP       - MAXIMUM RECORDED TEMPERATURE
MATR.         1                    : LOGUNIT      - NEUTRON MATRIX
RMT .C        23                   : MDTP         - TEMPERATURE OF MUD
NEUT.         1                    : NEUTRON      - NEUTRON TYPE
RESI.         0                    : RESIST       - RESISTIVITY TYPE
RMC .OHMM     0.38                 : RMC          - RESISTIVITY OF MUD CAKE
RMF .OHMM     0.45                 : RMF          - RESISTIVITY OF MUD FILTRATE
SUFT.C        15                   : SUFT         - SURFACE TEMPERATURE
~A  DEPTH       GR     PHIN     PHID     RESD
# ...
  308.500  120.189    0.460    0.230    2.682
  308.750  124.415    0.460    0.259    2.784
  309.000  128.019    0.460    0.271    2.889
  309.250  129.194    0.458    0.279    3.054
  309.500  129.159    0.453    0.277    3.169
  309.750  128.504    0.451    0.268    3.229
  310.000  126.616    0.451    0.244    3.351
  310.250  123.519    0.451    0.235    3.350
  310.500  122.253    0.454    0.224    3.349
  310.750  121.609    0.455    0.203    3.349
  311.000  117.280    0.454    0.210    3.411
  311.250  114.794    0.454    0.224    3.410
  311.500  109.855    0.455    0.239    3.474
  311.750  107.990    0.453    0.254    3.539
  312.000  104.882    0.451    0.252    3.346
  312.250  108.509    0.451    0.262    3.223
  312.500  113.345    0.453    0.269    3.283
  312.750  120.012    0.453    0.266    3.283
  313.000  127.899    0.456    0.260    3.282
  313.250  132.136    0.461    0.246    3.281
  313.500  136.972    0.474    0.245    3.220
  313.750  139.977    0.504    0.254    3.160
  314.000  137.491    0.511    0.256    3.044
  314.250  132.552    0.509    0.230    2.988
  314.500  119.692    0.482    0.224    2.932
  314.750  117.206    0.472    0.230    2.877
  315.000  107.397    0.463    0.254    2.824
  315.250   99.407    0.454    0.257    2.823
  315.500   97.508    0.450    0.264    2.823
  315.750   97.485    0.446    0.261    2.770
  316.000   96.818    0.452    0.236    2.669
  316.250   94.941    0.460    0.230    2.571
  316.500   93.687    0.450    0.215    2.570
  316.750   91.189    0.437    0.195    2.618
  317.000   88.702    0.439    0.224    2.717
  317.250   88.657    0.437    0.255    2.767
  317.500   90.442    0.425    0.286    2.716
  317.750   92.837    0.419    0.311    2.520
  318.000   96.453    0.415    0.313    2.428
  318.250  100.080    0.413    0.293    2.339
  318.500  104.305    0.413    0.260    2.295
  318.750  106.079    0.419    0.247    2.382
  319.000  105.423    0.423    0.236    2.566
  319.250  104.779    0.433    0.230    2.713
  319.500  104.111    0.440    0.234    2.815
  319.750  102.845    0.434    0.246    2.868
  320.000  102.189    0.427    0.262    2.814
  320.250  100.325    0.428    0.274    2.661
  320.500   92.335    0.439    0.286    2.516
  320.750   88.617    0.448    0.298    2.379
  321.000   86.752    0.464    0.307    2.291
  321.250   84.254    0.468    0.305    2.166
  321.500   81.157    0.455    0.303    2.087
  321.750   78.072    0.426    0.302    2.010
  322.000   73.743    0.419    0.302    1.936
  322.250   69.438    0.414    0.305    1.865
  322.500   65.120    0.412    0.310    1.797
  322.750   59.560    0.410    0.314    1.731
  323.000   59.503    0.407    0.316    1.667
  323.250   60.701    0.405    0.317    1.667
  323.500   63.096    0.398    0.316    1.606
  323.750   67.322    0.401    0.315    1.605
  324.000   69.118    0.419    0.313    1.605
  324.250   68.462    0.424    0.310    1.575
  324.500   68.394    0.431    0.308    1.575
  324.750   71.410    0.433    0.301    1.575
  325.000   87.242    0.437    0.296    1.665
  325.250   97.570    0.431    0.273    1.793
  325.500  101.772    0.414    0.219    1.932
  325.750  101.128    0.398    0.190    2.005
  326.000   97.421    0.403    0.185    2.042
  326.250   94.324    0.405    0.210    2.119
  326.500   94.290    0.406    0.240    2.119
  326.750   94.233    0.412    0.265    2.158
  327.000   94.786    0.418    0.270    2.118
  327.250   95.374    0.428    0.269    2.079
  327.500   97.136    0.435    0.266    2.040
  327.750   98.322    0.439    0.265    1.965
  328.000  100.717    0.443    0.264    1.965
  328.250  102.502    0.445    0.264    1.928
  328.500  100.637    0.447    0.262    1.964
  328.750   95.710    0.447    0.258    1.964
  329.000   93.822    0.450    0.253    1.964
  329.250   91.946    0.446    0.279    1.822
  329.500   88.251    0.438    0.304    1.755
  329.750   74.159    0.424    0.310    1.599
  330.000   62.519    0.421    0.321    1.484
  330.250   59.422    0.429    0.328    1.327
  330.500   59.365    0.431    0.331    1.231
  330.750   63.580    0.428    0.331    1.122
  331.000   65.998    0.427    0.331    1.061
  331.250   67.172    0.429    0.331    1.022
  331.500   67.127    0.430    0.331    0.966
  331.750   65.251    0.431    0.331    0.930
  332.000   62.764    0.424    0.333    0.896
  332.250   60.876    0.427    0.333    0.880
  332.500   60.186    0.433    0.333    0.847
  332.750   60.785    0.439    0.334    0.847
  333.000   61.960    0.445    0.335    0.831
  333.250   64.344    0.451    0.337    0.831
  333.500   65.530    0.450    0.339    0.831
  333.750   66.705    0.444    0.342    0.786
  334.000   66.647    0.439    0.345    0.786
  334.250   67.224    0.433    0.347    0.786
  334.500   67.777    0.431    0.346    0.757
  334.750   67.742    0.434    0.345    0.757
  335.000   68.307    0.437    0.343    0.756
  335.250   69.470    0.439    0.342    0.756
  335.500   69.425    0.430    0.340    0.756
  335.750   67.560    0.422    0.338    0.785
  336.000   62.633    0.413    0.332    0.830
  336.250   58.926    0.406    0.270    0.861
  336.500   60.089    0.350    0.150    0.945
  336.750   61.874    0.365    0.239    0.981
  337.000   64.258    0.381    0.286    1.096
  337.250   65.455    0.414    0.319    1.138
  337.500   66.630    0.441    0.360    1.225
  337.750   67.805    0.460    0.360    1.180
  338.000   68.358    0.451    0.358    1.137
  338.250   68.324    0.447    0.346    1.017
  338.500   68.865    0.447    0.334    0.961
  338.750   69.441    0.450    0.328    0.876
  339.000   71.204    0.452    0.328    0.844
  339.250   71.791    0.456    0.332    0.828
  339.500   71.757    0.460    0.335    0.828
  339.750   72.920    0.461    0.338    0.828
  340.000   73.485    0.461    0.337    0.812
  340.250   74.061    0.460    0.334    0.827
  340.500   74.625    0.460    0.330    0.827
  340.750   72.749    0.459    0.329    0.843
  341.000   69.652    0.460    0.327    0.858
  341.250   67.776    0.462    0.329    0.874
  341.500   67.719    0.462    0.330    0.858
  341.750   68.295    0.462    0.330    0.811
  342.000   68.859    0.461    0.331    0.811
  342.250   70.034    0.460    0.333    0.811
  342.500   71.198    0.460    0.334    0.826
  342.750   71.163    0.461    0.337    0.873
  343.000   72.327    0.464    0.342    0.890
  343.250   73.501    0.465    0.348    0.906
  343.500   75.275    0.471    0.358    0.889
  343.750   75.862    0.478    0.365    0.889
  344.000   76.427    0.489    0.365    0.906
  344.250   75.760    0.471    0.337    0.940
  344.500   76.324    0.470    0.326    1.012
  344.750   76.290    0.470    0.312    1.070
  345.000   77.465    0.470    0.309    1.132
  345.250   78.628    0.469    0.317    1.174
  345.500   79.193    0.466    0.323    1.153
  345.750   80.356    0.463    0.323    1.110
  346.000   80.943    0.457    0.320    1.090
  346.250   81.496    0.456    0.310    1.049
  346.500   81.462    0.453    0.306    1.049
  346.750   82.015    0.452    0.305    1.049
  347.000   83.201    0.449    0.302    1.049
  347.250   83.766    0.447    0.301    1.049
  347.500   85.551    0.443    0.299    1.049
  347.750   86.714    0.442    0.299    1.068
  348.000   88.488    0.442    0.296    1.068
  348.250   89.075    0.444    0.292    1.088
  348.500   89.640    0.449    0.288    1.088
  348.750   91.413    0.450    0.283    1.108
  349.000   93.198    0.454    0.278    1.129
  349.250   93.774    0.460    0.278    1.150
  349.500   95.559    0.472    0.278    1.193
  349.750   97.344    0.461    0.278    1.238
  350.000   99.740    0.455    0.278    1.334
  350.250  104.564    0.471    0.277    1.358
  350.500  110.022    0.497    0.274    1.410
  350.750  116.078    0.507    0.268    1.463
  351.000  120.304    0.525    0.264    1.490
  351.250  120.869    0.525    0.258    1.518
  351.500  117.772    0.528    0.252    1.546
  351.750  115.896    0.534    0.250    1.546
