~VERSION INFORMATION
 VERS.                 2.0:   CWLS LOG ASCII STANDARD -VERSION 2.0
 WRAP.                  NO:   ONE LINE PER DEPTH STEP
~WELL INFORMATION BLOCK
#MNEM.UNIT           DATA                    DESCRIPTION OF MNEMONIC
#---------    -------------------            -------------------------------
# Generated from Intellog Unique Number	CS_77_79/WELL/872
WELL.         CHRISTINA                      : Well_name    - WELL
LOC .         00/06-11-079-09W4/0            : Location     - LOCATION
UWI .         00/06-11-079-09W4/0            : Uwi          - UNIQUE WELL ID
ENTR.         JHS                            : Entered      - ENTERED BY
SRVC.         SCHLUMBERGER                   : Scn          - SERVICE COMPANY
STRT.M        198.12                         : top_depth    - START DEPTH
STOP.M        420.37                         : bot_depth    - STOP DEPTH
STEP.M        0.25                           : increment    - STEP LENGTH
 NULL. -999.2500:NULL Value
~CURVE INFORMATION BLOCK
#MNEM UNIT       ERCB CURVE CODE    CURVE DESCRIPTION
#-----------   ------------------   ----------------------------------
DEPT.M        00 001 00 00         : DEPTH        - DEPTH
RHOB.KG/M3    00 350 00 00         : DENS         - BULK DENSITY
GR  .API      00 310 00 00         : GR           - GAMMA RAY
DPHI.V/V      00 890 00 00         : PHID         - DENSITY POROSITY (SANDSTONE)
NPHI.V/V      00 330 00 00         : PHIN         - NEUTRON POROSITY (SANDSTONE)
ILD .OHMM     00 120 00 00         : RESD         - DEEP RESISTIVITY (DIL)
~PARAMETER INFORMATION
#MNEM.UNIT           DATA             DESCRIPTION OF MNEMONIC
#---------         -----------     ------------------------------
GL  .M        637.733              : gl           - GROUND LEVEL ELEVATION
EREF.M        640.385              : kb           - ELEVATION OF DEPTH REFERENCE
DATM.M        640.385              : datum        - DATUM ELEVATION
TDD .M        431.292              : tdd          - TOTAL DEPTH DRILLER
RUN .         ONE                  : Run          - RUN NUMBER
ENG .         BILL                 : Engineer     - RECORDING ENGINEER
WIT .         JIM                  : Witness      - WITNESSED BY
MUD .         GEL                  : Mud_type     - MUD TYPE
MATR.         SANDSTONE            : Logunit      - NEUTRON MATRIX
TMAX.C        23.8889              : BHT          - MAXIMUM RECORDED TEMPERATURE
BHTD.M        431.292              : BHTDEP       - MAXIMUM RECORDED TEMPERATURE
MATR.         1                    : LOGUNIT      - NEUTRON MATRIX
RMT .C        25                   : MDTP         - TEMPERATURE OF MUD
NEUT.         1                    : NEUTRON      - NEUTRON TYPE
RESI.         0                    : RESIST       - RESISTIVITY TYPE
RMC .OHMM     0.25                 : RMC          - RESISTIVITY OF MUD CAKE
RMF .OHMM     0.25                 : RMF          - RESISTIVITY OF MUD FILTRATE
SUFT.C        15                   : SUFT         - SURFACE TEMPERATURE
~A  DEPTH     DENS       GR     PHID     PHIN     RESD
# ...
  234.620    0.000   55.581    0.250    0.358   25.320
  234.870    0.000   64.836    0.246    0.354   22.578
  235.120    0.000   71.753    0.252    0.357   20.826
  235.370    0.000   78.566    0.247    0.376   17.394
  235.620    0.000   83.544    0.248    0.410   15.135
  235.870    0.000   83.744    0.263    0.445   13.870
  236.120    0.000   75.434    0.291    0.475   13.837
  236.370    0.000   66.119    0.291    0.494   14.353
  236.620    0.000   61.426    0.317    0.531   16.331
  236.870    0.000   55.677    0.386    0.570   18.780
  237.120    0.000   50.189    0.394    0.567   20.948
  237.370    0.000   46.560    0.389    0.540   22.997
  237.620    0.000   47.052    0.397    0.542   24.511
  237.870    0.000   53.046    0.377    0.534   24.819
  238.120    0.000   60.526    0.347    0.501   25.468
  238.370    0.000   62.447    0.333    0.491   24.908
  238.620    0.000   60.794    0.334    0.491   24.567
  238.870    0.000   63.734    0.340    0.487   24.351
  239.120    0.000   66.093    0.333    0.527   23.574
  239.370    0.000   63.678    0.342    0.549   23.595
  239.620    0.000   57.667    0.349    0.515   23.697
  239.870    0.000   54.107    0.347    0.516   24.002
  240.120    0.000   53.808    0.354    0.509   24.772
  240.370    0.000   52.052    0.350    0.506   24.957
  240.620    0.000   46.091    0.336    0.500   25.790
  240.870    0.000   41.226    0.344    0.484   25.768
  241.120    0.000   41.279    0.341    0.450   26.337
  241.370    0.000   46.271    0.344    0.454   26.284
  241.620    0.000   45.184    0.336    0.487   26.122
  241.870    0.000   43.897    0.338    0.462   25.296
  242.120    0.000   46.358    0.340    0.438   23.886
  242.370    0.000   50.889    0.338    0.423   21.538
  242.620    0.000   60.107    0.324    0.410   19.618
  242.870    0.000   64.358    0.315    0.396   16.744
  243.120    0.000   69.331    0.307    0.425   14.065
  243.370    0.000   73.070    0.292    0.423   12.201
  243.620    0.000   79.029    0.263    0.472   11.447
  243.870    0.000   79.097    0.269    0.492   11.520
  244.120    0.000   82.180    0.293    0.478   11.859
  244.370    0.000   83.277    0.264    0.474   12.938
  244.620    0.000   81.859    0.259    0.491   13.812
  244.870    0.000   83.035    0.251    0.487   13.222
  245.120    0.000   87.139    0.242    0.482   11.759
  245.370    0.000   92.283    0.229    0.478    9.509
  245.620    0.000   99.792    0.218    0.495    7.567
  245.870    0.000  108.389    0.257    0.548    6.177
  246.120    0.000  116.749    0.243    0.567    5.423
  246.370    0.000  117.220    0.221    0.581    5.164
  246.620    0.000  114.415    0.209    0.590    5.678
  246.870    0.000  107.624    0.210    0.566    5.992
  247.120    0.000  106.558    0.211    0.557    6.745
  247.370    0.000  108.846    0.229    0.562    7.807
  247.620    0.000  109.400    0.248    0.533   10.116
  247.870    0.000  106.733    0.260    0.510   12.770
  248.120    0.000   97.871    0.284    0.493   14.939
  248.370    0.000   93.620    0.295    0.470   16.986
  248.620    0.000   92.292    0.311    0.477   17.486
  248.870    0.000   93.430    0.330    0.513   15.971
  249.120    0.000   95.105    0.342    0.497   14.138
  249.370    0.000   93.460    0.347    0.493   12.850
  249.620    0.000   95.149    0.329    0.500   11.725
  249.870    0.000   98.219    0.272    0.508   11.095
  250.120    0.000   98.674    0.260    0.511   11.305
  250.370    0.000   94.583    0.261    0.492   11.607
  250.620    0.000   89.184    0.264    0.444   12.575
  250.870    0.000   83.044    0.268    0.427   13.320
  251.120    0.000   82.600    0.281    0.418   13.500
  251.370    0.000   81.676    0.284    0.436   13.796
  251.620    0.000   77.155    0.285    0.430   13.766
  251.870    0.000   73.917    0.271    0.424   13.585
  252.120    0.000   72.977    0.268    0.442   13.520
  252.370    0.000   73.615    0.281    0.450   13.507
  252.620    0.000   75.387    0.286    0.454   13.221
  252.870    0.000   74.786    0.253    0.487   12.683
  253.120    0.000   75.384    0.209    0.435   12.125
  253.370    0.000   77.742    0.172    0.394   11.410
  253.620    0.000   83.231    0.179    0.437   10.979
  253.870    0.000   86.494    0.248    0.481   10.338
  254.120    0.000   90.957    0.260    0.479    9.550
  254.370    0.000   96.177    0.283    0.492    8.635
  254.620    0.000   96.640    0.266    0.505    7.882
  254.870    0.000   95.861    0.243    0.524    7.632
  255.120    0.000   97.226    0.232    0.544    7.635
  255.370    0.000   97.554    0.217    0.566    7.964
  255.620    0.000   95.742    0.206    0.577    8.529
  255.870    0.000   92.109    0.217    0.571    9.472
  256.120    0.000   82.431    0.254    0.540   10.578
  256.370    0.000   77.458    0.266    0.494   11.543
  256.620    0.000   79.556    0.271    0.477   11.887
  256.870    0.000   83.592    0.270    0.477   11.138
  257.120    0.000   89.254    0.274    0.481   10.175
  257.370    0.000   93.776    0.273    0.497    9.719
  257.620    0.000   96.938    0.277    0.511    9.421
  257.870    0.000  100.934    0.255    0.519    9.331
  258.120    0.000   99.549    0.252    0.509    9.576
  258.370    0.000   90.485    0.263    0.505   10.000
  258.620    0.000   89.482    0.255    0.519   10.992
  258.870    0.000   88.641    0.253    0.550   11.788
  259.120    0.000   85.149    0.267    0.553   12.903
  259.370    0.000   79.670    0.286    0.572   13.225
  259.620    0.000   75.883    0.297    0.615   13.013
  259.870    0.000   74.600    0.262    0.615   12.239
  260.120    0.000   81.925    0.245    0.589   11.713
  260.370    0.000   87.778    0.266    0.585   11.010
  260.620   -0.000   89.552    0.297    0.606   10.596
  260.870    0.000   91.032    0.288    0.603   10.581
  261.120    0.000   90.572    0.293    0.566   10.808
  261.370    0.000   86.480    0.294    0.535   10.999
  261.620   -0.000   82.130    0.302    0.546   11.554
  261.870   -0.000   80.610    0.304    0.558   11.877
  262.120    0.000   77.578    0.305    0.547   12.480
  262.370    0.000   79.526    0.312    0.527   12.553
  262.620    0.000   80.896    0.301    0.508   13.552
  262.870   -0.000   77.706    0.286    0.504   13.703
  263.120   -0.000   76.522    0.286    0.479   13.067
  263.370   -0.000   82.481    0.274    0.466   12.409
  263.620    0.000   90.446    0.262    0.500   11.094
  263.870    0.000   93.979    0.247    0.553   10.011
  264.120    0.000   90.092    0.225    0.565    8.949
  264.370   -0.000   87.636    0.227    0.515    8.527
  264.620   -0.000   88.272    0.219    0.511    8.249
  264.870    0.000   89.621    0.206    0.536    7.612
  265.120    0.000   88.410    0.200    0.559    6.756
  265.370    0.000   82.839    0.265    0.516    5.840
  265.620   -0.000   86.726    0.282    0.512    5.105
  265.870   -0.000   90.258    0.260    0.563    4.695
  266.120   -0.000   82.921    0.273    0.615    4.536
  266.370    0.000   77.644    0.292    0.625    4.603
  266.620    0.000   73.975    0.295    0.629    4.877
  266.870    0.000   72.022    0.285    0.628    5.296
  267.120   -0.000   67.972    0.290    0.631    6.417
  267.370   -0.000   63.625    0.316    0.632    7.794
  267.620   -0.000   55.899    0.367    0.634   10.416
  267.870    0.000   53.291    0.402    0.621   13.987
  268.120    0.000   53.155    0.398    0.603   18.965
  268.370   -0.000   53.580    0.375    0.577   24.008
  268.620   -0.000   51.574    0.371    0.493   26.892
  268.870   -0.000   49.087    0.387    0.502   28.671
  269.120    0.000   48.530    0.374    0.522   28.574
  269.370    0.000   51.778    0.368    0.498   27.692
  269.620    0.000   51.181    0.375    0.491   26.820
  269.870   -0.000   53.177    0.360    0.520   25.619
  270.120   -0.000   55.912    0.352    0.555   24.292
  270.370   -0.000   54.747    0.359    0.516   24.114
  270.620    0.000   52.239    0.373    0.517   23.375
  270.870    0.000   51.853    0.381    0.537   22.691
