~VERSION INFORMATION
 VERS.                 2.0:   CWLS LOG ASCII STANDARD -VERSION 2.0
 WRAP.                  NO:   ONE LINE PER DEPTH STEP
~WELL INFORMATION BLOCK
#MNEM.UNIT           DATA                    DESCRIPTION OF MNEMONIC
#---------    -------------------            -------------------------------
# Generated from Intellog Unique Number	CS_73_76/WELL/2168
WELL.         BOW VALLEY INDUSTRIES          : Well_name    - WELL
LOC .         00/06-25-074-17W4/0            : Location     - LOCATION
UWI .         00/06-25-074-17W4/0            : Uwi          - UNIQUE WELL ID
ENTR.         SP                             : Entered      - ENTERED BY
SRVC.         SCHLUMBERGER                   : Scn          - SERVICE COMPANY
STRT.M        228.600                        : top_depth    - START DEPTH
STOP.M        453.850                        : bot_depth    - STOP DEPTH
STEP.M        0.25                           : increment    - STEP LENGTH
 NULL. -999.2500:NULL Value
~CURVE INFORMATION BLOCK
#MNEM UNIT       ERCB CURVE CODE    CURVE DESCRIPTION
#-----------   ------------------   ----------------------------------
DEPT.M        00 001 00 00         : DEPTH        - DEPTH
GR  .API      00 310 00 00         : GR           - GAMMA RAY
DPHI.V/V      00 890 00 00         : PHID         - DENSITY POROSITY (SANDSTONE)
NPHI.V/V      00 330 00 00         : PHIN         - NEUTRON POROSITY (SANDSTONE)
ILD .OHMM     00 120 00 00         : RESD         - DEEP RESISTIVITY (DIL)
~PARAMETER INFORMATION
#MNEM.UNIT           DATA             DESCRIPTION OF MNEMONIC
#---------         -----------     ------------------------------
GL  .M        614                  : gl           - GROUND LEVEL ELEVATION
EREF.M        616.61               : kb           - ELEVATION OF DEPTH REFERENCE
DATM.M        616                  : datum        - DATUM ELEVATION
TDD .M        484.937              : tdd          - TOTAL DEPTH DRILLER
RUN .         ONE                  : Run          - RUN NUMBER
ENG .         BILL                 : Engineer     - RECORDING ENGINEER
WIT .         JIM                  : Witness      - WITNESSED BY
MUD .         GEL                  : Mud_type     - MUD TYPE
MATR.         SANDSTONE            : Logunit      - NEUTRON MATRIX
TMAX.C        13.8889              : BHT          - MAXIMUM RECORDED TEMPERATURE
BHTD.M        484.937              : BHTDEP       - MAXIMUM RECORDED TEMPERATURE
MATR.         1                    : LOGUNIT      - NEUTRON MATRIX
RMT .C        25                   : MDTP         - TEMPERATURE OF MUD
NEUT.         1                    : NEUTRON      - NEUTRON TYPE
RESI.         0                    : RESIST       - RESISTIVITY TYPE
RMC .OHMM     0.25                 : RMC          - RESISTIVITY OF MUD CAKE
RMF .OHMM     0.25                 : RMF          - RESISTIVITY OF MUD FILTRATE
SUFT.C        15                   : SUFT         - SURFACE TEMPERATURE
~A  DEPTH       GR     PHID     PHIN     RESD
# ...
  402.600   66.179    0.160    0.348   12.752
  402.850   71.908    0.212    0.398    9.483
  403.100   79.103    0.271    0.427    7.574
  403.350   82.872    0.279    0.428    6.716
  403.600   85.852    0.265    0.436    6.348
  403.850   90.865    0.245    0.440    6.076
  404.100   93.238    0.231    0.444    6.074
  404.350   94.008    0.216    0.455    6.076
  404.600   93.396    0.208    0.452    5.979
  404.850   94.561    0.227    0.452    5.975
  405.100   96.561    0.234    0.463    5.848
  405.350   97.699    0.239    0.461    5.867
  405.600   96.518    0.218    0.459    5.743
  405.850   95.826    0.231    0.471    5.643
  406.100   93.712    0.248    0.468    5.539
  406.350   93.276    0.250    0.454    5.564
  406.600   90.024    0.245    0.436    5.744
  406.850   87.804    0.249    0.432    5.935
  407.100   85.437    0.238    0.430    6.002
  407.350   85.156    0.216    0.409    6.284
  407.600   84.464    0.185    0.388    6.661
  407.850   84.524    0.229    0.419    7.064
  408.100   84.483    0.245    0.441    7.179
  408.350   85.411    0.242    0.434    6.978
  408.600   86.397    0.258    0.449    6.773
  408.850   89.034    0.248    0.448    6.670
  409.100   90.117    0.244    0.433    6.564
  409.350   89.904    0.230    0.425    6.662
  409.600   86.649    0.230    0.423    6.827
  409.850   84.762    0.230    0.424    6.927
  410.100   83.383    0.214    0.428    7.160
  410.350   82.595    0.216    0.422    7.466
  410.600   84.184    0.232    0.432    7.584
  410.850   86.017    0.228    0.445    7.852
  411.100   89.460    0.238    0.444    7.641
  411.350   89.877    0.238    0.435    7.415
  411.600   89.789    0.222    0.425    6.966
  411.850   91.513    0.215    0.421    6.743
  412.100   94.102    0.232    0.428    6.540
  412.350   95.654    0.225    0.438    6.349
  412.600   96.555    0.216    0.435    6.183
  412.850   95.281    0.224    0.438    6.198
  413.100   93.835    0.231    0.441    6.088
  413.350   95.244    0.224    0.449    5.785
  413.600  100.248    0.207    0.459    5.464
  413.850  101.953    0.219    0.472    5.194
  414.100   99.729    0.211    0.466    5.052
  414.350   95.301    0.213    0.455    4.890
  414.600   89.577    0.218    0.454    5.037
  414.850   83.081    0.197    0.444    5.584
  415.100   80.229    0.184    0.424    6.690
  415.350   75.944    0.123    0.379    7.905
  415.600   70.853    0.077    0.328    9.618
  415.850   68.209    0.084    0.316   10.896
  416.100   66.894    0.091    0.282   12.389
  416.350   67.094    0.071    0.246   13.800
  416.600   71.510    0.062    0.280   14.057
  416.850   78.273    0.104    0.354   12.774
  417.100   83.903    0.160    0.399   10.579
  417.350   91.889    0.194    0.417    9.120
  417.600   91.516    0.203    0.405    8.438
  417.850   90.778    0.179    0.390    7.777
  418.100   87.213    0.162    0.385    7.616
  418.350   85.695    0.144    0.408    7.871
  418.600   86.962    0.130    0.416    7.973
  418.850   87.225    0.149    0.433    8.020
  419.100   88.020    0.172    0.430    7.878
  419.350   92.288    0.162    0.414    7.629
  419.600   95.266    0.167    0.421    7.561
  419.850   93.627    0.182    0.430    7.456
  420.100   92.750    0.184    0.441    7.303
  420.350   94.134    0.175    0.449    7.317
  420.600   94.728    0.174    0.437    7.307
  420.850   92.578    0.177    0.429    7.500
  421.100   90.984    0.186    0.421    7.884
  421.350   87.103    0.171    0.405    8.046
  421.600   76.580    0.151    0.383    9.052
  421.850   72.004    0.129    0.364    9.999
  422.100   71.312    0.119    0.370   11.539
  422.350   77.089    0.159    0.366   12.348
  422.600   82.652    0.152    0.343   13.320
  422.850   85.209    0.114    0.325   14.869
  423.100   84.221    0.083    0.323   13.396
  423.350   89.839    0.104    0.354   11.696
  423.600   98.092    0.141    0.370   10.355
  423.850  103.343    0.170    0.396    9.363
  424.100  108.166    0.164    0.407    8.499
  424.350  114.880    0.176    0.412    8.094
  424.600  119.658    0.179    0.418    7.876
  424.850  119.669    0.167    0.423    7.971
  425.100  122.363    0.157    0.399    8.176
  425.350  126.085    0.137    0.393    8.324
  425.600  131.065    0.165    0.396    8.416
  425.850  134.217    0.183    0.399    8.442
  426.100  133.493    0.172    0.401    8.335
  426.350  131.520    0.169    0.381    8.190
  426.600  129.579    0.166    0.370    7.849
  426.850  127.115    0.178    0.363    7.511
  427.100  125.297    0.173    0.372    7.258
  427.350  124.363    0.175    0.380    7.187
  427.600  122.839    0.164    0.386    7.059
  427.850  122.228    0.130    0.376    7.101
  428.100  120.812    0.109    0.370    7.330
  428.350  117.918    0.103    0.380    7.561
  428.600  118.269    0.139    0.393    7.549
  428.850  120.767    0.148    0.415    6.857
  429.100  122.759    0.163    0.450    5.583
  429.350  123.889    0.183    0.499    4.218
  429.600  122.797    0.203    0.529    3.328
  429.850  120.308    0.217    0.532    2.904
  430.100  117.931    0.222    0.515    2.602
  430.350  119.508    0.214    0.505    2.454
  430.600  119.770    0.192    0.498    2.332
  430.850  119.690    0.195    0.488    2.269
  431.100  121.012    0.186    0.481    2.270
  431.350  122.801    0.186    0.491    2.267
  431.600  120.323    0.175    0.506    2.352
  431.850  112.522    0.171    0.494    2.624
  432.100  106.817    0.144    0.411    2.960
  432.350  104.108    0.102    0.358    3.545
  432.600  107.365    0.092    0.367    4.476
  432.850  109.937    0.133    0.411    5.416
  433.100  114.258    0.159    0.430    6.600
  433.350  111.826    0.141    0.390    7.340
  433.600  106.192    0.124    0.331    7.762
  433.850  102.652    0.094    0.321    7.849
  434.100  104.631    0.087    0.339    8.097
  434.350  108.964    0.138    0.368    8.347
  434.600  109.901    0.154    0.390    8.515
  434.850  110.955    0.147    0.403    8.259
  435.100  113.150    0.134    0.411    7.895
  435.350  107.405    0.169    0.420    8.043
  435.600   96.295    0.140    0.378    8.208
  435.850   92.139    0.098    0.298    8.189
  436.100   96.184    0.075    0.330    8.115
  436.350  101.187    0.132    0.359    8.036
  436.600  105.624    0.165    0.394    7.775
  436.850  108.446    0.171    0.391    7.759
  437.100  108.305    0.150    0.386    7.756
  437.350  108.291    0.116    0.373    7.862
  437.600  110.470    0.102    0.372    7.878
  437.850  115.426    0.140    0.412    8.193
  438.100  114.249    0.153    0.391    8.429
  438.350  104.913    0.106    0.308    8.922
  438.600   99.606    0.054    0.290    9.300
  438.850   99.721    0.013    0.319    9.871
  439.100  102.067    0.136    0.343   10.485
  439.350  102.065    0.142    0.345   10.953
  439.600   98.477    0.114    0.318   11.045
  439.850   91.684    0.075    0.281   10.590
  440.100  104.335    0.066    0.324    9.885
  440.350  114.854    0.105    0.371    8.504
  440.600  117.259    0.135    0.410    7.467
  440.850  117.287    0.149    0.416    6.506
  441.100  118.803    0.127    0.414    6.183
  441.350  123.720    0.135    0.421    5.798
  441.600  126.087    0.161    0.442    5.626
  441.850  126.230    0.179    0.428    5.453
  442.100  125.184    0.184    0.422    5.387
  442.350  121.737    0.159    0.426    5.277
  442.600  117.543    0.157    0.435    5.294
  442.850  115.378    0.149    0.428    5.473
  443.100  117.697    0.158    0.424    5.522
  443.350  117.830    0.157    0.412    5.708
  443.600  116.828    0.150    0.393    6.108
  443.850  115.856    0.139    0.389    6.340
  444.100  114.881    0.119    0.380    6.960
  444.350  114.250    0.094    0.357    7.701
  444.600  115.482    0.065    0.363    8.404
  444.850  117.392    0.092    0.380    8.963
  445.100  114.261    0.151    0.380    9.163
  445.350  113.205    0.154    0.342    9.142
  445.600  123.028    0.160    0.350    8.859
  445.850  129.880    0.157    0.364    8.604
