~VERSION INFORMATION
 VERS.                 2.0:   CWLS LOG ASCII STANDARD -VERSION 2.0
 WRAP.                  NO:   ONE LINE PER DEPTH STEP
~WELL INFORMATION BLOCK
#MNEM.UNIT           DATA                    DESCRIPTION OF MNEMONIC
#---------    -------------------            -------------------------------
# Generated from Intellog Unique Number	CS_67_68/WELL/689
WELL.         DOME PETROLEUM LIMITED         : Well_name    - WELL
LOC .         00/06-26-068-02W4/0            : Location     - LOCATION
UWI .         00/06-26-068-02W4/0            : Uwi          - UNIQUE WELL ID
ENTR.         SP                             : Entered      - ENTERED BY
SRVC.         SCHLUMBERGER                   : Scn          - SERVICE COMPANY
STRT.M        385                            : top_depth    - START DEPTH
STOP.M        630                            : bot_depth    - STOP DEPTH
STEP.M        0.25                           : increment    - STEP LENGTH
 NULL. -999.2500:NULL Value
~CURVE INFORMATION BLOCK
#MNEM UNIT       ERCB CURVE CODE    CURVE DESCRIPTION
#-----------   ------------------   ----------------------------------
DEPT.M        00 001 00 00         : DEPTH        - DEPTH
ILD .OHMM     00 120 00 00         : RESD         - DEEP RESISTIVITY (DIL)
DPHI.V/V      00 890 00 00         : PHID         - DENSITY POROSITY (LIMESTONE)
NPHI.V/V      00 330 00 00         : PHIN         - NEUTRON POROSITY (LIMESTONE)
GR  .API      00 310 00 00         : GR           - GAMMA RAY
~PARAMETER INFORMATION
#MNEM.UNIT           DATA             DESCRIPTION OF MNEMONIC
#---------         -----------     ------------------------------
GL  .M        709.94               : gl           - GROUND LEVEL ELEVATION
EREF.M        713.29               : kb           - ELEVATION OF DEPTH REFERENCE
DATM.M        709.94               : datum        - DATUM ELEVATION
TDD .M        640                  : tdd          - TOTAL DEPTH DRILLER
RUN .         ONE                  : Run          - RUN NUMBER
ENG .         BILL                 : Engineer     - RECORDING ENGINEER
WIT .         JIM                  : Witness      - WITNESSED BY
MUD .         GEL                  : Mud_type     - MUD TYPE
MATR.         LIMESTONE            : Logunit      - NEUTRON MATRIX
TMAX.C        29                   : BHT          - MAXIMUM RECORDED TEMPERATURE
BHTD.M        640                  : BHTDEP       - MAXIMUM RECORDED TEMPERATURE
MATR.         1                    : LOGUNIT      - NEUTRON MATRIX
RMT .C        25                   : MDTP         - TEMPERATURE OF MUD
NEUT.         1                    : NEUTRON      - NEUTRON TYPE
RESI.         0                    : RESIST       - RESISTIVITY TYPE
RMC .OHMM     0.25                 : RMC          - RESISTIVITY OF MUD CAKE
RMF .OHMM     0.25                 : RMF          - RESISTIVITY OF MUD FILTRATE
SUFT.C        15                   : SUFT         - SURFACE TEMPERATURE
~A  DEPTH     RESD     PHID     PHIN       GR
# ...
  602.500    5.137    0.284    0.331   59.153
  602.750    5.137    0.275    0.336   61.401
  603.000    4.893    0.273    0.339   73.475
  603.250    4.610    0.290    0.344   83.534
  603.500    4.302    0.318    0.351   86.451
  603.750    4.122    0.340    0.350   79.050
  604.000    3.963    0.365    0.333   52.175
  604.250    3.911    0.369    0.318   36.960
  604.500    3.896    0.364    0.311   26.874
  604.750    3.867    0.355    0.316   28.142
  605.000    3.795    0.350    0.323   31.668
  605.250    3.760    0.352    0.328   35.014
  605.500    3.745    0.354    0.335   38.173
  605.750    3.724    0.356    0.342   40.356
  606.000    3.717    0.351    0.349   41.686
  606.250    3.709    0.346    0.343   42.223
  606.500    3.716    0.341    0.342   42.942
  606.750    3.779    0.348    0.355   44.697
  607.000    3.943    0.344    0.352   46.148
  607.250    4.078    0.334    0.347   45.831
  607.500    4.161    0.328    0.344   44.353
  607.750    4.192    0.320    0.340   41.408
  608.000    4.207    0.323    0.335   35.779
  608.250    4.191    0.331    0.335   32.346
  608.500    4.129    0.334    0.360   30.867
  608.750    4.052    0.336    0.353   27.676
  609.000    3.992    0.336    0.341   26.261
  609.250    3.918    0.331    0.333   26.125
  609.500    3.962    0.326    0.339   25.928
  609.750    4.021    0.336    0.346   25.731
  610.000    4.364    0.367    0.324   27.885
  610.250    4.260    0.357    0.322   29.850
  610.500    4.165    0.348    0.336   27.290
  610.750    4.043    0.346    0.345   22.407
  611.000    3.976    0.353    0.344   17.952
  611.250    3.902    0.355    0.341   17.348
  611.500    3.823    0.357    0.339   18.395
  611.750    3.795    0.368    0.339   20.361
  612.000    3.788    0.364    0.343   22.082
  612.250    3.774    0.356    0.344   21.661
  612.500    3.781    0.353    0.341   22.280
  612.750    3.824    0.353    0.339   24.980
  613.000    3.875    0.342    0.338   26.273
  613.250    3.897    0.334    0.333   25.057
  613.500    3.890    0.337    0.328   22.130
  613.750    3.782    0.355    0.324   23.056
  614.000    3.657    0.362    0.320   24.104
  614.250    3.630    0.353    0.316   24.479
  614.500    3.637    0.345    0.314   23.753
  614.750    3.713    0.350    0.313   22.662
  615.000    3.847    0.348    0.313   23.710
  615.250    3.957    0.343    0.319   24.757
  615.500    4.039    0.340    0.328   25.316
  615.750    4.047    0.337    0.324   23.733
  616.000    3.943    0.331    0.322   22.152
  616.250    3.812    0.334    0.326   20.021
  616.500    3.742    0.345    0.346   18.561
  616.750    3.687    0.356    0.361   19.731
  617.000    3.694    0.365    0.362   21.635
  617.250    3.680    0.354    0.352   23.540
  617.500    3.667    0.343    0.342   23.792
  617.750    3.687    0.340    0.335   21.416
  618.000    3.729    0.348    0.331   18.978
  618.250    3.778    0.340    0.331   18.375
  618.500    3.821    0.337    0.341   18.628
  618.750    3.864    0.336    0.349   18.819
  619.000    3.836    0.340    0.339   19.316
  619.250    3.779    0.345    0.332   20.181
  619.500    3.730    0.346    0.326   20.740
  619.750    3.710    0.338    0.322   20.870
  620.000    3.787    0.332    0.337   21.429
  620.250    3.808    0.343    0.354   21.070
  620.500    3.808    0.357    0.350   19.733
  620.750    3.780    0.360    0.342   19.130
  621.000    3.759    0.352    0.339   18.833
  621.250    3.752    0.358    0.343   18.902
  621.500    3.774    0.347    0.351   19.461
  621.750    3.809    0.333    0.340   20.265
  622.000    3.881    0.325    0.334   20.884
  622.250    3.999    0.332    0.330   21.566
  622.500    4.037    0.318    0.326   22.001
  622.750    4.045    0.313    0.320   22.437
  623.000    4.052    0.308    0.318   22.445
  623.250    4.068    0.307    0.315   21.230
  623.500    4.068    0.311    0.311   20.567
  623.750    4.068    0.308    0.310   21.125
  624.000    4.053    0.303    0.314   21.622
  624.250    3.993    0.306    0.326   20.896
  624.500    3.919    0.319    0.335   19.866
  624.750    3.883    0.333    0.337   20.364
  625.000    3.862    0.335    0.333   21.411
  625.250    3.884    0.327    0.329   22.092
  625.500    3.987    0.324    0.327   22.100
  625.750    4.108    0.321    0.329   21.253
  626.000    4.264    0.321    0.332   20.832
  626.250    4.402    0.326    0.336   21.207
  626.500    4.824    0.330    0.343   23.478
  626.750    5.707    0.327    0.331   27.461
  627.000    7.289    0.064    0.317   35.725
  627.250    9.485    0.027    0.319   43.377
  627.500   13.678    0.000    0.319   50.968
  627.750   17.211   -0.006    0.274   56.664
  628.000   18.897    0.013    0.231   57.405
  628.250   20.024    0.027    0.194   49.955
  628.500   20.402    0.014    0.197   45.254
  628.750   19.914    0.018    0.232   50.705
  629.000   19.437    0.047    0.256   58.662
  629.250   18.831    0.054    0.274   63.073
  629.500   18.175    0.051    0.268   65.038
  629.750   18.244    0.047    0.264   64.740
  630.000   18.833    0.037    0.263   61.569
