~VERSION INFORMATION
 VERS.                 2.0:   CWLS LOG ASCII STANDARD -VERSION 2.0
 WRAP.                  NO:   ONE LINE PER DEPTH STEP
~WELL INFORMATION BLOCK
#MNEM.UNIT           DATA                    DESCRIPTION OF MNEMONIC
#---------    -------------------            -------------------------------
# Generated from Intellog Unique Number	CS_67_68/WELL/771
WELL.         FISHER CREEK                   : Well_name    - WELL
LOC .         00/07-15-068-06W4/0            : Location     - LOCATION
UWI .         00/07-15-068-06W4/0            : Uwi          - UNIQUE WELL ID
ENTR.         SP                             : Entered      - ENTERED BY
SRVC.         SCHLUMBERGER                   : Scn          - SERVICE COMPANY
STRT.M        350                            : top_depth    - START DEPTH
STOP.M        580                            : bot_depth    - STOP DEPTH
STEP.M        0.25                           : increment    - STEP LENGTH
 NULL. -999.2500:NULL Value
~CURVE INFORMATION BLOCK
#MNEM UNIT       ERCB CURVE CODE    CURVE DESCRIPTION
#-----------   ------------------   ----------------------------------
DEPT.M        00 001 00 00         : DEPTH        - DEPTH
ILD .OHMM     00 120 00 00         : RESD         - DEEP RESISTIVITY (DIL)
DPHI.V/V      00 890 00 00         : PHID         - DENSITY POROSITY (LIMESTONE)
NPHI.V/V      00 330 00 00         : PHIN         - NEUTRON POROSITY (LIMESTONE)
GR  .API      00 310 00 00         : GR           - GAMMA RAY
~PARAMETER INFORMATION
#MNEM.UNIT           DATA             DESCRIPTION OF MNEMONIC
#---------         -----------     ------------------------------
GL  .M        694.03               : gl           - GROUND LEVEL ELEVATION
EREF.M        697.03               : kb           - ELEVATION OF DEPTH REFERENCE
DATM.M        694.03               : datum        - DATUM ELEVATION
TDD .M        591                  : tdd          - TOTAL DEPTH DRILLER
RUN .         ONE                  : Run          - RUN NUMBER
ENG .         BILL                 : Engineer     - RECORDING ENGINEER
WIT .         JIM                  : Witness      - WITNESSED BY
MUD .         GEL                  : Mud_type     - MUD TYPE
MATR.         LIMESTONE            : Logunit      - NEUTRON MATRIX
TMAX.C        23.2                 : BHT          - MAXIMUM RECORDED TEMPERATURE
BHTD.M        591                  : BHTDEP       - MAXIMUM RECORDED TEMPERATURE
MATR.         1                    : LOGUNIT      - NEUTRON MATRIX
RMT .C        25                   : MDTP         - TEMPERATURE OF MUD
NEUT.         1                    : NEUTRON      - NEUTRON TYPE
RESI.         0                    : RESIST       - RESISTIVITY TYPE
RMC .OHMM     0.25                 : RMC          - RESISTIVITY OF MUD CAKE
RMF .OHMM     0.25                 : RMF          - RESISTIVITY OF MUD FILTRATE
SUFT.C        15                   : SUFT         - SURFACE TEMPERATURE
~A  DEPTH     RESD     PHID     PHIN       GR
# ...
  437.000    4.950    0.319    0.417   60.296
  437.250    4.989    0.311    0.416   59.686
  437.500    4.992    0.313    0.421   59.990
  437.750    4.975    0.327    0.427   57.064
  438.000    4.932    0.337    0.417   55.358
  438.250    4.870    0.341    0.414   53.895
  438.500    4.809    0.338    0.417   53.589
  438.750    4.776    0.345    0.426   59.011
  439.000    4.760    0.350    0.428   62.849
  439.250    4.781    0.335    0.437   66.199
  439.500    4.819    0.324    0.446   65.954
  439.750    4.867    0.319    0.434   62.907
  440.000    4.888    0.318    0.422   58.885
  440.250    4.881    0.332    0.413   57.971
  440.500    4.829    0.335    0.411   58.214
  440.750    4.814    0.331    0.413   58.578
  441.000    4.817    0.333    0.421   61.928
  441.250    4.837    0.334    0.428   64.182
  441.500    4.885    0.324    0.438   65.887
  441.750    4.980    0.311    0.444   66.740
  442.000    5.145    0.305    0.448   66.982
  442.250    5.254    0.299    0.441   66.555
  442.500    5.356    0.297    0.428   66.676
  442.750    5.369    0.294    0.418   65.152
  443.000    5.362    0.306    0.417   62.410
  443.250    5.345    0.321    0.420   60.886
  443.500    5.337    0.332    0.415   59.484
  443.750    5.300    0.334    0.407   58.447
  444.000    5.274    0.323    0.406   58.081
  444.250    5.237    0.322    0.406   57.349
  444.500    5.211    0.328    0.404   56.922
  444.750    5.174    0.334    0.400   57.043
  445.000    5.177    0.340    0.398   57.042
  445.250    5.161    0.339    0.406   56.493
  445.500    5.183    0.327    0.410   56.370
  445.750    5.264    0.317    0.387   58.380
  446.000    5.376    0.310    0.379   57.648
  446.250    5.658    0.313    0.398   55.455
  446.500    6.159    0.327    0.416   53.017
  446.750    7.027    0.333    0.416   51.005
  447.000    7.507    0.286    0.393   48.263
  447.250    7.275    0.191    0.330   50.638
  447.500    6.313    0.180    0.314   62.518
  447.750    5.838    0.189    0.336   76.652
  448.000    5.511    0.215    0.436   82.988
  448.250    5.372    0.245    0.475   85.911
  448.500    5.304    0.266    0.461   87.677
  448.750    5.307    0.281    0.439   87.737
  449.000    5.330    0.281    0.425   88.102
  449.250    5.363    0.260    0.418   87.736
  449.500    5.436    0.251    0.444   85.420
  449.750    5.449    0.267    0.463   85.419
  450.000    5.463    0.281    0.479   88.282
  450.250    5.486    0.278    0.461   90.840
  450.500    5.541    0.266    0.450   88.768
  450.750    5.607    0.259    0.449   88.280
  451.000    5.598    0.262    0.454   89.985
  451.250    5.570    0.265    0.456   90.898
  451.500    5.574    0.271    0.456   90.654
  451.750    5.587    0.278    0.454   89.556
  452.000    5.621    0.279    0.451   89.616
  452.250    5.677    0.262    0.452   91.504
  452.500    5.701    0.252    0.463   93.453
  452.750    5.737    0.247    0.463   94.854
  453.000    5.762    0.245    0.457   93.878
  453.250    5.775    0.242    0.455   92.415
  453.500    5.767    0.240    0.465   90.952
  453.750    5.717    0.244    0.459   91.195
  454.000    5.592    0.242    0.451   94.424
  454.250    5.319    0.236    0.448   98.139
  454.500    5.145    0.233    0.448   97.651
  454.750    5.005    0.241    0.459   96.736
  455.000    4.906    0.249    0.472   98.198
  455.250    4.817    0.248    0.481   99.416
  455.500    4.669    0.244    0.471   98.806
  455.750    4.482    0.262    0.475   97.708
  456.000    4.130    0.267    0.489   96.611
  456.250    3.921    0.251    0.466   99.534
  456.500    3.722    0.233    0.458  102.458
  456.750    3.567    0.217    0.479  104.894
  457.000    3.477    0.210    0.505  106.295
  457.250    3.531    0.231    0.519  103.857
  457.500    3.779    0.245    0.490   98.251
  457.750    4.100    0.236    0.439   93.254
  458.000    4.258    0.246    0.422   89.293
  458.250    4.389    0.261    0.412   84.419
  458.500    4.090    0.269    0.433   79.239
  458.750    3.832    0.277    0.438   84.112
  459.000    3.511    0.270    0.424   89.595
  459.250    3.241    0.257    0.449   94.225
  459.500    3.171    0.261    0.476   97.758
  459.750    3.214    0.268    0.498   99.524
  460.000    3.453    0.279    0.513   90.811
  460.250    3.628    0.304    0.509   86.362
  460.500    3.761    0.337    0.455   81.427
  460.750    3.863    0.324    0.445   81.304
  461.000    3.850    0.304    0.460   82.644
  461.250    3.767    0.303    0.478   83.191
  461.500    3.748    0.311    0.496   81.850
  461.750    3.722    0.315    0.513   78.376
  462.000    3.717    0.322    0.483   72.100
  462.250    3.698    0.335    0.476   74.902
  462.500    3.742    0.347    0.477   77.948
  462.750    3.960    0.354    0.475   73.621
  463.000    4.184    0.352    0.465   69.477
  463.250    4.338    0.344    0.452   68.563
  463.500    4.373    0.339    0.452   70.451
  463.750    4.350    0.343    0.454   71.608
  464.000    4.353    0.342    0.445   70.510
  464.250    4.405    0.341    0.440   69.291
  464.500    4.457    0.348    0.451   68.437
  464.750    4.475    0.351    0.468   66.669
  465.000    4.538    0.348    0.449   65.207
  465.250    4.609    0.345    0.442   64.414
  465.500    4.656    0.339    0.440   65.571
  465.750    4.684    0.336    0.447   68.616
  466.000    4.687    0.331    0.454   72.515
  466.250    4.663    0.324    0.461   74.707
  466.500    4.664    0.318    0.467   70.685
  466.750    4.649    0.324    0.478   66.054
  467.000    5.214    0.341    0.472   64.043
  467.250    6.222    0.350    0.455   65.992
  467.500    7.287    0.113    0.462   62.762
  467.750    8.220    0.063    0.473   59.471
  468.000    9.032    0.038    0.299   56.485
  468.250    9.795    0.144    0.152   63.186
  468.500    8.808    0.280    0.192   66.414
  468.750    6.894    0.317    0.261   69.460
  469.000    5.665    0.343    0.416   70.373
  469.250    4.843    0.350    0.431   69.458
  469.500    4.453    0.351    0.433   69.641
  469.750    4.142    0.348    0.434   71.833
  470.000    4.037    0.343    0.438   73.294
  470.250    3.965    0.336    0.450   72.441
  470.500    4.003    0.333    0.470   71.770
  470.750    4.073    0.332    0.480   74.450
  471.000    4.137    0.341    0.469   77.069
  471.250    4.202    0.342    0.455   78.408
  471.500    4.244    0.346    0.453   77.859
  471.750    4.262    0.342    0.453   75.909
  472.000    4.280    0.339    0.447   74.141
  472.250    4.307    0.344    0.448   73.592
  472.500    4.341    0.346    0.459   73.896
  472.750    4.401    0.350    0.467   72.921
  473.000    4.554    0.352    0.466   70.787
  473.250    4.811    0.352    0.455   70.482
  473.500    5.122    0.350    0.458   72.004
  473.750    5.260    0.344    0.468   73.710
  474.000    5.362    0.340    0.477   75.537
  474.250    5.365    0.336    0.463   76.937
  474.500    5.230    0.331    0.462   77.668
  474.750    5.096    0.325    0.475   76.692
  475.000    4.939    0.326    0.462   76.143
  475.250    4.795    0.327    0.431   77.300
  475.500    4.639    0.308    0.407   79.736
  475.750    4.966    0.287    0.399   82.538
  476.000    4.885    0.272    0.410   87.106
  476.250    4.690    0.260    0.427   90.335
  476.500    4.419    0.250    0.436   92.954
  476.750    4.259    0.246    0.447   95.634
  477.000    4.120    0.243    0.462   98.192
  477.250    3.832    0.238    0.448   97.460
  477.500    3.523    0.231    0.437   94.900
  477.750    3.138    0.232    0.444   92.523
  478.000    2.764    0.247    0.472   94.777
  478.250    2.453    0.263    0.488   97.761
  478.500    2.261    0.271    0.501  100.015
  478.750    2.182    0.279    0.510  102.025
  479.000    2.123    0.279    0.524  104.278
  479.250    2.100    0.279    0.535  105.557
  479.500    2.157    0.278    0.551  103.180
  479.750    2.216    0.267    0.562  100.803
  480.000    2.238    0.262    0.547   99.036
  480.250    2.252    0.282    0.529   98.730
