~VERSION INFORMATION
 VERS.                 2.0:   CWLS LOG ASCII STANDARD -VERSION 2.0
 WRAP.                  NO:   ONE LINE PER DEPTH STEP
~WELL INFORMATION BLOCK
#MNEM.UNIT           DATA                    DESCRIPTION OF MNEMONIC
#---------    -------------------            -------------------------------
# Generated from Intellog Unique Number	CW_70_72/WELL/3018
NULL.         -999.25                        : NULL_VALUE
WELL.         DOME SULPETRO BOUVIER 07-31    : Well_name    - WELL              
LOC .         07-31-070-24W4                 : Location     - LOCATION          
UWI .         00/07-31-070-24W4/0            : Uwi          - UNIQUE WELL ID    
ENTR.         J                              : Entered      - ENTERED BY        
SRVC.         WESTERN ATLAS                  : Scn          - SERVICE COMPANY   
DATE.         22 FEB 80                      : Date         - LOG DATE          
STRT.M        450                            : top_depth    - START DEPTH       
STOP.M        635                            : bot_depth    - STOP DEPTH        
STEP.M        0.25                           : increment    - STEP LENGTH       
~CURVE INFORMATION BLOCK
#MNEM UNIT       ERCB CURVE CODE    CURVE DESCRIPTION
#-----------   ------------------   ----------------------------------
DEPT.M        00 001 00 00         : DEPTH        - DEPTH                       
ILD .OHMM     00 120 00 00         : RESD         - DEEP RESISTIVITY (DIL)      
CALI.MM       00 280 01 00         : CAL          - CALIPER                     
GR  .API      00 310 00 00         : GR           - GAMMA RAY                   
NPHI.V/V      00 330 00 00         : PHIN         - NEUTRON POROSITY (SANDSTONE)
DPHI.V/V      00 890 00 00         : PHID         - DENSITY POROSITY (SANDSTONE)
~PARAMETER INFORMATION       
#MNEM.UNIT           DATA             DESCRIPTION OF MNEMONIC
#---------         -----------     ------------------------------
GL  .M        655.9                : gl           - GROUND LEVEL ELEVATION      
EREF.M        659.5                : kb           - ELEVATION OF DEPTH REFERENCE
DATM.M        655.9                : datum        - DATUM ELEVATION             
TDD .M        645                  : tdd          - TOTAL DEPTH DRILLER         
RUN .         ONE                  : Run          - RUN NUMBER                  
ENG .         WEIERS/PETERSON      : Engineer     - RECORDING ENGINEER          
WIT .         TRAHAM               : Witness      - WITNESSED BY                
MUD .         GEL CHEM             : Mud_type     - MUD TYPE                    
MATR.         SANDSTONE            : Logunit      - NEUTRON MATRIX              
TMAX.C        23                   : BHT          - MAXIMUM RECORDED TEMPERATURE
BHTD.M        646.6                : BHTDEP       - MAXIMUM RECORDED TEMPERATURE
RMT .C        15                   : MDTP         - TEMPERATURE OF MUD          
MUDD.KG/M     9.5                  : MWT          - MUD DENSITY                 
NEUT.         1                    : NEUTRON      - NEUTRON TYPE                
RESI.         0                    : RESIST       - RESISTIVITY TYPE            
RM  .OHMM     3.4                  : RM           - RESISTIVITY OF MUD          
RMC .OHMM     3.7                  : RMC          - RESISTIVITY OF MUD CAKE     
RMF .OHMM     3.1                  : RMF          - RESISTIVITY OF MUD FILTRATE 
SUFT.C        0                    : SUFT         - SURFACE TEMPERATURE         
~A  DEPTH     RESD      CAL       GR     PHIN     PHID
  450.000    3.040  188.547  134.680    0.510    0.221
  450.250    3.028  188.743  132.954    0.518    0.227
  450.500    3.000  188.323  129.566    0.529    0.224
  450.750    2.989  187.904  130.790    0.536    0.213
  451.000    2.972  187.278  133.980    0.511    0.204
  451.250    2.923  187.578  136.128    0.514    0.188
  451.500    2.854  188.286  140.428    0.520    0.208
  451.750    2.775  188.174  144.297    0.528    0.221
  452.000    2.704  188.266  146.014    0.533    0.223
  452.250    2.664  188.566  143.363    0.540    0.225
  452.500    2.625  189.275  138.499    0.546    0.231
  452.750    2.610  189.880  136.525    0.552    0.244
  453.000    2.605  190.076  133.384    0.548    0.267
  453.250    2.630  189.553  127.228    0.513    0.287
  453.500    2.749  188.519  120.643    0.484    0.268
  453.750    2.955  186.871  114.364    0.452    0.262
  454.000    3.242  183.583  108.761    0.421    0.267
  454.250    3.491  175.784  105.806    0.409    0.271
  454.500    3.880  166.549  101.618    0.400    0.274
  454.750    4.079  161.005   98.659    0.396    0.274
  455.000    4.264  157.511   96.687    0.393    0.244
  455.250    4.280  155.657   97.911    0.397    0.240
  455.500    4.225  155.135   96.983    0.407    0.236
  455.750    4.193  156.252   94.763    0.412    0.222
  456.000    4.232  156.244   91.621    0.411    0.209
  456.250    4.295  156.645   88.111    0.401    0.209
  456.500    4.335  157.658   85.153    0.401    0.213
  456.750    4.208  157.650  100.646    0.420    0.216
  457.000    3.973  157.026  115.400    0.447    0.218
  457.250    3.724  157.324  131.629    0.494    0.201
  457.500    3.548  158.443  136.667    0.512    0.196
  457.750    3.588  160.587  135.431    0.441    0.200
  458.000    3.800  165.496  122.757    0.417    0.235
  458.250    4.423  167.743  113.588    0.402    0.251
  458.500    5.017  167.732  108.971    0.388    0.265
  458.750    5.862  166.186  105.705    0.409    0.277
  459.000    6.900  164.126  105.577    0.436    0.275
  459.250    7.943  160.940  107.230    0.431    0.260
  459.500    8.795  158.983  106.980    0.399    0.260
  459.750    9.884  158.360  104.576    0.377    0.250
  460.000   11.484  160.502   99.834    0.370    0.239
  460.250   12.344  162.645   93.372    0.374    0.255
  460.500   11.961  161.816   85.862    0.383    0.259
  460.750   11.148  159.041   83.153    0.393    0.244
  461.000   10.236  155.749   82.100    0.404    0.229
  461.250    9.417  156.356   83.817    0.415    0.229
  461.500    8.696  157.679   87.686    0.423    0.227
  461.750    7.985  158.797   91.986    0.434    0.219
  462.000    7.319  159.711   91.304    0.440    0.227
  462.250    6.821  161.034   88.408    0.441    0.218
  462.500    6.229  161.845   93.937    0.434    0.213
  462.750    5.730  162.347   92.702    0.429    0.219
  463.000    5.360  163.057   98.783    0.433    0.219
  463.250    5.052  163.558  103.698    0.439    0.194
  463.500    4.850  163.857  106.830    0.433    0.194
  463.750    4.691  163.642  111.252    0.421    0.187
  464.000    4.613  163.326  110.139    0.404    0.196
  464.250    4.536  162.600  106.074    0.403    0.207
  464.500    4.461  161.873  103.424    0.410    0.220
  464.750    4.428  160.736  101.389    0.418    0.216
  465.000    4.395  159.189  101.568    0.423    0.220
  465.250    4.387  157.847  104.268    0.424    0.207
  465.500    4.395  160.299  107.707    0.428    0.202
  465.750    4.395  160.596  113.789    0.435    0.200
  466.000    4.452  164.482  118.643    0.437    0.201
  466.250    4.603  169.496  122.204    0.416    0.210
  466.500    4.821  173.279  123.183    0.393    0.218
  466.750    5.115  175.524  119.979    0.387    0.210
  467.000    5.519  172.646  112.039    0.398    0.200
  467.250    5.955  164.949  108.283    0.411    0.192
  467.500    6.754  158.789  110.306    0.408    0.192
  467.750    7.451  157.651  112.209    0.390    0.223
  468.000    8.561  159.591  109.497    0.299    0.252
  468.250    9.746  163.475   99.098    0.236    0.311
  468.500   10.515  166.338   88.760    0.196    0.341
  468.750   10.554  168.890   78.853    0.145    0.362
  469.000    9.514  168.061   69.869    0.135    0.365
  469.250    8.310  164.875   64.022    0.152    0.360
  469.500    7.449  161.585   57.742    0.187    0.350
  469.750    6.640  159.629   54.909    0.243    0.318
  470.000    5.986  158.082   59.330    0.309    0.281
  470.250    5.672  157.252   64.984    0.332    0.267
  470.500    5.568  157.140   73.464    0.354    0.256
  470.750    5.385  157.131   80.408    0.371    0.260
  471.000    4.991  156.814   85.630    0.384    0.263
  471.250    4.600  157.111   89.867    0.392    0.261
  471.500    4.056  157.514   92.568    0.394    0.253
  471.750    3.703  157.709   95.760    0.390    0.246
  472.000    3.394  158.109   98.399    0.390    0.231
  472.250    3.420  158.407  103.191    0.400    0.221
  472.500    3.575  158.810  113.825    0.416    0.196
  472.750    3.772  158.903  124.027    0.438    0.182
  473.000    3.893  159.608  132.816    0.452    0.176
  473.250    3.907  160.008  134.963    0.432    0.185
  473.500    3.648  160.410  131.513    0.425    0.208
  473.750    3.325  160.606  126.711    0.433    0.222
  474.000    2.992  160.394  123.570    0.455    0.235
  474.250    2.773  160.897  125.285    0.489    0.220
  474.500    2.570  161.093  136.719    0.543    0.218
  474.750    2.431  162.208  143.293    0.564    0.225
  475.000    2.351  163.022  145.563    0.573    0.229
  475.250    2.467  165.061  143.713    0.568    0.257
  475.500    2.672  168.125  141.002    0.559    0.258
  475.750    3.174  170.168  142.472    0.456    0.250
  476.000    3.820  172.718  150.584    0.417    0.237
  476.250    4.842  174.146  147.134    0.370    0.219
  476.500    5.595  175.676  140.424    0.335    0.234
  476.750    6.207  177.409  135.377    0.318    0.243
  477.000    6.622  174.529  124.670    0.306    0.277
  477.250    6.746  169.292  115.503    0.299    0.308
  477.500    6.149  165.696  103.688    0.297    0.328
  477.750    5.667  162.100   98.886    0.300    0.335
  478.000    5.043  160.758   96.913    0.306    0.325
  478.250    4.596  159.620   95.309    0.324    0.301
  478.500    4.372  159.201   92.043    0.351    0.266
  478.750    4.356  158.781   90.931    0.395    0.219
  479.000    4.445  158.772  103.594    0.425    0.234
  479.250    4.682  158.149  120.808    0.451    0.213
  479.500    4.895  157.728  121.909    0.452    0.221
  479.750    5.420  158.336  118.829    0.447    0.235
  480.000    5.804  159.454  112.366    0.441    0.252
  480.250    5.858  161.903  105.411    0.441    0.246
  480.500    6.000  163.636  103.008    0.451    0.228
  480.750    6.296  163.423  108.414    0.448    0.229
  481.000    6.474  161.772  110.007    0.423    0.249
  481.250    6.755  161.149  107.788    0.408    0.257
  481.500    6.793  160.625  105.321    0.414    0.276
  481.750    6.449  160.105  102.856    0.426    0.282
  482.000    5.749  159.994  101.006    0.440    0.272
  482.250    5.230  160.087   99.338    0.441    0.260
  482.500    4.875  160.078   98.966    0.439    0.239
  482.750    4.750  160.477  100.866    0.440    0.239
  483.000    5.191  161.392  105.043    0.450    0.239
  483.250    5.877  161.792  109.588    0.456    0.264
  483.500    6.957  162.194  113.150    0.464    0.264
  483.750    7.689  162.594  112.651    0.474    0.286
  484.000    8.188  162.585  108.218    0.480    0.270
  484.250    8.218  162.268  102.493    0.487    0.270
  484.500    7.547  161.747   97.445    0.490    0.280
  484.750    6.519  162.556   94.057    0.483    0.284
  485.000    5.456  162.650   96.265    0.469    0.282
  485.250    4.705  162.436  101.241    0.436    0.231
  485.500    4.209  162.426  108.246    0.418    0.218
  485.750    4.004  162.621  113.468    0.401    0.216
  486.000    3.865  162.921  113.832    0.406    0.229
  486.250    3.787  163.014  109.583    0.426    0.250
