~VERSION INFORMATION
 VERS.                 2.0:   CWLS LOG ASCII STANDARD -VERSION 2.0
 WRAP.                  NO:   ONE LINE PER DEPTH STEP
~WELL INFORMATION BLOCK
#MNEM.UNIT           DATA                    DESCRIPTION OF MNEMONIC
#---------    -------------------            -------------------------------
# Generated from Intellog Unique Number	CC_80_83/WELL/2297
NULL.         -999.25                        : NULL_VALUE
WELL.         CWWE HANGST                    : Well_name    - WELL
LOC .         07-17-082-10W4                 : Location     - LOCATION          
UWI .         00/07-17-082-10W400            : Uwi          - UNIQUE WELL ID    
ENTR.         DW                             : Entered      - ENTERED BY        
SRVC.         SCHLUMBERGER                   : Scn          - SERVICE COMPANY   
DATE.         10 JAN 85                      : Date         - LOG DATE
STRT.M        250                            : top_depth    - START DEPTH       
STOP.M        474.991                        : bot_depth    - STOP DEPTH        
STEP.M        0.3                            : increment    - STEP LENGTH       
~CURVE INFORMATION BLOCK
#MNEM UNIT       ERCB CURVE CODE    CURVE DESCRIPTION
#-----------   ------------------   ----------------------------------
DEPT.M        00 001 00 00         : DEPTH        - DEPTH                       
DPHI.V/V      00 890 00 00         : PHID         - DENSITY POROSITY (LIMESTONE)
NPHI.V/V      00 330 00 00         : PHIN         - NEUTRON POROSITY (LIMESTONE)
GR  .API      00 310 00 00         : GR           - GAMMA RAY                   
ILD .OHMM     00 120 00 00         : RESD         - DEEP RESISTIVITY (DIL)      
~PARAMETER INFORMATION       
#MNEM.UNIT           DATA             DESCRIPTION OF MNEMONIC
#---------         -----------     ------------------------------
GL  .M        701.6                : gl           - GROUND LEVEL ELEVATION      
EREF.M        705.7                : kb           - ELEVATION OF DEPTH REFERENCE
DATM.M        705.7                : datum        - DATUM ELEVATION             
TDD .M        477                  : tdd          - TOTAL DEPTH DRILLER         
RUN .         ONE                  : Run          - RUN NUMBER                  
ENG .         BILL                 : Engineer     - RECORDING ENGINEER          
WIT .         JIM                  : Witness      - WITNESSED BY                
MUD .         GEL                  : Mud_type     - MUD TYPE                    
MATR.         LIMESTONE            : Logunit      - NEUTRON MATRIX              
TMAX.C        19                   : BHT          - MAXIMUM RECORDED TEMPERATURE
BHTD.M        479                  : BHTDEP       - MAXIMUM RECORDED TEMPERATURE
MATR.         1                    : LOGUNIT      - NEUTRON MATRIX              
RMT .C        25                   : MDTP         - TEMPERATURE OF MUD          
NEUT.         1                    : NEUTRON      - NEUTRON TYPE                
RESI.         0                    : RESIST       - RESISTIVITY TYPE            
RMC .OHMM     0.25                 : RMC          - RESISTIVITY OF MUD CAKE     
RMF .OHMM     0.25                 : RMF          - RESISTIVITY OF MUD FILTRATE 
SUFT.C        15                   : SUFT         - SURFACE TEMPERATURE         
~A  DEPTH     PHID     PHIN       GR     RESD
  250.000    0.290    0.589   94.201    2.675
  250.300    0.239    0.600   92.260    2.574
  250.600    0.249    0.541   92.229    2.574
  250.900    0.285    0.545   94.101    2.780
  251.200    0.296    0.583   97.231    3.003
  251.500    0.282    0.575   97.197    3.003
  251.800    0.208    0.564   91.470    2.889
  252.100    0.131    0.553   83.837    2.888
  252.400    0.183    0.517   81.914    3.060
  252.700    0.234    0.476   88.837    3.641
  253.000    0.237    0.485   98.912    4.501
  253.300    0.237    0.485  105.829    4.331
  253.600    0.256    0.501  107.695    4.087
  253.900    0.264    0.518  105.136    4.008
  254.200    0.262    0.528   99.407    3.856
  254.500    0.264    0.533   95.582    3.783
  254.800    0.276    0.512   90.478    3.710
  255.100    0.287    0.481   91.716    3.710
  255.400    0.283    0.502  101.800    3.782
  255.700    0.285    0.531  100.503    4.165
  256.000    0.287    0.556   88.455    4.499
  256.300    0.261    0.506   89.674    4.412
  256.600    0.265    0.492   91.542    4.084
  256.900    0.271    0.504   93.404    4.006
  257.200    0.120    0.574   88.313    4.498
  257.500    0.170    0.536   67.414    3.303
  257.800    0.290    0.450   47.139    2.999
  258.100    0.337    0.439   51.527    7.869
  258.400    0.350    0.437   57.826   14.037
  258.700    0.352    0.433   68.534   19.112
  259.000    0.340    0.404   68.502   21.456
  259.300    0.303    0.383   71.627   21.045
  259.600    0.281    0.376   80.431   18.034
  259.900    0.274    0.392   82.301   14.868
  260.200    0.278    0.404   82.272   12.741
  260.500    0.312    0.421   77.811   11.569
  260.800    0.343    0.441   58.177   11.568
  261.100    0.336    0.412   52.452   16.058
  261.400    0.307    0.406   66.960   17.683
  261.700    0.292    0.397   82.102   16.369
  262.000    0.285    0.434   85.229   13.496
  262.300    0.303    0.445   80.137   10.706
  262.600    0.372    0.467   66.188   10.300
  262.900    0.535    0.530   54.775   10.913
  263.200    0.512    0.570   49.042   15.444
  263.500    0.471    0.659   55.966   19.466
  263.800    0.380    0.671   93.873   19.844
  264.100    0.395    0.601   86.874   18.370
  264.400    0.253    0.615   88.736   15.146
  264.700    0.291    0.499   85.545    9.906
  265.000    0.313    0.412   62.116    9.170
  265.300    0.313    0.437   56.394   13.487
  265.600    0.298    0.412   65.207   15.738
  265.900    0.281    0.422   79.084   16.674
  266.200    0.254    0.436   85.374   14.567
  266.500    0.246    0.422   88.498   12.244
  266.800    0.275    0.445   85.935   10.292
  267.100    0.282    0.442   75.785    9.166
  267.400    0.285    0.431   68.793    8.991
  267.700    0.303    0.424   63.068    9.526
  268.000    0.313    0.391   53.545   11.332
  268.300    0.308    0.383   65.522   13.742
  268.600    0.325    0.394   66.123   18.354
  268.900    0.342    0.406   45.221   23.134
  269.200    0.337    0.411   37.598   24.989
  269.500    0.329    0.418   37.560   25.970
  269.799    0.326    0.413   44.475   25.968
  270.099    0.307    0.379   46.349   25.471
  270.399    0.291    0.384   45.684   24.037
  270.699    0.268    0.390   57.032   23.126
  270.999    0.259    0.405   77.863   20.597
  271.299    0.262    0.426   80.357   16.657
  271.599    0.268    0.425   75.888   13.471
  271.899    0.280    0.412   67.007   12.470
  272.199    0.304    0.393   60.647   12.712
  272.499    0.336    0.427   53.029   14.833
  272.799    0.360    0.407   39.084   20.197
  273.099    0.367    0.383   32.091   24.493
  273.399    0.272    0.378   34.586   24.969
  273.699    0.301    0.380   63.640   23.563
  273.999    0.286    0.386   66.133   19.428
  274.299    0.280    0.395   60.404   16.017
  274.599    0.297    0.406   62.272   15.411
  274.899    0.314    0.396   57.808   15.115
  275.199    0.326    0.414   62.198   15.114
  275.499    0.337    0.410   72.908   16.968
  275.799    0.336    0.403   74.775   18.329
  276.099    0.323    0.394   77.272   21.387
  276.399    0.299    0.394   86.075   24.955
  276.699    0.278    0.411   88.580   26.440
  276.999    0.261    0.431   98.664   25.933
  277.299    0.253    0.440  105.583   24.474
  277.599    0.275    0.441   96.691   21.380
  277.899    0.305    0.421   89.074   17.291
  278.199    0.313    0.417   83.978   14.817
  278.499    0.302    0.424   85.212   15.105
  278.799    0.188    0.404  106.037   15.104
  279.099    0.097    0.407  112.325   13.714
  279.399    0.132    0.476  105.339    9.879
  279.699    0.208    0.483   94.547    7.396
  279.999    0.220    0.453  114.756    5.867
  280.299    0.216    0.429  115.979    5.537
  280.599    0.229    0.433  125.431    5.225
  280.899    0.248    0.446  130.456    4.931
  281.199    0.258    0.514  121.562    4.564
  281.499    0.254    0.515  112.040    4.307
  281.799    0.257    0.515  113.914    3.987
  282.099    0.271    0.525  120.832    3.483
  282.399    0.288    0.587  121.431    3.351
  282.699    0.302    0.584  104.956    3.351
  282.999    0.315    0.431   91.009    3.835
  283.299    0.336    0.407   84.014    8.792
  283.599    0.306    0.417   84.620   15.384
  283.899    0.271    0.410   87.737   17.608
  284.199    0.279    0.392   83.279   19.390
  284.499    0.287    0.382   81.348   19.018
  284.799    0.305    0.409   81.320   16.297
  285.099    0.310    0.423   82.546   15.985
  285.399    0.312    0.410   86.304   16.936
  285.699    0.299    0.394   88.171   16.612
  285.999    0.242    0.408  109.633   14.795
  286.299    0.234    0.448  115.922   10.254
  286.599    0.227    0.466  109.559    6.209
  286.899    0.244    0.458  109.527    5.424
  287.199    0.273    0.436  106.329    5.320
  287.499    0.265    0.403   99.340    6.970
  287.799    0.262    0.397   97.410   13.958
  288.099    0.293    0.411   98.009   18.642
  288.399    0.324    0.422   84.694   19.004
  288.699    0.341    0.413   79.602   19.751
  288.999    0.339    0.401   80.189   21.334
  289.299    0.276    0.392   77.002   21.333
  289.599    0.263    0.390   78.853   19.370
  289.899    0.266    0.407   83.255   15.366
  290.199    0.260    0.420   87.011   13.685
  290.499    0.251    0.409   87.614   13.951
  290.799    0.251    0.363   83.151   14.782
  291.099    0.278    0.363   74.899   16.595
  291.399    0.289    0.387   82.441   17.583
  291.699    0.283    0.404   82.413   17.924
  291.999    0.264    0.420   77.322   17.581
  292.299    0.262    0.436   73.491   16.274
  292.599    0.264    0.403   77.887   15.065
  292.899    0.264    0.412   87.965   14.493
  293.199    0.267    0.426   98.680   13.159
  293.499    0.272    0.430   94.216   12.419
  293.799    0.262    0.428   97.344   10.849
  294.099    0.246    0.425  101.738    8.945
  294.398    0.235    0.481   94.109    7.665
  294.698    0.320    0.512   82.068    6.960
  294.998    0.347    0.501   69.387    7.664
  295.298    0.351    0.446   62.394    8.943
  295.598    0.353    0.458   61.096   20.109
  295.898    0.353    0.459   68.013   25.347
  296.198    0.344    0.457   79.355   27.379
  296.498    0.322    0.428   81.228   27.377
  296.798    0.307    0.423   82.455   24.858
  297.098    0.303    0.432   88.111   21.716
  297.398    0.284    0.446   98.196   20.494
  297.698    0.264    0.434  108.902   15.947
  297.998    0.249    0.480  106.340   10.431
  298.298    0.217    0.504   93.660    7.091
  298.598    0.250    0.482   84.137    6.195
  298.898    0.273    0.464   82.212    7.512
  299.198    0.210    0.462   85.339    9.288
  299.498    0.203    0.473   85.296   11.264
  299.798    0.248    0.493   85.892   12.646
  300.098    0.278    0.503   90.294   12.403
  300.398    0.272    0.492   92.152   11.047
  300.698    0.296    0.479   89.585    9.651
  300.998    0.309    0.462   83.860    9.107
  301.298    0.298    0.439   84.464    9.650
  301.598    0.298    0.452   80.630   10.224
  301.898    0.336    0.482   68.582   11.702
