~VERSION INFORMATION
 VERS.                 2.0:   CWLS LOG ASCII STANDARD -VERSION 2.0
 WRAP.                  NO:   ONE LINE PER DEPTH STEP
~WELL INFORMATION BLOCK
#MNEM.UNIT           DATA                    DESCRIPTION OF MNEMONIC
#---------    -------------------            -------------------------------
# Generated from Intellog Unique Number	CS_77_79/WELL/892
WELL.         BOW VALLEY INDUSTRIES LTD      : Well_name    - WELL
LOC .         00/07-07-077-14W4/0            : Location     - LOCATION
UWI .         00/07-07-077-14W4/0            : Uwi          - UNIQUE WELL ID
ENTR.         SP                             : Entered      - ENTERED BY
SRVC.         SCHLUMBERGER                   : Scn          - SERVICE COMPANY
STRT.M        260                            : top_depth    - START DEPTH
STOP.M        510                            : bot_depth    - STOP DEPTH
STEP.M        0.25                           : increment    - STEP LENGTH
 NULL. -999.2500:NULL Value
~CURVE INFORMATION BLOCK
#MNEM UNIT       ERCB CURVE CODE    CURVE DESCRIPTION
#-----------   ------------------   ----------------------------------
DEPT.M        00 001 00 00         : DEPTH        - DEPTH
ILD .OHMM     00 120 00 00         : RESD         - DEEP RESISTIVITY (DIL)
DPHI.V/V      00 890 00 00         : PHID         - DENSITY POROSITY (LIMESTONE)
NPHI.V/V      00 330 00 00         : PHIN         - NEUTRON POROSITY (LIMESTONE)
GR  .API      00 310 00 00         : GR           - GAMMA RAY
~PARAMETER INFORMATION
#MNEM.UNIT           DATA             DESCRIPTION OF MNEMONIC
#---------         -----------     ------------------------------
GL  .M        657                  : gl           - GROUND LEVEL ELEVATION
EREF.M        660.5                : kb           - ELEVATION OF DEPTH REFERENCE
DATM.M        657                  : datum        - DATUM ELEVATION
TDD .M        535                  : tdd          - TOTAL DEPTH DRILLER
RUN .         ONE                  : Run          - RUN NUMBER
ENG .         BILL                 : Engineer     - RECORDING ENGINEER
WIT .         JIM                  : Witness      - WITNESSED BY
MUD .         GEL                  : Mud_type     - MUD TYPE
MATR.         LIMESTONE            : Logunit      - NEUTRON MATRIX
TMAX.C        25                   : BHT          - MAXIMUM RECORDED TEMPERATURE
BHTD.M        535                  : BHTDEP       - MAXIMUM RECORDED TEMPERATURE
MATR.         1                    : LOGUNIT      - NEUTRON MATRIX
RMT .C        25                   : MDTP         - TEMPERATURE OF MUD
NEUT.         1                    : NEUTRON      - NEUTRON TYPE
RESI.         0                    : RESIST       - RESISTIVITY TYPE
RMC .OHMM     0.25                 : RMC          - RESISTIVITY OF MUD CAKE
RMF .OHMM     0.25                 : RMF          - RESISTIVITY OF MUD FILTRATE
SUFT.C        15                   : SUFT         - SURFACE TEMPERATURE
~A  DEPTH     RESD     PHID     PHIN       GR
# ...
  434.000    7.435    0.220    0.451   82.383
  434.250    7.866    0.220    0.454   84.241
  434.500    8.016    0.212    0.457   85.474
  434.750    8.017    0.206    0.456   87.332
  435.000    8.018    0.209    0.452   86.136
  435.250    7.725    0.206    0.432   86.174
  435.500    7.444    0.201    0.434   86.800
  435.750    7.307    0.201    0.443   88.662
  436.000    6.910    0.210    0.449   90.506
  436.250    6.783    0.210    0.461   92.970
  436.500    6.536    0.202    0.475   94.219
  436.750    6.416    0.204    0.475   89.363
  437.000    6.299    0.217    0.462   91.218
  437.250    6.069    0.220    0.457   90.638
  437.500    5.847    0.235    0.454   88.229
  437.750    5.634    0.234    0.455   86.430
  438.000    5.328    0.227    0.465   85.222
  438.250    5.134    0.209    0.472   84.031
  438.500    4.946    0.187    0.468   84.053
  438.750    4.766    0.197    0.473   85.301
  439.000    4.262    0.213    0.484   87.160
  439.250    3.955    0.213    0.490   88.397
  439.500    3.344    0.222    0.492   86.597
  439.750    2.935    0.236    0.517   86.010
  440.000    2.674    0.259    0.539   84.815
  440.250    2.347    0.268    0.614   84.841
  440.500    2.219    0.275    0.597   83.651
  440.750    2.179    0.277    0.572   85.509
  441.000    2.139    0.269    0.560   87.361
  441.250    2.139    0.266    0.564   89.213
  441.500    2.305    0.263    0.563   89.848
  441.750    2.531    0.261    0.535   88.044
  442.000    2.780    0.252    0.517   86.244
  442.250    3.168    0.247    0.502   85.044
  442.500    3.611    0.239    0.489   84.479
  442.750    4.353    0.222    0.466   84.498
  443.000    5.055    0.200    0.443   84.514
  443.250    5.656    0.182    0.436   82.104
  443.500    5.983    0.171    0.432   80.300
  443.750    5.983    0.166    0.426   79.719
  444.000    5.874    0.157    0.426   80.345
  444.250    5.875    0.172    0.442   84.031
  444.500    5.660    0.195    0.466   85.287
  444.750    5.454    0.207    0.464   85.313
  445.000    5.455    0.209    0.458   84.723
  445.250    5.664    0.203    0.453   82.304
  445.500    6.104    0.191    0.447   79.890
  445.750    6.828    0.163    0.421   76.867
  446.000    7.639    0.146    0.401   74.455
  446.250    8.707    0.144    0.382   73.256
  446.500    9.741    0.122    0.365   73.895
  446.750    9.386    0.100    0.348   74.537
  447.000    8.551    0.191    0.349   75.162
  447.250    7.790    0.194    0.389   83.123
  447.500    7.096    0.195    0.440   86.803
  447.750    6.346    0.195    0.454   89.878
  448.000    5.782    0.205    0.459   90.510
  448.250    5.571    0.195    0.459   88.705
  448.500    5.571    0.179    0.458   86.914
  448.750    5.469    0.173    0.456   86.323
  449.000    5.470    0.166    0.450   86.951
  449.250    5.270    0.154    0.442   83.929
  449.500    5.078    0.127    0.437   84.563
  449.750    4.627    0.174    0.448   87.032
  450.000    4.375    0.208    0.468   90.719
  450.250    4.216    0.218    0.480   93.184
  450.500    4.062    0.215    0.489   95.032
  450.750    4.139    0.206    0.487   96.277
  451.000    4.378    0.197    0.484   95.086
  451.250    4.545    0.185    0.481   93.895
  451.500    5.378    0.169    0.474   92.700
  451.750    6.363    0.151    0.461   90.890
  452.000    7.390    0.150    0.438   84.209
  452.250    8.114    0.152    0.405   79.358
  452.500    9.965    0.157    0.398   76.941
  452.750   11.359    0.212    0.389   72.699
  453.000   12.472    0.252    0.376   67.844
  453.250   13.194    0.261    0.367   70.320
  453.500   12.951    0.247    0.387   72.165
  453.750   10.549    0.243    0.400   75.241
  454.000   10.165    0.245    0.383   77.098
  454.250   10.165    0.247    0.392   76.511
  454.500   10.753    0.244    0.440   82.027
  454.750   11.807    0.231    0.455   82.054
  455.000   13.210    0.245    0.465   79.039
  455.250   13.714    0.253    0.461   78.440
  455.500   12.264    0.257    0.454   77.865
  455.750   11.382    0.275    0.437   79.102
  456.000    8.604    0.274    0.424   86.445
  456.250    7.693    0.223    0.420   95.623
  456.500    7.552    0.178    0.421  104.185
  456.750    7.696    0.180    0.437  106.039
  457.000    8.294    0.186    0.454   99.363
  457.250    9.454    0.190    0.452   96.939
  457.500   11.186    0.220    0.440   92.090
  457.750   13.484    0.218    0.417   89.070
  458.000   15.659    0.199    0.406   86.046
  458.250   17.194    0.196    0.394   83.021
  458.500   17.521    0.180    0.388   81.217
  458.750   16.882    0.181    0.412   80.020
  459.000   15.671    0.252    0.407   80.042
  459.250   15.672    0.262    0.404   77.633
  459.500   15.971    0.261    0.401   79.493
  459.750   16.275    0.259    0.401   80.118
  460.000   16.277    0.259    0.395   80.760
  460.250   16.281    0.235    0.384   77.129
  460.500   15.981    0.205    0.379   74.713
  460.750   14.560    0.204    0.369   74.129
  461.000   13.770    0.204    0.365   74.762
  461.250   13.267    0.185    0.368   76.009
  461.500   13.023    0.182    0.374   79.081
  461.750   12.317    0.187    0.396   80.324
  462.000   11.867    0.195    0.405   81.572
  462.250   11.650    0.202    0.405   82.823
  462.500   11.651    0.198    0.408   83.454
  462.750   12.098    0.194    0.416   84.698
  463.000   12.327    0.197    0.417   85.340
  463.250   13.286    0.198    0.417   84.144
  463.500   14.053    0.216    0.409   82.332
  463.750   15.431    0.235    0.397   78.708
  464.000   16.631    0.277    0.389   76.894
  464.250   16.946    0.260    0.384   69.604
  464.500   16.637    0.238    0.396   69.018
  464.750   16.029    0.214    0.409   70.265
  465.000   15.159    0.211    0.408   71.506
  465.250   14.880    0.223    0.407   70.313
  465.500   15.163    0.239    0.407   69.739
  465.750   16.651    0.233    0.403   70.370
  466.000   17.286    0.228    0.397   69.173
  466.250   18.982    0.217    0.382   66.756
  466.500   19.708    0.223    0.362   63.126
  466.750   19.346    0.244    0.356   60.104
  467.000   18.991    0.267    0.377   58.913
  467.250   18.643    0.273    0.403   58.934
  467.500   19.356    0.270    0.412   59.567
  467.750   19.001    0.266    0.410   61.422
  468.000   18.652    0.252    0.408   63.888
  468.250   18.657    0.240    0.410   63.301
  468.500   18.659    0.252    0.404   62.718
  468.750   19.740    0.278    0.405   63.363
  469.000   20.114    0.287    0.409   63.377
  469.250   20.882    0.284    0.408   64.014
  469.500   21.680    0.278    0.409   64.057
  469.750   22.934    0.268    0.411   63.466
  470.000   25.182    0.257    0.422   63.484
  470.250   27.139    0.262    0.416   59.847
  470.500   30.361    0.234    0.387   49.514
  470.750   32.721    0.217    0.360   49.533
  471.000   28.717    0.214    0.344   51.998
  471.250   23.831    0.231    0.349   55.678
  471.500   19.050    0.269    0.354   63.021
  471.750   13.872    0.268    0.366   70.976
  472.000   12.876    0.255    0.396   74.662
  472.250   12.406    0.233    0.390   76.518
  472.500   12.408    0.228    0.389   77.153
  472.750   12.645    0.228    0.397   75.350
  473.000   12.885    0.234    0.409   72.333
  473.250   13.630    0.253    0.414   71.737
  473.500   14.150    0.257    0.412   71.155
  473.750   15.250    0.237    0.427   68.139
  474.000   17.062    0.233    0.435   66.330
  474.250   18.047    0.235    0.431   63.308
  474.500   19.817    0.246    0.410   60.286
  474.750   21.356    0.258    0.403   57.868
  475.000   25.763    0.231    0.382   52.236
  475.250   26.747    0.235    0.382   50.434
  475.500   25.297    0.252    0.374   49.233
  475.750   22.203    0.248    0.368   51.682
  476.000   18.426    0.230    0.368   57.165
  476.250   15.873    0.239    0.387   63.858
  476.500   14.463    0.239    0.395   71.171
  476.750   13.425    0.239    0.409   73.006
  477.000   12.936    0.231    0.417   72.413
  477.250   12.466    0.231    0.422   69.399
