~VERSION INFORMATION
 VERS.                 2.0:   CWLS LOG ASCII STANDARD -VERSION 2.0
 WRAP.                  NO:   ONE LINE PER DEPTH STEP
~WELL INFORMATION BLOCK
#MNEM.UNIT           DATA                    DESCRIPTION OF MNEMONIC
#---------    -------------------            -------------------------------
# Generated from Intellog Unique Number	CS_67_68/WELL/781
WELL.         SUNDANCE OIL CANADA LTD        : Well_name    - WELL
LOC .         00/07-29-068-16W4/0            : Location     - LOCATION
UWI .         00/07-29-068-16W4/0            : Uwi          - UNIQUE WELL ID
ENTR.         SP                             : Entered      - ENTERED BY
SRVC.         SCHLUMBERGER                   : Scn          - SERVICE COMPANY
STRT.M        292.608                        : top_depth    - START DEPTH
STOP.M        511.858                        : bot_depth    - STOP DEPTH
STEP.M        0.25                           : increment    - STEP LENGTH
 NULL. -999.2500:NULL Value
~CURVE INFORMATION BLOCK
#MNEM UNIT       ERCB CURVE CODE    CURVE DESCRIPTION
#-----------   ------------------   ----------------------------------
DEPT.M        00 001 00 00         : DEPTH        - DEPTH
GR  .API      00 310 00 00         : GR           - GAMMA RAY
DPHI.V/V      00 890 00 00         : PHID         - DENSITY POROSITY (SANDSTONE)
NPHI.V/V      00 330 00 00         : PHIN         - NEUTRON POROSITY (SANDSTONE)
ILD .OHMM     00 120 00 00         : RESD         - DEEP RESISTIVITY (DIL)
~PARAMETER INFORMATION
#MNEM.UNIT           DATA             DESCRIPTION OF MNEMONIC
#---------         -----------     ------------------------------
GL  .M        563.575              : gl           - GROUND LEVEL ELEVATION
EREF.M        567.111              : kb           - ELEVATION OF DEPTH REFERENCE
DATM.M        563.575              : datum        - DATUM ELEVATION
TDD .M        514.502              : tdd          - TOTAL DEPTH DRILLER
RUN .         ONE                  : Run          - RUN NUMBER
ENG .         BILL                 : Engineer     - RECORDING ENGINEER
WIT .         JIM                  : Witness      - WITNESSED BY
MUD .         GEL                  : Mud_type     - MUD TYPE
MATR.         SANDSTONE            : Logunit      - NEUTRON MATRIX
TMAX.C        23.8889              : BHT          - MAXIMUM RECORDED TEMPERATURE
BHTD.M        514.502              : BHTDEP       - MAXIMUM RECORDED TEMPERATURE
MATR.         1                    : LOGUNIT      - NEUTRON MATRIX
RMT .C        25                   : MDTP         - TEMPERATURE OF MUD
NEUT.         1                    : NEUTRON      - NEUTRON TYPE
RESI.         0                    : RESIST       - RESISTIVITY TYPE
RMC .OHMM     0.25                 : RMC          - RESISTIVITY OF MUD CAKE
RMF .OHMM     0.25                 : RMF          - RESISTIVITY OF MUD FILTRATE
SUFT.C        15                   : SUFT         - SURFACE TEMPERATURE
~A  DEPTH       GR     PHID     PHIN     RESD
# ...
  336.108   81.743    0.256    0.415    3.208
  336.358   82.136    0.268    0.416    2.974
  336.608   83.003    0.259    0.415    2.719
  336.858   85.118    0.266    0.415    2.670
  337.108   82.505    0.246    0.416    2.684
  337.358   79.494    0.239    0.427    2.838
  337.608   78.259    0.253    0.439    3.568
  337.858   76.372    0.267    0.428    5.091
  338.108   70.910    0.254    0.419    7.594
  338.358   63.817    0.213    0.377    8.912
  338.608   59.530    0.190    0.348    8.864
  338.858   54.058    0.152    0.257    7.661
  339.108   57.319    0.160    0.231    4.987
  339.358   61.912    0.207    0.288    4.214
  339.608   65.465    0.233    0.321    3.674
  339.858   69.378    0.238    0.362    3.365
  340.108   67.589    0.244    0.383    3.269
  340.358   66.803    0.179    0.347    3.168
  340.608   72.827    0.117    0.312    2.962
  340.858   76.635    0.216    0.373    2.859
  341.108   80.840    0.251    0.396    2.862
  341.358   83.201    0.246    0.407    2.859
  341.608   84.313    0.216    0.410    2.847
  341.858   85.588    0.201    0.410    2.864
  342.108   87.429    0.235    0.422    2.915
  342.358   89.481    0.242    0.431    2.969
  342.608   92.132    0.249    0.438    3.032
  342.858   94.146    0.246    0.447    3.088
  343.108   96.987    0.233    0.452    3.142
  343.358  100.284    0.215    0.448    3.216
  343.608  104.593    0.204    0.453    3.275
  343.858  106.990    0.210    0.459    3.303
  344.108  107.748    0.205    0.458    3.292
  344.358  107.816    0.202    0.457    3.259
  344.608  108.409    0.201    0.455    3.198
  344.858  101.710    0.213    0.449    3.154
  345.108   95.524    0.231    0.443    3.086
  345.358   92.368    0.258    0.445    3.013
  345.608   96.126    0.252    0.432    2.957
  345.858   99.618    0.220    0.423    2.905
  346.108  103.074    0.224    0.414    2.869
  346.358  105.110    0.208    0.444    2.837
  346.608  106.140    0.177    0.454    2.851
  346.858  105.491    0.190    0.466    2.960
  347.108  105.080    0.211    0.496    3.165
  347.358  105.064    0.203    0.526    3.316
  347.608  105.195    0.204    0.552    3.492
  347.858  105.317    0.213    0.507    3.685
  348.108  105.676    0.188    0.480    3.799
  348.358  106.187    0.195    0.460    3.882
  348.608  107.460    0.199    0.443    3.885
  348.858  109.367    0.197    0.435    3.876
  349.108  107.459    0.203    0.435    3.867
  349.358  104.741    0.194    0.437    3.833
  349.608  104.424    0.187    0.431    3.755
  349.858  106.025    0.174    0.421    3.547
  350.108  107.713    0.162    0.413    3.210
  350.358  108.034    0.184    0.412    2.977
  350.608  107.376    0.195    0.412    2.778
  350.858   93.566    0.181    0.408    2.594
  351.108   84.201    0.187    0.403    2.399
  351.358   79.823    0.209    0.398    2.291
  351.608   79.527    0.232    0.392    2.164
  351.858   82.573    0.241    0.402    2.044
  352.108   86.516    0.255    0.412    1.949
  352.358   82.322    0.244    0.421    1.853
  352.608   77.124    0.223    0.430    1.789
  352.858   73.961    0.257    0.435    1.752
  353.108   69.740    0.276    0.429    1.720
  353.358   66.238    0.287    0.421    1.706
  353.608   70.255    0.296    0.422    1.700
  353.858   74.269    0.305    0.434    1.692
  354.108   75.963    0.292    0.435    1.703
  354.358   68.712    0.294    0.424    1.715
  354.608   64.475    0.289    0.416    1.743
  354.858   62.345    0.292    0.411    1.809
  355.108   64.319    0.270    0.407    1.938
  355.358   68.077    0.277    0.403    2.029
  355.608   72.164    0.282    0.400    2.030
  355.858   74.005    0.273    0.408    1.954
  356.108   73.316    0.266    0.422    1.913
  356.358   71.111    0.260    0.432    1.866
  356.608   69.194    0.276    0.423    1.836
  356.858   69.728    0.290    0.410    1.811
  357.108   70.952    0.302    0.423    1.818
  357.358   73.393    0.305    0.438    1.842
  357.608   70.311    0.292    0.446    1.851
  357.858   69.885    0.293    0.449    1.880
  358.108   70.847    0.296    0.452    1.905
  358.358   71.964    0.294    0.449    1.948
  358.608   73.498    0.299    0.441    1.992
  358.858   74.410    0.280    0.435    2.055
  359.108   74.553    0.284    0.440    2.129
  359.358   73.795    0.290    0.452    2.268
  359.608   75.964    0.286    0.444    2.382
  359.858   78.829    0.274    0.430    2.526
  360.108   81.795    0.260    0.421    2.778
  360.358   85.595    0.254    0.412    3.066
  360.608   88.934    0.245    0.406    3.312
  360.858   93.340    0.240    0.385    3.514
  361.108   97.732    0.248    0.392    3.668
  361.358  102.766    0.213    0.398    3.712
  361.608  105.126    0.226    0.402    3.743
  361.858  104.061    0.220    0.411    3.766
  362.108  102.478    0.193    0.406    3.798
  362.358  102.285    0.198    0.411    3.781
  362.608  103.051    0.207    0.418    3.734
  362.858  104.818    0.203    0.415    3.590
  363.108  106.671    0.210    0.415    3.396
  363.358  107.889    0.192    0.424    3.307
  363.608  107.217    0.205    0.431    3.299
  363.858  107.347    0.223    0.420    3.336
  364.108  109.632    0.217    0.418    3.406
  364.358  112.339    0.198    0.425    3.471
  364.608  113.488    0.196    0.429    3.506
  364.858  114.518    0.202    0.425    3.482
  365.108  111.442    0.179    0.420    3.412
  365.358  104.575    0.194    0.417    3.301
  365.608   98.473    0.183    0.413    3.110
  365.858   95.536    0.215    0.413    2.997
  366.108   95.895    0.228    0.413    2.950
  366.358   96.705    0.229    0.417    2.936
  366.608   97.350    0.225    0.426    2.894
  366.858   96.314    0.218    0.432    2.798
  367.108   95.069    0.209    0.442    2.472
  367.358   92.601    0.195    0.459    2.195
  367.608   88.555    0.217    0.453    2.101
  367.858   83.896    0.243    0.435    2.070
  368.108   80.720    0.267    0.447    2.100
  368.358   87.249    0.282    0.440    2.172
  368.608   85.094    0.284    0.430    2.252
  368.858   80.441    0.277    0.422    2.347
  369.108   78.782    0.266    0.417    2.411
  369.358   78.981    0.268    0.416    2.335
  369.608   80.633    0.259    0.419    2.180
  369.858   82.221    0.243    0.418    2.057
  370.108   83.508    0.233    0.423    1.943
  370.358   82.438    0.254    0.438    1.867
  370.608   78.818    0.280    0.457    1.817
  370.858   75.386    0.291    0.449    1.798
  371.108   73.073    0.301    0.435    1.813
  371.358   74.860    0.309    0.436    1.909
  371.608   78.442    0.306    0.432    2.040
  371.858   83.037    0.292    0.442    2.134
  372.108   86.856    0.278    0.446    2.185
  372.358   90.826    0.253    0.431    2.223
  372.608   94.217    0.253    0.418    2.243
  372.858   97.319    0.224    0.436    2.261
  373.108   97.414    0.232    0.467    2.240
  373.358   94.157    0.255    0.490    2.177
  373.608   91.268    0.271    0.494    2.117
  373.858   86.372    0.289    0.488    2.054
  374.108   77.184    0.288    0.484    2.009
  374.358   72.244    0.303    0.472    2.013
  374.608   70.699    0.333    0.454    2.078
  374.858   70.573    0.301    0.436    2.247
  375.108   71.745    0.277    0.428    2.418
  375.358   75.999    0.276    0.437    2.573
  375.608   78.293    0.281    0.447    2.663
  375.858   77.284    0.283    0.441    2.661
  376.108   72.992    0.272    0.441    2.520
  376.358   71.178    0.284    0.438    2.216
  376.608   70.820    0.277    0.423    2.105
  376.858   72.668    0.279    0.416    2.122
  377.108   75.707    0.285    0.426    2.192
  377.358   81.439    0.294    0.430    2.308
  377.608   87.644    0.268    0.422    2.471
  377.858   92.107    0.245    0.431    2.647
  378.108   93.764    0.226    0.442    2.781
  378.358   94.818    0.216    0.444    2.807
  378.608   94.453    0.227    0.452    2.746
  378.858   92.534    0.239    0.464    2.632
  379.108   87.189    0.247    0.472    2.507
  379.358   82.469    0.266    0.463    2.294
