~VERSION INFORMATION
 VERS.                 2.0:   CWLS LOG ASCII STANDARD -VERSION 2.0
 WRAP.                  NO:   ONE LINE PER DEPTH STEP
~WELL INFORMATION BLOCK
#MNEM.UNIT           DATA                    DESCRIPTION OF MNEMONIC
#---------    -------------------            -------------------------------
# Generated from Intellog Unique Number	CS_73_76/WELL/2165
WELL.         AMOCO KIRBY 6-20               : Well_name    - WELL
LOC .         00/06-20-074-06W4/0            : Location     - LOCATION
UWI .         00/06-20-074-06W4/0            : Uwi          - UNIQUE WELL ID
ENTR.         SP                             : Entered      - ENTERED BY
SRVC.         SCHLUMBERGER                   : Scn          - SERVICE COMPANY
STRT.M        245                            : top_depth    - START DEPTH
STOP.M        475                            : bot_depth    - STOP DEPTH
STEP.M        0.25                           : increment    - STEP LENGTH
 NULL. -999.2500:NULL Value
~CURVE INFORMATION BLOCK
#MNEM UNIT       ERCB CURVE CODE    CURVE DESCRIPTION
#-----------   ------------------   ----------------------------------
DEPT.M        00 001 00 00         : DEPTH        - DEPTH
ILD .OHMM     00 120 00 00         : RESD         - DEEP RESISTIVITY (DIL)
DPHI.V/V      00 890 00 00         : PHID         - DENSITY POROSITY (LIMESTONE)
NPHI.V/V      00 330 00 00         : PHIN         - NEUTRON POROSITY (LIMESTONE)
GR  .API      00 310 00 00         : GR           - GAMMA RAY
~PARAMETER INFORMATION
#MNEM.UNIT           DATA             DESCRIPTION OF MNEMONIC
#---------         -----------     ------------------------------
GL  .M        640.5                : gl           - GROUND LEVEL ELEVATION
EREF.M        643.6                : kb           - ELEVATION OF DEPTH REFERENCE
DATM.M        640.5                : datum        - DATUM ELEVATION
TDD .M        480                  : tdd          - TOTAL DEPTH DRILLER
RUN .         ONE                  : Run          - RUN NUMBER
ENG .         BILL                 : Engineer     - RECORDING ENGINEER
WIT .         JIM                  : Witness      - WITNESSED BY
MUD .         GEL                  : Mud_type     - MUD TYPE
MATR.         LIMESTONE            : Logunit      - NEUTRON MATRIX
TMAX.C        21                   : BHT          - MAXIMUM RECORDED TEMPERATURE
BHTD.M        480                  : BHTDEP       - MAXIMUM RECORDED TEMPERATURE
MATR.         1                    : LOGUNIT      - NEUTRON MATRIX
RMT .C        25                   : MDTP         - TEMPERATURE OF MUD
NEUT.         1                    : NEUTRON      - NEUTRON TYPE
RESI.         0                    : RESIST       - RESISTIVITY TYPE
RMC .OHMM     0.25                 : RMC          - RESISTIVITY OF MUD CAKE
RMF .OHMM     0.25                 : RMF          - RESISTIVITY OF MUD FILTRATE
SUFT.C        15                   : SUFT         - SURFACE TEMPERATURE
~A  DEPTH     RESD     PHID     PHIN       GR
# ...
  332.000    4.003    0.280    0.387   76.678
  332.250    4.005    0.280    0.397   76.687
  332.500    3.931    0.281    0.410   79.141
  332.750    3.860    0.280    0.431   82.822
  333.000    3.789    0.291    0.434   71.809
  333.250    3.516    0.332    0.430   65.082
  333.500    3.201    0.374    0.428   61.416
  333.750    3.025    0.376    0.422   57.750
  334.000    2.807    0.349    0.429   60.818
  334.250    2.653    0.316    0.429   76.745
  334.500    2.556    0.292    0.450   92.058
  334.750    2.558    0.287    0.469   98.191
  335.000    2.708    0.290    0.481   95.137
  335.250    2.977    0.298    0.461   89.635
  335.500    3.212    0.311    0.440   82.905
  335.750    3.337    0.333    0.420   70.669
  336.000    3.534    0.345    0.402   63.940
  336.250    3.535    0.335    0.401   65.786
  336.500    3.471    0.328    0.417   67.628
  336.750    3.472    0.325    0.427   66.411
  337.000    3.473    0.324    0.424   70.093
  337.250    3.475    0.329    0.425   68.875
  337.500    3.349    0.335    0.445   68.270
  337.750    3.349    0.338    0.451   68.278
  338.000    3.227    0.339    0.430   70.122
  338.250    3.168    0.341    0.428   71.353
  338.500    3.111    0.344    0.431   68.302
  338.750    3.112    0.343    0.429   65.859
  339.000    3.113    0.339    0.429   65.255
  339.250    3.115    0.339    0.455   65.874
  339.500    3.116    0.330    0.446   66.492
  339.750    3.177    0.319    0.442   64.664
  340.000    3.179    0.315    0.440   68.958
  340.250    3.241    0.307    0.445   76.312
  340.500    3.241    0.304    0.480   84.279
  340.750    3.244    0.307    0.495   86.122
  341.000    3.245    0.310    0.466   81.233
  341.250    3.308    0.302    0.453   79.404
  341.500    3.503    0.294    0.452   78.187
  341.750    3.639    0.302    0.456   78.192
  342.000    4.001    0.307    0.474   85.550
  342.250    4.399    0.305    0.477   86.779
  342.500    4.657    0.299    0.445   84.950
  342.750    4.748    0.292    0.429   78.836
  343.000    5.320    0.287    0.416   70.885
  343.250    5.739    0.286    0.420   66.605
  343.500    5.964    0.288    0.433   68.450
  343.750    5.966    0.289    0.435   74.580
  344.000    6.083    0.290    0.437   75.199
  344.250    6.085    0.297    0.443   72.147
  344.500    6.089    0.295    0.435   72.152
  344.750    6.091    0.287    0.432   74.609
  345.000    6.093    0.279    0.452   76.453
  345.250    5.983    0.273    0.465   84.421
  345.500    5.985    0.274    0.432   85.039
  345.750    5.658    0.262    0.411   81.985
  346.000    5.555    0.258    0.420   81.994
  346.250    5.252    0.267    0.434   81.389
  346.500    5.155    0.271    0.422   78.336
  346.750    5.062    0.266    0.397   72.831
  347.000    5.064    0.263    0.381   66.716
  347.250    4.879    0.263    0.401   64.275
  347.500    4.442    0.264    0.406   70.407
  347.750    4.199    0.267    0.394   75.312
  348.000    3.613    0.268    0.415   80.216
  348.250    3.415    0.283    0.437   82.061
  348.500    3.109    0.288    0.442   80.233
  348.750    2.884    0.300    0.466   79.014
  349.000    2.885    0.312    0.483   82.696
  349.250    2.887    0.322    0.496   86.378
  349.500    2.943    0.304    0.475   87.608
  349.750    2.889    0.289    0.464   82.106
  350.000    2.946    0.276    0.465   76.602
  350.250    2.947    0.275    0.482   71.100
  350.500    3.062    0.282    0.483   85.188
  350.750    3.367    0.299    0.432   88.871
  351.000    3.844    0.313    0.435   84.591
  351.250    4.389    0.300    0.441   77.865
  351.500    4.825    0.284    0.435   76.035
  351.750    5.406    0.271    0.418   74.820
  352.000    5.944    0.294    0.402   74.825
  352.250    6.413    0.327    0.403   74.833
  352.500    6.919    0.325    0.412   70.554
  352.750    7.188    0.325    0.412   64.442
  353.000    7.191    0.338    0.377   60.774
  353.250    6.929    0.295    0.355   57.107
  353.500    6.550    0.216    0.346   53.442
  353.750    5.964    0.149    0.366   50.999
  354.000    5.854    0.260    0.385   62.028
  354.250    5.747    0.287    0.396   69.382
  354.500    5.860    0.302    0.420   68.780
  354.750    5.974    0.314    0.432   66.336
  355.000    6.091    0.319    0.419   65.119
  355.250    6.093    0.338    0.404   63.905
  355.500    6.097    0.362    0.404   62.685
  355.750    6.099    0.376    0.402   58.406
  356.000    5.876    0.374    0.391   48.007
  356.250    5.660    0.368    0.389   44.339
  356.500    5.353    0.360    0.400   46.185
  356.750    5.255    0.351    0.409   50.480
  357.000    5.257    0.355    0.414   52.321
  357.250    5.161    0.360    0.403   52.941
  357.500    5.163    0.356    0.389   49.275
  357.750    5.070    0.352    0.409   46.835
  358.000    5.071    0.356    0.427   49.292
  358.250    5.073    0.357    0.408   49.909
  358.500    5.076    0.356    0.401   49.917
  358.750    5.176    0.363    0.414   49.925
  359.000    5.277    0.361    0.422   51.769
  359.250    5.279    0.357    0.412   55.450
  359.500    5.381    0.361    0.415   54.844
  359.750    5.591    0.358    0.411   54.852
  360.000    5.809    0.348    0.405   54.248
  360.250    6.267    0.343    0.415   58.542
  360.500    6.762    0.336    0.431   61.612
  360.750    7.721    0.333    0.420   62.840
  361.000    8.329    0.311    0.351   62.236
  361.250    8.818    0.181    0.294   60.408
  361.500    9.162    0.124    0.283   56.130
  361.750    8.662    0.129    0.320   53.686
  362.000    8.344    0.232    0.354   52.470
  362.250    7.596    0.273    0.386   66.559
  362.500    6.916    0.282    0.395   75.139
  362.750    6.789    0.278    0.375   77.595
  363.000    6.794    0.278    0.380   70.256
  363.250    6.925    0.289    0.410   65.365
  363.500    7.062    0.277    0.428   70.883
  363.750    7.199    0.262    0.411   72.115
  364.000    7.340    0.257    0.416   70.897
  364.250    7.205    0.262    0.396   70.906
  364.500    7.073    0.270    0.380   73.361
  364.750    6.944    0.272    0.380   72.144
  365.000    6.565    0.272    0.382   72.151
  365.250    6.091    0.272    0.387   73.387
  365.500    5.867    0.276    0.397   73.391
  365.750    5.548    0.283    0.411   74.011
  366.000    5.446    0.285    0.423   74.632
  366.250    5.248    0.279    0.413   75.250
  366.500    5.055    0.268    0.400   75.869
  366.750    4.870    0.264    0.398   78.939
  367.000    4.604    0.264    0.414   80.171
  367.250    4.435    0.262    0.420   75.892
  367.500    4.038    0.255    0.428   76.513
  367.750    3.890    0.257    0.428   81.417
  368.000    3.542    0.286    0.434   84.486
  368.250    3.411    0.327    0.446   86.944
  368.500    3.479    0.345    0.447   88.175
  368.750    3.824    0.345    0.425   87.570
  369.000    4.449    0.327    0.418   80.234
  369.250    4.801    0.311    0.409   77.178
  369.500    4.289    0.313    0.403   72.898
  369.750    3.486    0.320    0.419   67.395
  370.000    2.834    0.312    0.426   74.141
  370.250    2.629    0.312    0.439   76.595
  370.500    2.837    0.317    0.457   80.890
  370.750    3.003    0.317    0.477   77.834
  371.000    3.495    0.325    0.432   74.780
  371.250    3.842    0.340    0.397   72.953
  371.500    4.145    0.350    0.370   71.733
  371.750    4.645    0.349    0.399   69.903
  372.000    4.825    0.341    0.419   69.299
  372.250    5.013    0.342    0.405   69.307
  372.500    5.308    0.357    0.404   69.927
  372.750    5.515    0.377    0.413   68.710
  373.000    5.622    0.366    0.422   67.494
  373.250    5.731    0.351    0.427   63.825
  373.500    5.627    0.335    0.417   60.159
  373.750    5.630    0.326    0.413   60.171
  374.000    5.527    0.321    0.419   61.401
  374.250    5.529    0.303    0.412   62.632
  374.500    5.746    0.293    0.403   62.640
  374.750    5.859    0.283    0.416   65.097
  375.000    5.538    0.286    0.431   68.163
  375.250    5.539    0.282    0.437   72.457
