~VERSION INFORMATION
 VERS.                 2.0:   CWLS LOG ASCII STANDARD -VERSION 2.0
 WRAP.                  NO:   ONE LINE PER DEPTH STEP
~WELL INFORMATION BLOCK
#MNEM.UNIT           DATA                    DESCRIPTION OF MNEMONIC
#---------    -------------------            -------------------------------
# Generated from Intellog Unique Number	CC_80_83/WELL/2321
NULL.         -999.25                        : NULL_VALUE
WELL.         NOVALTA GARSON                 : Well_name    - WELL
LOC .         09-13-083-02W4                 : Location     - LOCATION          
UWI .         00/09-13-083-02W400            : Uwi          - UNIQUE WELL ID    
ENTR.         DW                             : Entered      - ENTERED BY        
SRVC.         COMPUTALOG                     : Scn          - SERVICE COMPANY   
DATE.         01 FEB 83                      : Date         - LOG DATE
STRT.M        90                             : top_depth    - START DEPTH       
STOP.M        335.098                        : bot_depth    - STOP DEPTH        
STEP.M        0.3                            : increment    - STEP LENGTH       
~CURVE INFORMATION BLOCK
#MNEM UNIT       ERCB CURVE CODE    CURVE DESCRIPTION
#-----------   ------------------   ----------------------------------
DEPT.M        00 001 00 00         : DEPTH        - DEPTH                       
DPHI.V/V      00 890 00 00         : PHID         - DENSITY POROSITY (LIMESTONE)
NPHI.V/V      00 330 00 00         : PHIN         - NEUTRON POROSITY (LIMESTONE)
GR  .API      00 310 00 00         : GR           - GAMMA RAY                   
ILD .OHMM     00 120 00 00         : RESD         - DEEP RESISTIVITY (DIL)      
~PARAMETER INFORMATION       
#MNEM.UNIT           DATA             DESCRIPTION OF MNEMONIC
#---------         -----------     ------------------------------
GL  .M        477.66               : gl           - GROUND LEVEL ELEVATION      
EREF.M        480.66               : kb           - ELEVATION OF DEPTH REFERENCE
DATM.M        480.66               : datum        - DATUM ELEVATION             
TDD .M        340                  : tdd          - TOTAL DEPTH DRILLER         
RUN .         ONE                  : Run          - RUN NUMBER                  
ENG .         BILL                 : Engineer     - RECORDING ENGINEER          
WIT .         JIM                  : Witness      - WITNESSED BY                
MUD .         GEL                  : Mud_type     - MUD TYPE                    
MATR.         LIMESTONE            : Logunit      - NEUTRON MATRIX              
TMAX.C        22                   : BHT          - MAXIMUM RECORDED TEMPERATURE
BHTD.M        340                  : BHTDEP       - MAXIMUM RECORDED TEMPERATURE
MATR.         1                    : LOGUNIT      - NEUTRON MATRIX              
RMT .C        25                   : MDTP         - TEMPERATURE OF MUD          
NEUT.         1                    : NEUTRON      - NEUTRON TYPE                
RESI.         0                    : RESIST       - RESISTIVITY TYPE            
RMC .OHMM     0.25                 : RMC          - RESISTIVITY OF MUD CAKE     
RMF .OHMM     0.25                 : RMF          - RESISTIVITY OF MUD FILTRATE 
SUFT.C        15                   : SUFT         - SURFACE TEMPERATURE         
~A  DEPTH     PHID     PHIN       GR     RESD
# ...
  298.800    0.294    0.314   14.139    2.439
  299.100    0.303    0.304   12.295    2.352
  299.400    0.305    0.295   11.680    2.490
  299.700    0.294    0.293   14.139    3.122
  300.000    0.269    0.319   31.352    3.841
  300.300    0.220    0.431   56.557    4.638
  300.600    0.216    0.443   60.861    5.002
  300.900    0.230    0.426   51.639    4.735
  301.200    0.247    0.370   35.656    3.856
  301.500    0.290    0.335   26.434    3.142
  301.800    0.300    0.344   22.131    2.708
  302.100    0.306    0.346   19.057    2.423
  302.400    0.289    0.301   16.598    2.335
  302.700    0.282    0.306   15.369    2.382
  303.000    0.299    0.303   15.369    2.877
  303.300    0.245    0.284   17.828    3.103
  303.600    0.199    0.322   56.557    3.227
  303.900    0.215    0.330   43.033    3.169
  304.200    0.282    0.320   24.590    2.889
  304.500    0.285    0.331   20.902    2.786
  304.800    0.284    0.338   22.746    2.950
  305.100    0.249    0.327   49.795    3.244
  305.400    0.190    0.341   75.615    3.307
  305.700    0.222    0.401   75.000    3.189
  306.000    0.278    0.396   42.418    2.962
  306.300    0.291    0.337   30.738    2.700
  306.600    0.296    0.341   27.049    2.371
  306.900    0.296    0.343   25.205    2.245
  307.200    0.306    0.341   17.828    2.246
  307.500    0.327    0.360   14.139    2.379
  307.800    0.293    0.362   17.828    2.716
  308.100    0.226    0.330   41.188    2.984
  308.400    0.163    0.315   73.770    3.537
  308.700    0.145    0.325   92.828    4.271
  309.000    0.145    0.385  111.885    4.696
  309.300    0.152    0.406  114.344    5.165
  309.600    0.157    0.400  114.344    5.266
  309.900    0.159    0.397  118.033    5.684
  310.199    0.153    0.401  119.262    5.687
  310.499    0.151    0.389  116.803    5.382
  310.799    0.154    0.366   94.057    4.223
  311.099    0.193    0.369   73.770    3.252
  311.399    0.273    0.359   51.025    2.750
  311.699    0.283    0.338   41.803    2.554
  311.999    0.291    0.338   38.730    2.373
  312.299    0.301    0.345   42.418    2.331
  312.599    0.304    0.368   43.648    2.247
  312.899    0.300    0.364   39.344    2.208
  313.199    0.300    0.328   27.049    2.171
  313.499    0.302    0.322   24.590    2.256
  313.799    0.300    0.328   32.582    2.344
  314.099    0.262    0.392   51.025    2.676
  314.399    0.217    0.370   65.164    2.941
  314.699    0.157    0.375   78.074    3.356
  314.999    0.177    0.412  108.197    4.208
  315.299    0.172    0.421  114.344    5.275
  315.599    0.168    0.421  113.730    5.911
  315.899    0.164    0.401  111.270    6.027
  316.199    0.164    0.377  107.582    6.149
  316.499    0.168    0.379  110.656    6.157
  316.799    0.185    0.418  116.803    6.047
  317.099    0.193    0.450  119.262    5.944
  317.399    0.200    0.433  115.574    5.950
  317.699    0.205    0.400   95.902    5.956
  317.999    0.184    0.396  103.279    5.960
  318.299    0.191    0.429  105.123    6.197
  318.599    0.195    0.432  104.508    6.202
  318.899    0.189    0.433  101.434    6.329
  319.199    0.186    0.443   98.975    6.455
  319.499    0.175    0.412   99.590    6.582
  319.799    0.174    0.391   92.828    6.717
  320.099    0.185    0.375   93.443    6.722
  320.399    0.191    0.381   97.131    6.606
  320.699    0.175    0.443  100.820    6.611
  320.999    0.174    0.434  103.279    6.621
  321.299    0.183    0.432  104.508    6.628
  321.599    0.170    0.428  105.738    6.512
  321.899    0.163    0.418  107.582    6.518
  322.199    0.169    0.425  107.582    6.524
  322.499    0.175    0.473   98.361    6.655
  322.799    0.180    0.460   97.746    6.660
  323.099    0.183    0.444  100.820    6.792
  323.399    0.183    0.436  103.893    6.934
  323.699    0.184    0.433  105.123    6.943
  323.999    0.191    0.428  102.049    7.082
  324.299    0.196    0.417   98.975    7.087
  324.599    0.186    0.408   98.361    6.962
  324.899    0.179    0.424  101.434    6.966
  325.199    0.175    0.429  106.967    6.845
  325.499    0.196    0.438  101.434    6.729
  325.799    0.201    0.428  100.820    6.609
  326.099    0.186    0.428  111.270    6.491
  326.399    0.181    0.433  116.803    6.146
  326.699    0.181    0.438  109.426    6.036
  326.999    0.183    0.452  109.426    6.158
  327.299    0.180    0.463  111.885    6.520
  327.599    0.175    0.457  111.270    6.649
  327.899    0.165    0.450  104.508    6.914
  328.199    0.157    0.420  101.434    7.050
  328.499    0.148    0.399   99.590    6.801
  328.799    0.142    0.431   97.746    6.678
  329.099    0.147    0.450   95.287    6.562
  329.399    0.152    0.401   92.213    6.822
  329.699    0.158    0.349   89.139    6.956
  329.999    0.133    0.352   83.607    6.964
  330.299    0.096    0.365   81.147    5.166
  330.599    0.000    0.352   71.926    4.535
  330.899    0.000    0.328   68.238    4.212
  331.199    0.000    0.306   71.926    4.631
  331.499    0.000    0.166   68.238    8.133
  331.799    0.000    0.132   48.566   13.761
  332.099    0.000    0.118   31.352   21.601
  332.399    0.000    0.175   36.885   34.550
  332.699    0.000    0.193   48.566   34.586
  332.999    0.000    0.184   59.016   30.940
  333.299    0.000    0.177   67.008   25.687
  333.599    0.020    0.248   65.164   22.976
  333.899    0.030    0.278   61.475   20.945
  334.199    0.021    0.283   60.861   22.182
  334.499    0.007    0.272   60.246   25.796
  334.798    0.000    0.240   61.475   34.201
  335.098    0.000    0.190   61.475   42.872
