~VERSION INFORMATION
 VERS.                 2.0:   CWLS LOG ASCII STANDARD -VERSION 2.0
 WRAP.                  NO:   ONE LINE PER DEPTH STEP
~WELL INFORMATION BLOCK
#MNEM.UNIT           DATA                    DESCRIPTION OF MNEMONIC
#---------    -------------------            -------------------------------
# Generated from Intellog Unique Number	CS_69_70/WELL/852
WELL.         HUSKEY OIL OPERATIONS          : Well_name    - WELL
LOC .         00/07-04-069-05W4/0            : Location     - LOCATION
UWI .         00/07-04-069-05W4/0            : Uwi          - UNIQUE WELL ID
ENTR.         SP                             : Entered      - ENTERED BY
SRVC.         SCHLUMBERGER                   : Scn          - SERVICE COMPANY
STRT.M        315                            : top_depth    - START DEPTH
STOP.M        555                            : bot_depth    - STOP DEPTH
STEP.M        0.25                           : increment    - STEP LENGTH
 NULL. -999.2500:NULL Value
~CURVE INFORMATION BLOCK
#MNEM UNIT       ERCB CURVE CODE    CURVE DESCRIPTION
#-----------   ------------------   ----------------------------------
DEPT.M        00 001 00 00         : DEPTH        - DEPTH
ILD .OHMM     00 120 00 00         : RESD         - DEEP RESISTIVITY (DIL)
DPHI.V/V      00 890 00 00         : PHID         - DENSITY POROSITY (LIMESTONE)
NPHI.V/V      00 330 00 00         : PHIN         - NEUTRON POROSITY (LIMESTONE)
GR  .API      00 310 00 00         : GR           - GAMMA RAY
~PARAMETER INFORMATION
#MNEM.UNIT           DATA             DESCRIPTION OF MNEMONIC
#---------         -----------     ------------------------------
GL  .M        680.2                : gl           - GROUND LEVEL ELEVATION
EREF.M        683.8                : kb           - ELEVATION OF DEPTH REFERENCE
DATM.M        680.2                : datum        - DATUM ELEVATION
TDD .M        564                  : tdd          - TOTAL DEPTH DRILLER
RUN .         ONE                  : Run          - RUN NUMBER
ENG .         BILL                 : Engineer     - RECORDING ENGINEER
WIT .         JIM                  : Witness      - WITNESSED BY
MUD .         GEL                  : Mud_type     - MUD TYPE
MATR.         LIMESTONE            : Logunit      - NEUTRON MATRIX
TMAX.C        32                   : BHT          - MAXIMUM RECORDED TEMPERATURE
BHTD.M        564                  : BHTDEP       - MAXIMUM RECORDED TEMPERATURE
MATR.         1                    : LOGUNIT      - NEUTRON MATRIX
RMT .C        25                   : MDTP         - TEMPERATURE OF MUD
NEUT.         1                    : NEUTRON      - NEUTRON TYPE
RESI.         0                    : RESIST       - RESISTIVITY TYPE
RMC .OHMM     0.25                 : RMC          - RESISTIVITY OF MUD CAKE
RMF .OHMM     0.25                 : RMF          - RESISTIVITY OF MUD FILTRATE
SUFT.C        15                   : SUFT         - SURFACE TEMPERATURE
~A  DEPTH     RESD     PHID     PHIN       GR
# ...
  402.000    7.799    0.352    0.421   41.494
  402.250    7.729    0.349    0.411   40.040
  402.500    7.688    0.343    0.405   39.609
  402.750    7.605    0.337    0.398   40.264
  403.000    7.552    0.334    0.397   41.279
  403.250    7.512    0.334    0.401   43.256
  403.500    7.458    0.334    0.410   46.618
  403.750    7.433    0.334    0.413   48.115
  404.000    7.367    0.339    0.420   46.962
  404.250    7.328    0.349    0.432   48.157
  404.500    7.303    0.353    0.430   48.810
  404.750    7.237    0.358    0.418   46.877
  405.000    7.200    0.364    0.405   45.363
  405.250    7.189    0.367    0.406   47.642
  405.500    7.192    0.358    0.417   50.521
  405.750    7.181    0.354    0.413   52.380
  406.000    7.156    0.357    0.408   49.782
  406.250    7.146    0.358    0.417   46.945
  406.500    7.121    0.359    0.427   49.344
  406.750    7.124    0.362    0.433   52.045
  407.000    7.154    0.363    0.445   53.661
  407.250    7.183    0.364    0.438   54.794
  407.500    7.226    0.362    0.429   55.209
  407.750    7.256    0.351    0.436   56.101
  408.000    7.300    0.341    0.447   57.539
  408.250    7.399    0.326    0.455   60.540
  408.500    7.542    0.314    0.456   63.480
  408.750    7.717    0.298    0.452   65.398
  409.000    7.821    0.278    0.446   63.283
  409.250    7.883    0.325    0.443   62.553
  409.500    7.841    0.345    0.452   66.094
  409.750    7.598    0.350    0.457   67.110
  410.000    7.280    0.347    0.446   65.295
  410.250    7.028    0.347    0.439   64.083
  410.500    6.862    0.350    0.441   62.689
  410.750    6.774    0.347    0.444   63.825
  411.000    6.614    0.336    0.437   68.992
  411.250    6.337    0.322    0.432   74.883
  411.500    6.118    0.300    0.440   81.676
  411.750    6.040    0.269    0.472   88.048
  412.000    5.975    0.277    0.495   85.812
  412.250    5.944    0.294    0.495   77.136
  412.500    5.979    0.315    0.484   71.048
  412.750    6.061    0.314    0.475   67.910
  413.000    6.235    0.303    0.465   67.901
  413.250    6.440    0.294    0.458   68.313
  413.500    6.516    0.302    0.457   68.546
  413.750    6.481    0.311    0.450   68.959
  414.000    6.387    0.315    0.439   70.394
  414.250    6.108    0.313    0.433   77.007
  414.500    4.807    0.297    0.446   89.879
  414.750    3.740    0.287    0.474   99.381
  415.000    3.016    0.278    0.503  103.225
  415.250    2.641    0.287    0.527  103.999
  415.500    2.415    0.292    0.544  103.266
  415.750    2.314    0.294    0.558  102.417
  416.000    2.750    0.285    0.583   98.616
  416.250    3.344    0.279    0.592   87.712
  416.500    4.244    0.285    0.561   80.000
  416.750    5.218    0.303    0.522   71.564
  417.000    5.819    0.321    0.468   67.522
  417.250    6.135    0.339    0.445   65.106
  417.500    6.336    0.350    0.454   63.112
  417.750    6.399    0.355    0.450   60.815
  418.000    6.377    0.349    0.434   59.303
  418.250    6.320    0.343    0.425   58.632
  418.500    6.205    0.336    0.439   59.103
  418.750    6.160    0.331    0.457   60.059
  419.000    6.151    0.333    0.460   61.614
  419.250    6.177    0.334    0.441   63.172
  419.500    6.214    0.334    0.424   64.187
  419.750    6.275    0.335    0.412   65.502
  420.000    6.336    0.341    0.405   67.360
  420.250    6.411    0.347    0.435   66.508
  420.500    6.461    0.352    0.442   66.139
  420.750    6.524    0.337    0.428   68.176
  421.000    6.576    0.326    0.428   71.658
  421.250    6.603    0.318    0.425   73.998
  421.500    6.643    0.318    0.420   75.193
  421.750    6.632    0.318    0.429   74.703
  422.000    6.487    0.308    0.439   75.356
  422.250    6.216    0.282    0.449   77.936
  422.500    5.769    0.254    0.455   82.018
  422.750    5.435    0.231    0.465   84.179
  423.000    5.150    0.220    0.487   86.578
  423.250    5.055    0.225    0.493   88.495
  423.500    4.964    0.233    0.477   89.209
  423.750    4.929    0.230    0.468   86.792
  424.000    4.902    0.225    0.459   83.715
  424.250    4.849    0.224    0.457   85.750
  424.500    4.717    0.225    0.452   87.549
  424.750    4.115    0.227    0.455   89.347
  425.000    3.349    0.228    0.469   89.940
  425.250    3.097    0.236    0.486   89.571
  425.500    3.716    0.242    0.475   88.057
  425.750    4.327    0.248    0.461   86.664
  426.000    4.763    0.248    0.447   88.883
  426.250    5.126    0.245    0.437   91.342
  426.500    5.374    0.245    0.439   92.356
  426.750    5.396    0.245    0.448   92.106
  427.000    5.318    0.235    0.476   91.616
  427.250    5.201    0.223    0.505   91.127
  427.500    4.965    0.246    0.496   90.516
  427.750    4.740    0.251    0.480   90.206
  428.000    4.516    0.236    0.471   90.138
  428.250    4.343    0.241    0.470   90.250
  428.500    4.122    0.252    0.468   92.228
  428.750    3.855    0.247    0.496   95.048
  429.000    3.680    0.241    0.523   98.591
  429.250    3.512    0.238    0.530  101.412
  429.500    3.410    0.240    0.521  103.208
  429.750    3.568    0.240    0.503  102.358
  430.000    3.748    0.232    0.484   92.838
  430.250    3.959    0.225    0.471   93.311
  430.500    4.142    0.218    0.468   96.492
  430.750    4.310    0.231    0.469   98.891
  431.000    4.427    0.231    0.477   99.666
  431.250    4.453    0.231    0.486   98.333
  431.500    4.380    0.246    0.497   93.991
  431.750    4.088    0.250    0.485   88.505
  432.000    3.947    0.235    0.477   91.084
  432.250    3.803    0.233    0.482   95.166
  432.500    3.536    0.245    0.486   97.628
  432.750    3.325    0.253    0.491   99.365
  433.000    3.383    0.267    0.514   98.815
  433.250    3.580    0.284    0.531   96.158
  433.500    3.912    0.293    0.511   89.949
  433.750    4.093    0.292    0.488   86.269
  434.000    4.315    0.284    0.486   87.764
  434.250    4.490    0.279    0.484   87.998
  434.500    4.602    0.286    0.469   86.846
  434.750    4.434    0.291    0.454   80.877
  435.000    4.193    0.294    0.440   76.595
  435.250    4.140    0.298    0.466   72.554
  435.500    4.506    0.302    0.482   65.864
  435.750    5.169    0.296    0.326   58.873
  436.000    5.787    0.165    0.256   49.474
  436.250    6.275    0.060    0.220   48.322
  436.500    6.578    0.047    0.331   54.815
  436.750    6.705    0.139    0.376   62.389
  437.000    6.485    0.266    0.423   65.933
  437.250    5.852    0.300    0.437   67.489
  437.500    5.503    0.323    0.429   68.022
  437.750    5.243    0.324    0.418   69.579
  438.000    5.138    0.323    0.440   71.256
  438.250    5.427    0.312    0.479   71.187
  438.500    6.225    0.102    0.366   64.377
  438.750    7.141    0.034    0.233   49.020
  439.000    8.812    0.012    0.198   42.570
  439.250   10.261    0.002    0.178   46.715
  439.500   11.065   -0.003    0.232   56.998
  439.750   10.269    0.257    0.315   65.839
  440.000    8.281    0.269    0.386   67.756
  440.250    7.011    0.275    0.427   64.315
  440.500    6.048    0.290    0.426   67.739
  440.750    5.447    0.314    0.424   73.749
  441.000    5.190    0.323    0.417   78.255
  441.250    5.068    0.302    0.423   79.992
  441.500    5.031    0.289    0.442   80.405
  441.750    4.977    0.290    0.434   80.095
  442.000    4.950    0.304    0.442   76.115
  442.250    4.953    0.312    0.459   68.462
  442.500    4.954    0.317    0.460   64.841
  442.750    4.947    0.328    0.447   67.360
  443.000    4.949    0.338    0.439   71.022
  443.250    4.951    0.332    0.430   73.122
  443.500    4.953    0.328    0.453   74.558
  443.750    4.955    0.324    0.454   75.271
  444.000    4.956    0.320    0.450   75.323
  444.250    4.958    0.315    0.448   73.629
  444.500    4.913    0.308    0.468   74.222
  444.750    4.797    0.302    0.481   75.718
  445.000    4.639    0.299    0.477   77.034
  445.250    4.504    0.297    0.485   78.110
