~VERSION INFORMATION
 VERS.                 2.0:   CWLS LOG ASCII STANDARD -VERSION 2.0
 WRAP.                  NO:   ONE LINE PER DEPTH STEP
~WELL INFORMATION BLOCK
#MNEM.UNIT           DATA                    DESCRIPTION OF MNEMONIC
#---------    -------------------            -------------------------------
# Generated from Intellog Unique Number	CS_73_76/WELL/2173
WELL.         DOME PETROLEUM LTD.            : Well_name    - WELL
LOC .         00/07-19-074-04W4/0            : Location     - LOCATION
UWI .         00/07-19-074-04W4/0            : Uwi          - UNIQUE WELL ID
ENTR.         SP                             : Entered      - ENTERED BY
SRVC.         SCHLUMBERGER                   : Scn          - SERVICE COMPANY
STRT.M        250                            : top_depth    - START DEPTH
STOP.M        456                            : bot_depth    - STOP DEPTH
STEP.M        0.25                           : increment    - STEP LENGTH
 NULL. -999.2500:NULL Value
~CURVE INFORMATION BLOCK
#MNEM UNIT       ERCB CURVE CODE    CURVE DESCRIPTION
#-----------   ------------------   ----------------------------------
DEPT.M        00 001 00 00         : DEPTH        - DEPTH
ILD .OHMM     00 120 00 00         : RESD         - DEEP RESISTIVITY (DIL)
DPHI.V/V      00 890 00 00         : PHID         - DENSITY POROSITY (LIMESTONE)
NPHI.V/V      00 330 00 00         : PHIN         - NEUTRON POROSITY (LIMESTONE)
GR  .API      00 310 00 00         : GR           - GAMMA RAY
~PARAMETER INFORMATION
#MNEM.UNIT           DATA             DESCRIPTION OF MNEMONIC
#---------         -----------     ------------------------------
GL  .M        650.2                : gl           - GROUND LEVEL ELEVATION
EREF.M        654.7                : kb           - ELEVATION OF DEPTH REFERENCE
DATM.M        650.2                : datum        - DATUM ELEVATION
TDD .M        456.5                : tdd          - TOTAL DEPTH DRILLER
RUN .         ONE                  : Run          - RUN NUMBER
ENG .         BILL                 : Engineer     - RECORDING ENGINEER
WIT .         JIM                  : Witness      - WITNESSED BY
MUD .         GEL                  : Mud_type     - MUD TYPE
MATR.         LIMESTONE            : Logunit      - NEUTRON MATRIX
TMAX.C        21                   : BHT          - MAXIMUM RECORDED TEMPERATURE
BHTD.M        456.5                : BHTDEP       - MAXIMUM RECORDED TEMPERATURE
MATR.         1                    : LOGUNIT      - NEUTRON MATRIX
RMT .C        25                   : MDTP         - TEMPERATURE OF MUD
NEUT.         1                    : NEUTRON      - NEUTRON TYPE
RESI.         0                    : RESIST       - RESISTIVITY TYPE
RMC .OHMM     0.25                 : RMC          - RESISTIVITY OF MUD CAKE
RMF .OHMM     0.25                 : RMF          - RESISTIVITY OF MUD FILTRATE
SUFT.C        15                   : SUFT         - SURFACE TEMPERATURE
~A  DEPTH     RESD     PHID     PHIN       GR
# ...
  424.000    5.854    0.237    0.336   84.108
  424.250    5.963    0.259    0.332   83.512
  424.500    6.075    0.270    0.340   82.919
  424.750    6.075    0.240    0.353   81.715
  425.000    6.304    0.234    0.359   85.371
  425.250    6.304    0.234    0.361   91.454
  425.500    6.304    0.241    0.380   89.037
  425.750    5.853    0.252    0.383   79.939
  426.000    5.236    0.253    0.346   70.842
  426.250    5.639    0.254    0.337   62.350
  426.500    5.962    0.316    0.368   58.110
  426.750    6.664    0.333    0.384   57.516
  427.000    7.589    0.328    0.378   56.920
  427.250    9.309    0.321    0.383   58.753
  427.500   10.601    0.316    0.399   59.979
  427.750   14.808    0.315    0.386   55.741
  428.000   21.072    0.323    0.375   52.107
  428.250   31.704    0.326    0.368   50.905
  428.500   38.888    0.327    0.373   53.348
  428.750   41.885    0.322    0.395   55.788
  429.000   37.468    0.337    0.393   60.054
  429.250   31.118    0.339    0.382   62.490
  429.500   25.844    0.332    0.379   57.645
  429.750   23.552    0.326    0.387   52.797
  430.000   22.275    0.325    0.394   58.885
  430.250   20.300    0.319    0.394   66.183
  430.500   18.159    0.310    0.390   71.052
  430.750   17.175    0.305    0.400   72.886
  431.000   15.652    0.294    0.411   74.719
  431.250   14.264    0.286    0.416   78.984
  431.500   13.490    0.267    0.418   81.423
  431.750   12.998    0.280    0.420   80.220
  432.000   12.068    0.291    0.415   80.840
  432.250   10.997    0.298    0.405   82.676
  432.500   10.022    0.291    0.395   85.723
  432.750    8.965    0.277    0.393   92.414
  433.000    8.170    0.254    0.398  106.395
  433.250    7.174    0.234    0.401  107.623
  433.500    6.418    0.219    0.390  106.418
  433.750    5.848    0.205    0.383  109.466
  434.000    5.532    0.211    0.381  113.731
  434.250    4.948    0.212    0.399  114.955
  434.500    4.594    0.205    0.387  111.326
  434.750    4.509    0.189    0.379  110.120
  435.000    4.594    0.180    0.396  109.526
  435.250    4.594    0.176    0.408  108.929
  435.500    4.680    0.173    0.389  104.084
  435.750    4.856    0.170    0.384  102.273
  436.000    4.947    0.166    0.382  101.677
  436.250    5.040    0.185    0.374  103.511
  436.500    5.231    0.207    0.370  101.094
  436.750    5.328    0.210    0.367   92.602
  437.000    5.328    0.201    0.390   95.651
  437.250    5.230    0.191    0.414   96.878
  437.500    5.039    0.182    0.390   94.462
  437.750    4.856    0.159    0.359   98.116
  438.000    4.856    0.167    0.359  113.310
  438.250    4.766    0.185    0.383  112.109
  438.500    4.855    0.189    0.402  106.653
  438.750    4.946    0.179    0.418  106.665
  439.000    5.039    0.176    0.412  107.285
  439.250    5.133    0.182    0.398  105.474
  439.500    5.229    0.199    0.406   96.985
  439.750    5.229    0.222    0.403   92.744
  440.000    5.327    0.244    0.391   86.682
  440.250    5.427    0.237    0.369   90.341
  440.500    5.632    0.214    0.367   92.780
  440.750    5.845    0.196    0.373   92.794
  441.000    5.954    0.173    0.364   93.410
  441.250    5.954    0.189    0.362   94.031
  441.500    5.844    0.193    0.361   95.862
  441.750    5.737    0.189    0.352   98.912
  442.000    5.631    0.185    0.346  103.174
  442.250    5.631    0.181    0.348  105.615
  442.500    5.631    0.174    0.356  106.842
  442.750    5.631    0.170    0.365  100.783
  443.000    5.631    0.177    0.367   95.935
  443.250    5.630    0.190    0.358   92.908
  443.500    5.630    0.198    0.352   89.885
  443.750    5.527    0.205    0.370   85.644
  444.000    5.527    0.221    0.374   82.619
  444.250    5.526    0.227    0.359   83.239
  444.500    5.425    0.223    0.336   85.679
  444.750    5.425    0.224    0.345   87.513
  445.000    5.526    0.227    0.357   86.918
  445.250    5.630    0.244    0.371   84.501
  445.500    5.842    0.256    0.377   86.946
  445.750    5.952    0.256    0.370   89.993
  446.000    6.063    0.244    0.369   93.649
  446.250    6.292    0.230    0.360   96.088
  446.500    6.410    0.224    0.359   98.529
  446.750    6.530    0.217    0.352   94.293
  447.000    6.530    0.227    0.372   86.407
  447.250    6.410    0.275    0.401   75.485
  447.500    6.530    0.299    0.428   51.810
  447.750    6.652    0.316    0.400   46.964
  448.000    6.777    0.328    0.382   43.334
  448.250    8.159    0.328    0.387   40.917
  448.500   10.981    0.326    0.401   39.711
  448.750   14.508    0.327    0.411   36.690
  449.000   22.238    0.330    0.418   34.273
  449.250   30.491    0.341    0.420   33.068
  449.500   38.101    0.343    0.416   31.259
  449.750   41.807    0.341    0.406   29.449
  450.000   44.201    0.336    0.405   29.458
  450.250   46.731    0.338    0.403   28.866
  450.500   48.499    0.341    0.399   28.268
  450.750   49.406    0.342    0.388   27.673
  451.000   50.331    0.336    0.375   27.075
  451.250   50.330    0.328    0.373   25.875
  451.500   49.404    0.337    0.382   25.277
  451.750   48.493    0.339    0.394   24.682
  452.000   47.600    0.347    0.378   23.483
  452.250   47.599    0.348    0.373   22.280
  452.500   48.490    0.322    0.377   21.684
  452.750   48.489    0.137    0.384   21.694
  453.000   47.596    0.069    0.386   21.097
  453.250   31.633    0.016    0.375   19.896
  453.500   17.140    0.000    0.366   19.910
  453.750   12.500    0.000    0.362   19.311
  454.000   10.190    0.012    0.341   19.325
  454.250   10.190    0.018    0.272   19.336
  454.500   10.976    0.022    0.196   19.955
  454.750   12.499    0.021    0.196   19.966
  455.000   14.233    0.016    0.197   19.369
  455.250   17.459    0.011    0.196   19.989
  455.500   18.458    0.007    0.195   20.002
  455.750   18.458    0.011    0.195   20.620
  456.000   18.457    0.027    0.196   20.632
