~VERSION INFORMATION
 VERS.                 2.0:   CWLS LOG ASCII STANDARD -VERSION 2.0
 WRAP.                  NO:   ONE LINE PER DEPTH STEP
~WELL INFORMATION BLOCK
#MNEM.UNIT           DATA                    DESCRIPTION OF MNEMONIC
#---------    -------------------            -------------------------------
# Generated from Intellog Unique Number	CW_73_75/WELL/35
WELL.         IMP MARTEN 06-06               : Well_name    - WELL
LOC .         00/06-06-075-05W5/0            : Location     - LOCATION
UWI .         00/06-06-075-05W5/0            : Uwi          - UNIQUE WELL ID
ENTR.         JJ                             : Entered      - ENTERED BY
SRVC.         SCHLUMBERGER                   : Scn          - SERVICE COMPANY
DATE.         11 SEP 60                      : Date         - LOG DATE
STRT.M        731.52                         : top_depth    - START DEPTH
STOP.M        859.52                         : bot_depth    - STOP DEPTH
STEP.M        0.25                           : increment    - STEP LENGTH
 NULL. -999.2500:NULL Value
~CURVE INFORMATION BLOCK
#MNEM UNIT       ERCB CURVE CODE    CURVE DESCRIPTION
#-----------   ------------------   ----------------------------------
DEPT.M        00 001 00 00         : DEPTH        - DEPTH
DELT.US/F     00 520 00 00         : DELT         - SONIC TRAVEL TIME
ILD .OHMM     00 120 00 00         : RESD         - DEEP RESISTIVITY (DIL)
GR  .API      00 310 00 00         : GR           - GAMMA RAY
~PARAMETER INFORMATION
#MNEM.UNIT           DATA             DESCRIPTION OF MNEMONIC
#---------         -----------     ------------------------------
GL  .M        842.467              : gl           - GROUND LEVEL ELEVATION
EREF.M        846.125              : kb           - ELEVATION OF DEPTH REFERENCE
DATM.M        846.125              : datum        - DATUM ELEVATION
TDD .M        1890.98              : tdd          - TOTAL DEPTH DRILLER
RUN .         ONE                  : Run          - RUN NUMBER
ENG .         JAMES                : Engineer     - RECORDING ENGINEER
WIT .         STEPHEN              : Witness      - WITNESSED BY
BASE.         SKW                  : Branch       - HOME BASE OF LOGGING UNIT
MUD .         GEL                  : Mud_type     - MUD TYPE
MATR.         SANDSTONE            : Logunit      - NEUTRON MATRIX
TMAX.C        129                  : BHT          - MAXIMUM RECORDED TEMPERATURE
BHTD.M        1891.89              : BHTDEP       - MAXIMUM RECORDED TEMPERATURE
RMT .C        20                   : MDTP         - TEMPERATURE OF MUD
MUDD.KG/M     1188                 : MWT          - MUD DENSITY
NEUT.         1                    : NEUTRON      - NEUTRON TYPE
RESI.         0                    : RESIST       - RESISTIVITY TYPE
RM  .OHMM     2.43                 : RM           - RESISTIVITY OF MUD
RMC .OHMM     3.2                  : RMC          - RESISTIVITY OF MUD CAKE
RMF .OHMM     2.7                  : RMF          - RESISTIVITY OF MUD FILTRATE
SUFT.C        5                    : SUFT         - SURFACE TEMPERATURE
~A  DEPTH     DELT     RESD       GR
  731.520  348.026    3.781   74.090
  731.770  357.187    3.655   75.888
  732.020  360.792    3.528   72.076
  732.270  368.594    3.402   72.214
  732.520  371.904    3.406   73.117
  732.770  378.406    3.409   74.141
  733.020  380.475    3.525   73.549
  733.270  375.747    3.585   71.517
  733.520  377.343    3.645   69.979
  733.770  384.317    3.556   70.396
  734.020  387.391    3.522   71.691
  734.270  379.471    3.545   74.817
  734.520  373.798    3.642   77.227
  734.770  364.282    3.720   77.472
  735.020  386.210    3.781   81.044
  735.270  388.219    3.822   85.342
  735.520  363.869    3.808   88.919
  735.770  355.477    3.792   85.497
  736.020  361.742    3.759   82.740
  736.270  371.671    3.744   80.818
  736.520  367.121    3.693   80.393
  736.770  368.953    3.696   82.192
  737.020  355.891    3.755   83.935
  737.270  373.741    2.755   85.233
  737.520  368.717    2.832   86.195
  737.770  354.947    2.631   84.168
  738.020  363.812    2.784   83.681
  738.270  373.565    2.974   84.368
  738.520  364.877    3.071   82.668
  738.770  374.511    3.075   86.466
  739.020  375.929    3.191   86.544
  739.270  376.698    3.325   81.396
  739.520  398.094    3.366   83.194
  739.770  381.190    3.370   87.884
  740.020  400.636    3.486   89.513
  740.270  382.668    3.657   86.423
  740.520  392.362    3.941   83.833
  740.770  379.300    4.056   85.687
  741.020  372.208    3.893   88.706
  741.270  387.693    3.747   89.728
  741.520  374.099    3.584   88.526
  741.770  388.403    3.476   85.660
  742.020  406.134    3.480   84.460
  742.270  362.161    3.428   84.255
  742.520  362.102    3.377   86.721
  742.770  388.167    3.343   89.629
  743.020  417.187    3.328   85.429
  743.270  425.521    3.351   81.950
  743.520  380.603    3.504   84.082
  743.770  374.102    3.656   86.716
  744.020  330.011    3.847   88.510
  744.270  338.995    3.925   85.366
  744.520  376.053    3.873   84.778
  744.770  368.369    3.728   82.853
  745.020  376.112    3.546   81.096
  745.270  404.600    3.419   83.172
  745.520  422.745    3.424   85.582
  745.770  439.945    3.223   87.434
  746.020  375.286    3.096   88.900
  746.270  378.123    2.951   88.422
  746.520  398.868    2.899   86.387
  746.770  380.074    2.921   83.406
  747.020  411.754    3.261   83.652
  747.270  327.709    3.618   87.446
  747.520  351.232    3.976   89.857
  747.770  358.206    4.259   87.323
  748.020  330.132    4.412   79.068
  748.270  354.188    4.510   77.144
  748.520  382.026    4.476   80.611
  748.770  359.567    4.387   77.520
  749.020  372.983    4.186   78.041
  749.270  330.725    3.985   82.450
  749.520  333.916    3.802   82.915
  749.770  330.548    3.602   83.046
  750.020  362.464    3.400   83.510
  750.270  389.120    3.200   84.862
  750.520  379.900    3.055   86.604
  750.770  405.610    2.929   88.013
  751.020  368.966    2.839   86.647
  751.270  387.111    2.769   84.833
  751.520  396.095    2.698   85.798
  751.770  378.660    2.516   87.213
  752.020  395.977    2.389   87.289
  752.270  372.336    2.263   87.416
  752.520  349.877    2.099   87.437
  752.770  415.246    1.954   87.460
  753.020  398.283    1.939   86.814
  753.270  393.733    2.074   86.111
  753.520  387.704    2.245   85.520
  753.770  344.677    2.510   84.431
  754.020  320.504    2.682   86.338
  754.270  426.773    2.778   87.138
  754.520  370.447    2.819   85.603
  754.770  386.760    2.695   84.406
  755.020  397.044    2.586   85.922
  755.270  358.686    2.479   88.275
  755.520  396.749    2.500   88.244
  755.770  410.757    2.504   86.929
  756.020  407.329    2.508   83.565
  756.270  412.530    2.530   80.363
  756.520  403.192    2.609   77.326
  756.770  391.135    2.725   78.184
  757.020  402.661    2.934   82.200
  757.270  369.504    3.235   84.942
  757.520  306.204    3.630   86.073
  757.770  331.796    3.820   85.929
  758.020  337.116    3.880   86.115
  758.270  344.681    3.884   84.805
  758.520  349.351    3.814   82.879
  758.770  348.228    3.761   79.291
  759.020  350.829    3.616   79.981
  759.270  361.704    3.546   78.888
  759.520  361.172    3.587   77.132
  759.770  354.612    3.685   76.373
  760.020  349.293    3.726   80.337
  760.270  354.081    3.785   83.415
  760.520  364.247    3.845   83.214
  760.770  366.611    3.923   83.511
  761.020  358.928    4.076   85.035
  761.270  412.121    4.378   85.328
  761.520  381.388    4.829   78.684
  761.770  221.690    5.168   73.653
  762.020  208.392    5.209   69.229
  762.270  293.029    4.804   72.583
  762.520  296.516    4.361   75.493
  762.770  301.895    3.955   79.177
  763.020  310.288    3.661   80.309
  763.270  319.212    3.441   80.274
  763.520  328.374    3.185   82.849
  763.770  355.916    2.965   88.480
  764.020  388.778    2.801   89.001
  764.270  413.188    2.786   84.578
  764.520  432.692    2.846   79.266
  764.770  334.108    3.111   76.513
  765.020  357.749    3.357   75.197
  765.270  340.255    3.640   73.663
  765.520  351.367    3.812   73.353
  765.770  371.521    3.797   74.650
  766.020  377.846    3.652   79.281
  766.270  367.030    3.507   82.633
  766.520  398.355    3.418   86.541
  766.770  394.691    3.384   86.841
  767.020  373.650    3.463   84.087
  767.270  362.716    3.485   82.604
  767.520  375.778    3.621   86.959
  767.770  391.855    3.662   85.370
  768.020  382.871    3.665   83.726
  768.270  383.403    3.651   84.687
  768.520  378.498    3.635   86.428
  768.770  371.701    3.583   86.504
  769.020  381.749    3.643   86.026
  769.270  364.964    3.796   85.491
  769.520  362.896    3.931   85.789
  769.770  357.517    3.971   91.419
  770.020  329.739    3.920   93.275
  770.270  340.792    3.756   91.130
  770.520  342.447    3.518   90.484
  770.770  344.870    3.261   91.288
  771.020  374.363    2.930   92.081
  771.270  398.478    2.729   92.768
  771.520  415.204    2.639   92.898
  771.770  394.932    2.830   93.420
  772.020  393.691    3.374   91.662
  772.270  414.555    4.086   87.128
  772.520  288.487    4.630   82.705
  772.770  303.381    4.764   79.226
  773.020  337.898    4.451   81.192
  773.270  347.473    4.157   89.267
  773.520  353.738    3.881   91.509
  773.770  360.063    3.587   88.419
  774.020  367.687    3.424   85.718
  774.270  414.084    3.427   83.906
  774.520  401.909    3.637   82.539
  774.770  408.647    3.882   81.002
  775.020  329.921    4.072   77.246
  775.270  301.551    4.207   77.045
  775.520  324.602    4.211   78.125
  775.770  336.246    4.028   75.866
  776.020  346.057    3.622   75.664
  776.270  356.696    3.198   77.297
  776.520  364.557    2.923   80.928
  776.770  438.082    2.778   83.336
  777.020  501.737    2.689   83.022
  777.270  464.206    2.730   81.768
  777.520  411.013    2.790   82.287
  777.770  339.439    2.868   85.641
  778.020  450.495    2.965   85.442
  778.270  342.690    3.006   83.959
  778.520  365.800    3.010   83.093
  778.770  389.737    2.959   82.889
  779.020  386.368    2.944   84.471
  779.270  391.570    2.892   87.486
  779.520  401.440    2.858   91.172
  779.770  373.130    2.863   90.361
  780.020  361.250    2.941   89.604
  780.270  363.733    3.168   88.178
  780.520  363.260    3.414   85.480
  780.770  365.566    3.828   80.895
  781.020  344.111    4.390   76.746
  781.270  329.927    5.102   62.825
  781.520  289.796    5.813   53.626
  781.770  207.287    5.836   56.091
  782.020  213.848    5.244   69.163
  782.270  220.113    4.559   75.850
  782.520  313.261    3.930   81.366
  782.770  347.009    3.673   86.164
  783.020  335.661    3.659   86.907
  783.270  348.369    3.662   84.428
  783.520  338.381    3.741   81.563
  783.770  362.436    3.744   82.972
  784.020  342.164    3.712   85.826
  784.270  366.337    3.678   89.176
  784.520  361.255    3.589   88.863
  784.770  360.841    3.518   84.555
  785.020  366.870    3.410   83.629
  785.270  370.003    3.340   88.594
  785.520  370.003    3.307   90.446
