~VERSION INFORMATION
 VERS.                 2.0:   CWLS LOG ASCII STANDARD -VERSION 2.0
 WRAP.                  NO:   ONE LINE PER DEPTH STEP
~WELL INFORMATION BLOCK
#MNEM.UNIT           DATA                    DESCRIPTION OF MNEMONIC
#---------    -------------------            -------------------------------
# Generated from Intellog Unique Number	CW_70_72/WELL/2903
NULL.         -999.25                        : NULL_VALUE
WELL.         PETROMA ET AL RICHMOND         : Well_name    - WELL              
LOC .         07-14-070-19W4                 : Location     - LOCATION          
UWI .         00/07-14-070-19W4/0            : Uwi          - UNIQUE WELL ID    
ENTR.         MAX                            : Entered      - ENTERED BY        
SRVC.         SCHLUMBERGER                   : Scn          - SERVICE COMPANY   
DATE.         07 FEB 76                      : Date         - LOG DATE
STRT.M        335.28                         : top_depth    - START DEPTH       
STOP.M        487.78                         : bot_depth    - STOP DEPTH        
STEP.M        0.25                           : increment    - STEP LENGTH       
~CURVE INFORMATION BLOCK
#MNEM UNIT       ERCB CURVE CODE    CURVE DESCRIPTION
#-----------   ------------------   ----------------------------------
DEPT.M        00 001 00 00         : DEPTH        - DEPTH                       
ILD .OHMM     00 120 00 00         : RESD         - DEEP RESISTIVITY (DIL)      
NPHI.V/V      00 330 00 00         : PHIN         - NEUTRON POROSITY (SANDSTONE)
DPHI.V/V      00 890 00 00         : PHID         - DENSITY POROSITY (SANDSTONE)
CALI.MM       00 280 01 00         : CAL          - CALIPER                     
GR  .API      00 310 00 00         : GR           - GAMMA RAY                   
~PARAMETER INFORMATION       
#MNEM.UNIT           DATA             DESCRIPTION OF MNEMONIC
#---------         -----------     ------------------------------
GL  .M        560.497              : gl           - GROUND LEVEL ELEVATION      
EREF.M        564.185              : kb           - ELEVATION OF DEPTH REFERENCE
DATM.M        560.497              : datum        - DATUM ELEVATION             
TDD .M        513.893              : tdd          - TOTAL DEPTH DRILLER         
RUN .         ONE                  : Run          - RUN NUMBER                  
ENG .         BILL                 : Engineer     - RECORDING ENGINEER          
WIT .         JIM                  : Witness      - WITNESSED BY                
MUD .         GEL                  : Mud_type     - MUD TYPE                    
MATR.         SANDSTONE            : Logunit      - NEUTRON MATRIX              
TMAX.C        23.8889              : BHT          - MAXIMUM RECORDED TEMPERATURE
BHTD.M        513.893              : BHTDEP       - MAXIMUM RECORDED TEMPERATURE
RMT .C        18.8889              : MDTP         - TEMPERATURE OF MUD          
MUDD.KG/M     9900                 : MWT          - MUD DENSITY                 
NEUT.         1                    : NEUTRON      - NEUTRON TYPE                
RESI.         0                    : RESIST       - RESISTIVITY TYPE            
RM  .OHMM     3.74                 : RM           - RESISTIVITY OF MUD          
RMC .OHMM     1.86                 : RMC          - RESISTIVITY OF MUD CAKE     
RMF .OHMM     2.12                 : RMF          - RESISTIVITY OF MUD FILTRATE 
SUFT.C        -12.2222             : SUFT         - SURFACE TEMPERATURE         
~A  DEPTH     RESD     PHIN     PHID      CAL       GR
# ...
  408.280    3.442    0.443    0.259  148.819   86.551
  408.530    3.537    0.444    0.253  148.818   86.549
  408.780    3.537    0.444    0.249  149.332   88.060
  409.030    3.537    0.439    0.246  149.846   89.874
  409.280    3.569    0.439    0.250  149.845   92.293
  409.530    3.569    0.460    0.266  150.874   95.015
  409.780    3.505    0.488    0.275  153.450   99.856
  410.030    3.060    0.516    0.259  158.602  110.448
  410.280    2.720    0.532    0.238  166.846  119.828
  410.530    2.440    0.549    0.251  169.937  121.339
  410.780    2.249    0.568    0.254  173.027  121.942
  411.030    2.189    0.555    0.256  173.026  118.914
  411.280    2.209    0.522    0.241  173.025  117.096
  411.530    2.290    0.489    0.232  170.447  115.883
  411.780    2.418    0.462    0.216  167.354  113.762
  412.030    2.821    0.445    0.220  157.562  111.036
  412.280    3.006    0.444    0.227  152.407  105.888
  412.530    3.604    0.443    0.219  151.376   99.832
  412.780    3.737    0.441    0.213  149.828   98.317
  413.030    3.946    0.433    0.215  148.281   98.012
  413.280    4.055    0.422    0.214  147.250  100.432
  413.530    4.092    0.427    0.202  146.733  100.732
  413.780    4.092    0.434    0.184  147.247  101.335
  414.030    4.092    0.428    0.184  147.246  102.241
  414.280    4.167    0.424    0.197  147.245  104.963
  414.530    4.282    0.413    0.197  147.244  102.842
  414.780    4.361    0.408    0.195  143.120  102.538
  415.030    4.441    0.414    0.184  146.211  101.324
  415.280    4.441    0.411    0.188  148.271  102.534
  415.530    4.482    0.402    0.197  148.270  103.741
  415.780    4.401    0.404    0.206  148.269  103.437
  416.030    4.245    0.430    0.206  147.752  101.014
  416.280    4.057    0.444    0.211  146.720   95.866
  416.530    3.948    0.442    0.213  146.204   92.837
  416.780    4.169    0.452    0.207  145.687   91.927
  417.030    4.690    0.439    0.193  145.686   84.661
  417.280    5.422    0.406    0.152  146.200   69.828
  417.530    6.383    0.227    0.091  146.199   63.167
  417.780    6.989    0.251    0.072  145.683   67.099
  418.030    6.989    0.283    0.117  145.683   88.284
  418.280    6.560    0.425    0.216  145.165   94.335
  418.530    5.938    0.446    0.267  144.133   95.544
  418.780    5.375    0.444    0.269  144.132   98.266
  419.030    4.692    0.437    0.256  144.646  101.594
  419.280    3.741    0.437    0.251  145.160  103.104
  419.530    3.448    0.432    0.244  145.159   93.720
  419.780    3.511    0.431    0.226  145.158   80.400
  420.030    3.512    0.417    0.198  144.126   75.252
  420.280    3.326    0.415    0.265  141.548   77.066
  420.530    3.296    0.414    0.287  140.001   77.064
  420.780    3.418    0.401    0.284  140.000   75.851
  421.030    3.675    0.387    0.283  139.484   75.849
  421.280    4.024    0.381    0.284  138.967   76.149
  421.530    4.287    0.395    0.276  139.481   77.964
  421.780    4.568    0.409    0.276  140.511   77.054
  422.030    4.780    0.432    0.276  142.571   75.236
  422.280    4.528    0.447    0.282  147.723   80.379
  422.530    4.136    0.446    0.293  146.176   81.587
  422.780    3.743    0.430    0.287  145.144   83.704
  423.030    3.328    0.416    0.272  145.658   84.913
  423.280    3.268    0.409    0.258  146.688   83.700
  423.530    3.328    0.424    0.233  146.686   80.973
  423.780    3.420    0.434    0.215  145.655   82.485
  424.030    3.482    0.444    0.216  146.169   83.996
  424.280    3.546    0.445    0.234  145.137   84.902
  424.530    3.546    0.436    0.236  144.621   87.018
  424.780    3.546    0.435    0.236  145.135   88.227
  425.030    3.547    0.435    0.236  145.649   88.225
  425.280    3.579    0.419    0.233  147.194   88.828
  425.530    3.814    0.414    0.213  150.800   90.642
  425.780    3.991    0.409    0.205  148.222   93.061
  426.030    4.027    0.402    0.214  144.614   93.362
  426.280    4.064    0.404    0.212  142.551   91.241
  426.530    4.138    0.402    0.205  139.974   92.752
  426.780    4.253    0.395    0.197  139.972   94.566
  427.030    4.410    0.392    0.199  148.732   93.656
  427.280    4.410    0.392    0.195  148.730   93.351
  427.530    4.491    0.395    0.185  147.699   94.257
  427.780    4.699    0.395    0.191  147.182   95.163
  428.030    4.785    0.394    0.195  145.635   96.674
  428.280    4.873    0.400    0.197  143.573   95.462
  428.530    4.962    0.409    0.200  142.541   98.184
  428.780    5.146    0.402    0.200  146.147   98.787
  429.030    5.288    0.408    0.199  149.753   99.088
  429.280    5.434    0.426    0.210  149.752   97.572
  429.530    5.434    0.435    0.205  147.689   95.148
  429.780    5.288    0.439    0.203  147.688   91.817
  430.030    5.054    0.414    0.217  146.656   89.696
  430.280    4.701    0.409    0.218  140.987   89.390
  430.530    4.412    0.409    0.225  139.955   89.995
  430.780    4.104    0.428    0.229  139.954   92.716
  431.030    3.922    0.457    0.221  145.621  102.400
  431.280    3.783    0.506    0.213  161.079  110.267
  431.530    3.424    0.496    0.263  170.354  114.503
  431.780    3.273    0.513    0.269  171.899  112.684
  432.030    3.128    0.509    0.232  165.714  110.261
  432.280    2.989    0.512    0.226  164.167  110.258
  432.530    2.936    0.519    0.242  170.349  111.770
  432.780    2.936    0.503    0.229  177.047  114.189
  433.030    2.936    0.483    0.216  180.654  116.003
  433.280    2.963    0.463    0.210  180.137  118.120
  433.530    2.990    0.453    0.214  178.074  116.301
  433.780    3.017    0.438    0.209  175.497  113.575
  434.030    3.186    0.421    0.201  169.827  112.060
  434.280    3.426    0.419    0.186  164.673  110.847
  434.530    3.684    0.425    0.179  165.702  107.516
  434.780    4.070    0.416    0.166  160.033   99.341
  435.030    4.182    0.416    0.150  155.393   94.799
  435.280    4.145    0.426    0.140  161.576  104.785
  435.530    4.034    0.434    0.174  177.550  109.626
  435.780    4.034    0.420    0.164  173.426  110.834
  436.030    4.034    0.406    0.185  157.450  110.227
  436.280    4.108    0.396    0.177  155.388  113.554
  436.530    4.108    0.400    0.182  155.387  115.066
  436.780    4.222    0.416    0.183  155.385  112.945
  437.030    4.458    0.429    0.178  155.384  110.824
  437.280    4.793    0.443    0.159  154.868  105.979
  437.530    5.061    0.443    0.167  154.866   98.107
  437.780    5.248    0.426    0.185  153.835   90.236
  438.030    5.492    0.428    0.185  150.226   87.509
  438.280    5.851    0.429    0.185  146.618   82.362
  438.530    6.524    0.413    0.182  144.555   79.333
  438.780    6.951    0.397    0.189  145.585   77.212
  439.030    7.542    0.405    0.223  146.614   74.183
  439.280    8.110    0.402    0.224  146.613   73.879
  439.530    8.641    0.387    0.213  146.612   76.903
  439.780    9.207    0.386    0.206  146.611   81.139
  440.030    9.461    0.389    0.198  146.610   85.374
  440.280    9.377    0.396    0.191  146.093   89.912
  440.530    9.209    0.400    0.198  146.092   95.055
  440.780    8.643    0.398    0.194  148.152  100.804
  441.030    7.895    0.382    0.168  152.274  106.552
  441.280    6.954    0.379    0.146  155.364  110.485
  441.530    6.126    0.407    0.176  151.240  110.483
  441.780    5.646    0.401    0.175  149.694  109.876
  442.030    5.205    0.403    0.160  148.147  110.176
  442.280    5.065    0.422    0.154  148.145  109.871
  442.530    5.066    0.421    0.146  148.144  108.356
  442.780    5.066    0.419    0.142  146.597  105.630
  443.030    5.158    0.413    0.154  146.596  104.720
  443.280    5.206    0.406    0.153  146.595  105.928
  443.530    5.301    0.406    0.152  146.593  108.952
  443.780    5.254    0.412    0.154  146.592  109.556
  444.030    5.254    0.401    0.159  146.076  107.132
  444.280    5.254    0.402    0.160  146.075  106.222
  444.530    5.350    0.406    0.165  146.589  104.404
