~VERSION INFORMATION
 VERS.                 2.0:   CWLS LOG ASCII STANDARD -VERSION 2.0
 WRAP.                  NO:   ONE LINE PER DEPTH STEP
~WELL INFORMATION BLOCK
#MNEM.UNIT           DATA                    DESCRIPTION OF MNEMONIC
#---------    -------------------            -------------------------------
# Generated from Intellog Unique Number	CX_WELLS/WELL/2499
WELL.         04-02-084-15W4                 : Well_name    - WELL
LOC .         00/04-02-084-15W4/0            : Location     - LOCATION
UWI .         00/04-02-084-15W400            : Uwi          - UNIQUE WELL ID
ENTR.         JHS                            : Entered      - ENTERED BY
SRVC.         SCHLUMBERGER                   : Scn          - SERVICE COMPANY
STRT.M        76                             : top_depth    - START DEPTH
STOP.M        280.75                         : bot_depth    - STOP DEPTH
STEP.M        0.25                           : increment    - STEP LENGTH
 NULL. -999.2500:NULL Value
~CURVE INFORMATION BLOCK
#MNEM UNIT       ERCB CURVE CODE    CURVE DESCRIPTION
#-----------   ------------------   ----------------------------------
DEPT.M        00 001 00 00         : DEPTH        - DEPTH
GR  .API      00 310 00 00         : GR           - GAMMA RAY
DPHI.V/V      00 890 00 00         : PHID         - DENSITY POROSITY (SANDSTONE)
NPHI.V/V      00 330 00 00         : PHIN         - NEUTRON POROSITY (SANDSTONE)
ILD .OHMM     00 120 00 00         : RESD         - DEEP RESISTIVITY (DIL)
~PARAMETER INFORMATION
#MNEM.UNIT           DATA             DESCRIPTION OF MNEMONIC
#---------         -----------     ------------------------------
GL  .M        552.1                : gl           - GROUND LEVEL ELEVATION
EREF.M        555.8                : kb           - ELEVATION OF DEPTH REFERENCE
DATM.M        555.8                : datum        - DATUM ELEVATION
TDD .M        281                  : tdd          - TOTAL DEPTH DRILLER
RUN .         ONE                  : Run          - RUN NUMBER
ENG .         BILL                 : Engineer     - RECORDING ENGINEER
WIT .         JIM                  : Witness      - WITNESSED BY
MUD .         GEL                  : Mud_type     - MUD TYPE
MATR.         SANDSTONE            : Logunit      - NEUTRON MATRIX
TMAX.C        20                   : BHT          - MAXIMUM RECORDED TEMPERATURE
BHTD.M        281                  : BHTDEP       - MAXIMUM RECORDED TEMPERATURE
MATR.         1                    : LOGUNIT      - NEUTRON MATRIX
RMT .C        25                   : MDTP         - TEMPERATURE OF MUD
NEUT.         1                    : NEUTRON      - NEUTRON TYPE
RESI.         0                    : RESIST       - RESISTIVITY TYPE
RMC .OHMM     0.25                 : RMC          - RESISTIVITY OF MUD CAKE
RMF .OHMM     0.25                 : RMF          - RESISTIVITY OF MUD FILTRATE
SUFT.C        15                   : SUFT         - SURFACE TEMPERATURE
~A  DEPTH       GR     PHID     PHIN     RESD
# ...
  119.500   99.521    0.239    0.297   11.672
  119.750  103.078    0.237    0.324   10.933
  120.000  100.860    0.253    0.354   10.736
  120.250   95.988    0.266    0.351   11.245
  120.500   91.989    0.278    0.335   12.477
  120.750   89.343    0.287    0.324   14.145
  121.000   89.761    0.276    0.307   15.441
  121.250   96.622    0.276    0.317   15.728
  121.500  103.358    0.284    0.360   15.790
  121.750  103.119    0.294    0.364   15.488
  122.000   97.807    0.303    0.341   15.019
  122.250   93.299    0.305    0.330   14.916
  122.500   92.752    0.301    0.320   15.187
  122.750   96.852    0.296    0.330   15.480
  123.000   98.680    0.296    0.317   15.161
  123.250   96.797    0.297    0.310   14.586
  123.500   97.582    0.289    0.323   14.353
  123.750  105.799    0.278    0.346   14.381
  124.000  116.393    0.262    0.365   14.129
  124.250  118.267    0.224    0.332   13.522
  124.500  107.243    0.212    0.308   12.732
  124.750   95.759    0.224    0.295   12.014
  125.000   90.617    0.223    0.279   11.697
  125.250   90.723    0.214    0.269   11.787
  125.500   94.473    0.221    0.284   11.765
  125.750   96.113    0.214    0.322   11.246
  126.000   97.864    0.204    0.344   10.758
  126.250  105.235    0.202    0.344   10.100
  126.500  116.520    0.195    0.334    9.290
  126.750  124.672    0.175    0.324    8.411
  127.000  127.830    0.161    0.313    7.422
  127.250  131.448    0.170    0.293    6.629
  127.500  133.352    0.174    0.290    6.256
  127.750  132.503    0.178    0.333    6.047
  128.000  130.993    0.188    0.390    5.909
  128.250  131.957    0.193    0.418    5.991
  128.500  133.274    0.173    0.408    6.291
  128.750  127.800    0.134    0.356    6.415
  129.000  129.480    0.145    0.337    6.341
  129.250  135.440    0.178    0.343    6.231
  129.500  139.343    0.195    0.373    5.876
  129.750  140.501    0.196    0.412    5.343
  130.000  138.697    0.186    0.428    4.957
  130.250  136.114    0.184    0.475    4.583
  130.500  139.143    0.204    0.468    4.356
  130.750  137.274    0.231    0.443    4.491
  131.000  123.404    0.259    0.442    5.045
  131.250  104.009    0.287    0.427    5.960
  131.500   90.691    0.295    0.367    7.185
  131.750   91.376    0.284    0.312    8.677
  132.000  102.655    0.266    0.286    9.968
  132.250  113.191    0.249    0.281   10.243
  132.500  118.255    0.233    0.275    9.940
  132.750  120.895    0.221    0.274    9.586
  133.000  124.007    0.219    0.290    9.000
  133.250  126.239    0.209    0.306    8.684
  133.500  121.004    0.213    0.328    8.776
  133.750  116.857    0.236    0.351    8.876
  134.000  112.001    0.263    0.374    9.238
  134.250  105.026    0.281    0.394   10.023
  134.500  106.348    0.294    0.386   10.647
  134.750  112.681    0.307    0.338   11.680
  135.000  125.925    0.321    0.321   12.607
  135.250  136.319    0.324    0.310   13.017
  135.500  137.000    0.319    0.301   13.696
  135.750  123.277    0.331    0.320   13.900
  136.000  100.906    0.335    0.365   11.933
  136.250   98.938    0.248    0.422   10.187
  136.500   94.510    0.215    0.405    9.105
  136.750   87.098    0.241    0.369    8.763
  137.000   80.175    0.268    0.393    9.056
  137.250   74.947    0.279    0.424    9.997
  137.500   75.309    0.287    0.381   11.938
  137.750   71.487    0.303    0.356   14.681
  138.000   67.143    0.309    0.337   16.588
  138.250   65.777    0.316    0.354   17.518
  138.500   66.648    0.321    0.389   18.239
  138.750   70.345    0.312    0.389   18.742
  139.000   75.859    0.298    0.364   18.673
  139.250   74.436    0.303    0.359   17.564
  139.500   74.432    0.301    0.362   16.724
  139.750   76.481    0.288    0.353   15.831
  140.000   79.933    0.274    0.357   14.942
  140.250   81.582    0.272    0.389   14.306
  140.500   77.055    0.275    0.415   13.658
  140.750   75.083    0.269    0.423   13.031
  141.000   76.599    0.270    0.379   12.584
  141.250   76.488    0.282    0.332   12.315
  141.500   75.941    0.288    0.329   12.213
  141.750   76.202    0.281    0.348   12.253
  142.000   73.363    0.285    0.343   12.470
  142.250   69.392    0.303    0.328   13.192
  142.500   65.270    0.305    0.334   14.677
  142.750   66.722    0.315    0.337   15.900
  143.000   74.240    0.335    0.320   16.274
  143.250   81.765    0.346    0.312   16.088
  143.500   84.840    0.325    0.327   15.043
  143.750   84.122    0.222    0.313   13.477
  144.000   81.274    0.186    0.341   12.442
  144.250   80.864    0.231    0.345   11.373
  144.500   82.159    0.267    0.346   10.547
  144.750   83.381    0.266    0.362   10.116
  145.000   86.003    0.267    0.327    9.486
  145.250   88.280    0.263    0.332    8.754
  145.500   92.910    0.268    0.334    8.421
  145.750   92.544    0.271    0.316    8.170
  146.000   88.046    0.264    0.329    8.013
  146.250   86.628    0.253    0.379    8.041
  146.500   87.788    0.256    0.425    8.043
  146.750   88.123    0.273    0.501    8.168
  147.000   90.160    0.275    0.431    8.292
  147.250   88.084    0.256    0.361    8.467
  147.500   86.038    0.243    0.360    8.449
  147.750   89.888    0.242    0.358    8.151
  148.000   96.815    0.228    0.350    7.912
  148.250  108.496    0.222    0.328    7.591
  148.500  113.147    0.219    0.361    6.965
  148.750  120.871    0.215    0.431    6.377
  149.000  124.859    0.206    0.471    5.958
  149.250  120.097    0.197    0.446    5.612
  149.500  123.508    0.206    0.384    5.373
  149.750  128.458    0.222    0.357    5.367
  150.000  123.139    0.229    0.332    5.409
  150.250  114.278    0.228    0.328    5.698
  150.500  106.192    0.239    0.340    6.219
  150.750   99.583    0.264    0.344    6.883
  151.000   99.186    0.280    0.339    8.083
  151.250  103.097    0.272    0.321    9.785
  151.500  107.406    0.268    0.316   10.910
  151.750  110.547    0.273    0.320   11.228
  152.000  108.047    0.275    0.318   11.352
  152.250  103.004    0.274    0.308   11.238
  152.500  105.809    0.281    0.307   10.702
  152.750  111.584    0.288    0.350   10.023
  153.000  114.083    0.271    0.408    8.409
  153.250  112.101    0.268    0.423    7.227
  153.500  110.552    0.259    0.405    6.717
  153.750  111.328    0.227    0.403    6.453
  154.000  111.252    0.224    0.406    6.267
  154.250  112.615    0.242    0.364    6.261
  154.500  114.537    0.271    0.365    6.280
  154.750  111.924    0.275    0.387    6.251
  155.000  107.267    0.254    0.396    6.339
  155.250  104.661    0.233    0.382    6.543
  155.500  102.709    0.226    0.355    6.637
  155.750  102.676    0.230    0.364    6.830
  156.000  102.337    0.228    0.372    7.166
  156.250  101.754    0.237    0.391    7.387
  156.500   99.650    0.243    0.414    7.443
  156.750   95.956    0.229    0.425    7.409
  157.000   94.764    0.220    0.430    7.297
  157.250   97.361    0.218    0.418    7.305
  157.500   98.007    0.231    0.421    7.210
  157.750   97.905    0.233    0.391    7.154
  158.000  100.318    0.217    0.363    7.177
  158.250  102.734    0.209    0.388    7.171
  158.500   99.607    0.217    0.407    7.176
  158.750   93.066    0.224    0.400    7.275
  159.000   92.733    0.224    0.427    7.502
  159.250   95.822    0.235    0.446    7.674
  159.500   92.992    0.242    0.410    7.789
  159.750   86.701    0.233    0.357    7.895
  160.000   86.780    0.229    0.351    7.887
  160.250   87.269    0.223    0.395    7.888
  160.500   88.185    0.237    0.368    7.893
  160.750   88.859    0.247    0.332    7.895
  161.000   88.058    0.233    0.341    7.896
  161.250   86.496    0.215    0.351    7.901
  161.500   86.129    0.222    0.324    7.902
  161.750   88.205    0.245    0.285    7.889
  162.000   94.065    0.249    0.322    8.033
  162.250   95.851    0.258    0.382    7.951
  162.500   90.983    0.280    0.374    7.661
  162.750   84.234    0.286    0.324    7.675
