~VERSION INFORMATION
 VERS.                 2.0:   CWLS LOG ASCII STANDARD -VERSION 2.0
 WRAP.                  NO:   ONE LINE PER DEPTH STEP
~WELL INFORMATION BLOCK
#MNEM.UNIT           DATA                    DESCRIPTION OF MNEMONIC
#---------    -------------------            -------------------------------
# Generated from Intellog Unique Number	CS_73_76/WELL/620
WELL.         CAVALIER ET AL NIXON           : Well_name    - WELL
LOC .         00/06-09-073-14W4/0            : Location     - LOCATION
UWI .         00/06-09-073-14W4/0            : Uwi          - UNIQUE WELL ID
ENTR.         SP                             : Entered      - ENTERED BY
SRVC.         SCHLUMBERGER                   : Scn          - SERVICE COMPANY
STRT.M        310                            : top_depth    - START DEPTH
STOP.M        490                            : bot_depth    - STOP DEPTH
STEP.M        0.25                           : increment    - STEP LENGTH
 NULL. -999.2500:NULL Value
~CURVE INFORMATION BLOCK
#MNEM UNIT       ERCB CURVE CODE    CURVE DESCRIPTION
#-----------   ------------------   ----------------------------------
DEPT.M        00 001 00 00         : DEPTH        - DEPTH
ILD .OHMM     00 120 00 00         : RESD         - DEEP RESISTIVITY (DIL)
DPHI.V/V      00 890 00 00         : PHID         - DENSITY POROSITY (LIMESTONE)
NPHI.V/V      00 330 00 00         : PHIN         - NEUTRON POROSITY (LIMESTONE)
GR  .API      00 310 00 00         : GR           - GAMMA RAY
~PARAMETER INFORMATION
#MNEM.UNIT           DATA             DESCRIPTION OF MNEMONIC
#---------         -----------     ------------------------------
GL  .M        652.5                : gl           - GROUND LEVEL ELEVATION
EREF.M        656.64               : kb           - ELEVATION OF DEPTH REFERENCE
DATM.M        652.5                : datum        - DATUM ELEVATION
TDD .M        499.6                : tdd          - TOTAL DEPTH DRILLER
RUN .         ONE                  : Run          - RUN NUMBER
ENG .         BILL                 : Engineer     - RECORDING ENGINEER
WIT .         JIM                  : Witness      - WITNESSED BY
MUD .         GEL                  : Mud_type     - MUD TYPE
MATR.         LIMESTONE            : Logunit      - NEUTRON MATRIX
TMAX.C        21                   : BHT          - MAXIMUM RECORDED TEMPERATURE
BHTD.M        499.6                : BHTDEP       - MAXIMUM RECORDED TEMPERATURE
MATR.         1                    : LOGUNIT      - NEUTRON MATRIX
RMT .C        25                   : MDTP         - TEMPERATURE OF MUD
NEUT.         1                    : NEUTRON      - NEUTRON TYPE
RESI.         0                    : RESIST       - RESISTIVITY TYPE
RMC .OHMM     0.25                 : RMC          - RESISTIVITY OF MUD CAKE
RMF .OHMM     0.25                 : RMF          - RESISTIVITY OF MUD FILTRATE
SUFT.C        15                   : SUFT         - SURFACE TEMPERATURE
~A  DEPTH     RESD     PHID     PHIN       GR
# ...
  440.500    4.828    0.268    0.408   62.376
  440.750    4.828    0.275    0.417   62.372
  441.000    4.827    0.282    0.422   62.370
  441.250    4.827    0.289    0.426   61.169
  441.500    4.737    0.297    0.439   59.971
  441.750    4.826    0.302    0.447   59.967
  442.000    4.825    0.307    0.453   61.754
  442.250    4.825    0.311    0.457   63.545
  442.500    4.824    0.316    0.452   64.734
  442.750    4.823    0.318    0.446   64.731
  443.000    4.823    0.308    0.439   61.738
  443.250    4.823    0.302    0.431   59.942
  443.500    4.822    0.296    0.425   59.937
  443.750    4.732    0.290    0.419   59.934
  444.000    4.644    0.290    0.420   61.721
  444.250    4.643    0.289    0.430   63.511
  444.500    4.557    0.283    0.441   68.286
  444.750    4.472    0.282    0.453   71.271
  445.000    4.388    0.277    0.458   73.061
  445.250    4.388    0.271    0.452   77.239
  445.500    4.470    0.254    0.448   81.418
  445.750    4.470    0.238    0.445   83.803
  446.000    4.640    0.225    0.442   85.592
  446.250    4.640    0.225    0.438   86.186
  446.500    4.727    0.233    0.434   86.780
  446.750    4.816    0.222    0.432   86.776
  447.000    4.815    0.214    0.436   86.172
  447.250    4.906    0.204    0.427   85.572
  447.500    4.905    0.205    0.421   83.774
  447.750    4.904    0.212    0.416   83.772
  448.000    4.904    0.220    0.427   83.766
  448.250    4.813    0.223    0.436   84.361
  448.500    4.723    0.217    0.449   83.759
  448.750    4.635    0.213    0.464   83.158
  449.000    4.464    0.204    0.462   80.762
  449.250    4.464    0.205    0.457   78.965
  449.500    4.463    0.211    0.450   80.157
  449.750    4.380    0.217    0.447   80.750
  450.000    4.379    0.241    0.457   81.344
  450.250    4.379    0.247    0.461   80.742
  450.500    4.378    0.239    0.467   81.335
  450.750    4.461    0.231    0.469   81.928
  451.000    4.544    0.221    0.467   83.717
  451.250    4.544    0.219    0.465   84.311
  451.500    4.629    0.222    0.463   84.305
  451.750    4.629    0.219    0.469   84.303
  452.000    4.543    0.224    0.478   83.701
  452.250    4.458    0.230    0.477   84.295
  452.500    4.375    0.235    0.474   86.678
  452.750    4.135    0.232    0.473   87.870
  453.000    4.058    0.222    0.473   88.466
  453.250    3.983    0.218    0.483   86.669
  453.500    4.212    0.222    0.495   89.055
  453.750    4.373    0.236    0.507   92.635
  454.000    4.625    0.246    0.493   93.828
  454.250    4.624    0.235    0.477   91.433
  454.500    4.983    0.218    0.466   84.854
  454.750    5.271    0.187    0.461   82.461
  455.000    5.680    0.181    0.443   80.664
  455.250    6.007    0.186    0.411   81.855
  455.500    6.120    0.169    0.395   78.264
  455.750    6.120    0.139    0.383   77.065
  456.000    6.119    0.143    0.377   77.659
  456.250    6.005    0.178    0.395   80.642
  456.500    5.784    0.224    0.425   83.029
  456.750    5.467    0.229    0.443   81.829
  457.000    5.365    0.210    0.461   80.630
  457.250    5.167    0.207    0.476   80.623
  457.500    5.071    0.215    0.482   80.620
  457.750    4.977    0.236    0.485   81.214
  458.000    4.793    0.245    0.487   81.809
  458.250    4.793    0.245    0.484   83.598
  458.500    4.792    0.228    0.477   85.386
  458.750    4.792    0.212    0.470   85.382
  459.000    4.791    0.200    0.462   84.779
  459.250    4.791    0.200    0.458   84.179
  459.500    4.701    0.211    0.451   85.370
  459.750    4.701    0.223    0.448   85.962
  460.000    4.700    0.231    0.445   85.959
  460.250    4.700    0.222    0.450   84.161
  460.500    4.788    0.214    0.455   82.366
  460.750    4.788    0.215    0.449   84.750
  461.000    4.787    0.218    0.439   85.942
  461.250    4.877    0.220    0.436   86.537
  461.500    4.969    0.202    0.428   84.739
  461.750    5.062    0.169    0.424   81.747
  462.000    5.062    0.139    0.426   79.352
  462.250    5.061    0.112    0.437   78.152
  462.500    4.967    0.128    0.449   79.343
  462.750    4.874    0.153    0.455   82.327
  463.000    4.783    0.173    0.466   85.909
  463.250    4.783    0.190    0.476   87.698
  463.500    4.782    0.199    0.483   89.487
  463.750    4.872    0.194    0.482   92.469
  464.000    4.963    0.192    0.470   94.258
  464.250    5.057    0.189    0.454   95.451
  464.500    5.249    0.190    0.442   97.239
  464.750    5.348    0.195    0.431   98.430
  465.000    5.448    0.211    0.431   97.231
  465.250    5.448    0.206    0.442   95.434
  465.500    5.447    0.200    0.442   94.235
  465.750    5.447    0.188    0.432   95.424
  466.000    5.446    0.182    0.427   95.422
  466.250    5.446    0.178    0.424   95.417
  466.500    5.344    0.186    0.425   92.425
  466.750    5.147    0.196    0.429   89.431
  467.000    5.051    0.191    0.431   87.635
  467.250    4.957    0.166    0.434   87.035
  467.500    4.686    0.143    0.435   85.835
  467.750    4.513    0.124    0.436   88.220
  468.000    4.266    0.145    0.438   90.010
  468.250    3.958    0.172    0.442   91.799
  468.500    3.672    0.195    0.454   90.000
  468.750    3.221    0.205    0.466   89.400
  469.000    2.933    0.228    0.476   89.394
  469.250    2.721    0.240    0.497   89.392
  469.500    2.524    0.238    0.524   90.582
  469.750    2.298    0.233    0.550   91.176
  470.000    2.214    0.224    0.570   92.367
  470.250    2.173    0.219    0.580   93.558
  470.500    2.255    0.213    0.588   94.152
  470.750    2.385    0.211    0.589   95.340
  471.000    2.476    0.209    0.617   95.338
  471.250    2.668    0.196    0.587   94.137
  471.500    3.099    0.192    0.527   92.940
  471.750    3.340    0.184    0.482   90.545
  472.000    3.952    0.172    0.445   91.138
  472.250    4.505    0.167    0.417   92.928
  472.500    4.765    0.161    0.430   91.129
  472.750    5.231    0.171    0.440   87.539
  473.000    5.330    0.181    0.429   86.342
  473.250    5.230    0.188    0.423   85.739
  473.500    5.230    0.179    0.418   86.929
  473.750    5.229    0.175    0.423   87.523
  474.000    5.229    0.162    0.408   86.922
  474.250    5.327    0.114    0.390   79.148
  474.500    5.634    0.069    0.364   76.157
  474.750    5.848    0.038    0.351   74.360
  475.000    6.186    0.082    0.351   74.953
  475.250    6.185    0.103    0.374   77.340
  475.500    5.738    0.117    0.397   81.517
  475.750    5.424    0.131    0.416   83.905
  476.000    5.032    0.148    0.431   89.278
  476.250    4.669    0.160    0.455   91.068
  476.500    4.251    0.175    0.469   94.052
  476.750    4.095    0.182    0.484   96.438
  477.000    3.944    0.169    0.492   98.227
  477.250    3.659    0.155    0.497  100.015
  477.500    3.590    0.149    0.490  101.206
  477.750    3.523    0.155    0.485  100.605
  478.000    3.523    0.163    0.486  100.003
  478.250    3.523    0.169    0.496  101.194
  478.500    3.522    0.164    0.497  101.788
  478.750    3.522    0.160    0.495  101.187
  479.000    3.456    0.154    0.495   98.195
  479.250    3.456    0.153    0.499   94.006
  479.500    3.392    0.163    0.507   92.807
  479.750    3.391    0.166    0.511   95.790
  480.000    3.328    0.160    0.517   97.580
  480.250    3.205    0.146    0.525   97.576
  480.500    3.087    0.138    0.513   94.584
  480.750    3.030    0.133    0.503   92.787
  481.000    3.029    0.161    0.496   93.379
  481.250    3.086    0.165    0.491   93.376
  481.500    3.144    0.172    0.495   92.774
  481.750    3.264    0.162    0.496   92.770
  482.000    3.325    0.153    0.497   94.558
  482.250    3.452    0.155    0.496   96.943
  482.500    3.583    0.165    0.488   97.538
  482.750    3.719    0.175    0.467   96.339
  483.000    4.084    0.170    0.438   93.347
  483.250    4.401    0.159    0.417   90.354
  483.500    5.208    0.146    0.381   87.363
  483.750    5.937    0.130    0.339   71.223
