~VERSION INFORMATION
 VERS.                 2.0:   CWLS LOG ASCII STANDARD -VERSION 2.0
 WRAP.                  NO:   ONE LINE PER DEPTH STEP
~WELL INFORMATION BLOCK
#MNEM.UNIT           DATA                    DESCRIPTION OF MNEMONIC
#---------    -------------------            -------------------------------
# Generated from Intellog Unique Number	CC_80_83/WELL/1050
LOC .         00/04-30-083-06W4/0            : Location     - LOCATION
UWI .         00/04-30-083-06W4/0            : Uwi          - UNIQUE WELL ID
ENTR.         DW                             : Entered      - ENTERED BY
SRVC.         SCHLUMBERGER                   : Scn          - SERVICE COMPANY
STRT.M        110                            : top_depth    - START DEPTH
STOP.M        364.75                         : bot_depth    - STOP DEPTH
STEP.M        0.25                           : increment    - STEP LENGTH
 NULL. -999.2500:NULL Value
~CURVE INFORMATION BLOCK
#MNEM UNIT       ERCB CURVE CODE    CURVE DESCRIPTION
#-----------   ------------------   ----------------------------------
DEPT.M        00 001 00 00         : DEPTH        - DEPTH
GR  .API      00 310 00 00         : GR           - GAMMA RAY
DPHI.V/V      00 890 00 00         : PHID         - DENSITY POROSITY (SANDSTONE)
NPHI.V/V      00 330 00 00         : PHIN         - NEUTRON POROSITY (SANDSTONE)
ILD .OHMM     00 120 00 00         : RESD         - DEEP RESISTIVITY (DIL)
~PARAMETER INFORMATION
#MNEM.UNIT           DATA             DESCRIPTION OF MNEMONIC
#---------         -----------     ------------------------------
GL  .M        561.95               : gl           - GROUND LEVEL ELEVATION
EREF.M        566.5                : kb           - ELEVATION OF DEPTH REFERENCE
DATM.M        566.5                : datum        - DATUM ELEVATION
TDD .M        408                  : tdd          - TOTAL DEPTH DRILLER
RUN .         ONE                  : Run          - RUN NUMBER
ENG .         BILL                 : Engineer     - RECORDING ENGINEER
WIT .         JIM                  : Witness      - WITNESSED BY
MUD .         GEL                  : Mud_type     - MUD TYPE
MATR.         SANDSTONE            : Logunit      - NEUTRON MATRIX
TMAX.C        20                   : BHT          - MAXIMUM RECORDED TEMPERATURE
BHTD.M        407                  : BHTDEP       - MAXIMUM RECORDED TEMPERATURE
MATR.         1                    : LOGUNIT      - NEUTRON MATRIX
RMT .C        25                   : MDTP         - TEMPERATURE OF MUD
NEUT.         1                    : NEUTRON      - NEUTRON TYPE
RESI.         0                    : RESIST       - RESISTIVITY TYPE
RMC .OHMM     0.25                 : RMC          - RESISTIVITY OF MUD CAKE
RMF .OHMM     0.25                 : RMF          - RESISTIVITY OF MUD FILTRATE
SUFT.C        15                   : SUFT         - SURFACE TEMPERATURE
~A  DEPTH       GR     PHID     PHIN     RESD
  110.000   97.560    0.305    0.543    3.131
  110.250   96.879    0.303    0.547    3.082
  110.500   97.101    0.307    0.552    3.041
  110.750   93.794    0.311    0.560    2.972
  111.000   89.662    0.302    0.569    2.858
  111.250   89.252    0.283    0.575    2.729
  111.500   89.709    0.270    0.568    2.652
  111.750   86.242    0.251    0.550    2.651
  112.000   83.748    0.203    0.541    2.655
  112.250   86.867    0.243    0.553    2.655
  112.500   90.807    0.312    0.569    2.655
  112.750   91.886    0.314    0.569    2.659
  113.000   94.089    0.308    0.558    2.658
  113.250   96.784    0.306    0.552    2.616
  113.500   97.457    0.311    0.546    2.610
  113.750   93.999    0.308    0.543    2.603
  114.000   91.291    0.295    0.539    2.642
  114.250   92.712    0.287    0.532    2.723
  114.500   93.578    0.292    0.520    2.765
  114.750   91.656    0.283    0.502    2.900
  115.000   89.801    0.277    0.504    3.005
  115.250   91.537    0.268    0.512    3.100
  115.500   94.691    0.268    0.517    3.182
  115.750   95.420    0.274    0.524    3.227
  116.000   94.297    0.256    0.531    3.342
  116.250   93.721    0.232    0.525    3.616
  116.500   93.581    0.181    0.510    3.833
  116.750   91.841    0.203    0.507    3.936
  117.000   93.689    0.247    0.519    3.964
  117.250   99.508    0.235    0.528    3.963
  117.500  100.509    0.239    0.525    3.964
  117.750   98.558    0.254    0.523    3.909
  118.000   96.411    0.248    0.525    3.808
  118.250   94.685    0.232    0.528    3.644
  118.500   94.981    0.240    0.534    3.508
  118.750   97.404    0.268    0.526    3.484
  119.000   99.385    0.276    0.491    3.551
  119.250  100.579    0.268    0.474    3.723
  119.500   99.846    0.267    0.475    3.888
  119.750   96.430    0.270    0.465    4.164
  120.000   91.017    0.273    0.460    4.484
  120.250   84.702    0.268    0.470    4.775
  120.500   79.914    0.248    0.462    5.078
  120.750   81.115    0.237    0.454    5.107
  121.000   84.391    0.252    0.464    4.882
  121.250   86.555    0.259    0.475    4.380
  121.500   87.763    0.250    0.483    3.726
  121.750   86.702    0.251    0.495    3.242
  122.000   81.237    0.265    0.501    3.129
  122.250   75.109    0.278    0.492    3.261
  122.500   69.341    0.277    0.472    3.792
  122.750   64.372    0.272    0.446    6.257
  123.000   61.614    0.264    0.426    9.803
  123.250   61.100    0.258    0.413   12.515
  123.500   61.158    0.269    0.395   14.008
  123.750   63.847    0.279    0.387   14.077
  124.000   75.297    0.260    0.394   13.742
  124.250   82.089    0.239    0.411   12.946
  124.500   83.505    0.233    0.415   11.935
  124.750   86.981    0.234    0.403   11.352
  125.000   88.779    0.243    0.399   11.217
  125.250   87.392    0.251    0.408   11.215
  125.500   85.404    0.261    0.419   11.319
  125.750   82.830    0.273    0.415   11.735
  126.000   78.109    0.283    0.402   12.359
  126.250   77.609    0.290    0.402   13.298
  126.500   85.210    0.301    0.428   14.883
  126.750   82.999    0.327    0.475   16.623
  127.000   74.773    0.372    0.500   18.352
  127.250   66.595    0.337    0.461   19.865
  127.500   68.333    0.280    0.409   20.718
  127.750   77.401    0.281    0.395   20.892
  128.000   79.194    0.276    0.393   20.889
  128.250   79.919    0.264    0.397   20.641
  128.500   84.160    0.241    0.422   19.741
  128.750   89.650    0.233    0.433   19.167
  129.000   85.164    0.253    0.417   18.916
  129.250   70.264    0.276    0.393   18.720
  129.500   60.334    0.282    0.374   19.070
  129.750   58.516    0.286    0.367   19.383
  130.000   57.437    0.319    0.369   19.885
  130.250   50.377    0.351    0.397   22.502
  130.500   42.930    0.402    0.411   27.374
  130.750   43.476    0.408    0.394   31.695
  131.000   51.261    0.285    0.389   31.669
  131.250   61.602    0.252    0.385   26.121
  131.500   70.106    0.252    0.387   20.534
  131.750   78.439    0.236    0.411   16.518
  132.000   83.777    0.246    0.428   14.553
  132.250   80.475    0.275    0.421   14.931
  132.500   69.707    0.268    0.419   16.185
  132.750   60.167    0.278    0.397   17.005
  133.000   60.834    0.264    0.381   17.495
  133.250   69.007    0.246    0.393   17.027
  133.500   78.006    0.239    0.417   16.343
  133.750   83.221    0.243    0.430   16.166
  134.000   84.489    0.271    0.431   15.624
  134.250   87.297    0.278    0.418   14.690
  134.500   92.669    0.267    0.403   13.923
  134.750  100.377    0.246    0.400   13.505
  135.000  106.723    0.241    0.415   12.922
  135.250  108.420    0.252    0.429   12.159
  135.500  105.991    0.255    0.434   11.828
  135.750  101.811    0.246    0.446   11.380
  136.000  105.081    0.244    0.469   10.089
  136.250  108.863    0.250    0.483    9.404
  136.500  107.149    0.264    0.493    9.510
  136.750   93.845    0.329    0.508   10.012
  137.000   69.395    0.448    0.525   11.855
  137.250   58.986    0.478    0.554   15.230
  137.500   52.682    0.372    0.540   19.037
  137.750   51.067    0.317    0.478   22.131
  138.000   51.339    0.343    0.434   23.696
  138.250   50.834    0.359    0.426   24.332
  138.500   55.433    0.362    0.405   25.117
  138.750   61.598    0.343    0.387   25.142
  139.000   67.095    0.339    0.395   25.162
  139.250   71.177    0.333    0.425   24.920
  139.500   72.998    0.320    0.430   24.606
  139.750   71.375    0.314    0.414   24.003
  140.000   67.769    0.316    0.431   22.500
  140.250   67.527    0.339    0.442   21.754
  140.500   69.045    0.348    0.451   21.433
  140.750   70.419    0.358    0.464   21.026
  141.000   72.585    0.344    0.462   20.993
  141.250   74.783    0.311    0.444   21.349
  141.500   74.593    0.313    0.436   21.321
  141.750   74.923    0.306    0.437   21.078
  142.000   77.161    0.300    0.452   19.950
  142.250   79.865    0.295    0.456   18.865
  142.500   82.478    0.287    0.447   17.975
  142.750   86.813    0.274    0.441   16.313
  143.000   93.033    0.263    0.437   13.635
  143.250   96.783    0.256    0.430   10.927
  143.500   99.457    0.246    0.425    9.302
  143.750  101.371    0.270    0.424    8.371
  144.000   98.162    0.307    0.428    9.327
  144.250   90.481    0.321    0.433   12.750
  144.500   83.961    0.331    0.431   16.478
  144.750   76.393    0.337    0.413   19.380
  145.000   74.376    0.335    0.420   21.624
  145.250   72.858    0.335    0.425   22.749
  145.500   70.495    0.312    0.417   22.333
  145.750   66.886    0.281    0.418   21.297
  146.000   57.765    0.300    0.426   21.061
  146.250   48.962    0.326    0.412   21.608
  146.500   42.113    0.333    0.400   23.519
  146.750   40.686    0.331    0.386   25.833
  147.000   44.332    0.331    0.396   27.400
  147.250   49.848    0.334    0.429   27.999
  147.500   54.811    0.339    0.437   27.948
  147.750   56.466    0.335    0.443   27.236
  148.000   58.031    0.330    0.446   25.137
  148.250   61.336    0.318    0.430   22.627
  148.500   65.989    0.297    0.418   21.097
  148.750   70.270    0.286    0.416   20.112
  149.000   72.034    0.300    0.400   18.910
  149.250   70.705    0.305    0.407   19.397
  149.500   68.156    0.309    0.423   20.698
  149.750   66.264    0.309    0.422   21.706
  150.000   69.377    0.313    0.414   22.044
  150.250   75.390    0.307    0.417   21.331
  150.500   77.024    0.268    0.423   18.953
  150.750   78.558    0.245    0.416   15.285
  151.000   80.049    0.255    0.416   12.431
  151.250   81.491    0.268    0.445   10.854
  151.500   73.988    0.309    0.450   10.870
  151.750   60.550    0.350    0.419   12.166
  152.000   58.170    0.316    0.420   13.565
  152.250   60.627    0.300    0.423   15.194
  152.500   63.461    0.281    0.433   16.193
  152.750   65.121    0.282    0.436   16.506
  153.000   64.157    0.289    0.427   16.944
  153.250   61.447    0.299    0.419   18.386
