~VERSION INFORMATION
 VERS.                 2.0:   CWLS LOG ASCII STANDARD -VERSION 2.0
 WRAP.                  NO:   ONE LINE PER DEPTH STEP
~WELL INFORMATION BLOCK
#MNEM.UNIT           DATA                    DESCRIPTION OF MNEMONIC
#---------    -------------------            -------------------------------
# Generated from Intellog Unique Number	CN_94_101/WELL/3416
WELL.         PACIFIC PETROLEUM LTD.         : Well_name    - WELL
LOC .         00/07-06-095-21W4/0            : Location     - LOCATION
UWI .         00/07-06-095-21W4/0            : Uwi          - UNIQUE WELL ID
ENTR.         JOETTE                         : Entered      - ENTERED BY
SRVC.         COMPUTALOG                     : Scn          - SERVICE COMPANY
DATE.         07\27\92                       : Date         - LOG DATE
STRT.M        360                            : top_depth    - START DEPTH
STOP.M        505                            : bot_depth    - STOP DEPTH
STEP.M        0.25                           : increment    - STEP LENGTH
 NULL. -999.2500:NULL Value
~CURVE INFORMATION BLOCK
#MNEM UNIT       ERCB CURVE CODE    CURVE DESCRIPTION
#-----------   ------------------   ----------------------------------
DEPT.M        00 001 00 00         : DEPTH        - DEPTH
ILD .OHMM     00 120 00 00         : RESD         - DEEP RESISTIVITY (DIL)
GR  .API      00 310 00 00         : GR           - GAMMA RAY
NPHI.V/V      00 330 00 00         : PHIN         - NEUTRON POROSITY (SANDSTONE)
DPHI.V/V      00 890 00 00         : PHID         - DENSITY POROSITY (SANDSTONE)
~PARAMETER INFORMATION
#MNEM.UNIT           DATA             DESCRIPTION OF MNEMONIC
#---------         -----------     ------------------------------
GL  .M        807                  : gl           - GROUND LEVEL ELEVATION
EREF.M        810                  : kb           - ELEVATION OF DEPTH REFERENCE
DATM.M        810                  : datum        - DATUM ELEVATION
TDD .M        504.9                : tdd          - TOTAL DEPTH DRILLER
RUN .         ONE                  : Run          - RUN NUMBER
ENG .         JO                   : Engineer     - RECORDING ENGINEER
WIT .         TIM                  : Witness      - WITNESSED BY
MUD .         GEL                  : Mud_type     - MUD TYPE
MATR.         SANDSTONE            : Logunit      - NEUTRON MATRIX
TMAX.C        22                   : BHT          - MAXIMUM RECORDED TEMPERATURE
BHTD.M        504.9                : BHTDEP       - MAXIMUM RECORDED TEMPERATURE
RMT .C        12.2                 : MDTP         - TEMPERATURE OF MUD
MUDD.KG/M     1120                 : MWT          - MUD DENSITY
NEUT.         1                    : NEUTRON      - NEUTRON TYPE
RESI.         0                    : RESIST       - RESISTIVITY TYPE
RM  .OHMM     3.3                  : RM           - RESISTIVITY OF MUD
RMC .OHMM     3.3                  : RMC          - RESISTIVITY OF MUD CAKE
RMF .OHMM     2.2                  : RMF          - RESISTIVITY OF MUD FILTRATE
SUFT.C        4                    : SUFT         - SURFACE TEMPERATURE
~A  DEPTH     RESD       GR     PHIN     PHID
# ...
  403.500    6.069   72.716    0.453    0.196
  403.750    6.072   76.430    0.469    0.203
  404.000    5.966   77.733    0.492    0.192
  404.250    5.861   79.001    0.469    0.180
  404.500    5.760   77.251    0.442    0.183
  404.750    5.764   77.322    0.443    0.196
  405.000    5.770   73.751    0.462    0.184
  405.250    5.564   67.751    0.488    0.194
  405.500    5.465   69.643    0.489    0.217
  405.750    5.369   72.143    0.489    0.223
  406.000    5.476   72.857    0.496    0.225
  406.250    5.798   74.125    0.480    0.227
  406.500    6.257   63.250    0.453    0.184
  406.750    6.502   55.429    0.430    0.184
  407.000    6.631   56.715    0.405    0.194
  407.250    6.159   61.036    0.416    0.218
  407.500    5.508   68.410    0.437    0.231
  407.750    4.929   72.749    0.489    0.237
  408.000    4.843   70.391    0.521    0.238
  408.250    4.937   66.195    0.533    0.237
  408.500    5.327   62.606    0.556    0.232
  408.750    5.748   59.035    0.513    0.227
  409.000    5.972   60.320    0.453    0.219
  409.250    6.206   59.784    0.422    0.213
  409.500    6.331   57.427    0.400    0.206
  409.750    6.220   60.552    0.453    0.198
  410.000    5.998   66.087    0.501    0.187
  410.250    6.003   69.194    0.517    0.198
  410.500    5.899   71.693    0.476    0.214
  410.750    5.904   68.747    0.450    0.205
  411.000    5.912   72.443    0.443    0.204
  411.250    6.026   76.192    0.454    0.206
  411.500    6.034   72.603    0.462    0.214
  411.750    6.040   69.032    0.447    0.213
  412.000    6.161   67.871    0.476    0.199
  412.250    6.164   73.424    0.451    0.190
  412.500    6.408   75.924    0.445    0.211
  412.750    6.660   77.834    0.446    0.231
  413.000    6.918   65.746    0.458    0.224
  413.250    7.899   60.942    0.470    0.232
  413.500    8.204   64.049    0.405    0.223
  413.750    8.691   57.442    0.342    0.207
  414.000    7.918   50.228    0.337    0.208
  414.250    6.450   48.496    0.368    0.225
  414.500    5.663   52.192    0.470    0.237
  414.750    5.565   61.995    0.506    0.229
  415.000    5.674   69.351    0.501    0.221
  415.250    5.898   66.994    0.471    0.228
  415.500    6.363   56.727    0.460    0.237
  415.750    6.613   52.548    0.420    0.231
  416.000    6.376   61.137    0.415    0.231
  416.250    6.264   65.476    0.436    0.237
  416.500    6.270   55.209    0.433    0.225
  416.750    6.764   47.370    0.419    0.172
  417.000    6.899   49.887    0.410    0.166
  417.250    5.023   56.029    0.430    0.127
  417.500    4.494   68.243    0.556    0.224
  417.750    4.847   71.974    0.590    0.256
  418.000    4.675   73.867    0.594    0.241
  418.250    4.507   73.956    0.588    0.223
  418.500    4.428   70.974    0.578    0.215
  418.750    4.603   74.706    0.502    0.173
  419.000    4.692   75.991    0.502    0.193
  419.250    4.968   74.223    0.512    0.197
  419.500    5.360   74.901    0.510    0.230
  419.750    5.783   70.116    0.469    0.245
  420.000    6.123   66.545    0.460    0.225
  420.250    6.246   60.545    0.452    0.214
  420.500    6.614   52.706    0.414    0.195
  420.750    8.137   47.920    0.375    0.194
  421.000    7.845   52.849    0.419    0.203
  421.250    7.284   59.009    0.432    0.214
  421.500    6.518   71.829    0.448    0.220
  421.750    6.283   81.042    0.516    0.225
  422.000    5.946   78.667    0.534    0.224
  422.250    5.841   74.489    0.511    0.223
  422.500    5.741   64.829    0.461    0.214
  422.750    5.533   53.972    0.482    0.213
  423.000    5.335   55.276    0.510    0.239
  423.250    5.049   61.400    0.509    0.244
  423.500    4.962   66.328    0.500    0.234
  423.750    4.872   74.309    0.495    0.207
  424.000    4.878   81.059    0.479    0.200
  424.250    4.883   82.951    0.509    0.205
  424.500    4.886   83.023    0.512    0.223
  424.750    4.891   73.380    0.495    0.226
  425.000    4.990   68.595    0.474    0.219
  425.250    5.088   69.880    0.454    0.215
  425.500    5.189   72.380    0.442    0.215
  425.750    5.494   71.255    0.443    0.217
  426.000    6.272   65.237    0.449    0.217
  426.250    6.397   58.023    0.451    0.214
  426.500    6.056   58.094    0.453    0.212
  426.750    5.947   60.594    0.462    0.212
  427.000    5.630   68.558    0.479    0.213
  427.250    5.531   83.824    0.498    0.215
  427.500    5.638   92.395    0.495    0.212
  427.750    5.973   80.324    0.439    0.195
  428.000    6.090   70.057    0.417    0.177
  428.250    6.571   56.165    0.415    0.188
  428.500    7.498   57.450    0.424    0.218
  428.750    8.088   60.557    0.436    0.258
  429.000    8.405   53.343    0.407    0.271
  429.250    8.257   49.183    0.406    0.282
  429.500    7.670   49.861    0.430    0.140
  429.750    7.122   52.361    0.404    0.135
  430.000    6.254   56.074    0.377    0.147
  430.250    5.810   62.806    0.506    0.160
  430.500    5.599   67.145    0.526    0.168
  430.750    5.502   64.180    0.529    0.187
  431.000    5.506   71.537    0.520    0.197
  431.250    5.412   74.037    0.511    0.194
  431.500    5.419   81.411    0.493    0.182
  431.750    5.423   79.679    0.472    0.189
  432.000    5.429   76.072    0.499    0.205
  432.250    5.432   72.500    0.508    0.200
  432.500    5.439   71.357    0.523    0.199
  432.750    5.443   71.429    0.532    0.196
  433.000    5.448   72.107    0.496    0.191
  433.250    5.455   77.071    0.480    0.179
  433.500    5.459   76.517    0.530    0.180
  433.750    5.567   77.195    0.495    0.184
  434.000    5.678   82.731    0.477    0.193
  434.250    5.902   82.195    0.470    0.200
  434.500    6.249   67.071    0.478    0.199
  434.750    6.870   58.035    0.461    0.196
  435.000    7.553   53.268    0.364    0.201
  435.250    8.149   55.160    0.350    0.209
  435.500    8.628   56.446    0.355    0.214
  435.750    9.136   57.731    0.358    0.208
  436.000    9.318   58.999    0.353    0.201
  436.250    9.503   59.677    0.345    0.216
  436.500    9.513   52.463    0.336    0.236
  436.750    9.700   48.892    0.344    0.223
  437.000    9.709   50.177    0.361    0.215
  437.250   10.095   55.105    0.379    0.219
  437.500   10.099   62.498    0.390    0.219
  437.750   10.300   60.123    0.356    0.203
  438.000   10.704   57.766    0.337    0.188
  438.250   10.516   61.479    0.368    0.203
  438.500    9.233   70.657    0.392    0.222
  438.750    7.521   78.656    0.429    0.212
  439.000    6.243   82.352    0.451    0.211
  439.250    5.909   81.816    0.480    0.212
  439.500    6.027   74.603    0.507    0.209
  439.750    6.263   66.764    0.409    0.205
  440.000    6.507   59.550    0.392    0.205
  440.250    7.020   55.978    0.387    0.210
  440.500    7.579   56.050    0.393    0.213
  440.750    7.582   56.121    0.426    0.221
  441.000    7.590   66.531    0.457    0.225
  441.250    7.456   64.781    0.452    0.220
  441.500    6.670   62.423    0.448    0.221
  441.750    6.803   68.566    0.451    0.228
  442.000    7.480   75.940    0.421    0.227
  442.250    8.223   71.744    0.419    0.203
  442.500    8.873   58.459    0.432    0.244
  442.750    9.568   50.620    0.438    0.274
  443.000   12.449   45.834    0.431    0.298
  443.250   14.478   45.906    0.400    0.291
  443.500   15.330   44.763    0.354    0.191
  443.750   15.061   44.834    0.326    0.143
  444.000   12.978   43.691    0.357    0.147
  444.250   10.181   49.226    0.448    0.154
  444.500    6.749   66.314    0.522    0.189
  444.750    5.602   68.832    0.585    0.236
  445.000    5.013   68.903    0.524    0.246
  445.250    5.510   68.367    0.502    0.241
  445.500    6.056   66.617    0.495    0.218
  445.750    6.533   63.635    0.480    0.214
  446.000    6.923   58.849    0.456    0.211
  446.250    7.057   54.689    0.413    0.215
  446.500    7.199   54.135    0.386    0.212
  446.750    7.481   59.670    0.377    0.205
