~VERSION INFORMATION
 VERS.                 2.0:   CWLS LOG ASCII STANDARD -VERSION 2.0
 WRAP.                  NO:   ONE LINE PER DEPTH STEP
~WELL INFORMATION BLOCK
#MNEM.UNIT           DATA                    DESCRIPTION OF MNEMONIC
#---------    -------------------            -------------------------------
# Generated from Intellog Unique Number	CS_69_70/WELL/840
WELL.         BVX ET AL TWEEDIE              : Well_name    - WELL
LOC .         00/07-21-069-14W4/0            : Location     - LOCATION
UWI .         00/07-21-069-14W4/0            : Uwi          - UNIQUE WELL ID
ENTR.         SP                             : Entered      - ENTERED BY
SRVC.         SCHLUMBERGER                   : Scn          - SERVICE COMPANY
STRT.M        286.512                        : top_depth    - START DEPTH
STOP.M        472.262                        : bot_depth    - STOP DEPTH
STEP.M        0.25                           : increment    - STEP LENGTH
 NULL. -999.2500:NULL Value
~CURVE INFORMATION BLOCK
#MNEM UNIT       ERCB CURVE CODE    CURVE DESCRIPTION
#-----------   ------------------   ----------------------------------
DEPT.M        00 001 00 00         : DEPTH        - DEPTH
GR  .API      00 310 00 00         : GR           - GAMMA RAY
DPHI.V/V      00 890 00 00         : PHID         - DENSITY POROSITY (SANDSTONE)
NPHI.V/V      00 330 00 00         : PHIN         - NEUTRON POROSITY (SANDSTONE)
ILD .OHMM     00 120 00 00         : RESD         - DEEP RESISTIVITY (DIL)
~PARAMETER INFORMATION
#MNEM.UNIT           DATA             DESCRIPTION OF MNEMONIC
#---------         -----------     ------------------------------
GL  .M        569.9                : gl           - GROUND LEVEL ELEVATION
EREF.M        573.024              : kb           - ELEVATION OF DEPTH REFERENCE
DATM.M        569.9                : datum        - DATUM ELEVATION
TDD .M        478.536              : tdd          - TOTAL DEPTH DRILLER
RUN .         ONE                  : Run          - RUN NUMBER
ENG .         BILL                 : Engineer     - RECORDING ENGINEER
WIT .         JIM                  : Witness      - WITNESSED BY
MUD .         GEL                  : Mud_type     - MUD TYPE
MATR.         SANDSTONE            : Logunit      - NEUTRON MATRIX
TMAX.C        27.7778              : BHT          - MAXIMUM RECORDED TEMPERATURE
BHTD.M        478.536              : BHTDEP       - MAXIMUM RECORDED TEMPERATURE
MATR.         1                    : LOGUNIT      - NEUTRON MATRIX
RMT .C        25                   : MDTP         - TEMPERATURE OF MUD
NEUT.         1                    : NEUTRON      - NEUTRON TYPE
RESI.         0                    : RESIST       - RESISTIVITY TYPE
RMC .OHMM     0.25                 : RMC          - RESISTIVITY OF MUD CAKE
RMF .OHMM     0.25                 : RMF          - RESISTIVITY OF MUD FILTRATE
SUFT.C        15                   : SUFT         - SURFACE TEMPERATURE
~A  DEPTH       GR     PHID     PHIN     RESD
# ...
  373.512   81.249    0.233    0.470    3.166
  373.762   77.509    0.216    0.419    3.285
  374.012   81.142    0.203    0.388    3.384
  374.262   84.466    0.188    0.411    3.454
  374.512   85.974    0.244    0.451    3.451
  374.762   86.841    0.282    0.471    3.366
  375.012   87.982    0.280    0.474    3.192
  375.262   91.010    0.293    0.473    3.081
  375.512   93.154    0.306    0.472    2.943
  375.762   95.359    0.306    0.467    2.865
  376.012   94.989    0.300    0.472    2.850
  376.262   90.954    0.295    0.479    2.884
  376.512   89.528    0.302    0.480    2.935
  376.762   92.696    0.287    0.470    2.975
  377.012   95.823    0.274    0.460    3.044
  377.262   97.684    0.268    0.455    3.119
  377.512   97.731    0.262    0.454    3.230
  377.762   96.023    0.251    0.453    3.338
  378.012   94.932    0.244    0.450    3.418
  378.262   98.307    0.235    0.463    3.585
  378.512  103.821    0.230    0.456    3.660
  378.762  108.237    0.218    0.450    3.746
  379.012  110.862    0.223    0.450    3.825
  379.262  111.542    0.218    0.454    3.963
  379.512  109.061    0.226    0.465    4.104
  379.762  107.866    0.221    0.473    4.151
  380.012  103.906    0.211    0.474    4.179
  380.262  101.280    0.222    0.472    4.186
  380.512  101.134    0.229    0.471    4.161
  380.762  102.075    0.237    0.472    4.091
  381.012  103.018    0.235    0.478    4.034
  381.262  103.984    0.209    0.468    4.038
  381.512  102.995    0.196    0.453    4.292
  381.762  100.354    0.183    0.442    4.525
  382.012   99.519    0.156    0.400    4.790
  382.262  104.039    0.142    0.395    4.983
  382.512  107.884    0.176    0.414    5.186
  382.762  109.985    0.202    0.440    5.237
  383.012  111.549    0.196    0.448    5.174
  383.262  113.645    0.205    0.441    5.083
  383.512  115.365    0.195    0.445    4.871
  383.762  116.732    0.183    0.451    4.785
  384.012  118.007    0.185    0.451    4.915
  384.262  118.965    0.190    0.459    4.983
  384.512  119.750    0.196    0.468    5.014
  384.762  119.769    0.206    0.461    5.023
  385.012  117.864    0.203    0.453    5.079
  385.262  115.147    0.203    0.461    5.169
  385.512  116.504    0.199    0.463    5.293
  385.762  117.915    0.186    0.466    5.456
  386.012  118.287    0.181    0.479    5.570
  386.262  117.993    0.187    0.471    5.610
  386.512  117.453    0.181    0.463    5.505
  386.762  117.040    0.188    0.463    5.341
  387.012  116.426    0.203    0.467    5.216
  387.262  116.374    0.209    0.458    5.100
  387.512  116.404    0.204    0.456    5.012
  387.762  117.247    0.217    0.463    5.036
  388.012  118.376    0.196    0.471    5.149
  388.262  112.172    0.185    0.466    5.220
  388.512  107.055    0.178    0.437    5.299
  388.762  111.786    0.182    0.412    5.368
  389.012  117.619    0.163    0.424    5.411
  389.262  120.304    0.184    0.441    5.377
  389.512  123.109    0.204    0.457    5.373
  389.762  115.860    0.216    0.464    5.300
  390.012  116.215    0.215    0.457    5.103
  390.262  118.933    0.204    0.470    4.948
  390.512  116.563    0.198    0.473    4.861
  390.762  118.936    0.200    0.471    4.871
  391.012  118.007    0.210    0.486    4.909
  391.262  117.999    0.220    0.483    4.833
  391.512  123.135    0.234    0.503    4.225
  391.762  128.055    0.245    0.576    3.302
  392.012  127.893    0.230    0.596    2.690
  392.262  124.371    0.260    0.581    2.220
  392.512  119.000    0.239    0.566    1.967
  392.762  115.308    0.219    0.554    1.816
  393.012  111.477    0.221    0.556    1.853
  393.262  108.277    0.232    0.536    2.059
  393.512  109.211    0.210    0.520    2.317
  393.762  109.162    0.202    0.501    2.542
  394.012  107.939    0.208    0.484    2.780
  394.262  106.471    0.234    0.468    3.144
  394.512  106.003    0.245    0.451    3.410
  394.762  106.140    0.227    0.453    3.613
  395.012  106.789    0.218    0.461    3.731
  395.262  106.633    0.212    0.470    3.756
  395.512  104.848    0.205    0.470    3.702
  395.762  102.747    0.196    0.463    3.800
  396.012  100.249    0.187    0.462    3.999
  396.262   98.933    0.203    0.475    4.188
  396.512   97.570    0.230    0.475    4.167
  396.762   95.699    0.255    0.470    3.924
  397.012   94.714    0.228    0.460    3.674
  397.262   94.919    0.196    0.459    3.578
  397.512   93.376    0.151    0.471    3.606
  397.762   89.654    0.177    0.482    3.711
  398.012   85.499    0.267    0.482    3.675
  398.262   82.977    0.296    0.472    3.495
  398.512   81.357    0.307    0.463    3.291
  398.762   79.094    0.305    0.449    3.056
  399.012   75.455    0.298    0.433    2.928
  399.262   72.475    0.293    0.425    2.847
  399.512   70.488    0.307    0.424    2.800
  399.762   68.934    0.294    0.430    2.732
  400.012   68.082    0.289    0.435    2.676
  400.262   65.745    0.307    0.438    2.664
  400.512   62.106    0.310    0.440    2.676
  400.762   58.722    0.285    0.433    2.727
  401.012   54.212    0.210    0.398    2.854
  401.262   50.740    0.147    0.351    3.003
  401.512   50.888    0.140    0.312    3.176
  401.762   52.899    0.189    0.325    3.439
  402.012   52.605    0.195    0.338    3.757
  402.262   52.455    0.065    0.178    4.070
  402.512   54.746    0.045    0.163    4.527
  402.762   56.250    0.074    0.190    5.028
  403.012   57.441    0.121    0.214    5.825
  403.262   59.003    0.110    0.235    6.816
  403.512   61.823    0.062    0.171    7.468
  403.762   64.538    0.077    0.253    8.002
  404.012   67.472    0.156    0.286    9.893
  404.262   70.388    0.222    0.324    9.901
  404.512   72.433    0.278    0.372    8.219
  404.762   74.137    0.306    0.414    5.742
  405.012   75.379    0.320    0.432    4.962
  405.262   76.766    0.318    0.431    4.212
  405.512   77.064    0.313    0.456    3.616
  405.762   75.917    0.311    0.470    3.306
  406.012   75.002    0.311    0.457    3.119
  406.262   74.333    0.321    0.463    2.984
  406.512   74.581    0.314    0.458    2.867
  406.762   74.743    0.307    0.452    2.770
  407.012   75.502    0.316    0.448    2.699
  407.262   76.340    0.295    0.449    2.652
  407.512   77.749    0.262    0.467    2.642
  407.762   80.228    0.252    0.476    2.640
  408.012   82.527    0.267    0.477    2.675
  408.262   84.395    0.292    0.472    2.712
  408.512   85.645    0.304    0.467    2.739
  408.762   87.790    0.296    0.461    2.799
  409.012   91.280    0.296    0.457    2.841
  409.262   96.774    0.296    0.457    2.877
  409.512  101.673    0.278    0.456    2.946
  409.762  107.157    0.252    0.449    3.081
  410.012  109.845    0.233    0.445    3.224
  410.262  110.541    0.218    0.479    3.404
  410.512  105.535    0.237    0.504    3.551
  410.762  100.144    0.257    0.518    3.610
  411.012   96.049    0.275    0.502    3.602
  411.262   91.977    0.284    0.492    3.652
  411.512   90.276    0.270    0.484    3.704
  411.762   94.306    0.256    0.476    3.744
  412.012   98.422    0.247    0.473    3.764
  412.262  102.092    0.249    0.489    3.930
  412.512  105.360    0.256    0.465    4.048
  412.762  107.674    0.242    0.457    4.164
  413.012  109.091    0.216    0.450    4.220
  413.262  112.659    0.200    0.487    4.221
  413.512  116.339    0.211    0.520    4.078
  413.762  118.746    0.216    0.549    3.833
  414.012  119.796    0.232    0.571    3.625
  414.262  120.892    0.238    0.545    3.442
  414.512  122.213    0.223    0.533    3.279
  414.762  123.174    0.239    0.529    3.206
  415.012  123.242    0.246    0.524    3.192
  415.262  122.431    0.242    0.523    3.220
  415.512  120.785    0.226    0.534    3.256
  415.762  119.371    0.213    0.545    3.260
  416.012  117.865    0.204    0.549    3.166
  416.262  119.533    0.213    0.552    3.073
  416.512  120.750    0.228    0.557    2.980
  416.762  120.958    0.237    0.566    2.900
