~VERSION INFORMATION
 VERS.                 2.0:   CWLS LOG ASCII STANDARD -VERSION 2.0
 WRAP.                  NO:   ONE LINE PER DEPTH STEP
~WELL INFORMATION BLOCK
#MNEM.UNIT           DATA                    DESCRIPTION OF MNEMONIC
#---------    -------------------            -------------------------------
# Generated from Intellog Unique Number	CS_67_68/WELL/771
WELL.         FISHER CREEK                   : Well_name    - WELL
LOC .         00/07-15-068-06W4/0            : Location     - LOCATION
UWI .         00/07-15-068-06W4/0            : Uwi          - UNIQUE WELL ID
ENTR.         SP                             : Entered      - ENTERED BY
SRVC.         SCHLUMBERGER                   : Scn          - SERVICE COMPANY
STRT.M        350                            : top_depth    - START DEPTH
STOP.M        580                            : bot_depth    - STOP DEPTH
STEP.M        0.25                           : increment    - STEP LENGTH
 NULL. -999.2500:NULL Value
~CURVE INFORMATION BLOCK
#MNEM UNIT       ERCB CURVE CODE    CURVE DESCRIPTION
#-----------   ------------------   ----------------------------------
DEPT.M        00 001 00 00         : DEPTH        - DEPTH
ILD .OHMM     00 120 00 00         : RESD         - DEEP RESISTIVITY (DIL)
DPHI.V/V      00 890 00 00         : PHID         - DENSITY POROSITY (LIMESTONE)
NPHI.V/V      00 330 00 00         : PHIN         - NEUTRON POROSITY (LIMESTONE)
GR  .API      00 310 00 00         : GR           - GAMMA RAY
~PARAMETER INFORMATION
#MNEM.UNIT           DATA             DESCRIPTION OF MNEMONIC
#---------         -----------     ------------------------------
GL  .M        694.03               : gl           - GROUND LEVEL ELEVATION
EREF.M        697.03               : kb           - ELEVATION OF DEPTH REFERENCE
DATM.M        694.03               : datum        - DATUM ELEVATION
TDD .M        591                  : tdd          - TOTAL DEPTH DRILLER
RUN .         ONE                  : Run          - RUN NUMBER
ENG .         BILL                 : Engineer     - RECORDING ENGINEER
WIT .         JIM                  : Witness      - WITNESSED BY
MUD .         GEL                  : Mud_type     - MUD TYPE
MATR.         LIMESTONE            : Logunit      - NEUTRON MATRIX
TMAX.C        23.2                 : BHT          - MAXIMUM RECORDED TEMPERATURE
BHTD.M        591                  : BHTDEP       - MAXIMUM RECORDED TEMPERATURE
MATR.         1                    : LOGUNIT      - NEUTRON MATRIX
RMT .C        25                   : MDTP         - TEMPERATURE OF MUD
NEUT.         1                    : NEUTRON      - NEUTRON TYPE
RESI.         0                    : RESIST       - RESISTIVITY TYPE
RMC .OHMM     0.25                 : RMC          - RESISTIVITY OF MUD CAKE
RMF .OHMM     0.25                 : RMF          - RESISTIVITY OF MUD FILTRATE
SUFT.C        15                   : SUFT         - SURFACE TEMPERATURE
~A  DEPTH     RESD     PHID     PHIN       GR
  350.000    2.596    0.246    0.496  106.255
  350.250    2.583    0.262    0.501  106.619
  350.500    2.546    0.261    0.500  104.547
  350.750    2.500    0.244    0.501  101.074
  351.000    2.482    0.257    0.522   98.453
  351.250    2.479    0.271    0.538   96.259
  351.500    2.480    0.275    0.525   99.305
  351.750    2.505    0.272    0.520  101.680
  352.000    2.559    0.258    0.547  102.471
  352.250    2.648    0.260    0.558  101.678
  352.500    2.735    0.270    0.531  101.190
  352.750    2.847    0.258    0.512  103.078
  353.000    2.929    0.265    0.516  104.540
  353.250    2.964    0.274    0.536  106.854
  353.500    2.993    0.284    0.545  107.767
  353.750    3.018    0.292    0.529  104.354
  354.000    3.082    0.253    0.515  102.587
  354.250    3.202    0.233    0.503  101.002
  354.500    3.263    0.218    0.494  100.148
  354.750    3.333    0.229    0.485   98.990
  355.000    3.379    0.239    0.484   97.710
  355.250    3.400    0.237    0.493   96.125
  355.500    3.422    0.246    0.506   96.063
  355.750    3.410    0.256    0.520   98.987
  356.000    3.393    0.263    0.528  102.093
  356.250    3.364    0.267    0.538  102.032
  356.500    3.365    0.263    0.545   99.289
  356.750    3.367    0.247    0.514  103.127
  357.000    3.374    0.234    0.496  107.939
  357.250    3.408    0.229    0.509  109.462
  357.500    3.423    0.242    0.526  108.973
  357.750    3.457    0.247    0.529  106.170
  358.000    3.504    0.233    0.495  103.793
  358.250    3.580    0.247    0.481  102.269
  358.500    3.581    0.259    0.474   99.832
  358.750    3.510    0.261    0.484   94.347
  359.000    3.126    0.248    0.494  103.485
  359.250    3.025    0.238    0.484  109.638
  359.500    2.948    0.227    0.476  106.165
  359.750    2.883    0.226    0.479  100.376
  360.000    2.864    0.245    0.503   98.243
  360.250    2.881    0.236    0.514   98.912
  360.500    3.010    0.235    0.502   97.266
  360.750    3.338    0.227    0.495   93.062
  361.000    3.830    0.098    0.517   84.897
  361.250    4.304    0.191    0.320   74.173
  361.500    4.910    0.257    0.309   64.181
  361.750    5.375    0.302    0.307   80.264
  362.000    5.818    0.296    0.352   87.270
  362.250    6.032    0.288    0.394   92.326
  362.500    5.979    0.287    0.445   82.090
  362.750    5.871    0.298    0.385   62.288
  363.000    5.574    0.304    0.358   48.518
  363.250    5.352    0.305    0.341   52.600
  363.500    5.196    0.307    0.357   60.885
  363.750    5.055    0.308    0.363   67.220
  364.000    5.030    0.310    0.377   66.671
  364.250    5.022    0.312    0.397   56.557
  364.500    4.978    0.318    0.389   47.173
  364.750    4.944    0.324    0.380   42.847
  365.000    4.919    0.322    0.373   48.390
  365.250    4.912    0.318    0.365   53.507
  365.500    4.914    0.321    0.373   58.076
  365.750    4.973    0.322    0.383   63.254
  366.000    5.070    0.304    0.397   69.650
  366.250    5.178    0.294    0.406   78.484
  366.500    5.328    0.276    0.394   88.536
  366.750    5.525    0.258    0.383   94.993
  367.000    5.706    0.240    0.385   97.856
  367.250    5.972    0.215    0.394   95.296
  367.500    6.192    0.232    0.402   93.590
  367.750    6.230    0.252    0.409   92.858
  368.000    6.083    0.263    0.411   92.492
  368.250    5.873    0.275    0.404   90.907
  368.500    5.757    0.289    0.398   88.773
  368.750    5.695    0.297    0.399   88.285
  369.000    5.731    0.304    0.410   91.818
  369.250    5.799    0.313    0.411   95.900
  369.500    5.845    0.298    0.397   97.117
  369.750    5.925    0.293    0.392   92.730
  370.000    6.007    0.281    0.386   87.246
  370.250    6.032    0.256    0.352   83.224
  370.500    5.957    0.234    0.359   88.036
  370.750    5.784    0.225    0.393   91.386
  371.000    5.733    0.257    0.389   86.268
  371.250    5.683    0.280    0.380   82.124
  371.500    5.665    0.289    0.387   86.937
  371.750    5.668    0.268    0.389   93.394
  372.000    5.702    0.252    0.392   99.790
  372.250    5.770    0.238    0.406  102.592
  372.500    5.784    0.247    0.414   98.875
  372.750    5.648    0.265    0.424   97.839
  373.000    5.362    0.278    0.435   99.178
  373.250    5.081    0.288    0.440   86.627
  373.500    4.869    0.329    0.424   70.420
  373.750    4.727    0.362    0.403   47.145
  374.000    4.582    0.360    0.397   54.090
  374.250    4.516    0.354    0.420   56.953
  374.500    4.510    0.350    0.435   58.719
  374.750    4.529    0.345    0.417   62.922
  375.000    4.557    0.340    0.405   69.745
  375.250    4.629    0.331    0.411   75.410
  375.500    4.763    0.316    0.428   79.309
  375.750    4.892    0.307    0.427   82.354
  376.000    5.044    0.296    0.421   87.228
  376.250    5.190    0.279    0.423   91.735
  376.500    5.381    0.264    0.434   93.867
  376.750    5.611    0.256    0.419   93.683
  377.000    5.752    0.255    0.418   95.267
  377.250    5.931    0.220    0.408   98.799
  377.500    5.967    0.190    0.395  101.784
  377.750    5.959    0.162    0.386  105.317
  378.000    5.984    0.222    0.408  109.155
  378.250    5.943    0.247    0.434  105.559
  378.500    5.803    0.282    0.462   89.901
  378.750    5.366    0.314    0.483   78.202
  379.000    5.057    0.328    0.420   65.651
  379.250    4.865    0.335    0.396   62.725
  379.500    4.750    0.339    0.412   63.395
  379.750    4.655    0.342    0.430   61.323
  380.000    4.571    0.344    0.439   58.641
  380.250    4.448    0.347    0.429   60.895
  380.500    4.424    0.351    0.421   63.026
  380.750    4.402    0.356    0.411   63.330
  381.000    4.404    0.361    0.402   62.598
  381.250    4.423    0.362    0.402   63.999
  381.500    4.434    0.358    0.402   66.252
  381.750    4.495    0.342    0.387   67.897
  382.000    4.573    0.330    0.386   67.835
  382.250    4.759    0.321    0.410   64.544
  382.500    5.057    0.315    0.411   70.209
  382.750    5.282    0.304    0.406   75.570
  383.000    5.476    0.292    0.403   80.383
  383.250    5.668    0.280    0.393   84.403
  383.500    5.799    0.270    0.386   83.854
  383.750    5.968    0.261    0.384   81.051
  384.000    6.027    0.256    0.393   73.921
  384.250    6.019    0.279    0.389   66.366
  384.500    5.577    0.308    0.379   59.968
  384.750    5.138    0.327    0.392   57.713
  385.000    4.933    0.344    0.409   56.189
  385.250    4.890    0.349    0.415   56.066
  385.500    4.948    0.334    0.395   58.198
  385.750    5.091    0.329    0.394   59.416
  386.000    5.279    0.328    0.399   62.644
  386.250    5.473    0.326    0.399   69.284
  386.500    5.664    0.310    0.400   77.204
  386.750    5.785    0.303    0.398   82.077
  387.000    5.931    0.297    0.400   85.976
  387.250    6.023    0.293    0.411   80.735
  387.500    6.083    0.291    0.396   78.176
  387.750    6.121    0.296    0.378   87.253
  388.000    6.159    0.302    0.403   93.710
  388.250    6.208    0.304    0.430   96.817
  388.500    6.246    0.308    0.423   97.303
  388.750    6.238    0.308    0.418   89.930
  389.000    6.241    0.301    0.427   85.543
  389.250    6.210    0.281    0.451   86.273
  389.500    6.167    0.265    0.445   86.334
  389.750    6.170    0.245    0.423   85.175
  390.000    6.150    0.242    0.413   81.763
  390.250    6.188    0.292    0.431   78.472
  390.500    6.321    0.309    0.471   73.475
  390.750    6.516    0.314    0.453   73.474
  391.000    7.282    0.310    0.444   78.774
  391.250    8.560    0.289    0.456   75.179
  391.500    9.783    0.220    0.381   58.606
  391.750   10.750    0.081    0.265   51.843
  392.000   10.636    0.094    0.202   59.275
  392.250    9.368    0.206    0.193   65.184
  392.500    8.190    0.288    0.272   69.509
  392.750    6.857    0.302    0.356   74.748
  393.000    6.029    0.307    0.440   78.159
  393.250    5.789    0.309    0.456   81.448
