~VERSION INFORMATION
 VERS.                 2.0:   CWLS LOG ASCII STANDARD -VERSION 2.0
 WRAP.                  NO:   ONE LINE PER DEPTH STEP
~WELL INFORMATION BLOCK
#MNEM.UNIT           DATA                    DESCRIPTION OF MNEMONIC
#---------    -------------------            -------------------------------
# Generated from Intellog Unique Number	CW_70_72/WELL/2902
NULL.         -999.25                        : NULL_VALUE
WELL.         CHEVRON GAMBLER                : Well_name    - WELL              
LOC .         06-33-070-21W4                 : Location     - LOCATION          
UWI .         00/06-33-070-21W4/0            : Uwi          - UNIQUE WELL ID    
ENTR.         MAX                            : Entered      - ENTERED BY        
SRVC.         SCHLUMBERGER                   : Scn          - SERVICE COMPANY   
DATE.         01 FEB 76                      : Date         - LOG DATE
STRT.M        405.384                        : top_depth    - START DEPTH       
STOP.M        588.384                        : bot_depth    - STOP DEPTH        
STEP.M        0.25                           : increment    - STEP LENGTH       
~CURVE INFORMATION BLOCK
#MNEM UNIT       ERCB CURVE CODE    CURVE DESCRIPTION
#-----------   ------------------   ----------------------------------
DEPT.M        00 001 00 00         : DEPTH        - DEPTH                       
ILD .OHMM     00 120 00 00         : RESD         - DEEP RESISTIVITY (DIL)      
NPHI.V/V      00 330 00 00         : PHIN         - NEUTRON POROSITY (SANDSTONE)
DPHI.V/V      00 890 00 00         : PHID         - DENSITY POROSITY (SANDSTONE)
CALI.MM       00 280 01 00         : CAL          - CALIPER                     
GR  .API      00 310 00 00         : GR           - GAMMA RAY                   
~PARAMETER INFORMATION       
#MNEM.UNIT           DATA             DESCRIPTION OF MNEMONIC
#---------         -----------     ------------------------------
GL  .M        651.358              : gl           - GROUND LEVEL ELEVATION      
EREF.M        654.71               : kb           - ELEVATION OF DEPTH REFERENCE
DATM.M        651.358              : datum        - DATUM ELEVATION             
TDD .M        586.74               : tdd          - TOTAL DEPTH DRILLER         
RUN .         ONE                  : Run          - RUN NUMBER                  
ENG .         BILL                 : Engineer     - RECORDING ENGINEER          
WIT .         JIM                  : Witness      - WITNESSED BY                
MUD .         GEL                  : Mud_type     - MUD TYPE                    
MATR.         SANDSTONE            : Logunit      - NEUTRON MATRIX              
TMAX.C        23.8889              : BHT          - MAXIMUM RECORDED TEMPERATURE
BHTD.M        586.74               : BHTDEP       - MAXIMUM RECORDED TEMPERATURE
RMT .C        14.4444              : MDTP         - TEMPERATURE OF MUD          
MUDD.KG/M     9200                 : MWT          - MUD DENSITY                 
NEUT.         1                    : NEUTRON      - NEUTRON TYPE                
RESI.         0                    : RESIST       - RESISTIVITY TYPE            
RM  .OHMM     3.72                 : RM           - RESISTIVITY OF MUD          
RMC .OHMM     3.3                  : RMC          - RESISTIVITY OF MUD CAKE     
RMF .OHMM     6.4                  : RMF          - RESISTIVITY OF MUD FILTRATE 
SUFT.C        -20.5556             : SUFT         - SURFACE TEMPERATURE         
~A  DEPTH     RESD     PHIN     PHID      CAL       GR
  405.384    2.554    0.546    0.235  217.897  101.327
  405.634    2.552    0.532    0.230  220.943  101.016
  405.884    2.506    0.521    0.209  218.374  100.402
  406.134    2.506    0.521    0.200  215.294   99.489
  406.384    2.503    0.581    0.194  212.723   98.575
  406.634    2.503    0.597    0.190  211.688   99.469
  406.884    2.733    0.538    0.191  210.649  100.062
  407.134    2.684    0.526    0.204  210.120   99.752
  407.384    2.707    0.541    0.211  210.617   97.932
  407.634    2.729    0.539    0.215  210.597   95.510
  407.884    2.802    0.506    0.209  208.028   91.882
  408.134    2.928    0.483    0.234  204.439   84.635
  408.384    3.257    0.440    0.248  194.717   77.387
  408.634    3.824    0.420    0.251  192.658   70.139
  408.884    4.528    0.421    0.237  191.623   63.797
  409.134    4.904    0.419    0.227  192.114   60.468
  409.384    5.217    0.403    0.232  192.611   58.648
  409.634    5.404    0.382    0.225  193.103   56.527
  409.884    5.548    0.376    0.215  193.596   54.711
  410.134    5.902    0.382    0.196  193.580   55.000
  410.384    6.114    0.380    0.193  193.566   56.198
  410.634    6.389    0.362    0.185  193.548   57.093
  410.884    6.737    0.355    0.168  193.529   57.085
  411.134    7.040    0.362    0.209  193.515   56.168
  411.384    7.228    0.369    0.221  194.011   55.857
  411.634    7.223    0.448    0.228  195.015   53.135
  411.884    7.091    0.453    0.242  197.040   54.933
  412.134    6.658    0.373    0.236  197.024   57.938
  412.384    5.924    0.398    0.221  194.963   61.550
  412.634    5.414    0.419    0.221  193.417   69.079
  412.884    5.129    0.437    0.222  192.380   75.703
  413.134    4.902    0.448    0.222  191.341   78.107
  413.384    4.685    0.448    0.220  191.325   76.287
  413.634    4.478    0.444    0.206  191.820   77.482
  413.884    4.204    0.458    0.175  194.868   80.490
  414.134    4.053    0.473    0.250  198.931   85.607
  414.384    3.980    0.479    0.254  200.962   85.295
  414.634    4.013    0.466    0.256  205.542   87.999
  414.884    4.157    0.469    0.234  210.122   91.608
  415.134    4.344    0.456    0.223  208.061   92.502
  415.384    4.622    0.437    0.240  203.446   90.684
  415.634    5.142    0.424    0.218  203.944   90.070
  415.884    5.928    0.417    0.205  209.033   89.761
  416.134    6.958    0.430    0.200  204.932   84.927
  416.384    8.772    0.453    0.262  195.722   72.250
  416.634   13.221    0.474    0.282  190.089   62.892
  416.884   14.841    0.392    0.315  182.924   52.025
  417.134   20.459    0.255    0.382  179.333   47.190
  417.384   28.202    0.195    0.398  179.826   47.784
  417.634   27.197    0.185    0.394  181.340   49.583
  417.884   26.701    0.179    0.392  182.343   46.558
  418.134   27.901    0.185    0.400  182.836   41.419
  418.384   29.161    0.203    0.396  183.333   38.997
  418.634   28.119    0.240    0.382  183.317   39.288
  418.884   26.400    0.275    0.376  182.280   40.488
  419.134   23.703    0.298    0.361  180.728   44.698
  419.384   21.092    0.298    0.349  178.671   48.910
  419.634   21.092    0.294    0.344  179.679   48.299
  419.884   19.608    0.285    0.355  184.251   45.576
  420.134   18.251    0.292    0.362  183.728   43.756
  420.384   16.534    0.317    0.355  183.728   44.348
  420.634   14.581    0.421    0.358  182.667   51.276
  420.884   12.745    0.478    0.344  182.149   57.900
  421.134    9.486    0.539    0.330  182.133   62.413
  421.384    7.381    0.438    0.307  182.624   66.927
  421.634    6.395    0.433    0.274  182.610   75.363
  421.884    5.346    0.447    0.231  182.590   90.734
  422.134    4.673    0.455    0.220  183.088   95.246
  422.384    4.195    0.451    0.243  183.069   93.125
  422.634    3.834    0.449    0.269  183.053   94.321
  422.884    3.568    0.463    0.254  185.079   97.327
  423.134    3.261    0.477    0.247  190.679  101.540
  423.384    2.954    0.521    0.226  199.346  106.658
  423.634    2.700    0.579    0.214  199.837  111.473
  423.884    2.446    0.590    0.193  198.804  110.560
  424.134    2.235    0.578    0.182  195.211  109.946
  424.384    2.234    0.536    0.223  192.131  111.745
  424.634    2.273    0.552    0.212  197.222  113.544
  424.884    2.375    0.558    0.205  198.223  116.550
  425.134    2.505    0.553    0.198  197.695  115.939
  425.384    2.888    0.542    0.181  195.126  112.612
  425.634    3.451    0.550    0.177  192.558  105.364
  425.884    4.312    0.575    0.161  189.987   96.609
  426.134    4.670    0.543    0.146  190.482   84.837
  426.384    5.014    0.472    0.128  193.530   83.018
  426.634    5.334    0.464    0.214  186.363   81.501
  426.884    5.574    0.449    0.252  182.772   76.664
  427.134    6.091    0.443    0.261  183.776   77.259
  427.384    7.610    0.441    0.271  184.270   84.789
  427.634    8.934    0.437    0.300  179.146   82.667
  427.884   11.263    0.414    0.317  177.089   76.023
  428.134   14.072    0.417    0.308  176.052   71.489
  428.384   15.796    0.428    0.311  176.036   70.575
  428.634   17.416    0.434    0.308  177.042   69.661
  428.884   17.253    0.435    0.283  180.084   68.444
  429.134   15.079    0.418    0.260  181.604   65.420
  429.384   12.382    0.397    0.238  184.141   59.981
  429.634   10.537    0.393    0.196  187.696   58.163
  429.884    9.717    0.436    0.237  193.297   62.375
  430.134    9.371    0.551    0.295  194.811   72.317
  430.384    9.199    0.573    0.290  193.774   73.813
  430.634    9.700    0.544    0.276  188.654   72.901
  430.884    9.869    0.489    0.262  185.572   71.081
  431.134    9.265    0.468    0.240  188.107   70.164
  431.384    8.393    0.432    0.233  192.177   71.361
  431.634    7.740    0.446    0.259  191.650   74.068
  431.884    7.332    0.460    0.286  190.102   78.881
  432.134    7.262    0.458    0.283  189.067   79.778
  432.384    7.726    0.453    0.278  185.985   80.070
  432.634    9.399    0.435    0.300  183.927   74.028
  432.884   10.180    0.421    0.325  184.419   61.956
  433.134   12.494    0.461    0.306  186.446   60.437
  433.384   12.825    0.482    0.287  192.043   62.538
  433.634   12.150    0.474    0.312  193.563   65.846
  433.884   10.066    0.468    0.312  194.052   68.851
  434.134    8.265    0.473    0.317  194.040   70.955
  434.384    6.666    0.474    0.305  195.044   73.357
  434.634    5.282    0.491    0.304  197.581   77.268
  434.884    4.185    0.514    0.285  199.095   85.100
  435.134    3.894    0.554    0.271  201.633   90.820
  435.384    3.655    0.500    0.243  204.172   96.539
  435.634    3.719    0.463    0.207  207.218   99.546
  435.884    3.817    0.467    0.223  207.202  102.854
  436.134    3.920    0.462    0.233  206.674  103.446
  436.384    4.060    0.475    0.228  206.149  108.564
  436.634    4.167    0.481    0.221  206.129  115.490
  436.884    4.202    0.485    0.209  206.113  117.290
  437.134    4.052    0.490    0.206  205.589  109.740
  437.384    3.804    0.489    0.208  204.037  106.112
  437.634    3.804    0.487    0.213  203.510  101.880
  437.884    3.601    0.488    0.216  205.537   96.140
  438.134    3.412    0.492    0.226  210.115   95.829
  438.384    3.471    0.503    0.231  206.526   97.026
  438.634    4.576    0.458    0.291  194.765   88.872
  438.884    5.517    0.386    0.319  188.107   80.420
  439.134   10.584    0.377    0.278  181.965   73.473
  439.384   16.984    0.394    0.208  181.439   70.448
  439.634   27.496    0.416    0.081  188.059   67.121
  439.884   36.570    0.252    0.048  193.148   61.080
  440.134   44.081    0.183    0.005  194.664   50.817
  440.384   44.066    0.139   -0.002  194.650   44.774
  440.634   41.004    0.141    0.002  194.632   45.368
  440.884   32.197    0.145    0.004  194.614   45.962
  441.134   22.508    0.148   -0.002  194.600   47.458
  441.384   16.165    0.167   -0.000  194.582   49.261
  441.634   14.130    0.264    0.008  193.035   54.678
