~VERSION INFORMATION
 VERS.                 2.0:   CWLS LOG ASCII STANDARD -VERSION 2.0
 WRAP.                  NO:   ONE LINE PER DEPTH STEP
~WELL INFORMATION BLOCK
#MNEM.UNIT           DATA                    DESCRIPTION OF MNEMONIC
#---------    -------------------            -------------------------------
# Generated from Intellog Unique Number	CC_80_83/WELL/1180
NULL.         -999.25                        : NULL_VALUE
WELL.         CAN SUP PONY                   : Well_name    - WELL              
LOC .         07-08-082-07W4                 : Location     - LOCATION          
UWI .         00/07-08-082-07W4/0            : Uwi          - UNIQUE WELL ID    
ENTR.         DW                             : Entered      - ENTERED BY        
SRVC.         SCHLUMBERGER                   : Scn          - SERVICE COMPANY   
DATE.         12 MAR 76                      : Date         - LOG DATE
STRT.M        289.56                         : top_depth    - START DEPTH       
STOP.M        530.36                         : bot_depth    - STOP DEPTH        
STEP.M        0.305                          : increment    - STEP LENGTH       
~CURVE INFORMATION BLOCK
#MNEM UNIT       ERCB CURVE CODE    CURVE DESCRIPTION
#-----------   ------------------   ----------------------------------
DEPT.M        00 001 00 00         : DEPTH        - DEPTH                       
DPHI.V/V      00 890 00 00         : PHID         - DENSITY POROSITY (LIMESTONE)
NPHI.V/V      00 330 00 00         : PHIN         - NEUTRON POROSITY (LIMESTONE)
GR  .API      00 310 00 00         : GR           - GAMMA RAY                   
ILD .OHMM     00 120 00 00         : RESD         - DEEP RESISTIVITY (DIL)      
~PARAMETER INFORMATION       
#MNEM.UNIT           DATA             DESCRIPTION OF MNEMONIC
#---------         -----------     ------------------------------
GL  .M        743.102              : gl           - GROUND LEVEL ELEVATION      
EREF.M        745.846              : kb           - ELEVATION OF DEPTH REFERENCE
DATM.M        745.846              : datum        - DATUM ELEVATION             
TDD .M        533.4                : tdd          - TOTAL DEPTH DRILLER         
RUN .         ONE                  : Run          - RUN NUMBER                  
ENG .         BILL                 : Engineer     - RECORDING ENGINEER          
WIT .         JIM                  : Witness      - WITNESSED BY                
MUD .         GEL                  : Mud_type     - MUD TYPE                    
MATR.         LIMESTONE            : Logunit      - NEUTRON MATRIX              
TMAX.C        23.8889              : BHT          - MAXIMUM RECORDED TEMPERATURE
BHTD.M        533.4                : BHTDEP       - MAXIMUM RECORDED TEMPERATURE
MATR.         1                    : LOGUNIT      - NEUTRON MATRIX              
RMT .C        25                   : MDTP         - TEMPERATURE OF MUD          
NEUT.         1                    : NEUTRON      - NEUTRON TYPE                
RESI.         0                    : RESIST       - RESISTIVITY TYPE            
RMC .OHMM     0.25                 : RMC          - RESISTIVITY OF MUD CAKE     
RMF .OHMM     0.25                 : RMF          - RESISTIVITY OF MUD FILTRATE 
SUFT.C        4                    : SUFT         - SURFACE TEMPERATURE         
~A  DEPTH     PHID     PHIN       GR     RESD
# ...
  342.597    0.330    0.460  119.379   18.087
  342.902    0.323    0.445  118.199   18.790
  343.206    0.316    0.434  103.823   18.457
  343.511    0.326    0.442  106.247   16.840
  343.816    0.316    0.449  112.870   15.081
  344.121    0.307    0.449  111.694   12.773
  344.426    0.310    0.439  110.517   10.624
  344.731    0.294    0.439  113.547    9.874
  345.035    0.286    0.444  117.172    9.521
  345.340    0.264    0.460  120.792    9.530
  345.645    0.282    0.452  120.823   10.273
  345.950    0.290    0.460  120.842   11.280
  346.255    0.266    0.464  119.063   12.156
  346.559    0.276    0.453  109.486   14.647
  346.864    0.287    0.429   97.508   16.689
  347.169    0.304    0.412   74.725   18.670
  347.474    0.280    0.411   68.148   18.683
  347.779    0.306    0.446   59.168   17.365
  348.083    0.328    0.432   50.792   14.712
  348.388    0.303    0.396   51.417   13.176
  348.693    0.289    0.386   56.840   13.187
  348.998    0.281    0.385   80.271   13.443
  349.303    0.298    0.398   88.696   13.705
  349.607    0.301    0.426   88.720   12.977
  349.912    0.280    0.432   89.947   12.060
  350.217    0.290    0.431   92.374   11.001
  350.522    0.298    0.425   95.392    9.855
  350.827    0.256    0.428  101.421    8.826
  351.132    0.243    0.454  111.045    8.202
  351.436    0.254    0.450  116.473    7.621
  351.741    0.258    0.436  120.094    6.339
  352.046    0.247    0.432  127.321    5.783
  352.351    0.236    0.472  135.746    5.895
  352.656    0.227    0.477  139.372    6.474
  352.960    0.199    0.489  139.396    7.514
  353.265    0.207    0.499  136.420    8.723
  353.570    0.206    0.485  130.442   10.508
  353.875    0.208    0.457  120.861   11.977
  354.180    0.236    0.423  110.685   11.984
  354.484    0.272    0.402  111.909   11.137
  354.789    0.279    0.409  113.732    9.976
  355.094    0.249    0.431  114.361    9.270
  355.399    0.238    0.464  116.783    8.004
  355.704    0.246    0.465  125.806    7.860
  356.008    0.247    0.460  134.834    7.723
  356.313    0.218    0.448  133.660    7.874
  356.618    0.212    0.468  131.280    8.334
  356.923    0.224    0.488  129.504    8.815
  357.228    0.252    0.498  124.129   10.232
  357.533    0.272    0.484  115.148   13.031
  357.837    0.295    0.471  109.772   15.699
  358.142    0.288    0.462  107.995   16.308
  358.447    0.280    0.444  103.216   16.328
  358.752    0.263    0.411   87.637   16.041
  359.057    0.260    0.419   76.263   15.754
  359.361    0.294    0.449   72.083   14.375
  359.666    0.281    0.449   72.108   13.111
  359.971    0.304    0.427   78.134   11.316
  360.276    0.311    0.412   87.157   10.136
  360.581    0.287    0.423  117.189    9.077
  360.885    0.271    0.454  128.016    8.434
  361.190    0.224    0.463  128.639    7.414
  361.495    0.206    0.446  126.862    5.942
  361.800    0.251    0.452  128.693    5.034
  362.105    0.223    0.492  129.913    4.767
  362.409    0.215    0.491  129.338    4.683
  362.714    0.212    0.492  126.961    4.601
  363.019    0.234    0.496  125.786    4.605
  363.324    0.240    0.492  125.806    4.610
  363.629    0.235    0.509  128.834    4.700
  363.934    0.252    0.524  130.655    4.791
  364.238    0.261    0.515  130.078    5.164
  364.543    0.274    0.517  127.702    6.221
  364.848    0.255    0.508  124.729    8.531
  365.153    0.263    0.500  121.150   10.087
  365.458    0.234    0.520  109.770   11.929
  365.762    0.287    0.511   80.986   12.389
  366.067    0.307    0.482   67.211   11.955
  366.372    0.331    0.457   67.837   11.960
  366.677    0.338    0.471   71.458   12.194
  366.982    0.344    0.433   75.682   13.897
  367.286    0.336    0.427   76.305   16.132
  367.591    0.321    0.439   71.533   18.044
  367.896    0.321    0.438   64.952   19.450
  368.201    0.336    0.435   58.972   19.834
  368.506    0.323    0.456   59.603   19.845
  368.810    0.337    0.470   60.825   19.498
  369.115    0.333    0.461   60.245   18.809
  369.420    0.323    0.448   63.271   18.486
  369.725    0.335    0.452   68.699   18.157
  370.030    0.351    0.454   69.325   17.196
  370.335    0.330    0.443   67.544   17.205
  370.639    0.346    0.426   63.970   17.868
  370.944    0.341    0.420   63.993   19.258
  371.249    0.300    0.413   67.018   21.947
  371.554    0.269    0.395   69.440   20.779
  371.859    0.229    0.357   75.464   18.954
  372.163    0.172    0.285   80.890   16.358
  372.468    0.162    0.388   89.914   14.380
  372.773    0.292    0.510  111.544   13.370
  373.078    0.313    0.499  121.771   13.630
  373.383    0.298    0.473  121.198   14.158
  373.687    0.296    0.477  117.620   14.980
  373.992    0.320    0.459   97.236   15.560
  374.297    0.343    0.459   76.257   15.860
  374.602    0.343    0.453   72.078   16.789
  374.907    0.341    0.444   72.111   17.117
  375.211    0.338    0.438   71.528   17.444
  375.516    0.348    0.433   67.349   18.119
  375.821    0.340    0.435   64.974   18.479
  376.126    0.328    0.438   64.998   18.841
  376.431    0.331    0.430   66.826   17.837
  376.736    0.329    0.431   68.047   15.973
  377.040    0.332    0.425   68.069   13.783
  377.345    0.347    0.435   67.495   10.843
  377.650    0.366    0.482   66.921   10.457
  377.955    0.367    0.469   68.745   11.063
  378.260    0.342    0.458   70.567   12.377
  378.564    0.301    0.458   71.790   14.102
  378.869    0.222    0.447   66.416   15.775
  379.174    0.204    0.434   61.037   16.085
  379.479    0.351    0.469   62.261   13.624
  379.784    0.369    0.447   64.083   10.139
  380.088    0.371    0.439   65.911    7.405
  380.393    0.369    0.465   68.333    6.157
  380.698    0.357    0.458   73.157    5.315
  381.003    0.354    0.460   77.984    5.522
  381.308    0.305    0.471   91.809    5.735
  381.612    0.282    0.475  105.036    5.845
  381.917    0.269    0.466  105.061    6.420
  382.222    0.247    0.467  106.286    6.918
  382.527    0.238    0.480  108.710    7.056
  382.832    0.263    0.505  105.736    6.804
  383.137    0.276    0.511  102.156    6.207
  383.441    0.284    0.483   96.177    5.986
  383.746    0.260    0.490   98.007    6.105
  384.051    0.250    0.475  101.029    6.223
  384.356    0.264    0.475  105.255    6.836
  384.661    0.284    0.492  111.877    7.097
  384.965    0.263    0.486  117.903    7.509
  385.270    0.250    0.464  111.325    7.661
  385.575    0.238    0.448  111.350    7.665
  385.880    0.232    0.445  113.776    7.819
  386.185    0.239    0.449  113.200    7.969
  386.489    0.230    0.465  112.024    8.123
  386.794    0.219    0.479  110.244    8.284
  387.099    0.224    0.480  107.868    8.292
  387.404    0.224    0.464  106.097    8.145
  387.709    0.233    0.461  107.319    7.713
  388.013    0.246    0.454  109.743    7.578
  388.318    0.254    0.460  113.965    7.584
  388.623    0.243    0.475  114.592    8.025
  388.928    0.237    0.470  111.018    8.491
  389.233    0.229    0.476  111.037    8.658
  389.538    0.252    0.468  110.460    8.663
  389.842    0.248    0.459  107.484    7.615
  390.147    0.276    0.451  108.108    2.244
  390.452    0.255    0.462  111.132    1.264
  390.757    0.247    0.478  112.361    1.266
  391.062    0.247    0.477  111.782    1.442
  391.366    0.247    0.463  113.604    1.705
  391.671    0.251    0.469  119.035    2.473
  391.976    0.239    0.498  122.654    3.391
  392.281    0.227    0.520  131.081    4.239
  392.586    0.218    0.519  126.906    4.090
  392.890    0.249    0.555  122.726    4.017
  393.195    0.235    0.552  121.555    3.875
  393.500    0.227    0.544  121.581    3.877
  393.805    0.216    0.535  120.397    3.881
  394.110    0.235    0.536  119.821    4.184
  394.414    0.249    0.531  121.647    4.593
  394.719    0.235    0.528  124.074    4.951
  395.024    0.246    0.558  121.094    5.239
  395.329    0.258    0.578  117.520    5.342
