~VERSION INFORMATION
 VERS.                 2.0:   CWLS LOG ASCII STANDARD -VERSION 2.0
 WRAP.                  NO:   ONE LINE PER DEPTH STEP
~WELL INFORMATION BLOCK
#MNEM.UNIT           DATA                    DESCRIPTION OF MNEMONIC
#---------    -------------------            -------------------------------
# Generated from Intellog Unique Number	CW_70_72/WELL/901
NULL.         -999.25                        : NULL_VALUE
WELL.         HOME ALMX MITSUE 07-15         : Well_name    - WELL              
LOC .         07-15-071-04W5                 : Location     - LOCATION          
UWI .         00/07-15-071-04W5/0            : Uwi          - UNIQUE WELL ID    
ENTR.         JAYE                           : Entered      - ENTERED BY        
SRVC.         SCHLUMBERGER                   : Scn          - SERVICE COMPANY   
DATE.         4 MAR 74                       : Date         - LOG DATE          
STRT.M        502.92                         : top_depth    - START DEPTH       
STOP.M        716.17                         : bot_depth    - STOP DEPTH        
STEP.M        0.25                           : increment    - STEP LENGTH       
~CURVE INFORMATION BLOCK
#MNEM UNIT       ERCB CURVE CODE    CURVE DESCRIPTION
#-----------   ------------------   ----------------------------------
DEPT.M        00 001 00 00         : DEPTH        - DEPTH                       
DPHI.V/V      00 890 00 00         : PHID         - DENSITY POROSITY (SANDSTONE)
NPHI.V/V      00 330 00 00         : PHIN         - NEUTRON POROSITY (SANDSTONE)
GR  .API      00 310 00 00         : GR           - GAMMA RAY                   
CALI.MM       00 280 01 00         : CAL          - CALIPER                     
ILD .OHMM     00 120 00 00         : RESD         - DEEP RESISTIVITY (DIL)      
~PARAMETER INFORMATION       
#MNEM.UNIT           DATA             DESCRIPTION OF MNEMONIC
#---------         -----------     ------------------------------
GL  .M        667.36               : gl           - GROUND LEVEL ELEVATION      
EREF.M        671.474              : kb           - ELEVATION OF DEPTH REFERENCE
DATM.M        667.36               : datum        - DATUM ELEVATION             
TDD .M        759.866              : tdd          - TOTAL DEPTH DRILLER         
RUN .         ONE                  : Run          - RUN NUMBER                  
ENG .         SIROIS               : Engineer     - RECORDING ENGINEER          
WIT .         HOLAN                : Witness      - WITNESSED BY                
BASE.         EDM                  : Branch       - HOME BASE OF LOGGING UNIT   
MUD .         GEL CHEM             : Mud_type     - MUD TYPE                    
MATR.         SANDSTONE            : Logunit      - NEUTRON MATRIX              
TMAX.C        28.3333              : BHT          - MAXIMUM RECORDED TEMPERATURE
BHTD.M        758.952              : BHTDEP       - MAXIMUM RECORDED TEMPERATURE
RMT .C        13.8889              : MDTP         - TEMPERATURE OF MUD          
MUDD.KG/M     1080                 : MWT          - MUD DENSITY                 
NEUT.         1                    : NEUTRON      - NEUTRON TYPE                
RESI.         0                    : RESIST       - RESISTIVITY TYPE            
RM  .OHMM     6.28                 : RM           - RESISTIVITY OF MUD          
RMC .OHMM     3.8                  : RMC          - RESISTIVITY OF MUD CAKE     
RMF .OHMM     7.5                  : RMF          - RESISTIVITY OF MUD FILTRATE 
SUFT.C        -17.7778             : SUFT         - SURFACE TEMPERATURE         
~A  DEPTH     PHID     PHIN       GR      CAL     RESD
  502.920    0.202    0.542  100.042  211.805    1.997
  503.170    0.196    0.537   98.271  214.502    2.055
  503.420    0.211    0.548   97.050  218.648    2.087
  503.670    0.198    0.537   95.096  224.452    2.113
  503.920    0.179    0.532   92.469  231.394    2.130
  504.170    0.195    0.533   96.691  235.850    2.144
  504.420    0.207    0.598   92.841  233.783    2.150
  504.670    0.181    0.629   92.049  228.093    2.189
  504.920    0.199    0.636   94.681  223.231    2.231
  505.170    0.213    0.606   98.352  219.611    2.283
  505.420    0.217    0.590   97.682  213.713    2.332
  505.670    0.184    0.539   96.401  208.540    2.369
  505.920    0.195    0.542   99.705  206.163    2.402
  506.170    0.200    0.569  100.014  207.410    2.418
  506.420    0.215    0.578   97.326  215.490    2.416
  506.670    0.197    0.572   93.415  230.820    2.432
  506.920    0.222    0.480   91.094  231.031    2.489
  507.170    0.215    0.503   95.132  220.370    2.613
  507.420    0.207    0.521   95.685  220.996    2.773
  507.670    0.200    0.524   95.076  216.444    2.853
  507.920    0.204    0.534   94.039  206.922    2.903
  508.170    0.240    0.569   92.513  206.616    2.922
  508.420    0.210    0.627   87.318  217.079    2.915
  508.670    0.265    0.651   82.245  218.636    2.839
  508.920    0.295    0.593   77.783  209.011    2.760
  509.170    0.271    0.443   72.711  163.869    2.669
  509.420    0.208    0.417   68.616  180.130    2.667
  509.670    0.225    0.520   68.435  195.252    2.729
  509.920    0.262    0.533   66.236  188.319    2.818
  510.170    0.286    0.443   60.980  167.303    2.915
  510.420    0.246    0.444   55.418  164.201    3.072
  510.670    0.224    0.443   55.298  163.378    3.260
  510.920    0.235    0.425   58.603  163.382    3.479
  511.170    0.227    0.408   61.541  163.593    3.680
  511.420    0.230    0.401   66.986  164.530    3.766
  511.670    0.234    0.409   69.006  165.258    3.688
  511.920    0.234    0.433   69.315  168.162    3.482
  512.170    0.235    0.480   69.378  169.823    3.354
  512.420    0.212    0.510   72.255  174.280    3.201
  512.670    0.175    0.530   75.315  182.154    3.017
  512.920    0.198    0.550   78.681  183.298    2.859
  513.170    0.197    0.507   79.968  167.770    2.744
  513.420    0.255    0.510   77.646  167.670    2.793
  513.670    0.157    0.555   78.505  180.618    3.014
  513.920    0.160    0.507   77.896  175.446    3.175
  514.170    0.165    0.420   74.230  170.169    3.328
  514.420    0.102    0.447   76.862  181.667    3.455
  514.670    0.153    0.520   82.918  188.299    3.409
  514.920    0.206    0.549   86.957  192.238    3.236
  515.170    0.227    0.527   92.218  200.526    3.016
  515.420    0.241    0.495   96.318  197.631    2.741
  515.670    0.240    0.521  100.784  216.688    2.650
  515.920    0.226    0.550  105.924  204.680    2.691
  516.170    0.200    0.531  108.005  196.194    2.872
  516.420    0.182    0.492  103.727  188.743    3.111
  516.670    0.199    0.433   91.377  171.352    3.230
  516.920    0.230    0.421   77.866  165.247    3.187
  517.170    0.258    0.404   67.657  164.319    3.065
  517.420    0.253    0.388   63.562  164.634    2.894
  517.670    0.234    0.374   64.849  165.260    2.797
  517.920    0.232    0.407   76.103  167.335    2.837
  518.170    0.230    0.444   86.746  177.384    3.060
  518.420    0.252    0.497   93.903  170.864    3.476
  518.670    0.278    0.421   92.438  166.520    3.703
  518.920    0.222    0.370   88.037  192.204    3.653
  519.170    0.186    0.351   84.738  201.631    3.670
  519.420    0.220    0.598   91.222  193.558    3.682
  519.670    0.249    0.558   90.858  176.167    3.691
  519.920    0.238    0.458   85.847  171.616    3.819
  520.170    0.168    0.397   80.835  169.342    3.965
  520.420    0.151    0.355   74.539  166.136    4.118
  520.670    0.178    0.343   69.344  162.931    4.070
  520.920    0.189    0.355   63.843  161.694    3.759
  521.170    0.211    0.362   61.339  161.593    3.415
  521.420    0.216    0.357   61.341  162.013    3.030
  521.670    0.219    0.335   63.484  161.913    2.830
  521.920    0.201    0.334   68.745  161.710    2.741
  522.170    0.174    0.347   72.356  161.404    2.764
  522.420    0.189    0.360   71.257  160.787    2.834
  522.670    0.193    0.358   74.256  160.584    2.916
  522.920    0.192    0.360   78.417  164.109    2.983
  523.170    0.207    0.387   84.229  169.083    3.036
  523.420    0.162    0.465   90.041  180.478    3.090
  523.670    0.092    0.554  107.226  189.180    3.150
  523.920    0.190    0.583  108.635  192.291    3.211
  524.170    0.239    0.542   99.955  199.233    3.262
  524.420    0.279    0.445   93.231  184.016    3.320
  524.670    0.233    0.364   86.752  162.794    3.410
  524.920    0.194    0.357   79.783  162.488    3.535
  525.170    0.188    0.349   75.077  166.220    3.649
  525.420    0.178    0.349   80.583  171.297    3.874
  525.670    0.153    0.397   87.251  183.313    4.111
  525.920    0.149    0.396   91.167  192.016    4.372
  526.170    0.139    0.420   88.785  200.407    4.599
  526.420    0.168    0.417   83.529  186.329    4.714
  526.670    0.171    0.341   80.229  171.216    4.719
  526.920    0.127    0.338   80.537  165.318    4.639
  527.170    0.129    0.358   78.217  167.600    4.428
  527.420    0.113    0.373   75.223  165.119    4.219
  527.670    0.167    0.350   73.941  164.710    4.200
  527.920    0.167    0.322   78.408  164.818    4.354
  528.170    0.160    0.326   84.647  166.375    4.545
  528.420    0.145    0.369   89.236  173.110    4.843
  528.670    0.130    0.403   93.886  183.676    5.074
  528.920    0.166    0.397   96.029  183.370    5.279
  529.170    0.169    0.346   90.039  179.750    5.381
  529.420    0.147    0.320   84.049  184.518    5.487
  529.670    0.148    0.310   86.009  177.274    5.513
  529.920    0.121    0.355   91.820  179.764    5.529
  530.170    0.131    0.379   97.020  184.221    5.395
  530.420    0.170    0.445   98.858  188.159    5.065
  530.670    0.188    0.472   99.471  197.690    4.611
  530.920    0.194    0.502  100.024  209.499    4.243
  531.170    0.210    0.527  101.006  213.852    3.820
  531.420    0.201    0.570  102.048  202.052    3.613
  531.670    0.200    0.457  102.662  191.599    3.624
  531.920    0.207    0.425  102.175  188.186    3.694
  532.170    0.220    0.413  100.649  189.329    3.836
  532.420    0.180    0.442   99.245  197.410    3.969
  532.670    0.179    0.483   96.251  204.767    4.039
  532.920    0.187    0.423   93.380  194.726    4.110
  533.170    0.157    0.395   91.548  177.231    4.183
  533.420    0.178    0.414   89.471  185.934    4.266
  533.670    0.158    0.459   80.546  194.429    4.316
  533.920    0.198    0.438   72.905  161.816    4.353
  534.170    0.219    0.381   67.832  164.720    4.373
  534.420    0.190    0.329   71.320  166.692    4.354
  534.670    0.182    0.331   79.945  165.143    4.375
  534.920    0.149    0.351   83.861  167.632    4.388
  535.170    0.197    0.372   84.047  180.580    4.336
  535.420    0.165    0.436   83.866  172.197    4.215
  535.670    0.223    0.440   80.628  162.054    4.076
  535.920    0.232    0.380   74.393  162.680    3.970
  536.170    0.196    0.363   74.151  167.550    3.916
  536.420    0.173    0.374   76.538  171.490    3.928
  536.670    0.160    0.384   77.520  166.627    4.034
  536.920    0.196    0.393   77.216  163.629    4.016
  537.170    0.184    0.401   75.629  163.117    3.897
  537.420    0.170    0.414   73.614  162.499    3.639
  537.670    0.189    0.444   70.681  162.296    3.398
  537.920    0.213    0.444   67.504  162.300    3.110
  538.170    0.230    0.412   64.327  161.891    2.811
  538.420    0.231    0.411   61.455  161.791    2.663
  538.670    0.245    0.483   59.440  161.796    2.542
  538.920    0.254    0.464   59.076  162.111    2.440
  539.170    0.252    0.432   62.503  162.426    2.394
