~VERSION INFORMATION
 VERS.                 2.0:   CWLS LOG ASCII STANDARD -VERSION 2.0
 WRAP.                  NO:   ONE LINE PER DEPTH STEP
~WELL INFORMATION BLOCK
#MNEM.UNIT           DATA                    DESCRIPTION OF MNEMONIC
#---------    -------------------            -------------------------------
# Generated from Intellog Unique Number	CS_73_76/WELL/2390
WELL.         07-24-076-07W4                 : Well_name    - WELL
LOC .         00/07-24-076-07W4/0            : Location     - LOCATION
UWI .         00/07-24-076-07W4/0            : Uwi          - UNIQUE WELL ID
ENTR.         SP                             : Entered      - ENTERED BY
SRVC.         SCHLUMBERGER                   : Scn          - SERVICE COMPANY
STRT.M        150                            : top_depth    - START DEPTH
STOP.M        375                            : bot_depth    - STOP DEPTH
STEP.M        0.25                           : increment    - STEP LENGTH
 NULL. -999.2500:NULL Value
~CURVE INFORMATION BLOCK
#MNEM UNIT       ERCB CURVE CODE    CURVE DESCRIPTION
#-----------   ------------------   ----------------------------------
DEPT.M        00 001 00 00         : DEPTH        - DEPTH
ILD .OHMM     00 120 00 00         : RESD         - DEEP RESISTIVITY (DIL)
GR  .API      00 310 00 00         : GR           - GAMMA RAY
DPHI.V/V      00 890 00 00         : PHID         - DENSITY POROSITY (LIMESTONE)
NPHI.V/V      00 330 00 00         : PHIN         - NEUTRON POROSITY (LIMESTONE)
~PARAMETER INFORMATION
#MNEM.UNIT           DATA             DESCRIPTION OF MNEMONIC
#---------         -----------     ------------------------------
GL  .M        572.32               : gl           - GROUND LEVEL ELEVATION
EREF.M        575.82               : kb           - ELEVATION OF DEPTH REFERENCE
DATM.M        572.32               : datum        - DATUM ELEVATION
TDD .M        377                  : tdd          - TOTAL DEPTH DRILLER
RUN .         ONE                  : Run          - RUN NUMBER
ENG .         BILL                 : Engineer     - RECORDING ENGINEER
WIT .         JIM                  : Witness      - WITNESSED BY
MUD .         GEL                  : Mud_type     - MUD TYPE
MATR.         LIMESTONE            : Logunit      - NEUTRON MATRIX
TMAX.C        23                   : BHT          - MAXIMUM RECORDED TEMPERATURE
BHTD.M        377                  : BHTDEP       - MAXIMUM RECORDED TEMPERATURE
MATR.         1                    : LOGUNIT      - NEUTRON MATRIX
RMT .C        25                   : MDTP         - TEMPERATURE OF MUD
NEUT.         1                    : NEUTRON      - NEUTRON TYPE
RESI.         0                    : RESIST       - RESISTIVITY TYPE
RMC .OHMM     0.25                 : RMC          - RESISTIVITY OF MUD CAKE
RMF .OHMM     0.25                 : RMF          - RESISTIVITY OF MUD FILTRATE
SUFT.C        15                   : SUFT         - SURFACE TEMPERATURE
~A  DEPTH     RESD       GR     PHID     PHIN
# ...
  280.500   11.517   54.172    0.478    0.599
  280.750   11.735   59.658    0.382    0.448
  281.000   12.183   62.096    0.373    0.411
  281.250   12.647   63.314    0.375    0.461
  281.500   13.130   60.264    0.350    0.463
  281.750   13.131   55.994    0.344    0.439
  282.000   13.632   58.431    0.330    0.393
  282.250   14.153   59.650    0.319    0.357
  282.500   14.420   60.258    0.292    0.393
  282.750   14.694   62.086    0.273    0.430
  283.000   14.972   65.743    0.290    0.445
  283.250   15.256   60.254    0.311    0.428
  283.500   14.427   57.204    0.294    0.333
  283.750   13.642   54.764    0.269    0.283
  284.000   12.662   55.982    0.256    0.330
  284.250   11.974   55.371    0.290    0.364
  284.500   11.754   58.418    0.305    0.358
  284.750   11.754   59.637    0.300    0.358
  285.000   11.539   61.465    0.309    0.378
  285.250   11.757   64.512    0.328    0.401
  285.500   11.758   62.681    0.334    0.400
  285.750   12.207   61.460    0.334    0.403
  286.000   12.672   64.508    0.333    0.429
  286.250   13.914   64.506    0.316    0.451
  286.500   14.994   62.066    0.345    0.447
  286.750   16.158   64.504    0.356    0.422
  287.000   16.160   66.941    0.345    0.447
  287.250   15.569   67.550    0.357    0.456
  287.500   14.451   63.280    0.336    0.359
  287.750   14.185   59.620    0.322    0.329
  288.000   13.413   64.497    0.318    0.414
  288.250   12.684   71.813    0.320    0.444
  288.500   12.221   67.543    0.315    0.440
  288.750   11.774   71.810    0.306    0.406
  289.000   11.557   77.906    0.284    0.400
  289.250   11.345   76.685    0.289    0.375
  289.500   11.136   73.635    0.302    0.364
  289.750   10.931   69.975    0.302    0.381
  290.000   10.932   66.925    0.304    0.396
  290.250   10.533   63.875    0.293    0.416
  290.500   10.339   66.313    0.254    0.439
  290.750    9.961   63.872    0.210    0.413
  291.000    9.778   66.310    0.160    0.292
  291.250    9.598   69.357    0.201    0.313
  291.500    9.421   71.795    0.275    0.384
  291.750    8.909   73.013    0.301    0.401
  292.000    8.584   72.402    0.319    0.372
  292.250    8.426   73.010    0.302    0.381
  292.500    8.271   68.741    0.297    0.402
  292.750    8.271   66.300    0.325    0.418
  293.000    8.273   68.738    0.332    0.435
  293.250    8.429   68.737    0.341    0.474
  293.500    8.430   68.126    0.346    0.494
  293.750    8.590   66.905    0.337    0.458
  294.000    8.590   65.684    0.328    0.420
  294.250    8.592   62.634    0.325    0.391
  294.500    8.592   61.413    0.330    0.364
  294.750    8.435   58.363    0.337    0.392
  295.000    8.435   58.971    0.342    0.392
  295.250    8.436   62.019    0.341    0.403
  295.500    8.281   67.505    0.332    0.380
  295.750    8.282   69.333    0.342    0.395
  296.000    8.129   68.722    0.342    0.408
  296.250    7.832   68.721    0.315    0.413
  296.500    7.546   69.939    0.313    0.392
  296.750    7.004   66.888    0.323    0.381
  297.000    6.623   68.717    0.347    0.408
  297.250    6.263   70.544    0.350    0.420
  297.500    5.813   72.982    0.350    0.396
  297.750    5.600   76.029    0.345    0.363
  298.000    5.296   82.125    0.329    0.400
  298.250    5.296   84.563    0.350    0.446
  298.500    5.397   85.781    0.260    0.479
  298.750    5.603   84.561    0.288    0.500
  299.000    5.926   85.169    0.301    0.514
  299.250    6.268   89.436    0.286    0.496
  299.500    6.507   91.264    0.255    0.463
  299.750    6.755   89.433    0.240    0.415
  300.000    6.884   92.481    0.226    0.386
  300.250    7.014   94.308    0.214    0.370
  300.500    6.885   96.746    0.208    0.398
  300.750    6.886   99.793    0.202    0.431
  301.000    6.886   96.743    0.204    0.447
  301.250    6.887   94.303    0.221    0.429
  301.500    6.888   93.692    0.237    0.446
  301.750    7.018   95.520    0.225    0.458
  302.000    7.151   96.738    0.232    0.435
  302.250    7.020   97.346    0.233    0.387
  302.500    6.891   96.126    0.230    0.382
  302.750    6.891   96.734    0.224    0.381
  303.000    6.892   91.245    0.219    0.368
  303.250    6.893   88.195    0.230    0.381
  303.500    6.893   84.535    0.264    0.407
  303.750    6.767   86.972    0.277    0.406
  304.000    6.768   87.581    0.265    0.385
  304.250    6.768   84.531    0.228    0.380
  304.500    6.769   85.749    0.226    0.400
  304.750    6.769   85.748    0.261    0.435
  305.000    6.645   83.917    0.290    0.418
  305.250    6.523   83.916    0.290    0.404
  305.500    6.403   86.963    0.291    0.412
  305.750    6.054   91.840    0.274    0.418
  306.000    5.516   95.497    0.241    0.387
  306.250    5.025   94.276    0.252    0.380
  306.500    4.492   90.616    0.265    0.413
  306.750    3.659   86.956    0.282    0.418
  307.000    3.151   86.345    0.270    0.395
  307.250    2.664   85.734    0.299    0.377
  307.500    2.473   87.562    0.299    0.396
  307.750    2.428   85.121    0.309    0.437
  308.000    2.474   82.071    0.303    0.484
  308.250    2.616   80.241    0.311    0.480
  308.500    2.666   82.069    0.326    0.498
  308.750    2.666   85.116    0.321    0.497
  309.000    2.569   85.115    0.298    0.461
  309.250    2.569   83.284    0.299    0.419
  309.500    2.618   85.112    0.313    0.432
  309.750    2.667   88.159    0.315    0.494
  310.000    2.874   91.207    0.250    0.534
  310.250    3.097   94.254    0.264    0.564
  310.500    3.276   96.082    0.265    0.505
  310.750    3.665   96.691    0.265    0.435
  311.000    4.256   94.250    0.264    0.505
  311.250    4.673   91.810    0.263    0.567
  311.500    5.130   89.370    0.265    0.508
  311.750    5.529   88.149    0.277    0.470
  312.000    5.848   89.977    0.293    0.486
  312.250    6.071   89.975    0.271    0.518
  312.500    5.741   90.583    0.249    0.507
  312.750    5.531   91.802    0.265    0.407
  313.000    5.039   89.361    0.237    0.337
  313.250    4.854   86.921    0.198    0.311
  313.500    4.855   85.700    0.142    0.348
  313.750    4.856   86.918    0.210    0.393
  314.000    4.856   93.624    0.244    0.440
  314.250    4.766  100.940    0.241    0.456
  314.500    4.679   97.280    0.253    0.430
  314.750    4.425   97.888    0.237    0.388
  315.000    4.263   97.887    0.216    0.404
  315.250    4.031   99.715    0.220    0.415
  315.500    3.812  100.323    0.233    0.387
  315.750    3.673  100.322    0.238    0.365
  316.000    3.605  100.930    0.226    0.349
  316.250    3.409  102.149    0.220    0.388
  316.500    3.284  102.757    0.217    0.412
  316.750    3.224  102.756    0.218    0.392
  317.000    3.165  101.535    0.222    0.399
  317.250    3.225   99.094    0.242    0.421
  317.500    3.286  100.312    0.237    0.408
  317.750    3.348  101.531    0.244    0.396
  318.000    3.476  101.529    0.242    0.407
  318.250    3.746   97.260    0.242    0.426
  318.500    3.816   94.820    0.243    0.437
  318.750    4.037  100.306    0.229    0.440
  319.000    4.113  105.183    0.229    0.414
  319.250    4.270  107.620    0.238    0.372
  319.500    4.517  105.790    0.229    0.382
  319.750    4.867  103.349    0.234    0.397
  320.000    5.652   99.689    0.232    0.507
  320.250    6.206   90.542    0.226    0.479
  320.500    7.342   81.394    0.177    0.473
  320.750    9.536   79.564    0.064    0.400
  321.000   12.157   97.245    0.221    0.501
  321.250   15.211   89.927    0.264    0.462
  321.500   18.681   66.755    0.286    0.389
  321.750   19.394   54.558    0.287    0.391
  322.000   18.000   49.069    0.283    0.361
  322.250   15.796   44.800    0.332    0.350
  322.500   13.863   46.018    0.377    0.354
  322.750   13.109   52.724    0.286    0.396
  323.000   12.396   58.210    0.282    0.430
  323.250   11.084   56.380    0.289    0.408
  323.500   11.085   56.378    0.277    0.377
  323.750   11.295   74.669    0.264    0.322
