~VERSION INFORMATION
 VERS.                 2.0:   CWLS LOG ASCII STANDARD -VERSION 2.0
 WRAP.                  NO:   ONE LINE PER DEPTH STEP
~WELL INFORMATION BLOCK
#MNEM.UNIT           DATA                    DESCRIPTION OF MNEMONIC
#---------    -------------------            -------------------------------
# Generated from Intellog Unique Number	CC_84_87/WELL/1070
NULL.         -999.25                        : NULL_VALUE
WELL.         MURPHY ET AL HOUSE             : Well_name    - WELL
LOC .         06-24-084-16W4                 : Location     - LOCATION          
UWI .         00/06-24-084-16W400            : Uwi          - UNIQUE WELL ID    
ENTR.         DW                             : Entered      - ENTERED BY        
SRVC.         SCHLUMBERGER                   : Scn          - SERVICE COMPANY   
DATE.         21 FEB 80                      : Date         - LOG DATE
STRT.M        100                            : top_depth    - START DEPTH       
STOP.M        267.101                        : bot_depth    - STOP DEPTH        
STEP.M        0.3                            : increment    - STEP LENGTH       
~CURVE INFORMATION BLOCK
#MNEM UNIT       ERCB CURVE CODE    CURVE DESCRIPTION
#-----------   ------------------   ----------------------------------
DEPT.M        00 001 00 00         : DEPTH        - DEPTH                       
DPHI.V/V      00 890 00 00         : PHID         - DENSITY POROSITY (LIMESTONE)
NPHI.V/V      00 330 00 00         : PHIN         - NEUTRON POROSITY (LIMESTONE)
GR  .API      00 310 00 00         : GR           - GAMMA RAY                   
ILD .OHMM     00 120 00 00         : RESD         - DEEP RESISTIVITY (DIL)      
~PARAMETER INFORMATION       
#MNEM.UNIT           DATA             DESCRIPTION OF MNEMONIC
#---------         -----------     ------------------------------
GL  .M        527.7                : gl           - GROUND LEVEL ELEVATION      
EREF.M        531.2                : kb           - ELEVATION OF DEPTH REFERENCE
DATM.M        531.2                : datum        - DATUM ELEVATION             
TDD .M        289                  : tdd          - TOTAL DEPTH DRILLER         
RUN .         ONE                  : Run          - RUN NUMBER                  
ENG .         BILL                 : Engineer     - RECORDING ENGINEER          
WIT .         JIM                  : Witness      - WITNESSED BY                
MUD .         GEL                  : Mud_type     - MUD TYPE                    
MATR.         LIMESTONE            : Logunit      - NEUTRON MATRIX              
TMAX.C        24                   : BHT          - MAXIMUM RECORDED TEMPERATURE
BHTD.M        289                  : BHTDEP       - MAXIMUM RECORDED TEMPERATURE
MATR.         1                    : LOGUNIT      - NEUTRON MATRIX              
RMT .C        25                   : MDTP         - TEMPERATURE OF MUD          
NEUT.         1                    : NEUTRON      - NEUTRON TYPE                
RESI.         0                    : RESIST       - RESISTIVITY TYPE            
RMC .OHMM     0.25                 : RMC          - RESISTIVITY OF MUD CAKE     
RMF .OHMM     0.25                 : RMF          - RESISTIVITY OF MUD FILTRATE 
SUFT.C        15                   : SUFT         - SURFACE TEMPERATURE         
~A  DEPTH     PHID     PHIN       GR     RESD
# ...
  152.201    0.307    0.384   53.125    6.111
  152.501    0.282    0.396   62.264    5.781
  152.801    0.224    0.406   68.966    5.175
  153.101    0.163    0.438   82.985    4.896
  153.401    0.146    0.441  110.419    4.896
  153.701    0.149    0.438  107.361    4.987
  154.001    0.181    0.437  103.695    5.175
  154.301    0.208    0.420  114.058    5.271
  154.601    0.213    0.414  118.929    5.271
  154.901    0.208    0.416  118.312    5.271
  155.201    0.207    0.425  121.355    5.175
  155.501    0.211    0.428  120.128    5.175
  155.801    0.211    0.419  116.463    5.175
  156.101    0.210    0.410  115.846    5.271
  156.401    0.204    0.404  117.670    5.370
  156.701    0.195    0.399  123.759    5.370
  157.001    0.187    0.406  126.193    4.718
  157.301    0.189    0.423  126.187    4.632
  157.601    0.197    0.412  124.351    4.547
  157.901    0.198    0.413  122.515    4.632
  158.201    0.192    0.419  125.557    4.718
  158.501    0.189    0.428  115.185    4.718
  158.801    0.178    0.436  122.496    4.718
  159.101    0.171    0.439  118.220    4.632
  159.401    0.186    0.440  115.774    4.464
  159.701    0.195    0.436  118.817    4.382
  160.001    0.201    0.433  126.738    4.223
  160.301    0.207    0.433  125.512    4.146
  160.601    0.221    0.452  120.625    4.223
  160.901    0.248    0.465  118.181    4.382
  161.201    0.218    0.469  112.076    4.718
  161.501    0.224    0.474  109.022    5.080
  161.801    0.236    0.458  117.552    6.702
  162.101    0.234    0.442  110.227    9.345
  162.401    0.235    0.430  105.953   10.249
  162.701    0.242    0.422   98.018   11.035
  163.001    0.253    0.417   90.695   11.450
  163.301    0.256    0.423   75.443   11.241
  163.601    0.211    0.434   72.388   10.833
  163.901    0.261    0.426   77.260   10.249
  164.201    0.281    0.427   83.961   10.062
  164.501    0.253    0.404   78.466    9.697
  164.801    0.256    0.385   73.582    9.697
  165.101    0.282    0.396   76.014   10.062
  165.401    0.292    0.400   72.959   11.241
  165.701    0.298    0.400   73.561   11.664
  166.001    0.276    0.386   76.605   11.664
  166.301    0.257    0.393   72.328   10.249
  166.601    0.247    0.399   71.103    9.174
  166.901    0.235    0.403   77.804    8.680
  167.201    0.232    0.403   84.506    8.062
  167.501    0.227    0.397   93.036    7.769
  167.801    0.229    0.390  100.345    7.627
  168.101    0.238    0.379  102.169    7.487
  168.401    0.244    0.380  102.772    7.487
  168.701    0.245    0.379   99.716    7.487
  169.001    0.249    0.391   99.099    7.627
  169.301    0.254    0.395  100.314    7.769
  169.601    0.258    0.387  110.064    7.487
  169.901    0.261    0.374  111.277    7.084
  170.201    0.256    0.372  100.904    6.954
  170.501    0.234    0.409   92.969    6.827
  170.801    0.236    0.414   89.304    6.702
  171.101    0.238    0.416   87.469    6.702
  171.401    0.238    0.378   91.121    7.084
  171.701    0.240    0.383   95.992    7.350
  172.001    0.160    0.399   91.718    7.350
  172.301    0.234    0.406   86.223    7.216
  172.601    0.267    0.404   87.435    7.084
  172.901    0.271    0.390   88.650    7.084
  173.201    0.260    0.381   91.082    6.459
  173.501    0.238    0.390   84.978    5.999
  173.801    0.220    0.397   76.434    5.676
  174.101    0.227    0.408   81.306    6.341
  174.401    0.224    0.422   95.323    6.954
  174.701    0.250    0.426   97.756    7.487
  175.001    0.304    0.407   91.043    8.365
  175.301    0.289    0.383   84.938    8.680
  175.601    0.265    0.378   70.907    9.006
  175.901    0.289    0.386   80.655    8.841
  176.201    0.297    0.377   83.087    8.062
  176.501    0.282    0.372   80.643    7.914
  176.801    0.277    0.353   75.149    8.062
  177.101    0.278    0.350   67.823    8.365
  177.401    0.284    0.367   67.209    8.841
  177.701    0.282    0.377   72.689    9.006
  178.001    0.282    0.384   80.000    8.841
  178.301    0.293    0.396   80.604    8.062
  178.601    0.287    0.379   75.718    6.954
  178.901    0.252    0.393   72.052    6.579
  179.201    0.167    0.393   73.266    6.225
  179.501    0.228    0.384   81.797    5.999
  179.801    0.234    0.379   72.033    5.889
  180.101    0.229    0.389   80.563    5.781
  180.401    0.229    0.403   82.997    5.572
  180.701    0.236    0.408   86.649    5.572
  181.001    0.248    0.403   96.399    5.676
  181.301    0.253    0.405  102.490    5.889
  181.601    0.269    0.390  101.874    6.225
  181.901    0.277    0.393   93.939    6.702
  182.201    0.273    0.406   96.373    7.487
  182.501    0.237    0.413   96.366    8.062
  182.801    0.225    0.413   92.090    9.174
  183.101    0.234    0.410   93.304    9.697
  183.401    0.247    0.406   90.249    9.878
  183.701    0.259    0.383   92.071   10.635
  184.001    0.263    0.367   87.186   10.833
  184.301    0.276    0.355   79.863   11.035
  184.601    0.288    0.351   66.441   11.035
  184.901    0.289    0.349   61.556   10.833
  185.201    0.288    0.352   63.987   10.833
  185.501    0.289    0.370   63.982   10.833
  185.801    0.298    0.392   60.926   11.035
  186.101    0.303    0.380   59.701   11.035
  186.401    0.297    0.372   67.620   10.440
  186.701    0.284    0.365   63.956    9.697
  187.001    0.286    0.366   63.949    9.697
  187.301    0.262    0.370   64.551    9.697
  187.601    0.250    0.370   65.156    9.878
  187.901    0.275    0.368   68.199   10.249
  188.201    0.292    0.357   56.606   10.833
  188.501    0.313    0.352   55.380   12.103
  188.801    0.289    0.344   65.130   15.674
  189.101    0.289    0.335   63.903   25.809
  189.401    0.285    0.312   62.678   25.336
  189.701    0.034    0.250   67.549   23.101
  190.001    0.069    0.203   62.665   18.509
  190.301    0.130    0.238   55.338   14.558
  190.601    0.222    0.276   55.334   11.881
  190.901    0.226    0.329   58.376   10.833
  191.201    0.258    0.352   65.686   10.249
  191.501    0.287    0.367   70.558    9.878
  191.801    0.297    0.364   65.674    9.697
  192.101    0.297    0.369   68.106   10.062
  192.401    0.293    0.385   68.098   10.635
  192.701    0.267    0.397   68.093   11.450
  193.001    0.241    0.390   68.695   11.881
  193.301    0.234    0.365   69.909   11.881
  193.601    0.204    0.349   71.122   11.241
  193.901    0.178    0.312   68.066   10.249
  194.201    0.235    0.312   65.622    9.878
  194.501    0.310    0.352   68.663    9.519
  194.801    0.302    0.393   72.316    9.345
  195.101    0.258    0.381   63.772    9.697
  195.401    0.252    0.360   69.253    9.878
  195.701    0.256    0.360   72.905   10.249
  196.001    0.260    0.352   70.460   10.440
  196.301    0.268    0.362   66.185   10.635
  196.601    0.276    0.380   74.106   10.635
  196.901    0.286    0.378   66.781   10.062
  197.201    0.295    0.380   64.336    9.345
  197.501    0.284    0.391   74.696    8.212
  197.801    0.251    0.393   84.446    7.350
  198.101    0.238    0.389   82.609    6.954
  198.401    0.236    0.389   78.945    6.827
  198.701    0.216    0.393   83.207    6.827
  199.001    0.221    0.395   89.297    6.954
  199.301    0.226    0.387   88.071    7.216
  199.601    0.220    0.385   91.724    7.350
  199.901    0.216    0.427   93.546    7.627
  200.201    0.218    0.414   91.711    7.627
  200.501    0.242    0.399   86.826    7.350
  200.801    0.232    0.407   92.917    7.216
  201.101    0.236    0.432   91.082    6.954
  201.401    0.226    0.428   93.513    6.702
  201.701    0.222    0.419   91.678    6.579
  202.001    0.239    0.412   96.550    6.702
  202.301    0.255    0.401   91.054    6.954
  202.601    0.257    0.402   87.999    7.350
  202.901    0.230    0.402   86.163    8.212
  203.201    0.241    0.398   78.838    9.345
  203.501    0.254    0.412   83.710   10.249
  203.801    0.188    0.392   89.802   10.635
  204.101    0.208    0.382   85.528   11.035
