~VERSION INFORMATION
 VERS.                 2.0:   CWLS LOG ASCII STANDARD -VERSION 2.0
 WRAP.                  NO:   ONE LINE PER DEPTH STEP
~WELL INFORMATION BLOCK
#MNEM.UNIT           DATA                    DESCRIPTION OF MNEMONIC
#---------    -------------------            -------------------------------
# Generated from Intellog Unique Number	CW_76_78/WELL/2799
WELL.         07-22-077-26W4                 : Well_name    - WELL
LOC .         00/07-22-077-26W4/0            : Location     - LOCATION
UWI .         00/07-22-077-26W4/0            : Uwi          - UNIQUE WELL ID
ENTR.         JJ                             : Entered      - ENTERED BY
SRVC.         WESTERN ATLAS                  : Scn          - SERVICE COMPANY
DATE.         25 MAR 68                      : Date         - LOG DATE
STRT.M        481.584                        : top_depth    - START DEPTH
STOP.M        609.584                        : bot_depth    - STOP DEPTH
STEP.M        0.25                           : increment    - STEP LENGTH
 NULL. -999.2500:NULL Value
~CURVE INFORMATION BLOCK
#MNEM UNIT       ERCB CURVE CODE    CURVE DESCRIPTION
#-----------   ------------------   ----------------------------------
DEPT.M        00 001 00 00         : DEPTH        - DEPTH
DELT.US/F     00 520 00 00         : DELT         - SONIC TRAVEL TIME
GR  .API      00 310 00 00         : GR           - GAMMA RAY
ILD .OHMM     00 120 00 00         : RESD         - DEEP RESISTIVITY (DIL)
~PARAMETER INFORMATION
#MNEM.UNIT           DATA             DESCRIPTION OF MNEMONIC
#---------         -----------     ------------------------------
GL  .M        693.42               : gl           - GROUND LEVEL ELEVATION
EREF.M        696.773              : kb           - ELEVATION OF DEPTH REFERENCE
DATM.M        693.42               : datum        - DATUM ELEVATION
TDD .M        606.247              : tdd          - TOTAL DEPTH DRILLER
RUN .         ONE                  : Run          - RUN NUMBER
ENG .         BRADBEER             : Engineer     - RECORDING ENGINEER
WIT .         ROGERS               : Witness      - WITNESSED BY
BASE.         EDM                  : Branch       - HOME BASE OF LOGGING UNIT
MUD .         CHEM MUD             : Mud_type     - MUD TYPE
MATR.         SANDSTONE            : Logunit      - NEUTRON MATRIX
TMAX.C        26.6667              : BHT          - MAXIMUM RECORDED TEMPERATURE
BHTD.M        605.333              : BHTDEP       - MAXIMUM RECORDED TEMPERATURE
RMT .C        11.1111              : MDTP         - TEMPERATURE OF MUD
MUDD.KG/M     1176                 : MWT          - MUD DENSITY
NEUT.         1                    : NEUTRON      - NEUTRON TYPE
RESI.         0                    : RESIST       - RESISTIVITY TYPE
RM  .OHMM     4.04                 : RM           - RESISTIVITY OF MUD
RMC .OHMM     3.2                  : RMC          - RESISTIVITY OF MUD CAKE
RMF .OHMM     4.7                  : RMF          - RESISTIVITY OF MUD FILTRATE
SUFT.C        5                    : SUFT         - SURFACE TEMPERATURE
~A  DEPTH     DELT       GR     RESD
  481.584  391.248   84.459    3.441
  481.834  396.720   78.587    3.385
  482.084  407.684   70.273    3.387
  482.334  389.997   70.287    3.494
  482.584  372.447   72.941    3.651
  482.834  342.581   70.562    3.889
  483.084  322.620   68.878    4.267
  483.334  299.045   64.852    4.883
  483.584  332.899   64.515    4.737
  483.834  379.870   69.264    4.394
  484.084  387.484   75.409    4.010
  484.334  388.204   78.362    3.740
  484.584  408.003   79.074    3.447
  484.834  402.164   75.594    3.251
  485.084  389.166   79.196    3.129
  485.334  375.899   83.946    3.016
  485.584  403.927   78.623    3.025
  485.834  416.762   78.138    3.133
  486.084  403.764   76.703    3.372
  486.334  397.657   70.035    3.602
  486.584  408.620   61.971    3.833
  486.834  423.398   64.627    4.055
  487.084  407.251   69.825    4.277
  487.334  383.610   71.680    4.123
  487.584  376.166   64.662    3.911
  487.834  350.650   63.329    3.912
  488.084  321.454   59.003    4.175
  488.334  328.465   64.201    4.643
  488.584  317.005   63.018    4.964
  488.834  308.692   65.671    5.293
  489.084  304.258   59.452    5.605
  489.334  300.229   58.618    5.909
  489.584  293.319   61.770    6.181
  489.834  310.038   57.743    5.863
  490.084  364.705   56.759    5.413
  490.334  384.302   62.106    4.808
  490.584  387.834   68.003    4.440
  490.834  376.909   70.556    4.106
  491.084  369.864   74.259    3.836
  491.334  367.776   71.431    3.682
  491.584  379.409   71.989    3.584
  491.834  373.169   73.298    3.668
  492.084  384.130   75.754    4.095
  492.334  381.639   80.602    4.571
  492.584  333.501   84.305    5.236
  492.834  235.030   68.810    6.065
  493.084  226.917   57.008    6.852
  493.334  240.087   58.166    7.410
  493.584  279.160   65.208    6.691
  493.834  316.426   70.505    5.839
  494.084  384.345   73.808    4.931
  494.334  359.634   74.720    4.727
  494.584  294.627   71.589    4.950
  494.834  274.401   64.823    5.344
  495.084  287.637   58.850    5.681
  495.334  323.162   62.103    5.641
  495.584  345.369   70.093    5.257
  495.834  358.607   72.801    4.775
  496.084  371.710   74.057    4.301
  496.334  378.725   73.621    3.974
  496.584  374.290   78.618    3.820
  496.834  377.421   81.971    3.764
  497.084  368.238   79.392    3.765
  497.334  366.416   79.754    3.798
  497.584  371.754   80.612    3.824
  497.834  380.574   83.070    3.842
  498.084  382.904   76.648    3.884
  498.334  376.326   80.151    3.942
  498.584  370.356   88.641    3.985
  498.834  365.789   91.844    3.920
  499.084  374.678   94.897    3.823
  499.334  381.222   95.456    3.767
  499.584  380.068   96.218    3.710
  499.834  381.326   98.273    3.646
  500.084  384.524   87.117    3.614
  500.334  370.655   79.153    3.583
  500.584  379.207   85.646    3.584
  500.834  389.564   83.068    3.634
  501.084  392.965   85.272    3.701
  501.334  370.460   81.745    3.825
  501.584  355.855   79.165    4.031
  501.834  356.710   81.471    4.155
  502.084  368.140   86.818    4.197
  502.334  370.134   90.768    4.157
  502.584  368.847   80.560    4.084
  502.834  369.836   81.520    3.971
  503.084  370.355   81.283    3.808
  503.334  374.825   80.598    3.833
  503.584  375.948   76.771    3.999
  503.834  370.514   71.897    3.975
  504.084  363.805   76.897    3.837
  504.334  374.766   80.897    3.732
  504.584  383.722   83.401    3.667
  504.834  383.907   86.853    3.693
  505.084  389.849   85.471    3.776
  505.334  389.365   77.804    4.023
  505.584  376.567   75.724    4.417
  505.834  332.444   74.540    5.000
  506.084  322.455   72.160    5.493
  506.334  315.880   68.431    5.985
  506.584  306.030   62.611    6.494
  506.834  260.367   58.684    6.422
  507.084  305.063   58.347    6.202
  507.334  326.399   64.942    5.875
  507.584  351.013   69.241    5.696
  507.834  338.885   75.834    5.607
  508.084  310.556   73.305    5.584
  508.334  298.161   67.283    6.167
  508.584  283.555   66.698    6.315
  508.834  328.384   66.561    6.021
  509.084  340.886   67.920    5.703
  509.334  345.487   71.919    5.204
  509.584  346.743   75.771    4.886
  509.834  350.679   79.772    4.657
  510.084  359.432   77.192    4.519
  510.334  363.968   74.213    4.430
  510.584  370.179   78.613    4.227
  510.834  372.774   83.810    4.130
  511.084  364.526   77.940    4.106
  511.334  358.486   78.899    4.132
  511.584  366.236   80.157    4.206
  511.834  370.036   77.378    4.306
  512.084  375.311   74.599    4.447
  512.334  359.231   71.769    4.488
  512.584  335.523   71.084    4.547
  512.834  324.800   71.943    4.523
  513.084  345.600   74.748    4.352
  513.334  363.789   76.355    4.181
  513.584  366.387   77.615    3.969
  513.834  359.745   77.327    3.717
  514.084  365.620   78.786    3.488
  514.334  376.917   83.434    3.449
  514.584  388.078   88.781    3.565
  514.834  292.152   84.157    4.147
  515.084  241.001   73.899    6.205
  515.334  232.888   62.694    7.099
  515.584  229.592   50.441    7.780
  515.834  226.098   50.654    8.314
  516.084  282.105   50.117    7.782
  516.334  303.038   54.117    6.907
  516.584  334.883   61.110    6.261
  516.834  333.665   68.401    5.737
  517.084  328.427   70.059    5.247
  517.334  335.173   71.817    4.986
  517.584  336.765   69.685    5.454
  517.834  320.820   72.240    6.979
  518.084  272.950   64.425    8.488
  518.334  245.493   57.309    9.808
  518.584  238.651   49.642   10.727
  518.834  225.384   52.297   11.793
  519.084  213.187   51.761   12.679
  519.334  219.732   48.782   11.058
  519.584  285.710   51.936    8.806
  519.834  314.411   59.577    7.677
  520.084  342.507   65.919    7.071
  520.334  323.684   71.267    6.220
  520.584  307.336   70.883    5.508
  520.834  316.157   71.939    5.256
  521.084  332.875   77.736    5.273
  521.334  349.996   77.948    5.356
  521.584  344.024   77.013    5.628
  521.834  344.611   77.126    6.022
  522.084  296.808   69.211    6.457
  522.334  274.705   62.092    7.032
  522.584  281.718   63.151    7.058
  522.834  332.571   67.353    6.576
  523.084  353.439   72.250    6.150
  523.334  339.168   76.999    5.472
  523.584  331.454   78.807    5.178
  523.834  313.771   74.132    5.318
  524.084  261.148   70.406    5.778
  524.334  229.341   65.232    6.443
  524.584  283.004   62.054    6.772
  524.834  317.192   64.560    6.732
  525.084  334.713   70.803    6.348
  525.334  343.332   71.165    5.759
  525.584  359.312   75.067    5.261
  525.834  323.891   77.821    5.008
  526.084  312.297   78.831    4.861
  526.334  327.275   77.845    4.764
  526.584  351.624   74.318    4.732
  526.834  359.840   81.760    4.733
  527.084  351.527   83.865    4.759
  527.334  341.402   79.541    4.768
  527.584  345.674   76.911    4.720
  527.834  340.908   78.918    4.672
  528.084  321.884   80.574    4.665
  528.334  330.369   79.391    4.650
  528.584  343.540   76.660    4.626
  528.834  357.512   75.227    4.587
  529.084  351.944   75.139    4.563
  529.334  357.083   75.002    4.564
  529.584  362.690   81.396    4.582
  529.834  350.626   86.394    4.624
  530.084  351.282   81.470    4.682
  530.334  322.621   80.934    4.831
  530.584  317.116   80.150    4.898
  530.834  330.154   73.382    4.890
  531.084  367.353   70.402    4.760
  531.334  362.317   73.256    4.532
  531.584  354.537   77.806    4.255
  531.834  350.707   80.211    4.198
  532.084  354.777   84.411    4.176
  532.334  359.582   77.194    4.226
  532.584  352.672   79.452    4.251
  532.834  353.394   77.619    4.310
  533.084  355.653   75.736    4.352
  533.334  357.981   81.033    4.394
  533.584  358.570   82.442    4.485
  533.834  350.254   90.980    4.584
  534.084  360.615   83.363    4.733
  534.334  343.801   79.985    4.906
  534.584  309.651   77.605    4.981
  534.834  297.855   71.486    4.941
  535.084  310.090   70.151    4.746
  535.334  325.803   79.187    4.362
  535.584  372.707   89.121    4.150
