~VERSION INFORMATION
 VERS.                 2.0:   CWLS LOG ASCII STANDARD -VERSION 2.0
 WRAP.                  NO:   ONE LINE PER DEPTH STEP
~WELL INFORMATION BLOCK
#MNEM.UNIT           DATA                    DESCRIPTION OF MNEMONIC
#---------    -------------------            -------------------------------
# Generated from Intellog Unique Number	CX_WELLS/WELL/2902
NULL.         -999.25                        : NULL_VALUE
WELL.         GULF RISNNIN                   : Well_name    - WELL              
LOC .         00/07-24-082-06W4/0            : Location     - LOCATION          
UWI .         00/07-24-082-06W4/0            : Uwi          - UNIQUE WELL ID    
ENTR.         T                              : Entered      - ENTERED BY        
SRVC.         SCHLUMBERGER                   : Scn          - SERVICE COMPANY   
STRT.M        90                             : top_depth    - START DEPTH       
STOP.M        270                            : bot_depth    - STOP DEPTH        
STEP.M        0.25                           : increment    - STEP LENGTH       
~CURVE INFORMATION BLOCK
#MNEM UNIT       ERCB CURVE CODE    CURVE DESCRIPTION
#-----------   ------------------   ----------------------------------
DEPT.M        00 001 00 00         : DEPTH        - DEPTH                       
GR  .API      00 310 00 00         : GR           - GAMMA RAY                   
NPHI.V/V      00 330 00 00         : PHIN         - NEUTRON POROSITY (SANDSTONE)
DPHI.V/V      00 890 00 00         : PHID         - DENSITY POROSITY (SANDSTONE)
ILD .OHMM     00 120 00 00         : RESD         - DEEP RESISTIVITY (OTHER)    
~PARAMETER INFORMATION       
#MNEM.UNIT           DATA             DESCRIPTION OF MNEMONIC
#---------         -----------     ------------------------------
GL  .M        471.6                : gl           - GROUND LEVEL ELEVATION      
EREF.M        474.8                : kb           - ELEVATION OF DEPTH REFERENCE
DATM.M        474.8                : datum        - DATUM ELEVATION             
TDD .M        320                  : tdd          - TOTAL DEPTH DRILLER         
RUN .         ONE                  : Run          - RUN NUMBER                  
ENG .         BILL                 : Engineer     - RECORDING ENGINEER          
WIT .         JIM                  : Witness      - WITNESSED BY                
MUD .         GEL                  : Mud_type     - MUD TYPE                    
MATR.         SANDSTONE            : Logunit      - NEUTRON MATRIX              
TMAX.C        19                   : BHT          - MAXIMUM RECORDED TEMPERATURE
BHTD.M        320                  : BHTDEP       - MAXIMUM RECORDED TEMPERATURE
MATR.         1                    : LOGUNIT      - NEUTRON MATRIX              
RMT .C        17                   : MDTP         - TEMPERATURE OF MUD          
NEUT.         1                    : NEUTRON      - NEUTRON TYPE                
RESI.         4                    : RESIST       - RESISTIVITY TYPE            
RMC .OHMM     6.36                 : RMC          - RESISTIVITY OF MUD CAKE     
RMF .OHMM     6.36                 : RMF          - RESISTIVITY OF MUD FILTRATE 
SUFT.C        4                    : SUFT         - SURFACE TEMPERATURE         
~A  DEPTH       GR     PHIN     PHID     RESD
   90.000   67.772    0.382    0.150   19.984
   90.250   70.087    0.396    0.178   18.014
   90.500   72.956    0.414    0.228   16.579
   90.750   74.695    0.424    0.233   15.258
   91.000   77.564    0.429    0.238   13.471
   91.250   80.455    0.441    0.246   12.924
   91.500   79.349    0.452    0.243   12.927
   91.750   77.702    0.458    0.240   13.477
   92.000   73.796    0.462    0.237   15.272
   92.250   69.327    0.468    0.237   17.304
   92.500   63.152    0.470    0.242   18.808
   92.750   58.682    0.471    0.252   21.761
   93.000   54.777    0.398    0.305   23.653
   93.250   51.436    0.381    0.321   25.180
   93.500   48.660    0.373    0.334   26.805
   93.750   48.706    0.373    0.341   29.750
   94.000   61.182    0.372    0.341   30.379
   94.250   66.320    0.372    0.341   31.022
   94.500   69.177    0.372    0.341   31.681
   94.750   72.621    0.370    0.342   31.685
   95.000   69.833    0.369    0.331   30.402
   95.250   65.939    0.375    0.320   29.780
   95.500   60.905    0.403    0.310   28.572
   95.750   55.859    0.388    0.312   27.413
   96.000   49.132    0.394    0.314   26.853
   96.250   41.851    0.407    0.316   25.763
   96.500   42.462    0.421    0.319   25.769
   96.750   41.943    0.398    0.320   25.774
   97.000   40.849    0.383    0.321   25.778
   97.250   44.282    0.370    0.323   25.785
   97.500   49.984    0.373    0.326   25.788
   97.750   50.019    0.387    0.326   25.791
   98.000   50.629    0.413    0.316   25.796
   98.250   52.380    0.422    0.315   25.269
   98.500   52.979    0.411    0.314   24.752
   98.750   54.166    0.405    0.314   24.247
   99.000   54.788    0.401    0.315   23.752
   99.250   55.387    0.400    0.315   23.267
   99.500   55.433    0.406    0.314   22.792
   99.750   55.490    0.416    0.315   21.870
  100.000   54.407    0.419    0.315   21.873
  100.250   54.453    0.413    0.315   21.428
  100.500   54.499    0.410    0.315   21.430
  100.750   55.098    0.409    0.315   20.992
  101.000   55.156    0.406    0.319   20.564
  101.250   55.191    0.407    0.318   19.730
  101.500   55.236    0.422    0.317   19.327
  101.750   56.423    0.427    0.321   19.330
  102.000   57.598    0.416    0.326   18.936
  102.250   57.644    0.417    0.341   18.939
  102.500   56.561    0.427    0.361   18.943
  102.750   53.232    0.430    0.350   18.947
  103.000   51.008    0.403    0.337   18.949
  103.250   50.490    0.384    0.330   18.952
  103.500   57.886    0.415    0.324   18.957
  103.750   58.485    0.446    0.321   18.959
  104.000   58.542    0.468    0.321   19.363
  104.250   58.577    0.443    0.321   19.366
  104.500   58.623    0.435    0.326   19.776
  104.750   58.681    0.437    0.327   19.778
  105.000   58.727    0.432    0.328   20.198
  105.250   58.773    0.426    0.329   20.201
  105.500   58.819    0.421    0.329   20.205
  105.750   59.429    0.416    0.329   20.209
  106.000   60.604    0.416    0.328   19.796
  106.250   62.920    0.421    0.322   19.799
  106.500   65.235    0.430    0.316   18.605
  106.750   65.823    0.437    0.301   17.850
  107.000   67.562    0.446    0.256   16.091
  107.250   69.302    0.437    0.247   14.206
  107.500   71.606    0.427    0.268   13.348
  107.750   76.755    0.426    0.282   11.542
  108.000   84.128    0.461    0.263    9.774
  108.250   96.028    0.485    0.247    8.107
  108.500   98.343    0.495    0.250    6.724
  108.750   98.389    0.492    0.259    5.578
  109.000   97.871    0.489    0.247    4.724
  109.250   97.917    0.494    0.246    4.532
  109.500   97.963    0.500    0.260    4.348
  109.750   98.573    0.512    0.258    4.349
  110.000   98.620    0.485    0.251    4.441
  110.250   97.560    0.475    0.240    4.442
  110.500   97.018    0.467    0.231    4.631
  110.750   94.806    0.475    0.229    5.034
  111.000   93.723    0.500    0.232    5.359
  111.250   90.383    0.509    0.235    5.473
  111.500   87.606    0.521    0.236    5.706
  111.750   83.701    0.492    0.229    5.707
  112.000   79.231    0.471    0.215    5.828
  112.250   83.228    0.458    0.202    5.829
  112.500   89.495    0.466    0.199    5.830
  112.750   89.530    0.492    0.214    5.594
  113.000   89.576    0.516    0.221    5.256
  113.250   93.585    0.535    0.231    4.939
  113.500   97.029    0.529    0.237    4.452
  113.750   96.499    0.527    0.245    4.271
  114.000   93.170    0.519    0.257    4.184
  114.250   89.818    0.511    0.269    4.363
  114.500   78.021    0.508    0.280    4.549
  114.750   77.491    0.533    0.287    4.843
  115.000   74.139    0.534    0.296    5.487
  115.250   67.976    0.467    0.288    6.481
  115.500   61.248    0.436    0.257    8.320
  115.750   52.263    0.418    0.235   10.246
  116.000   45.523    0.409    0.210   12.882
  116.250   42.182    0.408    0.237   15.536
  116.500   42.793    0.406    0.261   18.352
  116.750   42.851    0.406    0.317   20.794
  117.000   43.461    0.406    0.332   22.138
  117.250   44.636    0.401    0.339   22.607
  117.500   45.834    0.400    0.341   22.610
  117.750   45.857    0.396    0.340   22.615
  118.000   45.903    0.389    0.339   22.621
  118.250   45.961    0.390    0.336   22.623
  118.500   46.007    0.398    0.335   22.163
  118.750   46.629    0.413    0.334   22.165
  119.000   47.216    0.426    0.334   21.713
  119.250   48.403    0.423    0.334   21.717
  119.500   48.449    0.418    0.335   21.721
  119.750   47.366    0.425    0.336   21.725
  120.000   46.283    0.435    0.336   21.727
  120.250   45.765    0.434    0.334   21.731
  120.500   45.811    0.425    0.334   21.735
  120.750   46.997    0.416    0.337   21.739
  121.000   47.032    0.411    0.337   22.201
  121.250   47.654    0.410    0.333   22.204
  121.500   48.276    0.413    0.329   22.209
  121.750   48.299    0.412    0.330   22.213
  122.000   49.485    0.408    0.331   22.217
  122.250   50.084    0.402    0.335   22.689
  122.500   50.130    0.403    0.335   22.691
  122.750   49.635    0.409    0.332   22.696
  123.000   49.669    0.413    0.329   22.699
  123.250   49.163    0.416    0.329   22.703
  123.500   48.633    0.421    0.327   22.709
  123.750   48.679    0.428    0.328   22.713
  124.000   48.736    0.435    0.328   22.716
  124.250   48.771    0.439    0.331   22.716
  124.500   49.393    0.438    0.332   23.691
  124.750   50.015    0.431    0.335   23.693
  125.000   50.038    0.433    0.340   23.697
  125.250   50.084    0.435    0.341   24.201
  125.500   54.646    0.428    0.339   24.203
  125.750   60.901    0.428    0.336   24.207
  126.000   63.205    0.428    0.327   24.213
  126.250   63.263    0.428    0.317   24.217
  126.500   60.486    0.425    0.314   24.222
  126.750   56.569    0.429    0.356   24.224
  127.000   50.418    0.438    0.374   21.836
  127.250   48.759    0.448    0.369   18.881
  127.500   48.805    0.436    0.349   19.282
  127.750   49.992    0.425    0.337   19.689
  128.000   51.178    0.430    0.331   20.108
  128.250   52.342    0.432    0.327   21.406
  128.500   54.657    0.427    0.325   21.861
  128.750   55.843    0.424    0.322   22.324
  129.000   55.867    0.420    0.320   22.328
  129.250   56.500    0.417    0.317   22.331
  129.500   56.535    0.412    0.317   22.335
  129.750   57.133    0.419    0.318   22.338
  130.000   57.203    0.428    0.319   22.344
  130.250   57.237    0.430    0.323   22.344
  130.500   57.859    0.418    0.325   22.822
  130.750   57.882    0.408    0.326   23.303
  131.000   57.387    0.409    0.327   23.307
  131.250   56.868    0.415    0.329   22.832
  131.500   56.350    0.424    0.331   22.837
  131.750   56.972    0.428    0.335   22.840
  132.000   57.559    0.430    0.337   22.375
  132.250   57.617    0.421    0.337   22.378
  132.500   57.087    0.417    0.336   22.383
  132.750   56.016    0.412    0.335   21.926
  133.000   55.486    0.410    0.334   21.479
  133.250   54.414    0.439    0.334   21.483
