~VERSION INFORMATION
 VERS.                 2.0:   CWLS LOG ASCII STANDARD -VERSION 2.0
 WRAP.                  NO:   ONE LINE PER DEPTH STEP
~WELL INFORMATION BLOCK
#MNEM.UNIT           DATA                    DESCRIPTION OF MNEMONIC
#---------    -------------------            -------------------------------
# Generated from Intellog Unique Number	CX_WELLS/WELL/3007
WELL.         TRITON ATCOR THORNBURY         : Well_name    - WELL
LOC .         00/08-04-082-12W4/0            : Location     - LOCATION
UWI .         00/08-04-082-12W400            : Uwi          - UNIQUE WELL ID
ENTR.         T                              : Entered      - ENTERED BY
SRVC.         SCHLUMBERGER                   : Scn          - SERVICE COMPANY
STRT.M        300                            : top_depth    - START DEPTH
STOP.M        535                            : bot_depth    - STOP DEPTH
STEP.M        0.25                           : increment    - STEP LENGTH
 NULL. -999.2500:NULL Value
~CURVE INFORMATION BLOCK
#MNEM UNIT       ERCB CURVE CODE    CURVE DESCRIPTION
#-----------   ------------------   ----------------------------------
DEPT.M        00 001 00 00         : DEPTH        - DEPTH
GR  .API      00 310 00 00         : GR           - GAMMA RAY
NPHI.V/V      00 330 00 00         : PHIN         - NEUTRON POROSITY (SANDSTONE)
DPHI.V/V      00 890 00 00         : PHID         - DENSITY POROSITY (SANDSTONE)
ILD .OHMM     00 120 00 00         : RESD         - DEEP RESISTIVITY (OTHER)
~PARAMETER INFORMATION
#MNEM.UNIT           DATA             DESCRIPTION OF MNEMONIC
#---------         -----------     ------------------------------
GL  .M        746                  : gl           - GROUND LEVEL ELEVATION
EREF.M        748.6                : kb           - ELEVATION OF DEPTH REFERENCE
DATM.M        748.6                : datum        - DATUM ELEVATION
TDD .M        546                  : tdd          - TOTAL DEPTH DRILLER
RUN .         ONE                  : Run          - RUN NUMBER
ENG .         BILL                 : Engineer     - RECORDING ENGINEER
WIT .         JIM                  : Witness      - WITNESSED BY
MUD .         GEL                  : Mud_type     - MUD TYPE
MATR.         SANDSTONE            : Logunit      - NEUTRON MATRIX
TMAX.C        27                   : BHT          - MAXIMUM RECORDED TEMPERATURE
BHTD.M        546                  : BHTDEP       - MAXIMUM RECORDED TEMPERATURE
MATR.         1                    : LOGUNIT      - NEUTRON MATRIX
RMT .C        16                   : MDTP         - TEMPERATURE OF MUD
NEUT.         1                    : NEUTRON      - NEUTRON TYPE
RESI.         3.34                 : RESIST       - RESISTIVITY TYPE
RMC .OHMM     2                    : RMC          - RESISTIVITY OF MUD CAKE
RMF .OHMM     3.9                  : RMF          - RESISTIVITY OF MUD FILTRATE
SUFT.C        4                    : SUFT         - SURFACE TEMPERATURE
~A  DEPTH       GR     PHIN     PHID     RESD
# ...
  430.500   96.497    0.499    0.281    4.627
  430.750   96.520    0.486    0.284    4.983
  431.000   93.574    0.472    0.296    5.468
  431.250   90.015    0.477    0.306    6.112
  431.500   84.088    0.484    0.308    6.463
  431.750   80.547    0.485    0.312    6.962
  432.000   78.184    0.458    0.305    6.590
  432.250   72.257    0.449    0.295    6.355
  432.500   74.072    0.439    0.285    6.242
  432.750   81.831    0.447    0.275    6.360
  433.000   87.805    0.468    0.267    6.483
  433.250   89.614    0.470    0.259    6.485
  433.500   90.232    0.444    0.255    6.609
  433.750   89.666    0.437    0.255    6.612
  434.000   89.695    0.429    0.255    6.617
  434.250   89.124    0.422    0.255    6.621
  434.500   89.141    0.421    0.254    6.623
  434.750   88.570    0.430    0.254    6.627
  435.000   90.378    0.447    0.252    6.630
  435.250   93.377    0.449    0.261    6.632
  435.500   95.192    0.449    0.273    6.395
  435.750   92.240    0.452    0.260    6.055
  436.000   89.883    0.454    0.260    5.836
  436.250   89.305    0.462    0.264    5.424
  436.500   90.531    0.482    0.266    4.948
  436.750   90.554    0.504    0.268    4.515
  437.000   92.958    0.535    0.274    4.687
  437.250   95.956    0.516    0.274    4.776
  437.500   98.955    0.510    0.274    5.241
  437.750   98.978    0.515    0.269    5.541
  438.000   97.211    0.515    0.263    6.081
  438.250   92.480    0.460    0.265    6.550
  438.500   87.743    0.448    0.270    6.676
  438.750   83.595    0.442    0.277    6.556
  439.000   87.194    0.437    0.273    6.322
  439.250   92.573    0.441    0.256    6.210
  439.500   96.768    0.448    0.247    6.100
  439.750   96.797    0.464    0.248    6.101
  440.000   96.815    0.466    0.249    6.105
  440.250   96.832    0.471    0.252    6.108
  440.500   97.463    0.478    0.259    6.225
  440.750   97.486    0.481    0.264    6.344
  441.000   97.515    0.483    0.271    6.709
  441.250   97.533    0.474    0.258    7.226
  441.500   96.961    0.445    0.245    7.928
  441.750   96.390    0.428    0.238    9.028
  442.000   95.824    0.398    0.211    9.545
  442.250   95.240    0.362    0.204   10.868
  442.500   95.865    0.335    0.193   11.283
  442.750   96.489    0.325    0.175    9.561
  443.000   95.923    0.373    0.218    8.884
  443.250   95.340    0.393    0.239    8.104
  443.500   97.149    0.406    0.248    7.671
  443.750   98.969    0.410    0.250    7.675
  444.000   99.576    0.416    0.253    7.680
  444.250   99.010    0.429    0.253    7.542
  444.500   98.432    0.438    0.249    7.546
  444.750   97.861    0.442    0.241    7.412
  445.000   97.295    0.444    0.241    7.281
  445.250   97.324    0.445    0.242    7.284
  445.500   97.937    0.450    0.244    7.288
  445.750   99.150    0.454    0.248    7.427
  446.000   96.198    0.459    0.256    7.568
  446.250   93.247    0.434    0.271    7.713
  446.500   82.571    0.425    0.286    7.860
  446.750   81.987    0.419    0.297    7.864
  447.000   80.226    0.426    0.295    7.869
  447.250   74.899    0.436    0.293    7.873
  447.500   73.727    0.452    0.293    7.876
  447.750   74.940    0.462    0.291    7.737
  448.000   77.350    0.426    0.283    7.742
  448.250   85.109    0.410    0.271    7.743
  448.500   89.309    0.402    0.250    7.748
  448.750   89.327    0.406    0.249    7.753
  449.000   89.345    0.422    0.253    7.755
  449.250   88.184    0.437    0.257    7.760
  449.500   87.612    0.451    0.267    7.763
  449.750   88.225    0.455    0.271    7.767
  450.000   88.855    0.446    0.274    7.628
  450.250   85.308    0.438    0.277    7.632
  450.500   80.565    0.433    0.272    7.636
  450.750   83.564    0.433    0.265    7.501
  451.000   85.968    0.437    0.256    7.504
  451.250   85.991    0.440    0.255    7.508
  451.500   83.640    0.441    0.256    7.512
  451.750   83.062    0.439    0.259    7.515
  452.000   83.086    0.437    0.264    7.518
  452.250   83.710    0.435    0.266    7.522
  452.500   84.329    0.433    0.267    7.526
  452.750   84.352    0.434    0.267    7.529
  453.000   84.376    0.437    0.267    7.533
  453.250   84.405    0.435    0.267    7.539
  453.500   85.017    0.422    0.267    7.404
  453.750   85.047    0.420    0.267    7.408
  454.000   85.070    0.429    0.272    7.411
  454.250   82.118    0.430    0.282    7.414
  454.500   76.780    0.423    0.282    7.418
  454.750   75.030    0.431    0.282    7.423
  455.000   76.244    0.440    0.282    7.424
  455.250   75.678    0.445    0.284    7.292
  455.500   75.100    0.446    0.285    7.033
  455.750   75.130    0.451    0.296    6.907
  456.000   76.332    0.459    0.306    6.784
  456.250   78.146    0.472    0.316    6.542
  456.500   81.151    0.481    0.320    6.425
  456.750   82.358    0.474    0.323    6.310
  457.000   81.787    0.466    0.324    5.973
  457.250   78.251    0.466    0.322    5.759
  457.500   77.079    0.466    0.318    5.353
  457.750   77.102    0.466    0.312    5.067
  458.000   77.715    0.467    0.309    4.884
  458.250   81.309    0.468    0.299    4.539
  458.500   84.903    0.470    0.289    4.541
  458.750   87.907    0.478    0.288    4.984
  459.000   92.108    0.496    0.281    5.368
  459.250   93.315    0.521    0.274    5.676
  459.500   93.344    0.490    0.258    6.583
  459.750   91.577    0.431    0.250    7.495
  460.000   89.214    0.410    0.221    8.377
  460.250   83.882    0.384    0.209    9.364
  460.500   77.360    0.349    0.246    9.542
  460.750   67.273    0.328    0.268    9.033
  461.000   69.671    0.377    0.289    8.394
  461.250   78.632    0.428    0.278    8.244
  461.500   83.410    0.448    0.271    7.949
  461.750   87.599    0.454    0.259    7.666
  462.000   91.198    0.462    0.257    7.528
  462.250   91.811    0.466    0.253    7.393
  462.500   91.251    0.467    0.234    7.264
  462.750   91.269    0.467    0.231    7.134
  463.000   90.108    0.468    0.228    7.137
  463.250   89.536    0.468    0.222    7.140
  463.500   88.370    0.464    0.225    7.277
  463.750   86.608    0.440    0.230    7.282
  464.000   85.435    0.434    0.235    7.285
  464.250   87.839    0.438    0.239    7.288
  464.500   90.243    0.454    0.237    7.291
  464.750   90.266    0.459    0.237    7.297
  465.000   89.700    0.459    0.237    7.167
  465.250   92.104    0.456    0.245    7.038
  465.500   95.698    0.451    0.241    6.540
  465.750   99.303    0.427    0.241    6.077
  466.000  100.505    0.425    0.241    5.443
  466.250  102.319    0.418    0.242    5.151
  466.500  102.343    0.412    0.242    4.530
  466.750  102.366    0.411    0.243    4.056
  467.000  101.199    0.413    0.246    3.632
  467.250   96.468    0.460    0.253    3.376
  467.500   92.320    0.516    0.259    3.505
  467.750   84.013    0.506    0.295    3.638
  468.000   78.086    0.493    0.279    4.066
  468.250   73.950    0.464    0.258    4.804
  468.500   73.967    0.451    0.248    5.174
  468.750   75.776    0.438    0.242    5.677
  469.000   77.585    0.425    0.236    6.229
  469.250   79.994    0.423    0.241    6.838
  469.500   80.612    0.422    0.246    6.967
  469.750   80.636    0.416    0.250    6.970
  470.000   80.659    0.408    0.253    6.477
  470.250   82.468    0.402    0.260    5.801
  470.500   85.478    0.406    0.263    5.008
  470.750   86.686    0.445    0.262    4.739
  471.000   89.691    0.463    0.255    4.486
  471.250   90.303    0.474    0.251    4.406
  471.500   90.927    0.488    0.245    4.409
  471.750   89.166    0.494    0.237    4.577
  472.000   85.030    0.468    0.223    4.752
  472.250   83.256    0.442    0.213    5.025
  472.500   80.905    0.425    0.203    4.936
  472.750   80.929    0.448    0.208    4.758
  473.000   83.326    0.475    0.259    4.341
  473.250   91.086    0.495    0.266    4.109
  473.500   98.250    0.500    0.267    3.962
  473.750  101.849    0.475    0.261    3.891
