~VERSION INFORMATION
 VERS.                 2.0:   CWLS LOG ASCII STANDARD -VERSION 2.0
 WRAP.                  NO:   ONE LINE PER DEPTH STEP
~WELL INFORMATION BLOCK
#MNEM.UNIT           DATA                    DESCRIPTION OF MNEMONIC
#---------    -------------------            -------------------------------
# Generated from Intellog Unique Number	CS_73_76/WELL/662
WELL.         AMOCO KIRBY                    : Well_name    - WELL
LOC .         00/06-31-073-04W4/0            : Location     - LOCATION
UWI .         00/06-31-073-04W4/0            : Uwi          - UNIQUE WELL ID
ENTR.         SP                             : Entered      - ENTERED BY
SRVC.         SCHLUMBERGER                   : Scn          - SERVICE COMPANY
STRT.M        270                            : top_depth    - START DEPTH
STOP.M        485                            : bot_depth    - STOP DEPTH
STEP.M        0.25                           : increment    - STEP LENGTH
 NULL. -999.2500:NULL Value
~CURVE INFORMATION BLOCK
#MNEM UNIT       ERCB CURVE CODE    CURVE DESCRIPTION
#-----------   ------------------   ----------------------------------
DEPT.M        00 001 00 00         : DEPTH        - DEPTH
DPHI.V/V      00 890 00 00         : PHID         - DENSITY POROSITY (LIMESTONE)
NPHI.V/V      00 330 00 00         : PHIN         - NEUTRON POROSITY (LIMESTONE)
GR  .API      00 310 00 00         : GR           - GAMMA RAY
ILD .OHMM     00 120 00 00         : RESD         - DEEP RESISTIVITY (DIL)
~PARAMETER INFORMATION
#MNEM.UNIT           DATA             DESCRIPTION OF MNEMONIC
#---------         -----------     ------------------------------
GL  .M        664.1                : gl           - GROUND LEVEL ELEVATION
EREF.M        669.1                : kb           - ELEVATION OF DEPTH REFERENCE
DATM.M        664.1                : datum        - DATUM ELEVATION
TDD .M        490                  : tdd          - TOTAL DEPTH DRILLER
RUN .         ONE                  : Run          - RUN NUMBER
ENG .         BILL                 : Engineer     - RECORDING ENGINEER
WIT .         JIM                  : Witness      - WITNESSED BY
MUD .         GEL                  : Mud_type     - MUD TYPE
MATR.         LIMESTONE            : Logunit      - NEUTRON MATRIX
TMAX.C        23                   : BHT          - MAXIMUM RECORDED TEMPERATURE
BHTD.M        490                  : BHTDEP       - MAXIMUM RECORDED TEMPERATURE
MATR.         1                    : LOGUNIT      - NEUTRON MATRIX
RMT .C        25                   : MDTP         - TEMPERATURE OF MUD
NEUT.         1                    : NEUTRON      - NEUTRON TYPE
RESI.         0                    : RESIST       - RESISTIVITY TYPE
RMC .OHMM     0.25                 : RMC          - RESISTIVITY OF MUD CAKE
RMF .OHMM     0.25                 : RMF          - RESISTIVITY OF MUD FILTRATE
SUFT.C        15                   : SUFT         - SURFACE TEMPERATURE
~A  DEPTH     PHID     PHIN       GR     RESD
# ...
  400.500    0.294    0.448   67.000    1.610
  400.750    0.287    0.446   66.385    1.524
  401.000    0.299    0.444   65.167    1.469
  401.250    0.299    0.460   63.350    1.390
  401.500    0.294    0.466   61.539    1.365
  401.750    0.308    0.452   61.522    1.316
  402.000    0.309    0.445   63.305    1.293
  402.250    0.293    0.435   65.693    1.269
  402.500    0.296    0.431   70.469    1.270
  402.750    0.287    0.437   72.858    1.271
  403.000    0.263    0.446   75.844    1.271
  403.250    0.243    0.458   78.825    1.295
  403.500    0.220    0.469   81.209    1.422
  403.750    0.221    0.469   82.994    1.504
  404.000    0.236    0.460   84.179    1.620
  404.250    0.256    0.464   84.764    1.651
  404.500    0.274    0.491   85.946    1.621
  404.750    0.277    0.515   85.934    1.535
  405.000    0.268    0.533   87.118    1.507
  405.250    0.259    0.516   88.306    1.453
  405.500    0.280    0.498   90.088    1.454
  405.750    0.285    0.492   92.468    1.454
  406.000    0.294    0.503   93.660    1.482
  406.250    0.301    0.529   96.043    1.511
  406.500    0.279    0.544   97.825    1.540
  406.750    0.266    0.544   99.010    1.569
  407.000    0.264    0.541   89.999    1.599
  407.250    0.274    0.546   83.984    1.660
  407.500    0.284    0.556   85.160    1.756
  407.750    0.264    0.522   85.153    1.892
  408.000    0.262    0.477   81.539    1.964
  408.250    0.280    0.445   71.923    2.116
  408.500    0.288    0.385   65.911    2.743
  408.750    0.313    0.264   61.092    4.697
  409.000    0.337    0.246   59.280    5.867
  409.250    0.363    0.229   55.660    8.043
  409.500    0.358    0.215   55.051    9.865
  409.750    0.367    0.205   53.833   13.522
  410.000    0.377    0.191   53.218   17.860
  410.250    0.366    0.163   54.405   19.969
  410.500    0.370    0.129   53.789   21.119
  410.750    0.387    0.117   52.570   21.925
  411.000    0.405    0.146   52.560   20.756
  411.250    0.425    0.169   53.144   20.009
  411.500    0.449    0.178   53.728   19.287
  411.750    0.422    0.175   54.906   17.918
  412.000    0.405    0.198   56.093   16.339
  412.250    0.417    0.222   57.278   14.359
  412.500    0.389    0.242   58.463   12.618
  412.750    0.363    0.209   59.047   11.724
  413.000    0.381    0.183   59.032   11.512
  413.250    0.390    0.192   59.021   11.307
  413.500    0.404    0.200   57.202   11.525
  413.750    0.385    0.198   56.589   11.743
  414.000    0.384    0.202   55.971   11.970
  414.250    0.355    0.199   56.553   12.198
  414.500    0.361    0.177   56.543   12.205
  414.750    0.383    0.167   56.524   11.767
  415.000    0.405    0.183   56.513   11.134
  415.250    0.428    0.219   55.900    9.785
  415.500    0.378    0.230   54.681    8.441
  415.750    0.379    0.210   53.468    7.148
  416.000    0.389    0.208   51.051    8.449
  416.250    0.355    0.194   49.239   10.556
  416.500    0.286    0.172   45.621   16.473
  416.750    0.000    0.151   43.205   21.759
  417.000    0.000    0.139   44.988   25.243
  417.250    0.150    0.130   48.570   26.209
  417.500    0.177    0.166   50.959   19.859
  417.750    0.269    0.195   55.743   13.220
  418.000    0.301    0.224   59.329    9.302
  418.250    0.329    0.252   62.313    6.919
  418.500    0.361    0.280   63.499    5.969
  418.750    0.356    0.245   62.278    5.863
  419.000    0.368    0.259   63.467    5.975
  419.250    0.394    0.287   66.451    5.868
  419.500    0.392    0.322   68.835    4.285
  419.750    0.339    0.356   70.017    3.432
  420.000    0.320    0.357   68.802    2.906
  420.250    0.314    0.358   66.990    3.131
  420.500    0.325    0.366   66.367    3.437
  420.750    0.341    0.365   66.358    3.438
  421.000    0.235    0.359   67.544    2.912
  421.250    0.249    0.380   68.128    2.559
  421.500    0.273    0.394   69.910    2.249
  421.750    0.295    0.415   72.298    1.976
  422.000    0.276    0.426   75.282    1.705
  422.250    0.280    0.428   75.867    1.526
  422.500    0.288    0.423   69.251    1.444
  422.750    0.290    0.434   68.638    1.392
  423.000    0.289    0.445   69.223    1.368
  423.250    0.275    0.453   69.808    1.343
  423.500    0.269    0.457   68.588    1.295
  423.750    0.282    0.443   67.372    1.248
  424.000    0.295    0.435   66.154    1.249
  424.250    0.288    0.457   65.544    1.226
  424.500    0.283    0.469   64.931    1.273
  424.750    0.294    0.456   64.312    1.424
  425.000    0.301    0.449   63.097    1.592
  425.250    0.300    0.456   64.278    1.847
  425.500    0.290    0.463   65.464    2.265
  425.750    0.302    0.466   66.053    2.830
  426.000    0.312    0.453   64.239    3.345
  426.250    0.336    0.447   62.424    3.740
  426.500    0.311    0.450   61.209    4.029
  426.750    0.299    0.463   60.592    4.423
  427.000    0.312    0.472   59.974    4.591
  427.250    0.328    0.484   59.961    4.767
  427.500    0.326    0.465   61.138    5.136
  427.750    0.336    0.460   61.724    5.234
  428.000    0.332    0.465   62.312    5.434
  428.250    0.326    0.473   62.901    5.641
  428.500    0.324    0.454   64.080    5.750
  428.750    0.330    0.451   64.668    5.752
  429.000    0.320    0.467   65.249    5.546
  429.250    0.326    0.479   65.835    5.347
  429.500    0.340    0.471   65.824    4.967
  429.750    0.322    0.460   65.210    4.446
  430.000    0.308    0.464   64.593    3.836
  430.250    0.309    0.462   63.374    3.434
  430.500    0.314    0.446   63.359    3.018
  430.750    0.315    0.435   63.347    2.803
  431.000    0.301    0.430   63.326    2.418
  431.250    0.301    0.424   63.318    2.247
  431.500    0.316    0.424   61.501    2.248
  431.750    0.243    0.403   60.288    2.377
  432.000    0.197    0.344   59.071    2.810
  432.250    0.108    0.173   57.254    3.997
  432.500    0.024    0.141   55.437    4.468
  432.750    0.000    0.166   54.822    4.996
  433.000    0.000    0.191   53.608    5.283
  433.250    0.014    0.220   52.996    5.286
  433.500    0.082    0.264   55.380    5.096
  433.750    0.097    0.302   56.564    4.734
  434.000    0.124    0.332   57.148    4.480
  434.250    0.158    0.368   56.536    4.401
  434.500    0.205    0.394   55.318    4.484
  434.750    0.247    0.443   52.304    4.656
  435.000    0.297    0.424   51.089    4.745
  435.250    0.301    0.432   51.073    4.660
  435.500    0.301    0.439   54.056    4.410
  435.750    0.304    0.449   55.843    3.949
  436.000    0.309    0.441   56.424    3.601
  436.250    0.330    0.419   55.806    3.345
  436.500    0.318    0.409   55.194    3.108
  436.750    0.322    0.414   55.182    3.109
  437.000    0.292    0.435   55.168    3.169
  437.250    0.293    0.432   53.941    3.290
  437.500    0.277    0.418   52.728    3.291
  437.750    0.259    0.406   51.512    3.001
  438.000    0.291    0.429   51.501    2.638
  438.250    0.308    0.440   51.489    2.496
  438.500    0.313    0.434   52.676    2.235
  438.750    0.322    0.451   53.858    2.038
  439.000    0.312    0.457   55.642    1.929
  439.250    0.319    0.460   57.425    1.929
  439.500    0.321    0.452   58.604    2.079
  439.750    0.308    0.441   59.793    2.412
  440.000    0.300    0.447   60.380    3.014
  440.250    0.302    0.444   62.165    3.562
  440.500    0.323    0.452   64.546    4.288
  440.750    0.320    0.463   65.733    4.884
  441.000    0.311    0.444   66.917    5.071
  441.250    0.279    0.421   69.301    4.980
  441.500    0.248    0.401   71.690    4.458
  441.750    0.252    0.391   81.269    3.775
  442.000    0.250    0.410   89.055    3.318
  442.250    0.216    0.408   96.239    2.758
  442.500    0.178    0.404   98.021    2.209
  442.750    0.202    0.410   94.405    2.337
  443.000    0.226    0.420   88.986    2.426
  443.250    0.257    0.437   86.575    2.254
  443.500    0.287    0.457   84.163    2.133
  443.750    0.244    0.437   81.747    2.019
