~VERSION INFORMATION
 VERS.                 2.0:   CWLS LOG ASCII STANDARD -VERSION 2.0
 WRAP.                  NO:   ONE LINE PER DEPTH STEP
~WELL INFORMATION BLOCK
#MNEM.UNIT           DATA                    DESCRIPTION OF MNEMONIC
#---------    -------------------            -------------------------------
# Generated from Intellog Unique Number	CX_WELLS/WELL/2939
WELL.         GULF SURMONT                   : Well_name    - WELL
LOC .         00/06-25-082-09W4/0            : Location     - LOCATION
UWI .         00/06-25-082-09W4/0            : Uwi          - UNIQUE WELL ID
ENTR.         T                              : Entered      - ENTERED BY
SRVC.         SCHLUMBERGER                   : Scn          - SERVICE COMPANY
DATE.         03/04/92                       : Date         - LOG DATE
STRT.F        900                            : top_depth    - START DEPTH
STOP.F        1680.02                        : bot_depth    - STOP DEPTH
STEP.F        0.82                           : increment    - STEP LENGTH
 NULL. -999.2500:NULL Value
~CURVE INFORMATION BLOCK
#MNEM UNIT       ERCB CURVE CODE    CURVE DESCRIPTION
#-----------   ------------------   ----------------------------------
DEPT.F        00 001 00 00         : DEPTH        - DEPTH
GR  .API      00 310 00 00         : GR           - GAMMA RAY
NPHI.V/V      00 330 00 00         : PHIN         - NEUTRON POROSITY (SANDSTONE)
DPHI.V/V      00 890 00 00         : PHID         - DENSITY POROSITY (SANDSTONE)
ILD .OHMM     00 120 00 00         : RESD         - DEEP RESISTIVITY (OTHER)
~PARAMETER INFORMATION
#MNEM.UNIT           DATA             DESCRIPTION OF MNEMONIC
#---------         -----------     ------------------------------
GL  .F        2422                 : gl           - GROUND LEVEL ELEVATION
EREF.F        2432                 : kb           - ELEVATION OF DEPTH REFERENCE
DATM.F        2432                 : datum        - DATUM ELEVATION
TDD .F        1690                 : tdd          - TOTAL DEPTH DRILLER
RUN .         ONE                  : Run          - RUN NUMBER
ENG .         JO                   : Engineer     - RECORDING ENGINEER
WIT .         TIM                  : Witness      - WITNESSED BY
MUD .         GEL                  : Mud_type     - MUD TYPE
MATR.         SANDSTONE            : Logunit      - NEUTRON MATRIX
TMAX.F        62                   : BHT          - MAXIMUM RECORDED TEMPERATURE
BHTD.F        1690                 : BHTDEP       - MAXIMUM RECORDED TEMPERATURE
RMT .F        60                   : MDTP         - TEMPERATURE OF MUD
MUDD.LB/G     9.6                  : MWT          - MUD DENSITY
NEUT.         1                    : NEUTRON      - NEUTRON TYPE
RESI.         6.5                  : RESIST       - RESISTIVITY TYPE
RM  .OHMM     9.5                  : RM           - RESISTIVITY OF MUD
RMC .OHMM     9.5                  : RMC          - RESISTIVITY OF MUD CAKE
RMF .OHMM     9.5                  : RMF          - RESISTIVITY OF MUD FILTRATE
SUFT.F        39.2                 : SUFT         - SURFACE TEMPERATURE
~A  DEPTH       GR     PHIN     PHID     RESD
  900.000  101.842    0.591    0.245    3.827
  900.820  101.899    0.586    0.247    3.569
  901.640  102.071    0.583    0.252    3.385
  902.461  102.747    0.577    0.256    3.272
  903.281  104.157    0.576    0.262    3.222
  904.101  105.481    0.581    0.268    3.172
  904.921  106.272    0.588    0.274    3.188
  905.741  106.358    0.593    0.281    3.195
  906.562  106.472    0.594    0.283    3.200
  907.382  106.558    0.589    0.285    3.155
  908.202  106.672    0.584    0.276    3.109
  909.022  107.406    0.585    0.274    3.059
  909.843  107.577    0.591    0.277    3.009
  910.663  107.634    0.593    0.279    2.965
  911.483  107.777    0.588    0.280    2.918
  912.303  107.272    0.586    0.280    2.875
  913.123  107.415    0.586    0.281    2.829
  913.944  107.501    0.586    0.281    2.785
  914.764  107.025    0.584    0.272    2.793
  915.584  105.900    0.578    0.263    2.702
  916.404  106.015    0.573    0.238    2.661
  917.224  105.481    0.580    0.213    2.623
  918.045  104.385    0.592    0.196    2.627
  918.865  103.233    0.591    0.187    2.633
  919.685  102.756    0.592    0.221    2.693
  920.505  103.490    0.596    0.249    2.699
  921.325  103.576    0.602    0.267    2.705
  922.146  103.099    0.607    0.274    2.767
  922.966  102.566    0.610    0.270    2.771
  923.786  102.118    0.610    0.266    2.832
  924.606  102.232    0.607    0.263    2.893
  925.427  101.670    0.601    0.259    3.068
  926.247  101.813    0.596    0.253    3.133
  927.067  101.927    0.585    0.249    3.258
  927.887  102.070    0.574    0.239    3.330
  928.707  102.775    0.555    0.184    3.401
  929.528  103.537    0.543    0.174    3.408
  930.348  103.623    0.537    0.133    3.487
  931.168  103.175    0.534    0.158    3.564
  931.988  102.613    0.536    0.174    3.635
  932.808  101.489    0.548    0.210    3.716
  933.629  100.984    0.553    0.236    3.724
  934.449  101.127    0.540    0.230    3.809
  935.269  102.508    0.526    0.215    3.888
  936.089  103.213    0.514    0.211    3.902
  936.909  103.299    0.517    0.217    3.910
  937.730  103.470    0.525    0.224    3.919
  938.550  103.556    0.539    0.234    4.006
  939.370  104.318    0.555    0.236    4.020
  940.190  105.023    0.564    0.231    4.029
  941.010  108.234    0.559    0.224    4.043
  941.831  110.854    0.551    0.213    4.055
  942.651  110.377    0.552    0.207    4.063
  943.471  109.253    0.558    0.204    4.081
  944.291  108.748    0.562    0.204    4.087
  945.112  107.567    0.565    0.204    4.101
  945.932  105.823    0.560    0.204    4.113
  946.752  104.108    0.551    0.206    4.198
  947.572  104.223    0.545    0.210    4.291
  948.392  104.337    0.538    0.215    4.386
  949.213  103.861    0.525    0.217    4.477
  950.033  102.708    0.522    0.219    4.573
  950.853   99.697    0.528    0.217    4.850
  951.673   95.477    0.536    0.198    5.230
  952.493   90.637    0.539    0.180    5.749
  953.314   83.969    0.542    0.160    6.816
  954.134   80.310    0.529    0.150    7.212
  954.954   75.471    0.417    0.132    8.087
  955.774   79.948    0.421    0.146    8.401
  956.594   83.806    0.431    0.180    9.426
  957.415   85.750    0.432    0.239    9.800
  958.235   90.199    0.436    0.242   10.584
  959.055   91.609    0.445    0.246   10.803
  959.875   89.246    0.460    0.253   11.027
  960.696   86.207    0.473    0.258   11.271
  961.516   80.748    0.472    0.265   11.726
  962.336   74.670    0.459    0.270   11.978
  963.156   74.194    0.452    0.279   13.185
  963.976   78.643    0.441    0.286   13.962
  964.797   82.444    0.436    0.285   15.058
  965.617   89.398    0.437    0.278   16.564
  966.437   94.495    0.438    0.257   16.624
  967.257   99.564    0.440    0.247   16.059
  968.077  102.774    0.443    0.235   14.693
  968.898  108.490    0.455    0.227   13.189
  969.718  112.939    0.470    0.227   11.213
  970.538  113.082    0.491    0.228    9.189
  971.358   99.544    0.508    0.237    8.260
  972.178   89.074    0.517    0.257    8.600
  972.999   83.615    0.533    0.262    9.622
  973.819   72.555    0.557    0.282   12.952
  974.639   62.142    0.566    0.474   14.228
  975.459   60.427    0.537    0.515   17.797
  976.280   63.609    0.465    0.392   21.444
  977.100   69.296    0.448    0.294   24.026
  977.920   71.945    0.434    0.295   24.112
  978.740   71.440    0.433    0.303   24.164
  979.560   67.839    0.427    0.305   24.233
  980.381   65.419    0.424    0.299   24.320
  981.201   61.227    0.424    0.293   24.390
  982.021   60.694    0.430    0.289   24.460
  982.841   65.848    0.433    0.290   24.548
  983.661   67.791    0.429    0.291   24.583
  984.482   69.115    0.426    0.293   24.653
  985.302   71.707    0.426    0.299   23.833
  986.122   74.412    0.426    0.307   22.637
  986.942   75.089    0.429    0.308   20.741
  987.762   75.851    0.434    0.308   19.658
  988.583   75.936    0.437    0.314   18.645
  989.403   76.051    0.438    0.317   17.071
  990.223   76.194    0.441    0.299   17.120
  991.043   75.632    0.444    0.284   17.487
  991.864   71.411    0.449    0.279   18.530
  992.684   65.333    0.448    0.281   19.998
  993.504   61.703    0.444    0.289   21.584
  994.324   57.483    0.443    0.298   23.294
  995.144   57.006    0.439    0.308   24.683
  995.965   63.932    0.438    0.320   25.698
  996.785   70.858    0.435    0.315   25.753
  997.605   80.909    0.435    0.289   25.827
  998.425   84.739    0.438    0.282   25.430
  999.245   88.007    0.445    0.271   25.040
 1000.070   88.712    0.450    0.258   22.493
 1000.890   89.502    0.454    0.247   18.775
 1001.710   88.321    0.457    0.236   18.499
 1002.530   84.720    0.456    0.239   19.232
 1003.350   81.738    0.450    0.265   20.772
 1004.170   83.739    0.443    0.267   21.595
 1004.990   85.063    0.434    0.282   22.899
 1005.810   85.853    0.425    0.293   22.997
 1006.630   85.939    0.422    0.305   23.030
 1007.450   86.701    0.423    0.308   22.676
 1008.270   88.054    0.427    0.303   22.741
 1009.090   89.407    0.433    0.296   22.392
 1009.910   90.731    0.448    0.289   21.662
 1010.730   92.703    0.460    0.282   21.314
 1011.550   94.675    0.457    0.277   19.862
 1012.370  100.391    0.455    0.277   18.852
 1013.190  106.079    0.458    0.278   18.237
 1014.010  111.176    0.463    0.265   17.631
 1014.830  116.244    0.465    0.254   17.347
 1015.650  115.739    0.469    0.259   16.782
 1016.470  110.280    0.471    0.267   16.524
 1017.290  106.679    0.472    0.262   15.974
 1018.110  111.747    0.477    0.248   14.604
 1018.930  117.463    0.483    0.223   13.110
 1019.750  121.912    0.495    0.187    9.448
 1020.570  125.771    0.502    0.170    8.038
 1021.390  125.885    0.510    0.176    7.349
 1022.210  124.761    0.522    0.183    6.597
 1023.030  123.665    0.540    0.189    5.507
 1023.850  124.399    0.556    0.188    4.768
 1024.670  126.399    0.552    0.185    4.610
 1025.490  127.724    0.550    0.179    4.888
 1026.310  129.076    0.549    0.185    6.947
 1027.130  127.333    0.547    0.194    7.637
 1027.950  124.351    0.535    0.207    9.202
 1028.770  121.988    0.523    0.231   18.225
 1029.590  120.864    0.507    0.251   20.420
 1030.410  119.711    0.494    0.258   21.653
 1031.230  117.377    0.483    0.286   22.527
 1032.050  114.395    0.467    0.301   23.010
 1032.870  110.175    0.451    0.294   23.487
 1033.690  106.545    0.447    0.293   23.554
 1034.510  100.438    0.445    0.299   22.787
 1035.330   92.474    0.443    0.307   22.437
 1036.150   95.742    0.443    0.313   22.092
 1036.980   92.760    0.445    0.326   21.752
 1037.800   90.340    0.445    0.330   21.799
 1038.620   86.739    0.446    0.322   21.861
 1039.440   89.359    0.447    0.320   21.924
 1040.260   93.217    0.448    0.324   21.587
 1041.080   98.285    0.449    0.326   20.489
 1041.900  103.973    0.450    0.304   18.746
