~VERSION INFORMATION
 VERS.                 2.0:   CWLS LOG ASCII STANDARD -VERSION 2.0
 WRAP.                  NO:   ONE LINE PER DEPTH STEP
~WELL INFORMATION BLOCK
#MNEM.UNIT           DATA                    DESCRIPTION OF MNEMONIC
#---------    -------------------            -------------------------------
# Generated from Intellog Unique Number	CX_WELLS/WELL/3707
WELL.         HANGINGSTONE                   : Well_name    - WELL
LOC .         00/06-23-085-11W4/0            : Location     - LOCATION
UWI .         00/06-23-085-11W400            : Uwi          - UNIQUE WELL ID
ENTR.         T                              : Entered      - ENTERED BY
SRVC.         SCHLUMBERGER                   : Scn          - SERVICE COMPANY
DATE.         03/04/92                       : Date         - LOG DATE
STRT.M        100                            : top_depth    - START DEPTH
STOP.M        275                            : bot_depth    - STOP DEPTH
STEP.M        0.25                           : increment    - STEP LENGTH
 NULL. -999.2500:NULL Value
~CURVE INFORMATION BLOCK
#MNEM UNIT       ERCB CURVE CODE    CURVE DESCRIPTION
#-----------   ------------------   ----------------------------------
DEPT.M        00 001 00 00         : DEPTH        - DEPTH
GR  .API      00 310 00 00         : GR           - GAMMA RAY
NPHI.V/V      00 330 00 00         : PHIN         - NEUTRON POROSITY (SANDSTONE)
DPHI.V/V      00 890 00 00         : PHID         - DENSITY POROSITY (SANDSTONE)
ILD .OHMM     00 120 00 00         : RESD         - DEEP RESISTIVITY (DIL)
~PARAMETER INFORMATION
#MNEM.UNIT           DATA             DESCRIPTION OF MNEMONIC
#---------         -----------     ------------------------------
GL  .M        520                  : gl           - GROUND LEVEL ELEVATION
EREF.M        524.9                : kb           - ELEVATION OF DEPTH REFERENCE
DATM.M        524.9                : datum        - DATUM ELEVATION
TDD .M        281                  : tdd          - TOTAL DEPTH DRILLER
RUN .         ONE                  : Run          - RUN NUMBER
ENG .         JO                   : Engineer     - RECORDING ENGINEER
WIT .         TIM                  : Witness      - WITNESSED BY
MUD .         GEL                  : Mud_type     - MUD TYPE
MATR.         SANDSTONE            : Logunit      - NEUTRON MATRIX
TMAX.C        26                   : BHT          - MAXIMUM RECORDED TEMPERATURE
BHTD.M        283                  : BHTDEP       - MAXIMUM RECORDED TEMPERATURE
RMT .C        18                   : MDTP         - TEMPERATURE OF MUD
MUDD.KG/M     1                    : MWT          - MUD DENSITY
NEUT.         1                    : NEUTRON      - NEUTRON TYPE
RESI.         0                    : RESIST       - RESISTIVITY TYPE
RM  .OHMM     3.7                  : RM           - RESISTIVITY OF MUD
RMC .OHMM     2.9                  : RMC          - RESISTIVITY OF MUD CAKE
RMF .OHMM     3.4                  : RMF          - RESISTIVITY OF MUD FILTRATE
SUFT.C        4                    : SUFT         - SURFACE TEMPERATURE
~A  DEPTH       GR     PHIN     PHID     RESD
# ...
  230.500   83.385    0.376    0.196   14.224
  230.750   79.862    0.380    0.184   14.507
  231.000   75.756    0.386    0.227   14.800
  231.250   76.988    0.387    0.254   15.388
  231.500   82.974    0.389    0.259   16.297
  231.750   87.178    0.389    0.259   16.945
  232.000   85.438    0.389    0.259   17.276
  232.250   78.943    0.389    0.260   17.957
  232.500   76.609    0.389    0.261   18.677
  232.750   82.001    0.390    0.261   19.048
  233.000   86.799    0.390    0.261   19.439
  233.250   88.031    0.395    0.259   19.458
  233.500   85.103    0.401    0.257   19.484
  233.750   80.996    0.399    0.258   19.522
  234.000   79.851    0.394    0.261   19.904
  234.250   80.488    0.392    0.261   20.305
  234.500   81.115    0.388    0.263   21.106
  234.750   82.347    0.387    0.266   21.938
  235.000   80.607    0.385    0.270   22.803
  235.250   77.084    0.381    0.278   23.703
  235.500   74.156    0.386    0.283   24.637
  235.750   71.822    0.403    0.284   24.670
  236.000   71.270    0.397    0.280   25.176
  236.250   73.691    0.390    0.275   24.293
  236.500   78.489    0.397    0.269   22.992
  236.750   83.881    0.408    0.258   21.768
  237.000   89.879    0.405    0.249   20.608
  237.250   89.933    0.396    0.244   19.511
  237.500   91.759    0.390    0.244   18.472
  237.750   93.574    0.381    0.244   17.812
  238.000   96.589    0.386    0.243   17.182
  238.250   96.654    0.392    0.250   16.886
  238.500   94.298    0.402    0.264   17.233
  238.750   88.992    0.396    0.262   17.906
  239.000   83.686    0.378    0.262   18.613
  239.250   80.163    0.381    0.268   19.346
  239.500   89.122    0.404    0.281   21.676
  239.750   99.874    0.413    0.295   23.830
  240.000   96.946    0.410    0.300   28.771
  240.250   83.924    0.408    0.304   32.822
  240.500   73.269    0.405    0.306   40.362
  240.750   70.913    0.405    0.308   46.944
  241.000   66.796    0.404    0.310   48.779
  241.250   66.245    0.403    0.311   50.752
  241.500   79.969    0.403    0.317   49.862
  241.750   84.162    0.401    0.318   48.081
  242.000   88.960    0.397    0.320   43.041
  242.250   87.814    0.386    0.320   39.255
  242.500   83.697    0.359    0.320   35.801
  242.750   77.796    0.351    0.250   32.048
  243.000   74.868    0.354    0.250   28.679
  243.250   90.969    0.350    0.243   25.205
  243.500   94.579    0.344    0.237   22.555
  243.750   98.782    0.350    0.233   19.823
  244.000   98.253    0.366    0.230   18.414
  244.250   97.086    0.373    0.230   16.800
  244.500   95.346    0.368    0.230   16.506
  244.750   91.250    0.363    0.230   16.227
  245.000   90.083    0.360    0.230   16.253
  245.250   88.343    0.355    0.240   16.264
  245.500   86.603    0.365    0.256   16.285
  245.750   83.091    0.373    0.259   16.620
  246.000   81.946    0.375    0.262   17.601
  246.250   80.789    0.386    0.243   17.951
  246.500   82.043    0.387    0.237   18.319
  246.750   82.659    0.384    0.233   18.337
  247.000   83.296    0.377    0.233   18.361
  247.250   81.578    0.378    0.233   18.386
  247.500   81.005    0.377    0.237   18.069
  247.750   79.276    0.372    0.253   17.758
  248.000   79.309    0.367    0.259   17.787
  248.250   79.373    0.366    0.259   17.817
  248.500   79.989    0.369    0.259   18.170
  248.750   80.627    0.372    0.251   19.249
  249.000   80.670    0.372    0.236   20.002
  249.250   79.546    0.368    0.245   21.189
  249.500   78.984    0.368    0.262   22.032
  249.750   78.422    0.369    0.270   21.646
  250.000   78.465    0.373    0.267   21.674
  250.250   79.697    0.373    0.263   20.907
  250.500   84.506    0.372    0.264   20.547
  250.750   86.322    0.370    0.274   20.567
  251.000   83.987    0.372    0.280   19.840
  251.250   81.070    0.376    0.282   19.866
  251.500   80.518    0.382    0.280   20.273
  251.750   80.562    0.381    0.274   21.080
  252.000   81.188    0.374    0.266   21.491
  252.250   81.826    0.367    0.255   22.760
  252.500   83.058    0.358    0.251   22.797
  252.750   88.472    0.356    0.254   22.398
  253.000   90.298    0.354    0.255   20.826
  253.250   86.786    0.355    0.255   20.461
  253.500   84.430    0.360    0.255   20.888
  253.750   80.313    0.360    0.253   21.296
  254.000   78.562    0.360    0.253   22.986
  254.250   75.634    0.359    0.257   23.876
  254.500   74.520    0.358    0.267   25.294
  254.750   74.542    0.359    0.274   27.301
  255.000   73.991    0.361    0.283   28.913
  255.250   71.657    0.366    0.290   32.395
  255.500   68.728    0.371    0.299   34.942
  255.750   66.978    0.380    0.309   37.690
  256.000   62.266    0.383    0.324   43.012
  256.250   55.188    0.382    0.326   48.192
  256.500   51.654    0.392    0.321   52.979
  256.750   51.697    0.402    0.320   57.164
  257.000   54.712    0.398    0.322   57.258
  257.250   56.538    0.395    0.322   57.315
  257.500   55.998    0.391    0.316   55.322
  257.750   53.675    0.389    0.307   54.334
  258.000   52.508    0.389    0.298   49.604
  258.250   49.590    0.390    0.291   46.078
  258.500   51.405    0.390    0.287   43.610
  258.750   55.609    0.390    0.281   40.511
  259.000   59.229    0.387    0.278   36.947
  259.250   61.649    0.383    0.277   34.332
  259.500   63.476    0.383    0.277   31.903
  259.750   65.302    0.383    0.276   29.635
  260.000   67.128    0.383    0.275   27.538
  260.250   69.549    0.383    0.274   24.659
  260.500   70.781    0.383    0.269   22.497
  260.750   71.418    0.383    0.261   21.687
  261.000   72.056    0.374    0.257   20.159
  261.250   76.865    0.369    0.246   18.732
  261.500   84.040    0.370    0.230   18.063
  261.750   90.621    0.374    0.219   16.485
  262.000   91.853    0.375    0.216   16.190
  262.250   88.341    0.376    0.243   15.617
  262.500   85.401    0.375    0.246   15.064
  262.750   83.662    0.367    0.235   15.084
  263.000   92.026    0.366    0.228   15.109
  263.250  102.767    0.366    0.234   15.419
  263.500  105.804    0.370    0.242   15.435
  263.750  102.875    0.380    0.248   15.455
  264.000   99.352    0.383    0.249   15.772
  264.250   96.996    0.386    0.249   15.783
  264.500   94.068    0.390    0.256   15.809
  264.750   91.150    0.397    0.265   16.133
  265.000   88.816    0.404    0.293   16.758
  265.250   86.471    0.406    0.308   18.429
  265.500   74.033    0.403    0.328   21.031
  265.750   58.612    0.401    0.333   24.000
  266.000   48.551    0.400    0.333   27.905
  266.250   42.067    0.405    0.333   33.057
  266.500   40.338    0.407    0.334   37.724
  266.750   40.360    0.408    0.335   43.093
  267.000   39.809    0.414    0.336   43.135
  267.250   40.457    0.422    0.340   43.178
  267.500   41.095    0.418    0.344   42.434
  267.750   42.921    0.408    0.346   42.504
  268.000   43.558    0.409    0.348   41.000
  268.250   43.612    0.414    0.347   37.393
  268.500   42.445    0.418    0.343   34.736
  268.750   40.111    0.415    0.341   31.094
  269.000   41.343    0.411    0.378   29.428
  269.250   40.792    0.418    0.389   25.864
  269.500   39.052    0.419    0.359   23.597
  269.750   38.501    0.411    0.333   22.747
  270.000   38.555    0.400    0.323   21.549
  270.250   40.381    0.390    0.278   20.780
  270.500   46.379    0.371    0.134   20.422
  270.750   57.703    0.323    0.119   20.442
  271.000   89.258    0.288    0.094   22.064
  271.250   87.529    0.232    0.048   23.807
  271.500   84.590    0.139    0.026   27.690
  271.750   76.906    0.130    0.011   32.184
  272.000   63.863    0.126    0.002   43.452
  272.250   31.217    0.124   -0.002   64.428
  272.500   32.449    0.122   -0.002   79.228
  272.750   31.314    0.122   -0.001   88.770
  273.000   30.179    0.123    0.004   92.270
  273.250   29.617    0.125    0.010   92.392
  273.500   29.055    0.126    0.017   90.772
  273.750   27.910    0.128    0.020   90.772
