~VERSION INFORMATION
 VERS.                 2.0:   CWLS LOG ASCII STANDARD -VERSION 2.0
 WRAP.                  NO:   ONE LINE PER DEPTH STEP
~WELL INFORMATION BLOCK
#MNEM.UNIT           DATA                    DESCRIPTION OF MNEMONIC
#---------    -------------------            -------------------------------
# Generated from Intellog Unique Number	CW_73_75/WELL/3519
WELL.         PINNACLE RESOURCES             : Well_name    - WELL
LOC .         00/04-05-074-02W5/0            : Location     - LOCATION
UWI .         00/04-05-074-02W5/0            : Uwi          - UNIQUE WELL ID
ENTR.         T                              : Entered      - ENTERED BY
SRVC.         SCHLUMBERGER                   : Scn          - SERVICE COMPANY
STRT.M        390                            : top_depth    - START DEPTH
STOP.M        655                            : bot_depth    - STOP DEPTH
STEP.M        0.25                           : increment    - STEP LENGTH
 NULL. -999.2500:NULL Value
~CURVE INFORMATION BLOCK
#MNEM UNIT       ERCB CURVE CODE    CURVE DESCRIPTION
#-----------   ------------------   ----------------------------------
DEPT.M        00 001 00 00         : DEPTH        - DEPTH
ILD .OHMM     00 120 00 00         : RESD         - DEEP RESISTIVITY (DIL)
DPHI.V/V      00 890 00 00         : PHID         - DENSITY POROSITY (SANDSTONE)
NPHI.V/V      00 330 00 00         : PHIN         - NEUTRON POROSITY (SANDSTONE)
GR  .API      00 310 00 00         : GR           - GAMMA RAY
~PARAMETER INFORMATION
#MNEM.UNIT           DATA             DESCRIPTION OF MNEMONIC
#---------         -----------     ------------------------------
GL  .M        665                  : gl           - GROUND LEVEL ELEVATION
EREF.M        669.22               : kb           - ELEVATION OF DEPTH REFERENCE
DATM.M        669.22               : datum        - DATUM ELEVATION
TDD .M        670                  : tdd          - TOTAL DEPTH DRILLER
RUN .         ONE                  : Run          - RUN NUMBER
ENG .         BILL                 : Engineer     - RECORDING ENGINEER
WIT .         JIM                  : Witness      - WITNESSED BY
MUD .         GEL                  : Mud_type     - MUD TYPE
MATR.         SANDSTONE            : Logunit      - NEUTRON MATRIX
TMAX.C        30                   : BHT          - MAXIMUM RECORDED TEMPERATURE
BHTD.M        670                  : BHTDEP       - MAXIMUM RECORDED TEMPERATURE
RMT .C        30                   : MDTP         - TEMPERATURE OF MUD
MUDD.KG/M     1120                 : MWT          - MUD DENSITY
NEUT.         1                    : NEUTRON      - NEUTRON TYPE
RESI.         0                    : RESIST       - RESISTIVITY TYPE
RM  .OHMM     3.1                  : RM           - RESISTIVITY OF MUD
RMC .OHMM     0.29                 : RMC          - RESISTIVITY OF MUD CAKE
RMF .OHMM     2.26                 : RMF          - RESISTIVITY OF MUD FILTRATE
SUFT.C        4                    : SUFT         - SURFACE TEMPERATURE
~A  DEPTH     RESD     PHID     PHIN       GR
# ...
  433.500    9.292    0.302    0.396   45.984
  433.750    8.773    0.300    0.409   47.087
  434.000    8.444    0.297    0.422   48.214
  434.250    7.828    0.290    0.427   49.304
  434.500    7.124    0.283    0.410   49.862
  434.750    6.732    0.281    0.400   51.546
  435.000    6.241    0.279    0.392   56.165
  435.250    6.118    0.278    0.386   58.431
  435.500    5.883    0.274    0.386   54.903
  435.750    5.762    0.271    0.397   49.604
  436.000    5.649    0.272    0.433   50.137
  436.250    5.530    0.273    0.434   51.252
  436.500    5.525    0.274    0.403   50.039
  436.750    5.608    0.275    0.394   47.662
  437.000    5.602    0.276    0.397   47.613
  437.250    5.695    0.276    0.402   53.383
  437.500    5.686    0.279    0.412   54.486
  437.750    5.777    0.284    0.420   50.958
  438.000    5.763    0.290    0.428   45.671
  438.250    5.758    0.283    0.435   53.187
  438.500    5.746    0.267    0.440   58.958
  438.750    5.735    0.248    0.433   63.552
  439.000    6.048    0.222    0.405   61.757
  439.250    6.496    0.247    0.392   57.065
  439.500    6.359    0.272    0.392   51.778
  439.750    6.231    0.294    0.394   35.992
  440.000    6.109    0.302    0.394   44.684
  440.250    5.874    0.308    0.393   46.963
  440.500    5.759    0.291    0.392   43.992
  440.750    5.440    0.278    0.391   46.865
  441.000    5.231    0.275    0.391   50.307
  441.250    5.831    0.281    0.390   53.168
  441.500    6.737    0.286    0.388   55.447
  441.750    6.727    0.296    0.385   56.562
  442.000    6.835    0.317    0.380   51.275
  442.250    6.821    0.301    0.378   45.964
  442.500    6.934    0.286    0.376   44.169
  442.750    7.052    0.288    0.374   43.550
  443.000    7.165    0.285    0.372   41.173
  443.250    7.147    0.278    0.373   43.452
  443.500    7.137    0.265    0.374   48.629
  443.750    7.251    0.271    0.374   52.071
  444.000    7.241    0.289    0.374   52.022
  444.250    7.219    0.312    0.379   49.063
  444.500    7.209    0.306    0.383   46.699
  444.750    6.932    0.300    0.386   47.814
  445.000    6.796    0.297    0.386   50.650
  445.250    6.541    0.296    0.384   51.183
  445.500    6.290    0.297    0.382   52.297
  445.750    5.939    0.296    0.382   54.576
  446.000    5.714    0.287    0.377   56.855
  446.250    5.397    0.266    0.373   60.310
  446.500    5.190    0.236    0.378   63.753
  446.750    5.090    0.209    0.382   68.953
  447.000    4.988    0.188    0.388   84.617
  447.250    5.260    0.164    0.395   94.461
  447.500    5.754    0.154    0.401  102.559
  447.750    6.411    0.147    0.413  106.596
  448.000    7.410    0.137    0.421  109.457
  448.250    8.249    0.149    0.415  114.646
  448.500    8.393    0.186    0.402  113.433
  448.750    8.690    0.179    0.383   87.171
  449.000    8.673    0.173    0.357   73.155
  449.250    8.656    0.201    0.342   60.291
  449.500    8.639    0.226    0.350   48.603
  449.750    8.465    0.280    0.356   36.878
  450.000    8.140    0.307    0.350   40.927
  450.250    7.831    0.296    0.348   47.874
  450.500    7.397    0.287    0.355   57.136
  450.750    6.732    0.279    0.360   57.075
  451.000    6.480    0.267    0.365   54.116
  451.250    6.118    0.254    0.363   55.813
  451.500    5.998    0.238    0.357   63.923
  451.750    5.878    0.215    0.364   70.263
  452.000    5.863    0.202    0.382   72.554
  452.250    5.852    0.186    0.397   85.308
  452.500    5.945    0.169    0.409   89.333
  452.750    6.041    0.155    0.392   82.300
  453.000    6.032    0.152    0.384   92.727
  453.250    6.020    0.182    0.391   93.259
  453.500    5.792    0.210    0.419   86.809
  453.750    5.471    0.236    0.424   79.764
  454.000    4.893    0.258    0.431   73.314
  454.250    3.845    0.252    0.409   71.519
  454.500    3.136    0.238    0.389   80.781
  454.750    2.703    0.225    0.422   87.133
  455.000    2.552    0.211    0.458   95.244
  455.250    2.739    0.200    0.497  102.760
  455.500    2.838    0.192    0.516  107.367
  455.750    3.049    0.194    0.550  113.125
  456.000    3.215    0.209    0.508  112.506
  456.250    3.452    0.219    0.427  110.711
  456.500    3.319    0.236    0.412  104.248
  456.750    3.195    0.245    0.400   90.233
  457.000    3.074    0.238    0.395   83.757
  457.250    3.068    0.225    0.389   86.036
  457.500    3.060    0.211    0.387   88.327
  457.750    3.056    0.202    0.392   92.934
  458.000    3.161    0.211    0.400   97.553
  458.250    3.158    0.219    0.408  104.487
  458.500    3.268    0.231    0.417   84.639
  458.750    3.261    0.256    0.426   67.701
  459.000    3.315    0.271    0.414   61.251
  459.250    3.370    0.283    0.395   55.964
  459.500    3.365    0.296    0.399   57.067
  459.750    3.419    0.303    0.402   58.157
  460.000    3.409    0.307    0.406   58.120
  460.250    3.467    0.304    0.411   56.907
  460.500    3.460    0.298    0.411   55.125
  460.750    3.516    0.294    0.399   54.494
  461.000    3.512    0.292    0.398   53.863
  461.250    3.504    0.296    0.402   54.977
  461.500    3.433    0.305    0.405   57.838
  461.750    3.490    0.297    0.398   60.117
  462.000    3.613    0.285    0.393   61.801
  462.250    3.608    0.285    0.393   62.916
  462.500    3.344    0.296    0.393   63.449
  462.750    3.100    0.308    0.391   64.564
  463.000    2.984    0.315    0.395   66.843
  463.250    2.924    0.307    0.399   69.704
  463.500    3.026    0.293    0.415   71.982
  463.750    3.192    0.280    0.433   74.843
  464.000    3.425    0.267    0.455   77.134
  464.250    3.550    0.254    0.470   81.159
  464.500    3.538    0.259    0.481   84.589
  464.750    3.468    0.263    0.492   85.122
  465.000    3.400    0.265    0.452   83.921
  465.250    3.334    0.272    0.382   75.131
  465.500    3.204    0.284    0.381   45.390
  465.750    3.141    0.295    0.386   36.029
  466.000    3.135    0.298    0.390   37.120
  466.250    3.129    0.299    0.394   39.411
  466.500    3.238    0.303    0.397   42.866
  466.750    3.352    0.305    0.398   47.472
  467.000    3.408    0.311    0.397   54.989
  467.250    3.403    0.314    0.397   55.522
  467.500    3.334    0.317    0.407   45.567
  467.750    3.328    0.321    0.419   43.760
  468.000    3.507    0.315    0.429   48.379
  468.250    3.769    0.303    0.438   52.985
  468.500    4.195    0.288    0.447   62.842
  468.750    4.267    0.271    0.453   77.923
  469.000    4.261    0.267    0.417   78.456
  469.250    4.022    0.267    0.384   73.739
  469.500    3.870    0.268    0.386   69.617
  469.750    3.655    0.269    0.391   66.658
  470.000    3.451    0.274    0.397   65.445
  470.250    3.383    0.280    0.407   64.814
  470.500    3.312    0.291    0.415   63.589
  470.750    3.306    0.302    0.406   62.376
  471.000    3.302    0.311    0.394   61.732
  471.250    3.296    0.312    0.393   60.519
  471.500    3.230    0.312    0.393   59.319
  471.750    3.223    0.310    0.393   57.524
  472.000    3.217    0.309    0.391   56.311
  472.250    3.209    0.310    0.385   55.086
  472.500    3.203    0.315    0.383   55.631
  472.750    3.256    0.313    0.384   55.569
  473.000    3.310    0.305    0.389   54.951
  473.250    3.553    0.295    0.394   47.894
  473.500    3.887    0.297    0.401   45.517
  473.750    4.254    0.306    0.410   49.554
  474.000    4.656    0.317    0.417   54.148
  474.250    5.382    0.326    0.426   53.505
  474.500    6.335    0.330    0.433   50.570
  474.750    7.877    0.330    0.439   44.702
  475.000    9.109    0.330    0.424   41.137
  475.250   10.337    0.329    0.385   41.087
  475.500   10.697    0.326    0.361   41.026
  475.750   10.296    0.305    0.339   41.584
  476.000    7.948    0.267    0.291   41.535
  476.250    5.911    0.090    0.252   42.068
  476.500    5.189    0.040    0.189   43.764
  476.750    4.552    0.035    0.245   46.625
