~VERSION INFORMATION
 VERS.                 2.0:   CWLS LOG ASCII STANDARD -VERSION 2.0
 WRAP.                  NO:   ONE LINE PER DEPTH STEP
~WELL INFORMATION BLOCK
#MNEM.UNIT           DATA                    DESCRIPTION OF MNEMONIC
#---------    -------------------            -------------------------------
# Generated from Intellog Unique Number	CS_71_72/WELL/784
WELL.         AMOCO AEC APIATIK              : Well_name    - WELL
LOC .         00/06-30-072-04W4/0            : Location     - LOCATION
UWI .         00/06-30-072-04W4/0            : Uwi          - UNIQUE WELL ID
ENTR.         SP                             : Entered      - ENTERED BY
SRVC.         SCHLUMBERGER                   : Scn          - SERVICE COMPANY
STRT.M        315                            : top_depth    - START DEPTH
STOP.M        530                            : bot_depth    - STOP DEPTH
STEP.M        0.25                           : increment    - STEP LENGTH
 NULL. -999.2500:NULL Value
~CURVE INFORMATION BLOCK
#MNEM UNIT       ERCB CURVE CODE    CURVE DESCRIPTION
#-----------   ------------------   ----------------------------------
DEPT.M        00 001 00 00         : DEPTH        - DEPTH
ILD .OHMM     00 120 00 00         : RESD         - DEEP RESISTIVITY (DIL)
DPHI.V/V      00 890 00 00         : PHID         - DENSITY POROSITY (LIMESTONE)
NPHI.V/V      00 330 00 00         : PHIN         - NEUTRON POROSITY (LIMESTONE)
GR  .API      00 310 00 00         : GR           - GAMMA RAY
~PARAMETER INFORMATION
#MNEM.UNIT           DATA             DESCRIPTION OF MNEMONIC
#---------         -----------     ------------------------------
GL  .M        698.8                : gl           - GROUND LEVEL ELEVATION
EREF.M        705                  : kb           - ELEVATION OF DEPTH REFERENCE
DATM.M        698.8                : datum        - DATUM ELEVATION
TDD .M        545                  : tdd          - TOTAL DEPTH DRILLER
RUN .         ONE                  : Run          - RUN NUMBER
ENG .         BILL                 : Engineer     - RECORDING ENGINEER
WIT .         JIM                  : Witness      - WITNESSED BY
MUD .         GEL                  : Mud_type     - MUD TYPE
MATR.         LIMESTONE            : Logunit      - NEUTRON MATRIX
TMAX.C        11                   : BHT          - MAXIMUM RECORDED TEMPERATURE
BHTD.M        545                  : BHTDEP       - MAXIMUM RECORDED TEMPERATURE
MATR.         1                    : LOGUNIT      - NEUTRON MATRIX
RMT .C        25                   : MDTP         - TEMPERATURE OF MUD
NEUT.         1                    : NEUTRON      - NEUTRON TYPE
RESI.         0                    : RESIST       - RESISTIVITY TYPE
RMC .OHMM     0.25                 : RMC          - RESISTIVITY OF MUD CAKE
RMF .OHMM     0.25                 : RMF          - RESISTIVITY OF MUD FILTRATE
SUFT.C        15                   : SUFT         - SURFACE TEMPERATURE
~A  DEPTH     RESD     PHID     PHIN       GR
# ...
  445.500    5.363    0.270    0.460   88.278
  445.750    5.368    0.259    0.475   88.899
  446.000    5.370    0.242    0.484   91.972
  446.250    5.375    0.234    0.488   93.813
  446.500    5.382    0.222    0.489   96.281
  446.750    5.385    0.238    0.501   97.519
  447.000    5.388    0.254    0.517   98.140
  447.250    5.493    0.268    0.535   99.386
  447.500    5.497    0.232    0.530   99.395
  447.750    5.605    0.223    0.521   98.805
  448.000    5.611    0.225    0.518   96.385
  448.250    5.721    0.219    0.507   94.575
  448.500    5.833    0.228    0.497   92.761
  448.750    5.947    0.216    0.489   92.173
  449.000    5.953    0.228    0.495   92.805
  449.250    6.068    0.240    0.492   92.817
  449.500    6.071    0.249    0.486   91.618
  449.750    6.191    0.261    0.474   89.805
  450.000    6.196    0.258    0.472   87.383
  450.250    6.086    0.256    0.472   82.529
  450.500    5.979    0.263    0.479   86.208
  450.750    5.766    0.271    0.498   88.056
  451.000    5.560    0.259    0.511   87.458
  451.250    5.362    0.245    0.516   89.915
  451.500    5.171    0.232    0.485   94.211
  451.750    5.174    0.238    0.474   96.054
  452.000    5.084    0.224    0.485   97.288
  452.250    4.903    0.213    0.477   97.919
  452.500    4.905    0.216    0.483   94.275
  452.750    4.730    0.262    0.493   87.588
  453.000    4.477    0.284    0.493   83.948
  453.250    4.399    0.282    0.502   81.527
  453.500    4.321    0.284    0.490   87.040
  453.750    4.324    0.249    0.483   89.494
  454.000    4.328    0.223    0.483   91.339
  454.250    4.414    0.202    0.496   93.793
  454.500    4.416    0.205    0.505   95.644
  454.750    4.339    0.225    0.507   94.442
  455.000    4.262    0.242    0.492   88.366
  455.250    4.110    0.258    0.485   82.892
  455.500    3.890    0.248    0.483   85.967
  455.750    3.683    0.243    0.494   89.030
  456.000    3.422    0.233    0.524   92.093
  456.250    3.180    0.245    0.538   96.996
  456.500    3.123    0.259    0.549   97.618
  456.750    2.957    0.266    0.557   95.199
  457.000    2.799    0.252    0.545   93.388
  457.250    2.749    0.249    0.558   95.243
  457.500    2.702    0.240    0.578   95.866
  457.750    2.704    0.233    0.588   95.277
  458.000    2.705    0.221    0.584   94.071
  458.250    2.862    0.219    0.574   91.042
  458.500    3.202    0.238    0.556   87.401
  458.750    3.718    0.220    0.541   88.638
  459.000    4.084    0.226    0.532   91.104
  459.250    4.484    0.228    0.520   91.724
  459.500    4.657    0.236    0.501   92.353
  459.750    5.021    0.215    0.487   91.762
  460.000    5.617    0.210    0.505   88.734
  460.250    6.401    0.233    0.512   83.870
  460.500    7.713    0.253    0.511   75.358
  460.750   10.389    0.264    0.471   68.055
  461.000   14.797    0.293    0.452   62.587
  461.250   20.305    0.296    0.441   62.609
  461.500   26.848    0.308    0.437   62.026
  461.750   29.485    0.312    0.446   61.426
  462.000   28.968    0.307    0.465   57.782
  462.250   27.424    0.299    0.473   57.192
  462.500   25.966    0.300    0.477   59.654
  462.750   25.497    0.288    0.460   61.497
  463.000   23.692    0.279    0.453   63.341
  463.250   20.820    0.265    0.448   65.807
  463.500   18.295    0.265    0.442   68.876
  463.750   16.079    0.274    0.437   70.715
  464.000   13.617    0.280    0.449   73.782
  464.250   12.190    0.273    0.453   75.632
  464.500   10.917    0.268    0.456   74.430
  464.750   10.523    0.271    0.462   73.837
  465.000   10.339    0.278    0.466   74.470
  465.250   10.941    0.272    0.463   74.484
  465.500   11.366    0.270    0.460   75.110
  465.750   11.583    0.233    0.455   75.741
  466.000   11.811    0.198    0.447   76.368
  466.250   11.603    0.173    0.435   79.441
  466.500    9.826    0.215    0.440   81.894
  466.750    7.443    0.234    0.476   85.575
  467.000    5.851    0.229    0.487   86.811
  467.250    4.600    0.222    0.488   86.217
  467.500    2.894    0.222    0.491   89.901
  467.750    1.404    0.210    0.505   92.352
  468.000    0.934    0.204    0.521   96.037
  468.250    0.821    0.207    0.539   97.884
  468.500    0.735    0.205    0.552   99.114
  468.750    0.695    0.210    0.555  101.576
  469.000    0.646    0.204    0.539  102.806
  469.250    0.612    0.212    0.543  104.654
  469.500    0.590    0.201    0.532  102.847
  469.750    0.724    0.196    0.528   99.820
  470.000    0.856    0.195    0.537   97.397
  470.250    1.338    0.211    0.523   96.801
  470.500    2.131    0.212    0.519   98.043
  470.750    2.715    0.208    0.520   99.285
  471.000    3.095    0.213    0.529   99.299
  471.250    3.399    0.207    0.549   99.316
  471.500    3.530    0.202    0.561   96.284
  471.750    3.600    0.195    0.560   97.531
  472.000    3.601    0.208    0.554   98.764
  472.250    3.741    0.210    0.536   99.388
  472.500    3.885    0.210    0.525   92.699
  472.750    4.346    0.208    0.505   86.020
  473.000    5.047    0.207    0.493   83.593
  473.250    5.541    0.207    0.498   77.518
  473.500    6.931    0.209    0.519   74.482
  473.750    8.350    0.210    0.520   70.236
  474.000   11.894    0.214    0.508   67.203
  474.250   15.152    0.238    0.489   66.611
  474.500   19.310    0.277    0.482   67.239
  474.750   21.202    0.288    0.479   67.263
  475.000   23.287    0.283    0.477   67.893
  475.250   24.635    0.282    0.476   68.519
  475.500   26.065    0.286    0.472   69.751
  475.750   28.638    0.295    0.471   70.382
  476.000   30.295    0.300    0.478   69.789
  476.250   32.654    0.295    0.493   67.373
  476.500   36.526    0.300    0.504   66.165
  476.750   41.640    0.284    0.478   62.532
  477.000   43.239    0.207    0.407   61.329
  477.250   39.437    0.185    0.360   61.953
  477.500   33.400    0.173    0.384   65.628
  477.750   29.351    0.207    0.440   69.308
  478.000   26.279    0.246    0.480   66.282
  478.250   24.415    0.272    0.502   66.909
  478.500   23.546    0.278    0.521   71.201
  478.750   22.710    0.282    0.535   72.433
  479.000   22.720    0.292    0.530   72.448
  479.250   22.741    0.281    0.522   68.813
  479.500   23.190    0.277    0.528   68.225
  479.750   23.639    0.303    0.508   68.845
  480.000   24.100    0.311    0.489   69.483
  480.250   25.046    0.302    0.460   69.496
  480.500   25.533    0.286    0.481   69.510
  480.750   25.547    0.276    0.497   67.699
  481.000   26.049    0.270    0.503   65.278
  481.250   26.550    0.281    0.488   63.467
  481.500   26.577    0.293    0.482   62.271
  481.750   26.597    0.299    0.498   62.291
  482.000   26.128    0.304    0.510   62.916
  482.250   25.666    0.287    0.494   64.158
  482.500   23.845    0.279    0.483   64.780
  482.750   20.958    0.271    0.479   65.415
  483.000   18.420    0.270    0.460   66.040
  483.250   16.189    0.276    0.454   64.842
  483.500   15.040    0.292    0.449   64.241
  483.750   12.975    0.292    0.441   66.091
  484.000   11.834    0.278    0.433   70.380
  484.250   10.995    0.269    0.423   75.281
  484.500   10.406    0.253    0.411   76.510
  484.750    9.491    0.247    0.404   80.191
  485.000    9.152    0.235    0.403   82.649
  485.250    8.668    0.221    0.402   80.228
  485.500    8.670    0.215    0.396   82.076
  485.750    8.679    0.214    0.391   85.763
  486.000    8.684    0.215    0.391   88.221
  486.250    8.853    0.210    0.403   89.454
  486.500    9.200    0.201    0.408   90.686
  486.750    9.204    0.198    0.413   90.700
  487.000    9.387    0.198    0.413   89.500
  487.250    9.395    0.190    0.419   87.690
  487.500    9.230    0.187    0.425   87.706
  487.750    9.236    0.203    0.436   89.562
  488.000    9.073    0.211    0.443   92.017
  488.250    8.910    0.210    0.463   93.861
  488.500    8.593    0.202    0.493   95.709
  488.750    8.760    0.197    0.485   96.947
