~VERSION INFORMATION
 VERS.                 2.0:   CWLS LOG ASCII STANDARD -VERSION 2.0
 WRAP.                  NO:   ONE LINE PER DEPTH STEP
~WELL INFORMATION BLOCK
#MNEM.UNIT           DATA                    DESCRIPTION OF MNEMONIC
#---------    -------------------            -------------------------------
# Generated from Intellog Unique Number	CS_73_76/WELL/2104
WELL.         CAVALIER ENERTY LIMITED        : Well_name    - WELL
LOC .         00/07-08-076-15W4/0            : Location     - LOCATION
UWI .         00/07-08-076-15W4/0            : Uwi          - UNIQUE WELL ID
ENTR.         SP                             : Entered      - ENTERED BY
SRVC.         SCHLUMBERGER                   : Scn          - SERVICE COMPANY
STRT.M        360                            : top_depth    - START DEPTH
STOP.M        585                            : bot_depth    - STOP DEPTH
STEP.M        0.25                           : increment    - STEP LENGTH
 NULL. -999.2500:NULL Value
~CURVE INFORMATION BLOCK
#MNEM UNIT       ERCB CURVE CODE    CURVE DESCRIPTION
#-----------   ------------------   ----------------------------------
DEPT.M        00 001 00 00         : DEPTH        - DEPTH
DPHI.V/V      00 890 00 00         : PHID         - DENSITY POROSITY (LIMESTONE)
NPHI.V/V      00 330 00 00         : PHIN         - NEUTRON POROSITY (LIMESTONE)
GR  .API      00 310 00 00         : GR           - GAMMA RAY
ILD .OHMM     00 120 00 00         : RESD         - DEEP RESISTIVITY (DIL)
~PARAMETER INFORMATION
#MNEM.UNIT           DATA             DESCRIPTION OF MNEMONIC
#---------         -----------     ------------------------------
GL  .M        735.6                : gl           - GROUND LEVEL ELEVATION
EREF.M        739.7                : kb           - ELEVATION OF DEPTH REFERENCE
DATM.M        735.6                : datum        - DATUM ELEVATION
TDD .M        595                  : tdd          - TOTAL DEPTH DRILLER
RUN .         ONE                  : Run          - RUN NUMBER
ENG .         BILL                 : Engineer     - RECORDING ENGINEER
WIT .         JIM                  : Witness      - WITNESSED BY
MUD .         GEL                  : Mud_type     - MUD TYPE
MATR.         LIMESTONE            : Logunit      - NEUTRON MATRIX
TMAX.C        20                   : BHT          - MAXIMUM RECORDED TEMPERATURE
BHTD.M        595                  : BHTDEP       - MAXIMUM RECORDED TEMPERATURE
MATR.         1                    : LOGUNIT      - NEUTRON MATRIX
RMT .C        25                   : MDTP         - TEMPERATURE OF MUD
NEUT.         1                    : NEUTRON      - NEUTRON TYPE
RESI.         0                    : RESIST       - RESISTIVITY TYPE
RMC .OHMM     0.25                 : RMC          - RESISTIVITY OF MUD CAKE
RMF .OHMM     0.25                 : RMF          - RESISTIVITY OF MUD FILTRATE
SUFT.C        15                   : SUFT         - SURFACE TEMPERATURE
~A  DEPTH     PHID     PHIN       GR     RESD
# ...
  534.000    0.209    0.417  111.794    6.298
  534.250    0.210    0.407  110.572    6.539
  534.500    0.213    0.416  107.519    6.789
  534.750    0.206    0.412  105.077    6.791
  535.000    0.209    0.399  102.635    6.309
  535.250    0.224    0.417  100.803    5.648
  535.500    0.248    0.416  102.628    5.056
  535.750    0.253    0.400  107.504    4.698
  536.000    0.238    0.385  112.988    4.700
  536.250    0.219    0.391  109.327    4.790
  536.500    0.162    0.390  108.713    5.066
  536.750    0.148    0.390  108.101    5.163
  537.000    0.196    0.387  102.000    4.886
  537.250    0.235    0.401  100.777    4.062
  537.500    0.270    0.421   98.945    3.194
  537.750    0.298    0.446   92.844    2.607
  538.000    0.290    0.473   92.232    2.208
  538.250    0.284    0.511   93.448    1.976
  538.500    0.281    0.523   95.274    1.836
  538.750    0.273    0.515   98.319    1.906
  539.000    0.278    0.529  101.365    1.979
  539.250    0.268    0.535  106.239    2.054
  539.500    0.260    0.536  109.895    2.214
  539.750    0.254    0.524  105.013    2.385
  540.000    0.252    0.511   97.694    2.666
  540.250    0.229    0.538   98.910    3.094
  540.500    0.180    0.546  103.785    3.866
  540.750    0.186    0.520  105.001    4.569
  541.000    0.187    0.421  100.729    5.204
  541.250    0.098    0.418   94.019    6.038
  541.500    0.082    0.418   86.699    6.627
  541.750    0.082    0.416   94.012    7.008
  542.000    0.109    0.391   90.351    7.276
  542.250    0.163    0.368   89.128    6.887
  542.500    0.178    0.351   94.613    6.517
  542.750    0.166    0.403  101.927    6.167
  543.000    0.167    0.394   98.874    6.171
  543.250    0.160    0.405   95.822    6.173
  543.500    0.155    0.422   92.771    6.410
  543.750    0.169    0.419   95.206    6.654
  544.000    0.191    0.403  100.081    7.169
  544.250    0.178    0.403   87.883    8.165
  544.500    0.155    0.412   75.075    9.128
  544.750    0.033    0.437   68.365   10.591
  545.000    0.032    0.391   59.826   12.753
  545.250    0.126    0.230   72.017   13.740
  545.500    0.146    0.280   84.209   12.075
  545.750    0.153    0.309   86.035   11.217
  546.000    0.165    0.338   88.471   10.616
  546.250    0.158    0.355   86.028   10.426
  546.500    0.136    0.359   89.683   10.052
  546.750    0.097    0.321   93.339    9.514
  547.000    0.134    0.310  101.262    9.171
  547.250    0.164    0.327  107.966    8.363
  547.500    0.170    0.350  112.841    7.627
  547.750    0.168    0.366  115.277    6.829
  548.000    0.165    0.387  109.786    6.706
  548.250    0.159    0.376   95.759    6.711
  548.500    0.141    0.382   90.268    6.712
  548.750    0.109    0.386   93.923    6.842
  549.000    0.130    0.367  102.456    6.720
  549.250    0.147    0.370  105.502    6.599
  549.500    0.166    0.378   96.962    6.362
  549.750    0.120    0.392   95.739    6.021
  550.000    0.169    0.419  106.266    5.442
  550.250    0.148    0.422  106.865    5.540
  550.500    0.122    0.422   98.962    5.748
  550.750    0.142    0.410   95.917    6.189
  551.000    0.165    0.411  101.981    6.790
  551.250    0.193    0.422  105.009    7.176
  551.500    0.208    0.418  104.393    7.727
  551.750    0.213    0.366  108.028    8.635
  552.000    0.199    0.359  115.913    9.127
  552.250    0.190    0.360  117.120    9.827
  552.500    0.195    0.358  113.467   10.386
  552.750    0.187    0.349  112.851   10.381
  553.000    0.188    0.337  113.451   10.376
  553.250    0.187    0.343  112.834    9.991
  553.500    0.186    0.364  115.862    9.098
  553.750    0.181    0.383  119.498    8.441
  554.000    0.175    0.399  124.954    7.831
  554.250    0.178    0.413  123.730    7.827
  554.500    0.191    0.407  114.007    9.078
  554.750    0.203    0.334  101.853   10.931
  555.000    0.192    0.322   96.987   12.918
  555.250    0.140    0.324   94.549   14.171
  555.500    0.164    0.335  104.864   14.978
  555.750    0.187    0.354  113.356   15.251
  556.000    0.199    0.374  112.740   15.529
  556.250    0.215    0.382  108.481   16.110
  556.500    0.229    0.392  109.079   16.712
  556.750    0.221    0.395  112.108   16.704
  557.000    0.211    0.376  113.921   15.788
  557.250    0.198    0.367  115.128   15.203
  557.500    0.188    0.350  115.725   14.913
  557.750    0.192    0.329  116.932   14.905
  558.000    0.203    0.323  112.066   15.463
  558.250    0.215    0.326  105.984   15.746
  558.500    0.214    0.317  103.547   16.956
  558.750    0.185    0.314  101.717   18.257
  559.000    0.105    0.310   95.028   19.659
  559.250    0.156    0.321   88.946   20.394
  559.500    0.238    0.334   85.296   20.383
  559.750    0.239    0.335   82.859   19.266
  560.000    0.220    0.334   91.958   16.285
  560.250    0.179    0.333  101.058   14.288
  560.500    0.161    0.335  119.267   13.010
  560.750    0.164    0.344  118.043   12.765
  561.000    0.171    0.343  110.749   12.758
  561.250    0.205    0.358  116.812   14.258
  561.500    0.226    0.369  116.803   17.488
  561.750    0.256    0.370  105.866   20.288
  562.000    0.264    0.350   85.818   24.885
  562.250    0.259    0.349   76.701   29.410
  562.500    0.276    0.380   71.834   34.754
  562.750    0.302    0.393   68.790   36.732
  563.000    0.309    0.359   71.209   34.715
  563.250    0.294    0.349   83.346   29.899
  563.500    0.238    0.343   97.305   23.901
  563.750    0.203    0.344   98.510   20.582
  564.000    0.200    0.321   97.893   18.058
  564.250    0.214    0.339  100.315   14.435
  564.500    0.225    0.347  101.521   11.117
  564.750    0.207    0.355  105.763    9.574
  565.000    0.150    0.394  126.400    8.558
  565.250    0.107    0.427  145.823    7.793
  565.500    0.138    0.466  140.957    8.236
  565.750    0.174    0.475  136.698    9.553
  566.000    0.208    0.375  130.617   10.877
  566.250    0.213    0.373  125.751   12.618
  566.500    0.207    0.366  122.097   14.911
  566.750    0.208    0.357  123.304   15.470
  567.000    0.216    0.356  120.260   15.753
  567.250    0.208    0.355  111.143   15.454
  567.500    0.190    0.349  106.884   14.607
  567.750    0.166    0.346  113.554   13.301
  568.000    0.154    0.338  124.477   11.890
  568.250    0.156    0.331  131.147   10.827
  568.500    0.155    0.354  130.532    9.859
  568.750    0.177    0.374  123.236    9.494
  569.000    0.196    0.378  125.655    9.313
  569.250    0.185    0.351  126.862    9.661
  569.500    0.177    0.333  125.033    9.839
  569.750    0.181    0.322  123.203   10.207
  570.000    0.180    0.331  121.372   10.586
  570.250    0.179    0.327  126.220   10.583
  570.500    0.175    0.330  135.928   10.383
  570.750    0.185    0.351  136.525   10.572
  571.000    0.195    0.359  132.268   10.967
  571.250    0.196    0.356  126.794   11.378
  571.500    0.185    0.347  122.534   11.585
  571.750    0.178    0.337  120.097   12.244
  572.000    0.179    0.330  117.052   12.699
  572.250    0.177    0.343  112.793   12.693
  572.500    0.171    0.356  112.178   12.927
  572.750    0.182    0.361  118.849   13.410
  573.000    0.206    0.366  121.877   14.173
  573.250    0.235    0.360  114.582   15.261
  573.500    0.271    0.363   95.142   17.056
  573.750    0.304    0.360   65.986   44.884
  574.000    0.329    0.272   50.796   66.320
  574.250    0.348    0.159   44.108   86.026
  574.500    0.344    0.204   39.242  105.519
  574.750    0.321    0.233   38.626  111.518
  575.000    0.291    0.266   39.225  109.411
  575.250    0.304    0.295   39.214  105.348
  575.500    0.317    0.344   38.601  101.441
  575.750    0.319    0.367   36.770   95.884
  576.000    0.313    0.359   34.332   88.964
  576.250    0.306    0.326   35.539   76.611
  576.500    0.301    0.311   39.781   60.112
  576.750    0.312    0.319   42.807   42.179
  577.000    0.308    0.338   53.123   34.352
  577.250    0.295    0.354   75.582   28.503
