~VERSION INFORMATION
 VERS.                 2.0:   CWLS LOG ASCII STANDARD -VERSION 2.0
 WRAP.                  NO:   ONE LINE PER DEPTH STEP
~WELL INFORMATION BLOCK
#MNEM.UNIT           DATA                    DESCRIPTION OF MNEMONIC
#---------    -------------------            -------------------------------
# Generated from Intellog Unique Number	CX_WELLS/WELL/2544
WELL.         DOME ET AL NEWBY               : Well_name    - WELL
LOC .         00/07-25-080-03W4/0            : Location     - LOCATION
UWI .         00/07-25-080-03W400            : Uwi          - UNIQUE WELL ID
ENTR.         T                              : Entered      - ENTERED BY
SRVC.         SCHLUMBERGER                   : Scn          - SERVICE COMPANY
STRT.M        75                             : top_depth    - START DEPTH
STOP.M        330                            : bot_depth    - STOP DEPTH
STEP.M        0.25                           : increment    - STEP LENGTH
 NULL. -999.2500:NULL Value
~CURVE INFORMATION BLOCK
#MNEM UNIT       ERCB CURVE CODE    CURVE DESCRIPTION
#-----------   ------------------   ----------------------------------
DEPT.M        00 001 00 00         : DEPTH        - DEPTH
GR  .API      00 310 00 00         : GR           - GAMMA RAY
NPHI.V/V      00 330 00 00         : PHIN         - NEUTRON POROSITY (SANDSTONE)
DPHI.V/V      00 890 00 00         : PHID         - DENSITY POROSITY (SANDSTONE)
ILD .OHMM     00 120 00 00         : RESD         - DEEP RESISTIVITY (DIL)
~PARAMETER INFORMATION
#MNEM.UNIT           DATA             DESCRIPTION OF MNEMONIC
#---------         -----------     ------------------------------
GL  .M        482.7                : gl           - GROUND LEVEL ELEVATION
EREF.M        486.3                : kb           - ELEVATION OF DEPTH REFERENCE
DATM.M        486.3                : datum        - DATUM ELEVATION
TDD .M        338                  : tdd          - TOTAL DEPTH DRILLER
RUN .         ONE                  : Run          - RUN NUMBER
ENG .         BILL                 : Engineer     - RECORDING ENGINEER
WIT .         JIM                  : Witness      - WITNESSED BY
MUD .         GEL                  : Mud_type     - MUD TYPE
MATR.         SANDSTONE            : Logunit      - NEUTRON MATRIX
TMAX.C        20                   : BHT          - MAXIMUM RECORDED TEMPERATURE
BHTD.M        338                  : BHTDEP       - MAXIMUM RECORDED TEMPERATURE
MATR.         1                    : LOGUNIT      - NEUTRON MATRIX
RMT .C        18                   : MDTP         - TEMPERATURE OF MUD
NEUT.         1                    : NEUTRON      - NEUTRON TYPE
RESI.         2.4                  : RESIST       - RESISTIVITY TYPE
RMC .OHMM     2.16                 : RMC          - RESISTIVITY OF MUD CAKE
RMF .OHMM     2.16                 : RMF          - RESISTIVITY OF MUD FILTRATE
SUFT.C        5                    : SUFT         - SURFACE TEMPERATURE
~A  DEPTH       GR     PHIN     PHID     RESD
# ...
  292.500   54.221    0.342    0.301    1.753
  292.750   61.750    0.362    0.330    1.657
  293.000   59.984    0.380    0.357    1.596
  293.250   55.895    0.390    0.369    1.536
  293.500   52.962    0.397    0.378    1.478
  293.750   49.453    0.402    0.379    1.450
  294.000   44.782    0.403    0.377    1.449
  294.250   40.687    0.405    0.378    1.421
  294.500   38.922    0.399    0.370    1.420
  294.750   38.898    0.395    0.367    1.393
  295.000   38.870    0.395    0.368    1.392
  295.250   37.685    0.394    0.364    1.390
  295.500   37.087    0.392    0.361    1.390
  295.750   38.225    0.387    0.360    1.388
  296.000   40.526    0.381    0.359    1.387
  296.250   46.893    0.374    0.358    1.411
  296.500   99.159    0.374    0.329    1.436
  296.750  108.431    0.404    0.290    1.516
  297.000  114.799    0.445    0.257    1.602
  297.250  122.903    0.484    0.232    1.691
  297.500  123.455    0.506    0.238    1.853
  297.750  124.013    0.523    0.246    2.031
  298.000  124.565    0.534    0.251    2.352
  298.250  124.554    0.539    0.254    2.674
  298.500  125.111    0.543    0.254    2.824
  298.750  125.083    0.544    0.258    2.874
  299.000  124.479    0.536    0.256    3.034
  299.250  123.881    0.525    0.254    3.146
  299.500  121.522    0.501    0.251    3.262
  299.750  118.014    0.484    0.246    3.708
  300.000  107.528    0.495    0.242    3.844
  300.250  104.612    0.518    0.242    4.059
  300.500   97.612    0.531    0.225    4.366
  300.750   89.457    0.469    0.182    4.697
  301.000   81.881    0.429    0.168    4.870
  301.250   76.630    0.358    0.165    5.141
  301.500   69.630    0.307    0.167    5.331
  301.750   66.116    0.306    0.171    5.331
  302.000   70.746    0.362    0.177    6.054
  302.250   85.827    0.380    0.198    6.052
  302.500  107.298    0.388    0.204    6.159
  302.750  113.085    0.390    0.209    6.153
  303.000  113.062    0.396    0.216    6.036
  303.250  112.458    0.409    0.222    5.497
  303.500  111.848    0.438    0.233    4.825
  303.750  111.825    0.466    0.241    4.479
  304.000  111.808    0.482    0.248    4.156
  304.250  112.348    0.503    0.252    3.929
  304.500  114.080    0.570    0.269    3.854
  304.750  116.961    0.631    0.297    3.920
  305.000  116.357    0.646    0.314    3.991
  305.250  115.173    0.643    0.325    4.061
  305.500  113.407    0.623    0.336    4.210
  305.750  113.965    0.508    0.299    4.365
  306.000  116.260    0.508    0.260    4.442
  306.250  119.717    0.524    0.241    4.521
  306.500  119.118    0.553    0.250    4.353
  306.750  116.185    0.589    0.263    4.270
  307.000  112.676    0.606    0.295    4.111
  307.250  110.335    0.580    0.318    4.033
  307.500  112.055    0.574    0.347    4.028
  307.750  114.937    0.577    0.318    4.024
  308.000  121.304    0.546    0.302    4.020
  308.250  121.270    0.535    0.245    4.016
  308.500  120.671    0.539    0.232    4.014
  308.750  118.906    0.542    0.231    4.085
  309.000  118.302    0.536    0.226    4.157
  309.250  117.111    0.479    0.222    4.231
  309.500  116.507    0.468    0.222    4.387
  309.750  117.059    0.468    0.222    4.465
  310.000  117.036    0.473    0.221    4.544
  310.250  117.013    0.478    0.217    4.710
  310.500  115.828    0.481    0.213    4.705
  310.750  116.381    0.486    0.213    4.700
  311.000  116.950    0.491    0.222    4.697
  311.250  118.089    0.494    0.228    4.606
  311.500  117.473    0.500    0.233    4.603
  311.750  116.294    0.505    0.230    4.599
  312.000  114.529    0.507    0.227    4.511
  312.250  114.506    0.511    0.222    4.425
  312.500  116.225    0.512    0.215    4.259
  312.750  118.520    0.512    0.215    4.026
  313.000  119.659    0.511    0.212    3.223
  313.250  116.732    0.506    0.205    2.677
  313.500  110.899    0.467    0.211    2.307
  313.750   95.191    0.430    0.227    2.263
  314.000   71.339    0.398    0.265    2.179
  314.250   64.931    0.368    0.275    2.177
  314.500   54.446    0.345    0.287    2.175
  314.750   49.776    0.327    0.297    2.427
  315.000   49.166    0.513    0.292    2.660
  315.250   81.105    0.563    0.287    3.025
  315.500   93.282    0.595    0.297    3.568
  315.750  104.296    0.612    0.303    4.131
  316.000  110.083    0.586    0.306    4.364
  316.250  104.831    0.477    0.309    4.609
  316.500   98.993    0.443    0.307    4.866
  316.750  104.779    0.423    0.231    4.953
  317.000  112.309    0.399    0.216    5.134
  317.250  127.390    0.423    0.208    5.130
  317.500  113.424    0.440    0.206    5.031
  317.750  102.939    0.451    0.200    4.935
  318.000   90.711    0.444    0.194    4.932
  318.250   81.980    0.410    0.187    4.837
  318.500   70.913    0.380    0.209    4.017
  318.750   67.405    0.359    0.251    2.774
  319.000   61.567    0.350    0.266    2.391
  319.250   57.483    0.359    0.279    2.178
  319.500   52.812    0.367    0.295    1.912
  319.750   49.885    0.389    0.306    1.710
  320.000   45.203    0.406    0.322    1.617
  320.250   42.862    0.400    0.339    1.499
  320.500   41.677    0.393    0.348    1.444
  320.750   40.492    0.388    0.351    1.443
  321.000   39.883    0.400    0.353    1.415
  321.250   39.860    0.404    0.353    1.440
  321.500   41.574    0.402    0.353    1.493
  321.750   42.137    0.413    0.344    1.636
  322.000   43.857    0.418    0.330    1.793
  322.250  132.727    0.426    0.298    2.001
  322.500  138.514    0.443    0.270    2.361
  322.750  134.999    0.462    0.259    2.837
  323.000  131.491    0.462    0.235    3.810
  323.250  129.144    0.449    0.205    4.097
  323.500  128.540    0.450    0.201    4.573
  323.750  129.092    0.467    0.228    4.741
  324.000  128.488    0.480    0.248    4.737
  324.250  127.884    0.499    0.260    4.732
  324.500  128.442    0.517    0.270    4.728
  324.750  131.318    0.513    0.271    4.723
  325.000  129.558    0.508    0.231    4.807
  325.250  123.145    0.515    0.219    4.892
  325.500  110.917    0.521    0.219    4.889
  325.750  101.018    0.524    0.223    5.161
  326.000   92.862    0.524    0.230    5.254
  326.250   84.706    0.520    0.236    5.548
  326.500   76.544    0.519    0.242    6.077
  326.750   76.521    0.248    0.243    6.661
  327.000   78.230    0.248    0.242    7.165
  327.250   78.799    0.248    0.242    8.298
  327.500   81.669    0.248    0.046    9.609
  327.750   82.820    0.246    0.040   10.725
  328.000   84.539    0.245    0.038   11.539
  328.250   85.672    0.244    0.036   12.644
  328.500   86.225    0.240    0.035   13.350
  328.750   85.615    0.232    0.034   13.840
  329.000   84.436    0.215    0.031   14.088
  329.250   82.664    0.211    0.030   14.602
  329.500   82.072    0.214    0.029   14.864
  329.750   81.457    0.219    0.029   15.407
  330.000   82.014    0.223    0.032   15.680
