~VERSION INFORMATION
 VERS.                 2.0:   CWLS LOG ASCII STANDARD -VERSION 2.0
 WRAP.                  NO:   ONE LINE PER DEPTH STEP
~WELL INFORMATION BLOCK
#MNEM.UNIT           DATA                    DESCRIPTION OF MNEMONIC
#---------    -------------------            -------------------------------
# Generated from Intellog Unique Number	CS_71_72/WELL/637
WELL.         AMOCO AEC IPIATIK              : Well_name    - WELL
LOC .         00/03-18-072-06W4/0            : Location     - LOCATION
UWI .         00/03-18-072-06W4/0            : Uwi          - UNIQUE WELL ID
ENTR.         SP                             : Entered      - ENTERED BY
SRVC.         SCHLUMBERGER                   : Scn          - SERVICE COMPANY
STRT.M        310                            : top_depth    - START DEPTH
STOP.M        535                            : bot_depth    - STOP DEPTH
STEP.M        0.25                           : increment    - STEP LENGTH
 NULL. -999.2500:NULL Value
~CURVE INFORMATION BLOCK
#MNEM UNIT       ERCB CURVE CODE    CURVE DESCRIPTION
#-----------   ------------------   ----------------------------------
DEPT.M        00 001 00 00         : DEPTH        - DEPTH
ILD .OHMM     00 120 00 00         : RESD         - DEEP RESISTIVITY (DIL)
DPHI.V/V      00 890 00 00         : PHID         - DENSITY POROSITY (LIMESTONE)
NPHI.V/V      00 330 00 00         : PHIN         - NEUTRON POROSITY (LIMESTONE)
GR  .API      00 310 00 00         : GR           - GAMMA RAY
~PARAMETER INFORMATION
#MNEM.UNIT           DATA             DESCRIPTION OF MNEMONIC
#---------         -----------     ------------------------------
GL  .M        684.4                : gl           - GROUND LEVEL ELEVATION
EREF.M        688.5                : kb           - ELEVATION OF DEPTH REFERENCE
DATM.M        684.4                : datum        - DATUM ELEVATION
TDD .M        550                  : tdd          - TOTAL DEPTH DRILLER
RUN .         ONE                  : Run          - RUN NUMBER
ENG .         BILL                 : Engineer     - RECORDING ENGINEER
WIT .         JIM                  : Witness      - WITNESSED BY
MUD .         GEL                  : Mud_type     - MUD TYPE
MATR.         LIMESTONE            : Logunit      - NEUTRON MATRIX
TMAX.C        19                   : BHT          - MAXIMUM RECORDED TEMPERATURE
BHTD.M        550                  : BHTDEP       - MAXIMUM RECORDED TEMPERATURE
MATR.         1                    : LOGUNIT      - NEUTRON MATRIX
RMT .C        25                   : MDTP         - TEMPERATURE OF MUD
NEUT.         1                    : NEUTRON      - NEUTRON TYPE
RESI.         0                    : RESIST       - RESISTIVITY TYPE
RMC .OHMM     0.25                 : RMC          - RESISTIVITY OF MUD CAKE
RMF .OHMM     0.25                 : RMF          - RESISTIVITY OF MUD FILTRATE
SUFT.C        15                   : SUFT         - SURFACE TEMPERATURE
~A  DEPTH     RESD     PHID     PHIN       GR
# ...
  397.000    7.565    0.301    0.472   69.084
  397.250    7.565    0.314    0.488   69.711
  397.500    7.288    0.313    0.496   70.338
  397.750    7.153    0.308    0.497   70.360
  398.000    7.021    0.305    0.495   69.775
  398.250    7.021    0.305    0.488   70.403
  398.500    7.021    0.311    0.485   71.032
  398.750    6.892    0.298    0.483   67.425
  399.000    6.892    0.300    0.491   65.624
  399.250    6.892    0.316    0.480   65.636
  399.500    6.892    0.315    0.474   66.870
  399.750    6.892    0.309    0.479   66.898
  400.000    6.892    0.308    0.493   64.494
  400.250    6.893    0.306    0.502   63.902
  400.500    7.023    0.304    0.493   64.534
  400.750    7.155    0.303    0.501   66.386
  401.000    7.155    0.300    0.496   67.614
  401.250    7.290    0.299    0.482   70.672
  401.500    7.428    0.295    0.470   73.137
  401.750    7.291    0.284    0.461   73.757
  402.000    6.766    0.272    0.459   74.382
  402.250    6.518    0.260    0.480   73.198
  402.500    6.163    0.254    0.486   73.212
  402.750    5.938    0.275    0.460   74.451
  403.000    6.050    0.285    0.430   78.116
  403.250    6.280    0.271    0.459   84.826
  403.500    6.642    0.260    0.500   87.268
  403.750    6.642    0.247    0.522   92.156
  404.000    5.828    0.233    0.536   95.207
  404.250    4.927    0.222    0.553   98.878
  404.500    4.323    0.225    0.548  101.328
  404.750    4.012    0.220    0.540  103.780
  405.000    3.655    0.216    0.546  103.798
  405.250    3.456    0.218    0.568  103.212
  405.500    3.329    0.229    0.563  102.030
  405.750    3.148    0.239    0.574  100.840
  406.000    3.033    0.245    0.583  100.252
  406.250    2.977    0.237    0.563   99.660
  406.500    3.033    0.218    0.547  100.295
  406.750    3.148    0.219    0.537  100.916
  407.000    3.148    0.231    0.557  103.977
  407.250    3.148    0.232    0.569  105.216
  407.500    3.148    0.233    0.563  105.851
  407.750    3.090    0.244    0.578  105.261
  408.000    2.977    0.255    0.577  104.676
  408.250    2.868    0.259    0.572  102.884
  408.500    2.815    0.262    0.568  102.291
  408.750    3.033    0.257    0.532   95.637
  409.000    3.269    0.253    0.510   91.404
  409.250    3.656    0.246    0.494   87.782
  409.500    4.325    0.240    0.477   87.810
  409.750    4.661    0.235    0.463   89.654
  410.000    5.514    0.227    0.463   91.492
  410.250    5.941    0.221    0.477   94.563
  410.500    6.402    0.213    0.488   95.790
  410.750    6.523    0.206    0.483   97.022
  411.000    6.402    0.222    0.470   97.044
  411.250    6.284    0.219    0.464   90.994
  411.500    5.942    0.217    0.473   84.945
  411.750    5.942    0.217    0.448   80.714
  412.000    6.403    0.227    0.438   76.485
  412.250    6.899    0.236    0.420   83.196
  412.500    7.297    0.235    0.439   88.075
  412.750    7.575    0.223    0.456   89.912
  413.000    7.435    0.209    0.468   92.364
  413.250    7.298    0.202    0.479   93.601
  413.500    7.030    0.202    0.483   95.463
  413.750    6.773    0.196    0.498   95.479
  414.000    6.525    0.193    0.508   91.850
  414.250    6.286    0.191    0.509   90.048
  414.500    6.055    0.188    0.520   89.461
  414.750    5.726    0.188    0.520   90.097
  415.000    5.620    0.192    0.513   90.720
  415.250    5.414    0.202    0.510   93.184
  415.500    5.119    0.205    0.509   93.806
  415.750    4.840    0.230    0.506   95.651
  416.000    4.577    0.244    0.521   96.281
  416.250    4.169    0.237    0.527   96.913
  416.500    3.798    0.228    0.540   96.935
  416.750    3.524    0.229    0.550   96.958
  417.000    3.333    0.231    0.539   97.579
  417.250    3.210    0.221    0.527   99.430
  417.500    3.093    0.216    0.523  100.661
  417.750    3.093    0.212    0.516  102.508
  418.000    3.093    0.211    0.517  102.531
  418.250    3.093    0.210    0.529  102.549
  418.500    3.036    0.211    0.535  101.358
  418.750    3.036    0.214    0.530   97.743
  419.000    2.925    0.217    0.511   95.936
  419.250    2.925    0.224    0.492   93.531
  419.500    3.152    0.229    0.485   90.518
  419.750    3.659    0.218    0.475   88.109
  420.000    3.943    0.208    0.480   85.708
  420.250    4.249    0.197    0.481   84.508
  420.500    4.579    0.237    0.473   82.106
  420.750    4.842    0.244    0.469   80.911
  421.000    4.934    0.250    0.486   80.330
  421.250    5.027    0.267    0.495   81.563
  421.500    4.934    0.270    0.498   82.191
  421.750    4.934    0.276    0.471   80.999
  422.000    5.122    0.283    0.453   77.379
  422.250    5.417    0.317    0.442   73.152
  422.500    5.623    0.311    0.443   70.746
  422.750    5.837    0.293    0.445   70.155
  423.000    6.174    0.273    0.442   72.609
  423.250    6.174    0.265    0.472   75.064
  423.500    6.174    0.248    0.489   76.305
  423.750    6.060    0.232    0.488   77.532
  424.000    5.838    0.263    0.476   76.341
  424.250    5.730    0.279    0.476   72.728
  424.500    5.520    0.285    0.466   72.131
  424.750    5.418    0.290    0.498   73.372
  425.000    5.318    0.297    0.513   74.615
  425.250    5.419    0.303    0.517   74.629
  425.500    5.625    0.307    0.510   74.044
  425.750    5.839    0.308    0.500   71.636
  426.000    6.061    0.310    0.507   70.446
  426.250    6.061    0.309    0.519   72.290
  426.500    6.061    0.296    0.509   75.965
  426.750    6.062    0.285    0.494   77.194
  427.000    5.949    0.271    0.481   78.430
  427.250    5.950    0.268    0.475   78.451
  427.500    5.840    0.263    0.467   78.474
  427.750    5.840    0.258    0.461   79.103
  428.000    5.950    0.254    0.456   80.348
  428.250    5.950    0.252    0.470   80.365
  428.500    5.950    0.254    0.476   77.345
  428.750    5.950    0.264    0.475   73.118
  429.000    5.950    0.275    0.468   71.925
  429.250    6.063    0.265    0.454   72.558
  429.500    6.063    0.253    0.445   74.407
  429.750    6.063    0.244    0.448   75.635
  430.000    6.177    0.240    0.451   77.488
  430.250    6.178    0.243    0.449   78.109
  430.500    6.294    0.248    0.455   77.530
  430.750    6.294    0.256    0.459   79.371
  431.000    6.294    0.266    0.459   83.043
  431.250    6.178    0.267    0.449   84.882
  431.500    5.952    0.251    0.433   86.732
  431.750    5.734    0.234    0.444   86.743
  432.000    5.524    0.223    0.454   86.162
  432.250    5.126    0.217    0.465   88.005
  432.500    4.847    0.223    0.474   90.469
  432.750    4.334    0.227    0.484   91.088
  433.000    3.947    0.233    0.500   91.105
  433.250    3.732    0.240    0.501   90.522
  433.500    3.529    0.229    0.496   90.547
  433.750    3.733    0.224    0.505   89.354
  434.000    4.175    0.219    0.507   85.133
  434.250    4.416    0.231    0.495   83.331
  434.500    4.584    0.241    0.478   82.135
  434.750    4.758    0.246    0.469   84.581
  435.000    4.416    0.242    0.506   90.687
  435.250    3.875    0.241    0.527   93.744
  435.500    3.156    0.241    0.539   96.191
  435.750    2.718    0.242    0.553   97.424
  436.000    2.341    0.243    0.561   93.811
  436.250    2.132    0.248    0.570   93.222
  436.500    2.093    0.249    0.565   94.463
  436.750    2.173    0.254    0.554   95.692
  437.000    2.255    0.259    0.547   98.159
  437.250    2.385    0.253    0.566   98.779
  437.500    2.341    0.244    0.578   98.794
  437.750    2.570    0.238    0.574   96.996
  438.000    2.668    0.235    0.558   93.987
  438.250    3.157    0.230    0.538   92.187
  438.500    3.338    0.227    0.528   90.994
  438.750    3.805    0.223    0.510   89.796
  439.000    4.336    0.228    0.488   86.784
  439.250    4.850    0.230    0.473   84.985
  439.500    5.846    0.227    0.459   84.396
  439.750    6.182    0.213    0.453   81.991
  440.000    6.299    0.196    0.459   80.194
  440.250    6.299    0.185    0.463   82.042
