~VERSION INFORMATION
 VERS.                 2.0:   CWLS LOG ASCII STANDARD -VERSION 2.0
 WRAP.                  NO:   ONE LINE PER DEPTH STEP
~WELL INFORMATION BLOCK
#MNEM.UNIT           DATA                    DESCRIPTION OF MNEMONIC
#---------    -------------------            -------------------------------
# Generated from Intellog Unique Number	CW_82_90/WELL/3070
WELL.         CHEVRON WABASCA 08-34          : Well_name    - WELL
LOC .         00/08-34-085-25W4/0            : Location     - LOCATION
UWI .         00/08-34-085-25W4/0            : Uwi          - UNIQUE WELL ID
ENTR.         JAYE                           : Entered      - ENTERED BY
SRVC.         SCHLUMBERGER                   : Scn          - SERVICE COMPANY
DATE.         01 FEB 1974                    : Date         - LOG DATE
STRT.M        182.88                         : top_depth    - START DEPTH
STOP.M        384.13                         : bot_depth    - STOP DEPTH
STEP.M        0.25                           : increment    - STEP LENGTH
 NULL. -999.2500:NULL Value
~CURVE INFORMATION BLOCK
#MNEM UNIT       ERCB CURVE CODE    CURVE DESCRIPTION
#-----------   ------------------   ----------------------------------
DEPT.M        00 001 00 00         : DEPTH        - DEPTH
GR  .API      00 310 00 00         : GR           - GAMMA RAY
CALI.MM       00 280 01 00         : CAL          - CALIPER
DPHI.V/V      00 890 00 00         : PHID         - DENSITY POROSITY (SANDSTONE)
NPHI.V/V      00 330 00 00         : PHIN         - NEUTRON POROSITY (SANDSTONE)
ILD .OHMM     00 120 00 00         : RESD         - DEEP RESISTIVITY (DIL)
~PARAMETER INFORMATION
#MNEM.UNIT           DATA             DESCRIPTION OF MNEMONIC
#---------         -----------     ------------------------------
GL  .M        564.185              : gl           - GROUND LEVEL ELEVATION
EREF.M        567.538              : kb           - ELEVATION OF DEPTH REFERENCE
DATM.M        564.185              : datum        - DATUM ELEVATION
TDD .M        382.524              : tdd          - TOTAL DEPTH DRILLER
RUN .         ONE                  : Run          - RUN NUMBER
ENG .         ASWAD                : Engineer     - RECORDING ENGINEER
WIT .         WONG & LILLIES       : Witness      - WITNESSED BY
BASE.         EDMONTON             : Branch       - HOME BASE OF LOGGING UNIT
MUD .         FGM                  : Mud_type     - MUD TYPE
MATR.         SANDSTONE            : Logunit      - NEUTRON MATRIX
TMAX.C        30.5556              : BHT          - MAXIMUM RECORDED TEMPERATURE
BHTD.M        382.524              : BHTDEP       - MAXIMUM RECORDED TEMPERATURE
RMT .C        18.8889              : MDTP         - TEMPERATURE OF MUD
MUDD.KG/M     9600                 : MWT          - MUD DENSITY
NEUT.         1                    : NEUTRON      - NEUTRON TYPE
RESI.         0                    : RESIST       - RESISTIVITY TYPE
RM  .OHMM     0                    : RM           - RESISTIVITY OF MUD
RMC .OHMM     5.49                 : RMC          - RESISTIVITY OF MUD CAKE
RMF .OHMM     3.22                 : RMF          - RESISTIVITY OF MUD FILTRATE
SUFT.C        4                    : SUFT         - SURFACE TEMPERATURE
~A  DEPTH       GR      CAL     PHID     PHIN     RESD
# ...
  328.880   84.279  218.119    0.141    0.456   15.395
  329.130   85.882  217.877    0.136    0.487   14.924
  329.380   90.232  217.653    0.132    0.473   14.196
  329.630   92.690  217.492    0.129    0.439   13.631
  329.880   86.111  217.263    0.132    0.450   13.140
  330.130   84.174  216.803    0.148    0.442   12.736
  330.380   82.908  215.023    0.175    0.431   12.483
  330.630   82.070  215.198    0.173    0.463   12.262
  330.880   82.085  215.777    0.156    0.481   12.089
  331.130   85.823  216.149    0.167    0.494   11.938
  331.380   88.650  216.944    0.157    0.481   11.903
  331.630   88.906  216.908    0.140    0.475   12.001
  331.880   89.106  216.149    0.134    0.509   11.568
  332.130   88.329  215.183    0.142    0.517   11.404
  332.380   88.162  214.532    0.126    0.456   11.180
  332.630   90.497  215.429    0.137    0.474   10.938
  332.880   92.711  213.542    0.182    0.494   10.643
  333.130   93.823  213.318    0.196    0.502   10.571
  333.380   71.074  214.088    0.200    0.533   10.699
  333.630   93.978  215.183    0.183    0.512   11.286
  333.880   92.347  215.986    0.154    0.479   12.525
  334.130   94.376  215.842    0.114    0.438   12.870
  334.380   95.855  215.080    0.032    0.372   12.474
  334.630   91.599  214.638    0.094    0.389   11.977
  334.880   83.493  214.911    0.173    0.418   11.353
  335.130   74.965  216.119    0.192    0.438   11.023
  335.380   79.681  216.378    0.180    0.445   10.867
  335.630   85.495  217.066    0.177    0.450   10.714
  335.880   92.042  217.352    0.178    0.463   10.501
  336.130   92.914  217.416    0.182    0.469   10.315
  336.380   91.951  217.476    0.181    0.477   10.322
  336.630   92.397  217.148    0.175    0.488   10.293
  336.880   92.778  216.796    0.161    0.508   11.770
  337.130   92.549  216.558    0.121    0.510   13.792
  337.380   92.318  216.619    0.092    0.409   13.855
  337.630   90.687  215.445    0.072    0.326   12.575
  337.880   88.017  214.094    0.179    0.333   12.099
  338.130   85.345  213.119    0.214    0.369   12.313
  338.380   82.308  212.154    0.201    0.407   16.093
  338.630   88.614  211.717    0.196    0.415   19.804
  338.880   94.490  214.038    0.178    0.401   22.777
  339.130   91.818  215.247    0.135    0.333   21.707
  339.380   87.743  213.050    0.029    0.291   16.794
  339.630   84.341  211.356   -0.004    0.265   14.957
  339.880   81.732  212.486    0.064    0.269   11.902
  340.130   74.117  213.035    0.144    0.285   11.301
  340.380   73.278  214.144    0.185    0.415   11.161
  340.630   76.405  215.751    0.183    0.444   11.044
  340.880   88.448  217.480    0.185    0.462   11.200
  341.130   93.896  215.991    0.192    0.470   11.377
  341.380   97.941  215.136    0.195    0.463   12.182
  341.630   98.201  214.893    0.183    0.430   12.972
  341.880   97.362  215.900    0.174    0.429   13.254
  342.130   99.639  215.340    0.180    0.437   12.968
  342.380   99.836  212.827    0.183    0.430   11.835
  342.630   98.813  211.552    0.172    0.416    8.918
  342.880   97.058  215.232    0.147    0.418    7.796
  343.130   96.402  217.463    0.136    0.414    7.429
  343.380   93.794  217.750    0.173    0.437    7.283
  343.630   91.244  218.015    0.188    0.479    7.194
  343.880   92.909  219.430    0.181    0.538    7.531
  344.130   96.710  218.875    0.177    0.540    7.945
  344.380  102.831  218.748    0.169    0.544    7.950
  344.630  106.507  219.018    0.150    0.550    7.620
  344.880  107.013  217.838    0.126    0.548    7.469
  345.130  103.122  211.832    0.088    0.516    7.939
  345.380  101.856  211.792    0.059    0.447    8.264
  345.630  101.688  215.884    0.175    0.447    7.891
  345.880  101.214  216.357    0.170    0.505   10.102
  346.130   95.674  216.850    0.159    0.459   11.640
  346.380   96.910  217.121    0.150    0.430   12.894
  346.630  103.824  217.289    0.160    0.415   13.248
  346.880   98.836  214.266    0.186    0.416   13.259
  347.130   96.227  213.199    0.192    0.424   13.596
  347.380   94.837  213.159    0.187    0.440   13.479
  347.630   93.204  213.125    0.174    0.453   12.702
  347.880   92.547  213.503    0.113    0.369   12.904
  348.130   86.886  215.020    0.113    0.375   14.268
  348.380   83.849  215.916    0.135    0.406   13.961
  348.630   82.156  215.664    0.127    0.415   12.695
  348.880   83.392  212.853    0.065    0.349   11.942
  349.130   86.950  215.803    0.186    0.371   11.748
  349.380   86.113  216.188    0.186    0.395   11.430
  349.630   85.209  216.350    0.181    0.417   11.505
  349.880   85.899  216.428    0.180    0.451   11.887
  350.130   88.782  215.049    0.172    0.467   11.697
  350.380   94.901  216.674    0.146    0.453   11.064
  350.630   95.469  216.930    0.126    0.411   11.073
  350.880   93.529  214.849    0.097    0.383   11.505
  351.130   89.884  215.841    0.059    0.349   11.173
  351.380   88.251  218.480    0.145    0.353   10.217
  351.630   86.497  219.270    0.184    0.391    9.592
  351.880   87.975  219.136    0.179    0.474    9.987
  352.130   97.942  219.311    0.179    0.496    8.647
  352.380  101.254  218.748    0.169    0.496    8.493
  352.630  105.603  218.199    0.165    0.516    8.515
  352.880  109.100  217.445    0.156    0.484    8.651
  353.130  109.786  218.024    0.134    0.470    8.823
  353.380  109.560  218.118    0.162    0.473    9.082
  353.630  107.682  218.472    0.165    0.446    9.383
  353.880  103.546  218.849    0.168    0.427    9.769
  354.130  107.286  218.819    0.159    0.420    9.905
  354.380  108.769  216.516    0.148    0.399    9.988
  354.630  108.724  218.757    0.158    0.395   10.166
  354.880  107.944  219.961    0.164    0.414   10.347
  355.130  104.845  219.202    0.161    0.437   10.751
  355.380  102.725  218.238    0.161    0.452   11.932
  355.630  103.349  218.403    0.151    0.448   13.543
  355.880  101.354  218.788    0.123    0.436   14.340
  356.130   99.841  219.053    0.100    0.382   14.272
  356.380   99.856  216.447    0.025    0.305   13.347
  356.630  101.398  214.136    0.005    0.288   12.250
  356.880   94.824  214.940    0.133    0.304   12.032
  357.130   92.335  214.066    0.187    0.377   12.886
  357.380   89.052  212.591    0.193    0.363   14.299
  357.630   96.148  212.248    0.167    0.379   14.228
  357.880   97.571  212.727    0.152    0.378   13.976
  358.130   95.817  211.552    0.137    0.372   14.278
  358.380   93.265  211.006    0.128    0.364   19.667
  358.630   88.032  211.899    0.150    0.378   23.442
  358.880   84.936  211.552    0.156    0.352   27.420
  359.130   83.119  211.222    0.148    0.314   24.746
  359.380   82.769  208.802    0.172    0.292   24.999
  359.630   81.318  206.807    0.311    0.307   28.058
  359.880   72.604  204.709    0.363    0.339   29.155
  360.130   69.200  208.906    0.333    0.377   21.600
  360.380   68.484  211.445    0.258    0.346   17.947
  360.630   71.124  212.857    0.103    0.306   14.360
  360.880   75.657  212.921    0.074    0.289   12.412
  361.130   80.190  213.924    0.182    0.345   11.139
  361.380   82.528  213.785    0.187    0.400   10.857
  361.630   85.778  215.305    0.184    0.443   11.011
  361.880   92.387  215.982    0.182    0.437   11.164
  362.130   94.965  214.295    0.183    0.439   11.407
  362.380   92.295  217.042    0.175    0.462   11.415
  362.630   91.883  215.472    0.179    0.479   11.190
  362.880   93.060  214.822    0.160    0.467   10.909
  363.130   88.498  213.124    0.141    0.470   10.241
  363.380   88.756  213.915    0.131    0.457    9.190
  363.630   89.809  213.053    0.108    0.431    8.743
  363.880   93.427  214.056    0.108    0.436    8.490
  364.130   93.442  216.188    0.165    0.445    8.167
  364.380   93.580  216.362    0.161    0.450    7.370
  364.630   97.686  217.045    0.155    0.479    7.131
  364.880  103.440  217.420    0.158    0.511    7.110
  365.130  106.507  215.731    0.162    0.511    6.970
