~VERSION INFORMATION
 VERS.                 2.0:   CWLS LOG ASCII STANDARD -VERSION 2.0
 WRAP.                  NO:   ONE LINE PER DEPTH STEP
~WELL INFORMATION BLOCK
#MNEM.UNIT           DATA                    DESCRIPTION OF MNEMONIC
#---------    -------------------            -------------------------------
# Generated from Intellog Unique Number	CS_67_68/WELL/2163
WELL.         ESSO AEC 85 FISHCK             : Well_name    - WELL
LOC .         00/03-25-067-07W4/0            : Location     - LOCATION
UWI .         00/03-25-067-07W4/0            : Uwi          - UNIQUE WELL ID
ENTR.         SP                             : Entered      - ENTERED BY
SRVC.         SCHLUMBERGER                   : Scn          - SERVICE COMPANY
STRT.M        325                            : top_depth    - START DEPTH
STOP.M        545                            : bot_depth    - STOP DEPTH
STEP.M        0.25                           : increment    - STEP LENGTH
 NULL. -999.2500:NULL Value
~CURVE INFORMATION BLOCK
#MNEM UNIT       ERCB CURVE CODE    CURVE DESCRIPTION
#-----------   ------------------   ----------------------------------
DEPT.M        00 001 00 00         : DEPTH        - DEPTH
ILD .OHMM     00 120 00 00         : RESD         - DEEP RESISTIVITY (DIL)
DPHI.V/V      00 890 00 00         : PHID         - DENSITY POROSITY (LIMESTONE)
NPHI.V/V      00 330 00 00         : PHIN         - NEUTRON POROSITY (LIMESTONE)
GR  .API      00 310 00 00         : GR           - GAMMA RAY
CALI.MM       00 280 01 00         : CAL          - CALIPER
~PARAMETER INFORMATION
#MNEM.UNIT           DATA             DESCRIPTION OF MNEMONIC
#---------         -----------     ------------------------------
GL  .M        649.9                : gl           - GROUND LEVEL ELEVATION
EREF.M        653.5                : kb           - ELEVATION OF DEPTH REFERENCE
DATM.M        653.5                : datum        - DATUM ELEVATION
TDD .M        549                  : tdd          - TOTAL DEPTH DRILLER
RUN .         ONE                  : Run          - RUN NUMBER
ENG .         BILL                 : Engineer     - RECORDING ENGINEER
WIT .         JIM                  : Witness      - WITNESSED BY
MUD .         GEL                  : Mud_type     - MUD TYPE
MATR.         LIMESTONE            : Logunit      - NEUTRON MATRIX
TMAX.C        19                   : BHT          - MAXIMUM RECORDED TEMPERATURE
BHTD.M        548                  : BHTDEP       - MAXIMUM RECORDED TEMPERATURE
MATR.         1                    : LOGUNIT      - NEUTRON MATRIX
RMT .C        25                   : MDTP         - TEMPERATURE OF MUD
NEUT.         1                    : NEUTRON      - NEUTRON TYPE
RESI.         0                    : RESIST       - RESISTIVITY TYPE
RMC .OHMM     0.25                 : RMC          - RESISTIVITY OF MUD CAKE
RMF .OHMM     0.25                 : RMF          - RESISTIVITY OF MUD FILTRATE
SUFT.C        15                   : SUFT         - SURFACE TEMPERATURE
~A  DEPTH     RESD     PHID     PHIN       GR      CAL
  325.000    2.543    0.366    0.565   92.644  205.869
  325.250    2.440    0.372    0.582   94.684  203.568
  325.500    2.395    0.376    0.602   93.734  200.863
  325.750    2.491    0.296    0.562   99.617  193.482
  326.000    2.741    0.294    0.542  102.510  188.334
  326.250    2.933    0.329    0.520  101.069  184.308
  326.500    3.062    0.348    0.494   97.069  184.248
  326.750    3.103    0.366    0.508   93.675  189.579
  327.000    3.068    0.376    0.518   93.638  192.875
  327.250    3.028    0.386    0.512   95.556  193.021
  327.500    3.016    0.343    0.513   99.121  192.455
  327.750    3.143    0.320    0.526  103.237  194.221
  328.000    3.264    0.317    0.533  105.032  198.643
  328.250    3.388    0.373    0.543   99.744  200.816
  328.500    3.459    0.405    0.554   94.523  198.518
  328.750    3.465    0.436    0.562   92.288  196.832
  329.000    3.420    0.428    0.504   92.987  204.705
  329.250    3.413    0.395    0.503   94.108  218.172
  329.500    3.369    0.403    0.512   94.499  216.185
  329.750    3.202    0.400    0.523   92.635  212.867
  330.000    2.904    0.381    0.548   91.498  211.991
  330.250    2.893    0.367    0.576   91.892  212.644
  330.500    2.823    0.383    0.592   93.257  213.092
  330.750    2.812    0.397    0.557   96.090  210.493
  331.000    2.904    0.409    0.544   97.702  202.495
  331.250    3.026    0.423    0.538   98.216  191.552
  331.500    3.066    0.404    0.529   98.851  192.916
  331.750    3.066    0.365    0.520  101.134  191.432
  332.000    3.066    0.346    0.507  104.820  180.592
  332.250    3.043    0.343    0.519  103.504  176.766
  332.500    3.037    0.346    0.527   97.426  188.203
  332.750    2.991    0.345    0.544   94.703  199.637
  333.000    2.903    0.376    0.566   94.791  206.391
  333.250    2.801    0.417    0.559   93.167  208.674
  333.500    2.723    0.461    0.549   89.042  212.781
  333.750    2.941    0.508    0.543   89.190  220.554
  334.000    3.255    0.540    0.561   88.484  227.814
  334.250    3.670    0.414    0.578   83.075  234.977
  334.500    4.001    0.355    0.471   78.888  174.090
  334.750    4.313    0.278    0.424   84.529  160.301
  335.000    4.685    0.235    0.415   88.947  160.549
  335.250    5.303    0.280    0.416   92.941  159.985
  335.500    5.293    0.292    0.410   89.488  159.716
  335.750    5.146    0.290    0.391   87.682  160.061
  336.000    4.928    0.355    0.376   90.087  161.321
  336.250    4.854    0.401    0.403   86.204  167.575
  336.500    5.116    0.411    0.459   82.202  175.141
  336.750    5.525    0.380    0.453   83.268  185.044
  337.000    5.705    0.350    0.428   85.122  179.595
  337.250    5.791    0.326    0.401   87.224  177.604
  337.500    6.103    0.314    0.401   88.653  181.712
  337.750    6.172    0.379    0.405   87.149  181.043
  338.000    6.012    0.437    0.407   84.123  180.477
  338.250    5.856    0.402    0.405   81.950  180.006
  338.500    5.746    0.357    0.397   80.207  171.507
  338.750    5.714    0.346    0.397   83.709  165.241
  339.000    5.671    0.347    0.473   91.790  167.215
  339.250    5.607    0.349    0.522   94.805  185.462
  339.500    5.639    0.333    0.464   93.611  198.324
  339.750    5.681    0.304    0.437   90.829  203.857
  340.000    5.638    0.321    0.417   89.269  203.695
  340.250    5.481    0.339    0.415   89.172  209.026
  340.500    5.369    0.347    0.421   89.683  205.913
  340.750    5.339    0.357    0.424   88.914  189.273
  341.000    5.359    0.410    0.437   83.936  186.670
  341.250    5.329    0.578    0.460   80.178  195.256
  341.500    5.269    0.503    0.500   77.210  201.604
  341.750    5.288    0.447    0.541   74.126  193.514
  342.000    5.419    0.396    0.431   78.363  189.381
  342.250    5.563    0.352    0.385   82.046  168.570
  342.500    5.668    0.315    0.382   85.436  164.545
  342.750    5.775    0.293    0.400   86.978  163.978
  343.000    5.786    0.279    0.418   84.868  164.933
  343.250    5.710    0.266    0.422   85.080  166.807
  343.500    5.593    0.255    0.400   87.667  165.422
  343.750    5.572    0.245    0.402   90.317  161.496
  344.000    5.583    0.238    0.436   92.536  169.783
  344.250    5.593    0.249    0.475   94.576  174.911
  344.500    5.540    0.255    0.504   96.004  177.795
  344.750    5.407    0.266    0.444   97.493  167.769
  345.000    5.139    0.287    0.411  103.500  162.724
  345.250    4.949    0.284    0.429   88.084  164.596
  345.500    4.731    0.312    0.453   67.602  164.027
  345.750    4.548    0.336    0.471   57.620  162.037
  346.000    4.413    0.353    0.445   50.688  161.872
  346.250    4.372    0.365    0.429   53.278  161.921
  346.500    4.396    0.374    0.422   57.877  162.465
  346.750    4.513    0.373    0.444   64.252  162.507
  347.000    4.721    0.368    0.452   70.625  162.349
  347.250    5.023    0.362    0.449   75.652  162.082
  347.500    5.314    0.351    0.452   80.559  162.434
  347.750    5.611    0.335    0.439   86.138  163.090
  348.000    5.936    0.306    0.431   91.411  163.632
  348.250    6.186    0.277    0.417   95.830  164.095
  348.500    6.304    0.264    0.407   99.091  164.534
  348.750    6.303    0.265    0.423   96.613  165.182
  349.000    6.232    0.252    0.426   91.938  165.426
  349.250    6.139    0.223    0.412   88.912  165.165
  349.500    5.825    0.199    0.421   87.292  164.598
  349.750    5.423    0.175    0.436   88.229  164.127
  350.000    5.126    0.251    0.441   67.626  163.762
  350.250    4.854    0.299    0.395   53.309  163.600
  350.500    4.684    0.326    0.367   43.204  163.036
  350.750    4.562    0.345    0.357   35.050  162.769
  351.000    4.666    0.371    0.383   43.073  162.505
  351.250    4.790    0.413    0.426   49.080  162.142
  351.500    4.853    0.447    0.483   53.984  161.779
  351.750    4.826    0.416    0.509   59.442  161.107
  352.000    4.754    0.382    0.440   57.390  160.037
  352.250    4.630    0.367    0.417   45.881  159.664
  352.500    4.527    0.355    0.411   45.174  159.301
  352.750    4.476    0.357    0.420   52.402  159.145
  353.000    4.434    0.358    0.426   56.826  159.179
  353.250    4.425    0.358    0.432   58.371  159.228
  353.500    4.450    0.359    0.429   56.444  159.464
  353.750    4.518    0.359    0.421   55.128  159.712
  354.000    4.655    0.358    0.416   55.336  159.754
  354.250    4.743    0.354    0.443   57.250  160.001
  354.500    4.888    0.352    0.419   59.900  160.147
  354.750    5.037    0.351    0.395   69.385  160.286
  355.000    5.220    0.337    0.385   81.554  160.128
  355.250    5.318    0.326    0.391   89.573  160.368
  355.500    5.200    0.308    0.405   96.313  160.518
  355.750    5.093    0.290    0.418   85.782  160.758
  356.000    4.979    0.284    0.429   73.661  160.798
  356.250    4.832    0.295    0.436   64.408  160.841
  356.500    4.742    0.306    0.413   58.148  160.678
  356.750    4.680    0.312    0.411   53.537  160.719
  357.000    4.627    0.317    0.431   51.605  160.460
  357.250    4.627    0.320    0.423   47.969  160.000
  357.500    4.670    0.326    0.408   46.407  159.626
  357.750    4.741    0.319    0.394   56.511  159.067
  358.000    4.741    0.313    0.386   61.478  159.102
  358.250    4.732    0.317    0.394   65.591  158.834
  358.500    4.803    0.325    0.403   67.502  158.876
  358.750    4.913    0.326    0.411   65.270  158.824
  359.000    4.968    0.315    0.405   70.850  158.857
  359.250    5.053    0.304    0.394   77.037  159.309
  359.500    5.119    0.292    0.400   84.446  159.960
  359.750    5.355    0.283    0.401   90.575  160.713
  360.000    5.508    0.276    0.395   93.529  162.078
  360.250    5.623    0.271    0.396   94.838  163.746
  360.500    5.708    0.267    0.401   91.199  165.314
  360.750    5.718    0.301    0.402   88.782  167.083
  361.000    5.707    0.346    0.448   89.910  169.774
  361.250    5.675    0.384    0.478   90.858  171.644
