~VERSION INFORMATION
 VERS.                 2.0:   CWLS LOG ASCII STANDARD -VERSION 2.0
 WRAP.                  NO:   ONE LINE PER DEPTH STEP
~WELL INFORMATION BLOCK
#MNEM.UNIT           DATA                    DESCRIPTION OF MNEMONIC
#---------    -------------------            -------------------------------
# Generated from Intellog Unique Number	CW_73_75/WELL/591
WELL.         ASHLAND ET AL MCMILLAN 06-31   : Well_name    - WELL
LOC .         00/06-31-074-19W4/0            : Location     - LOCATION
UWI .         00/06-31-074-19W4/0            : Uwi          - UNIQUE WELL ID
ENTR.         JAYE                           : Entered      - ENTERED BY
SRVC.         WESTERN ATLAS                  : Scn          - SERVICE COMPANY
DATE.         17 JAN 76                      : Date         - LOG DATE
STRT.M        298.704                        : top_depth    - START DEPTH
STOP.M        508.954                        : bot_depth    - STOP DEPTH
STEP.M        0.25                           : increment    - STEP LENGTH
 NULL. -999.2500:NULL Value
~CURVE INFORMATION BLOCK
#MNEM UNIT       ERCB CURVE CODE    CURVE DESCRIPTION
#-----------   ------------------   ----------------------------------
DEPT.M        00 001 00 00         : DEPTH        - DEPTH
ILD .OHMM     00 120 00 00         : RESD         - DEEP RESISTIVITY (DIL)
GR  .API      00 310 00 00         : GR           - GAMMA RAY
CALI.MM       00 280 01 00         : CAL          - CALIPER
NPHI.V/V      00 330 00 00         : PHIN         - NEUTRON POROSITY (SANDSTONE)
DPHI.V/V      00 890 00 00         : PHID         - DENSITY POROSITY (SANDSTONE)
COND.MMHO                          : COND         - DEEP CONDUCTIVITY (DIL)
~PARAMETER INFORMATION
#MNEM.UNIT           DATA             DESCRIPTION OF MNEMONIC
#---------         -----------     ------------------------------
GL  .M        616.61               : gl           - GROUND LEVEL ELEVATION
EREF.M        619.658              : kb           - ELEVATION OF DEPTH REFERENCE
DATM.M        616.61               : datum        - DATUM ELEVATION
TDD .M        514.502              : tdd          - TOTAL DEPTH DRILLER
RUN .         ONE                  : Run          - RUN NUMBER
BASE.         EDMONTON             : Branch       - HOME BASE OF LOGGING UNIT
MATR.         SANDSTONE            : Logunit      - NEUTRON MATRIX
TMAX.C        23.8889              : BHT          - MAXIMUM RECORDED TEMPERATURE
BHTD.M        512.978              : BHTDEP       - MAXIMUM RECORDED TEMPERATURE
RMT .C        -15.7222             : MDTP         - TEMPERATURE OF MUD
MUDD.KG/M     0                    : MWT          - MUD DENSITY
NEUT.         1                    : NEUTRON      - NEUTRON TYPE
RESI.         0                    : RESIST       - RESISTIVITY TYPE
RM  .OHMM     4                    : RM           - RESISTIVITY OF MUD
RMC .OHMM     0                    : RMC          - RESISTIVITY OF MUD CAKE
RMF .OHMM     3.9                  : RMF          - RESISTIVITY OF MUD FILTRATE
SUFT.C        -17.7778             : SUFT         - SURFACE TEMPERATURE
~A  DEPTH     RESD       GR      CAL     PHIN     PHID     COND
# ...
  361.204    8.821   50.172  192.649    0.378    0.345  113.364
  361.454    8.701   50.959  193.457    0.376    0.344  114.929
  361.704    8.628   53.403  193.542    0.370    0.344  115.901
  361.954    8.542   54.926  193.318    0.354    0.344  117.071
  362.204    8.429   54.055  193.609    0.345    0.333  118.636
  362.454    8.375   54.103  194.214    0.307    0.334  119.409
  362.704    8.212   56.057  196.374    0.280    0.337  121.766
  362.954    8.200   53.958  198.956    0.258    0.323  121.946
  363.204    8.337   51.367  202.264    0.240    0.030  119.944
  363.454   76.909   48.040  206.611    0.210    0.016  111.007
  363.704  114.574   46.739  207.631    0.174    0.022   94.935
  363.954  135.148   44.087  206.881    0.170    0.025   74.305
  364.204  149.118   44.259  205.406    0.171    0.023   51.693
  364.454  154.154   45.291  205.179    0.177    0.021   32.846
  364.704  153.752   44.727  205.678    0.179    0.020   20.936
  364.954  151.408   42.873  207.112    0.186    0.020   18.735
  365.204  142.849   40.651  208.238    0.190    0.021   18.122
  365.454  120.694   40.087  207.388    0.184    0.154   15.525
  365.704   49.985   42.038  197.802    0.176    0.307   12.533
  365.954   43.757   41.659  194.663    0.179    0.324    9.541
  366.204   87.249   39.683  197.344    0.180    0.293    5.756
  366.454  116.368   39.609  201.899    0.165    0.100    3.160
  366.704  149.370   41.379  204.064    0.144    0.074    2.149
  366.954  157.512   39.648  204.981    0.124    0.056    2.139
  367.204  160.997   35.890  205.168    0.119    0.037    2.125
  367.454  162.535   38.028  204.939    0.117    0.023    2.103
  367.704  157.474   41.086  204.191    0.116    0.017    2.245
  367.954  139.204   40.399  203.756    0.116    0.014    2.247
  368.204  118.993   40.080  203.424    0.117    0.012    2.229
  368.454  105.771   39.393  203.508    0.118    0.012    2.604
  368.704   91.774   38.767  204.112    0.120    0.013    2.782
  368.954   79.720   40.168  204.093    0.122    0.014    3.357
  369.204   66.111   41.875  204.177    0.130    0.013    4.725
  369.454   53.278   43.643  204.052    0.140    0.013    5.103
  369.704   46.661   44.553  203.617    0.154    0.013    6.272
  369.954   41.985   45.155  203.387    0.159    0.014    7.638
  370.204   38.866   45.512  203.264    0.167    0.016   10.591
  370.454   35.357   45.500  203.246    0.177    0.018   12.751
  370.704   32.236   46.410  203.330    0.189    0.025   15.110
  370.954   29.114   48.854  202.996    0.203    0.062   17.667
  371.204   27.158   51.605  201.938    0.227    0.093   23.790
  371.454   25.204   52.146  193.600    0.267    0.134   32.887
  371.704   19.957   52.686  189.422    0.412    0.178   50.108
  371.954   13.465   54.825  188.985    0.411    0.308   74.265
  372.204   10.390   55.119  191.046    0.394    0.303   96.243
  372.454    9.002   55.414  192.793    0.378    0.305  111.087
  372.704    8.199   57.490  193.605    0.376    0.308  121.966
  372.954    8.187   57.170  193.168    0.383    0.310  122.145
  373.204    8.083   54.642  192.941    0.386    0.307  123.710
  373.454    8.111   53.586  192.921    0.395    0.303  123.295
  373.704    8.073   54.128  193.318    0.399    0.299  123.868
  373.954    8.049   56.388  193.818    0.397    0.297  124.246
  374.204    8.050   57.911  194.940    0.392    0.297  124.226
  374.454    7.937   56.732  196.066    0.381    0.297  125.990
  374.704    7.901   54.203  197.501    0.377    0.297  126.564
  374.954    7.865   52.165  199.144    0.386    0.293  127.139
  375.204    7.818   51.784  200.580    0.385    0.289  127.911
  375.454    7.795   52.327  202.224    0.386    0.286  128.289
  375.704    7.820   54.218  204.076    0.386    0.287  127.872
  375.954    7.870   55.065  203.121    0.381    0.289  127.059
  376.204    7.823   57.388  201.956    0.378    0.295  127.831
  376.454    7.764   57.007  202.872    0.387    0.305  128.804
  376.704    7.729   57.548  203.578    0.389    0.309  129.378
  376.954    7.672   59.992  204.184    0.388    0.305  130.348
  377.204    7.720   59.858  203.956    0.384    0.303  129.537
  377.454    7.805   57.083  200.504    0.380    0.302  128.129
  377.704    7.854   57.992  194.455    0.384    0.301  127.317
  377.954    7.893   58.348  191.106    0.388    0.299  126.702
  378.204    7.944   57.600  190.254    0.386    0.297  125.889
  378.454    7.945   56.359  190.649    0.375    0.294  125.869
  378.704    7.896   57.454  191.361    0.366    0.296  126.643
  378.954    7.776   56.767  192.482    0.378    0.300  128.606
  379.204    7.801   55.158  193.393    0.380    0.302  128.189
  379.454    7.766   55.700  193.483    0.380    0.300  128.763
  379.704    7.768   54.705  193.878    0.398    0.299  128.741
  379.954    7.805   53.895  193.964    0.396    0.297  128.129
  380.204    7.842   56.769  194.464    0.388    0.293  127.515
  380.454    7.831   59.398  194.860    0.398    0.286  127.694
  380.704    7.748   58.342  195.045    0.397    0.284  129.060
  380.954    7.726   56.796  195.027    0.388    0.288  129.438
  381.204    7.680   59.547  195.111    0.397    0.281  130.211
  381.454    7.612   62.788  194.989    0.402    0.281  131.380
  381.704    7.533   64.680  194.758    0.413    0.294  132.747
  381.954    7.568   63.441  194.428    0.406    0.306  132.133
  382.204    7.581   64.780  193.473    0.399    0.302  131.916
  382.454    7.628   66.856  193.243    0.407    0.291  131.103
  382.704    7.652   70.651  193.329    0.397    0.276  130.685
  382.954    7.641   77.025  193.724    0.388    0.258  130.865
  383.204    7.175   83.645  194.638    0.394    0.246  139.367
  383.454    6.949   86.396  195.244    0.421    0.256  143.905
  383.704    6.893   88.041  196.471    0.427    0.262  145.074
  383.954    6.961   87.355  197.699    0.427    0.254  143.667
  384.204    6.766   86.728  199.240    0.423    0.232  147.809
  384.454    6.141   89.419  201.507    0.413    0.202  162.850
  384.704    5.691   95.732  203.151    0.399    0.207  175.713
  384.954    5.411   94.676  203.755    0.391    0.216  184.809
  385.204    5.366   93.804  201.757    0.391    0.224  186.374
  385.454    5.623   90.109  200.283    0.398    0.236  177.831
  385.704    6.020   88.684  199.433    0.397    0.231  166.121
  385.954    6.621   90.147  200.452    0.397    0.215  151.039
  386.204    7.147   91.977  203.863    0.402    0.192  139.921
  386.454    7.612   92.886  206.546    0.406    0.216  131.380
  386.704    7.601   94.531  205.175    0.406    0.208  131.559
  386.954    7.337   94.337  203.596    0.400    0.180  136.294
  387.204    7.002   93.895  206.383    0.392    0.167  142.814
  387.454    6.652   95.847  209.168    0.392    0.170  150.326
  387.704    6.180   96.942  209.775    0.400    0.173  161.800
  387.954    5.858   98.710  209.650    0.411    0.165  170.699
  388.204    5.649   98.023  210.253    0.423    0.149  177.020
  388.454    5.419   97.705  210.650    0.427    0.150  184.530
  388.704    5.191   97.876  210.629    0.441    0.160  192.637
  388.954    4.967   98.479  210.505    0.441    0.165  201.337
  389.204    4.739   97.853  211.630    0.432    0.183  211.027
  389.454    4.486   95.201  215.354    0.417    0.248  222.898
  389.704    4.185   93.102  224.172    0.403    0.270  238.930
  389.954    3.904   92.538  232.573    0.395    0.265  256.151
  390.204    3.750   94.429  231.305    0.404    0.308  266.635
  390.454    3.773   91.101  225.047    0.411    0.366  265.030
  390.704    3.828   89.064  213.068    0.413    0.370  261.245
  390.954    3.942   89.298  213.779    0.410    0.340  253.693
  391.204    4.089   86.706  210.639    0.404    0.210  244.558
  391.454    4.411   88.291  202.613    0.408    0.191  226.703
  391.704    4.686   92.271  201.553    0.411    0.174  213.406
  391.954    4.771   94.531  204.133    0.417    0.179  209.621
  392.204    4.731   91.018  209.312    0.432    0.209  211.384
