~VERSION INFORMATION
 VERS.                 2.0:   CWLS LOG ASCII STANDARD -VERSION 2.0
 WRAP.                  NO:   ONE LINE PER DEPTH STEP
~WELL INFORMATION BLOCK
#MNEM.UNIT           DATA                    DESCRIPTION OF MNEMONIC
#---------    -------------------            -------------------------------
# Generated from Intellog Unique Number	CW_79_81/WELL/2462
WELL.         07-32-081-20W4                 : Well_name    - WELL
LOC .         00/07-32-081-20W4/0            : Location     - LOCATION
UWI .         00/07-32-081-20W4/0            : Uwi          - UNIQUE WELL ID
ENTR.         MAX                            : Entered      - ENTERED BY
SRVC.         COMPUTALOG                     : Scn          - SERVICE COMPANY
STRT.M        152.4                          : top_depth    - START DEPTH
STOP.M        383.90                         : bot_depth    - STOP DEPTH
STEP.M        0.25                           : increment    - STEP LENGTH
 NULL. -999.2500:NULL Value
~CURVE INFORMATION BLOCK
#MNEM UNIT       ERCB CURVE CODE    CURVE DESCRIPTION
#-----------   ------------------   ----------------------------------
DEPT.M        00 001 00 00         : DEPTH        - DEPTH
ILD .OHMM     00 120 00 00         : RESD         - DEEP RESISTIVITY (DIL)
NPHI.V/V      00 330 00 00         : PHIN         - NEUTRON POROSITY (SANDSTONE)
DPHI.V/V      00 890 00 00         : PHID         - DENSITY POROSITY (SANDSTONE)
GR  .API      00 310 00 00         : GR           - GAMMA RAY
CALI.MM       00 280 01 00         : CAL          - CALIPER
~PARAMETER INFORMATION
#MNEM.UNIT           DATA             DESCRIPTION OF MNEMONIC
#---------         -----------     ------------------------------
GL  .M        586.77               : gl           - GROUND LEVEL ELEVATION
EREF.M        590.123              : kb           - ELEVATION OF DEPTH REFERENCE
DATM.M        586.77               : datum        - DATUM ELEVATION
TDD .M        399.288              : tdd          - TOTAL DEPTH DRILLER
RUN .         ONE                  : Run          - RUN NUMBER
ENG .         BILL                 : Engineer     - RECORDING ENGINEER
WIT .         JIM                  : Witness      - WITNESSED BY
MUD .         GEL                  : Mud_type     - MUD TYPE
MATR.         SANDSTONE            : Logunit      - NEUTRON MATRIX
TMAX.C        16.6667              : BHT          - MAXIMUM RECORDED TEMPERATURE
BHTD.M        399.288              : BHTDEP       - MAXIMUM RECORDED TEMPERATURE
MATR.         1                    : LOGUNIT      - NEUTRON MATRIX
RMT .C        7.77778              : MDTP         - TEMPERATURE OF MUD
NEUT.         1                    : NEUTRON      - NEUTRON TYPE
RESI.         0                    : RESIST       - RESISTIVITY TYPE
RMC .OHMM     3.9                  : RMC          - RESISTIVITY OF MUD CAKE
RMF .OHMM     4.15                 : RMF          - RESISTIVITY OF MUD FILTRATE
SUFT.C        -20.5556             : SUFT         - SURFACE TEMPERATURE
~A  DEPTH     RESD     PHIN     PHID       GR      CAL
# ...
  261.900   10.829    0.434    0.366  104.263  161.180
  262.150   10.702    0.419    0.364  105.176  160.746
  262.400   10.504    0.424    0.366  105.559  160.606
  262.650   10.332    0.431    0.367  105.065  160.564
  262.900   10.214    0.436    0.367  102.994  160.620
  263.150   10.106    0.447    0.368   98.187  161.043
  263.400   10.039    0.435    0.369   97.674  161.412
  263.650   10.007    0.440    0.370   99.057  161.770
  263.900    9.998    0.444    0.369  101.313  161.827
  264.150    9.997    0.445    0.368  101.990  161.783
  264.400   10.003    0.440    0.367  101.730  161.738
  264.650   10.046    0.422    0.365  104.319  161.686
  264.900   10.110    0.419    0.364  104.539  161.638
  265.150   10.078    0.426    0.363  103.813  161.604
  265.400   10.069    0.425    0.362  102.736  161.558
  265.650   10.175    0.422    0.362  100.839  161.515
  265.900   10.466    0.421    0.362   97.773  161.480
  266.150   11.114    0.415    0.362   92.423  161.427
  266.400   11.705    0.385    0.359   88.013  161.374
  266.650   12.351    0.366    0.357   86.817  161.336
  266.900   13.025    0.354    0.360   82.818  161.298
  267.150   13.813    0.357    0.365   74.726  161.258
  267.400   14.678    0.370    0.369   65.931  161.215
  267.650   15.411    0.371    0.365   64.352  161.160
  267.900   15.605    0.346    0.358   63.595  161.116
  268.150   15.698    0.335    0.356   65.438  161.069
  268.400   15.720    0.346    0.356   66.408  161.026
  268.650   15.704    0.356    0.358   66.850  160.988
  268.900   15.671    0.356    0.362   66.997  160.852
  269.150   15.625    0.360    0.365   66.921  160.318
  269.400   15.559    0.367    0.365   66.654  159.857
  269.650   15.527    0.367    0.365   66.157  159.819
  269.900   15.471    0.365    0.365   65.667  159.778
  270.150   15.375    0.366    0.364   64.708  159.934
  270.400   15.233    0.371    0.361   63.337  160.190
  270.650   14.998    0.375    0.358   62.481  160.225
  270.900   14.770    0.361    0.357   64.157  160.589
  271.150   14.518    0.388    0.352   67.406  161.343
  271.400   14.290    0.394    0.349   70.479  161.500
  271.650   14.070    0.398    0.349   72.092  161.651
  271.900   13.850    0.406    0.353   72.186  161.901
  272.150   13.611    0.410    0.355   72.019  161.855
  272.400   13.512    0.412    0.356   72.478  161.815
  272.650   13.322    0.412    0.357   73.856  161.765
  272.900   13.133    0.418    0.357   75.411  161.727
  273.150   12.912    0.420    0.357   77.492  161.689
  273.400   12.654    0.424    0.356   80.098  161.647
  273.650   12.292    0.448    0.350   83.607  161.596
  273.900   11.902    0.433    0.338   87.235  161.552
  274.150   11.332    0.433    0.325   98.900  161.505
  274.400   10.411    0.441    0.309  103.728  161.465
  274.650    9.348    0.447    0.294  106.158  161.421
  274.900    8.252    0.449    0.282  108.939  161.374
  275.150    6.975    0.450    0.272  114.046  161.409
  275.400    6.150    0.437    0.260  118.648  161.778
  275.650    5.072    0.448    0.252  125.171  161.731
  275.900    4.303    0.470    0.242  132.045  162.876
  276.150    3.831    0.487    0.240  135.995  164.022
  276.400    3.605    0.495    0.247  137.372  164.672
  276.650    3.652    0.502    0.253  141.611  164.935
  276.900    3.915    0.518    0.252  148.893  164.478
  277.150    4.221    0.496    0.261  135.069  163.248
  277.400    5.050    0.476    0.275  124.930  162.612
  277.650    6.200    0.455    0.282  121.513  162.174
  277.900    7.409    0.442    0.284  121.372  161.836
  278.150    9.074    0.451    0.300  113.589  161.787
  278.400   10.239    0.444    0.312  108.689  161.730
  278.650   11.095    0.435    0.321  105.624  161.696
  278.900   11.897    0.416    0.327  103.436  161.653
  279.150   12.505    0.397    0.332  103.176  161.415
  279.400   12.829    0.397    0.336  104.553  161.081
  279.650   12.870    0.451    0.337  105.100  161.027
  279.900   12.771    0.449    0.333  100.931  160.987
  280.150   12.708    0.437    0.336  100.669  160.945
  280.400   12.691    0.425    0.339  101.639  160.900
  280.650   12.674    0.413    0.341  102.552  160.855
  280.900   12.626    0.404    0.341  102.588  160.814
  281.150   12.498    0.411    0.339  101.680  160.767
  281.400   12.334    0.423    0.336  103.113  160.724
  281.650   12.333    0.444    0.331  104.260  160.681
  281.900   12.355    0.451    0.328  105.578  160.639
  282.150   12.416    0.446    0.327  106.956  160.593
  282.400   12.524    0.431    0.325  108.335  160.643
  282.650   12.718    0.415    0.317  109.853  160.990
  282.900   12.913    0.407    0.310  110.560  160.955
  283.150   13.005    0.410    0.305  111.470  160.913
  283.400   13.004    0.427    0.299  111.504  160.867
  283.650   12.861    0.437    0.289  111.830  160.821
  283.900   12.402    0.433    0.273  115.254  160.876
  284.150   11.050    0.436    0.251  127.093  161.308
  284.400    9.505    0.458    0.268  131.451  161.681
  284.650    8.510    0.464    0.269  135.401  162.031
  284.900    8.077    0.463    0.268  137.245  162.383
  285.150    7.923    0.461    0.268  138.154  162.737
  285.400    7.898    0.459    0.269  138.772  163.190
  285.650    7.897    0.458    0.268  138.380  163.931
  285.900    7.896    0.456    0.264  134.219  163.887
  286.150    7.957    0.454    0.261  134.661  163.849
  286.400    8.018    0.460    0.259  138.085  163.808
  286.650    8.095    0.468    0.259  140.865  163.766
  286.900    8.180    0.471    0.258  142.066  163.724
  287.150    8.241    0.467    0.258  143.683  163.590
  287.400    8.240    0.470    0.258  144.877  163.134
  287.650    8.239    0.468    0.255  139.942  163.083
  287.900    8.214    0.452    0.255  139.214  163.042
  288.150    8.150    0.443    0.257  140.357  163.004
  288.400    8.039    0.452    0.259  141.034  162.965
  288.650    7.862    0.473    0.259  139.096  162.913
  288.900    7.763    0.455    0.258  140.042  162.865
  289.150    7.731    0.437    0.256  138.617  162.827
  289.400    7.722    0.451    0.255  136.663  163.380
  289.650    7.650    0.466    0.251  135.968  162.279
  289.900    7.577    0.470    0.245  135.568  160.054
  290.150    7.739    0.472    0.244  131.251  159.914
  290.400    7.935    0.456    0.253  128.760  159.444
  290.650    8.152    0.437    0.262  120.923  158.602
  290.900    8.323    0.425    0.278  112.726  157.756
  291.150    8.417    0.415    0.289  109.028  157.107
  291.400    8.430    0.401    0.293  110.068  156.856
  291.650    8.390    0.379    0.295  112.886  157.282
  291.900    8.356    0.379    0.286  120.008  157.662
  292.150    8.323    0.397    0.284  119.981  157.616
  292.400    8.313    0.419    0.282  115.869  157.564
  292.650    8.311    0.427    0.281  113.594  157.516
  292.900    8.325    0.423    0.280  115.344  157.472
  293.150    8.411    0.428    0.274  119.720  157.414
  293.400    8.541    0.434    0.267  120.431  157.371
  293.650    8.633    0.432    0.264  123.244  157.321
  293.900    8.608    0.457    0.273  124.813  157.277
  294.150    8.242    0.470    0.273  126.798  157.632
  294.400    7.354    0.461    0.262  130.264  158.286
  294.650    5.799    0.454    0.260  137.402  158.635
  294.900    4.913    0.477    0.287  146.006  158.583
  295.150    4.592    0.492    0.303  150.476  157.740
  295.400    4.586    0.486    0.308  145.001  156.887
  295.650    4.825    0.476    0.309  137.871  156.238
  295.900    5.294    0.474    0.310  133.051  155.794
  296.150    6.133    0.489    0.304  128.896  155.333
  296.400    6.867    0.494    0.297  122.458  155.286
  296.650    7.268    0.468    0.289  113.436  156.046
  296.900    7.717    0.449    0.279  112.404  156.202
  297.150    8.259    0.456    0.280  116.518  156.154
  297.400    8.682    0.477    0.291  122.406  156.105
  297.650    8.340    0.469    0.294  126.854  156.051
  297.900    7.917    0.467    0.295  130.277  156.008
  298.150    7.946    0.474    0.302  118.886  155.963
