~VERSION INFORMATION
 VERS.                 2.0:   CWLS LOG ASCII STANDARD -VERSION 2.0
 WRAP.                  NO:   ONE LINE PER DEPTH STEP
~WELL INFORMATION BLOCK
#MNEM.UNIT           DATA                    DESCRIPTION OF MNEMONIC
#---------    -------------------            -------------------------------
# Generated from Intellog Unique Number	CW_82_90/WELL/3420
WELL.         TEXACO CORN LAKE               : Well_name    - WELL
LOC .         00/06-11-089-25W4/0            : Location     - LOCATION
UWI .         00/06-11-089-25W4/0            : Uwi          - UNIQUE WELL ID
ENTR.         MAX                            : Entered      - ENTERED BY
SRVC.         COMPUTALOG                     : Scn          - SERVICE COMPANY
STRT.M        200                            : top_depth    - START DEPTH
STOP.M        413                            : bot_depth    - STOP DEPTH
STEP.M        0.25                           : increment    - STEP LENGTH
 NULL. -999.2500:NULL Value
~CURVE INFORMATION BLOCK
#MNEM UNIT       ERCB CURVE CODE    CURVE DESCRIPTION
#-----------   ------------------   ----------------------------------
DEPT.M        00 001 00 00         : DEPTH        - DEPTH
GR  .API      00 310 00 00         : GR           - GAMMA RAY
CALI.MM       00 280 01 00         : CAL          - CALIPER
DPHI.V/V      00 890 00 00         : PHID         - DENSITY POROSITY (SANDSTONE)
NPHI.V/V      00 330 00 00         : PHIN         - NEUTRON POROSITY (SANDSTONE)
ILD .OHMM     00 120 00 00         : RESD         - DEEP RESISTIVITY (DIL)
~PARAMETER INFORMATION
#MNEM.UNIT           DATA             DESCRIPTION OF MNEMONIC
#---------         -----------     ------------------------------
GL  .M        617.98               : gl           - GROUND LEVEL ELEVATION
EREF.M        621.5                : kb           - ELEVATION OF DEPTH REFERENCE
DATM.M        617.98               : datum        - DATUM ELEVATION
TDD .M        415                  : tdd          - TOTAL DEPTH DRILLER
RUN .         ONE                  : Run          - RUN NUMBER
ENG .         BILL                 : Engineer     - RECORDING ENGINEER
WIT .         JIM                  : Witness      - WITNESSED BY
MUD .         GEL                  : Mud_type     - MUD TYPE
MATR.         SANDSTONE            : Logunit      - NEUTRON MATRIX
TMAX.C        16.6                 : BHT          - MAXIMUM RECORDED TEMPERATURE
BHTD.M        415                  : BHTDEP       - MAXIMUM RECORDED TEMPERATURE
MATR.         1                    : LOGUNIT      - NEUTRON MATRIX
RMT .C        15.6                 : MDTP         - TEMPERATURE OF MUD
NEUT.         1                    : NEUTRON      - NEUTRON TYPE
RESI.         0                    : RESIST       - RESISTIVITY TYPE
RMC .OHMM     4                    : RMC          - RESISTIVITY OF MUD CAKE
RMF .OHMM     5.5                  : RMF          - RESISTIVITY OF MUD FILTRATE
SUFT.C        -13.7                : SUFT         - SURFACE TEMPERATURE
~A  DEPTH       GR      CAL     PHID     PHIN     RESD
# ...
  309.500   87.040  215.071    0.233    0.428    3.849
  309.750   86.749  215.096    0.244    0.414    4.188
  310.000   85.541  215.122    0.251    0.432    4.729
  310.250   80.974  214.645    0.191    0.423    5.097
  310.500   76.099  214.667    0.108    0.273    5.544
  310.750   70.007  214.692    0.117    0.260    6.088
  311.000   70.024  214.715    0.140    0.258    6.562
  311.250   72.174  214.740    0.195    0.304    7.073
  311.500   75.550  214.766    0.244    0.353    7.414
  311.750   78.622  214.798    0.250    0.399    7.085
  312.000   74.969  214.305    0.250    0.421    6.583
  312.250   74.070  214.334    0.249    0.449    6.175
  312.500   73.474  214.356    0.242    0.455    6.353
  312.750   70.127  214.891    0.199    0.401    6.786
  313.000   62.813  214.916    0.076    0.252    7.314
  313.250   60.991  214.945    0.028    0.199    7.186
  313.500   68.646  214.967    0.069    0.193    6.801
  313.750   75.993  215.505    0.123    0.248    6.090
  314.000   85.784  216.043    0.151    0.339    5.402
  314.250   96.186  216.062    0.184    0.413    4.576
  314.500   96.813  216.088    0.209    0.396    3.948
  314.750   93.164  215.604    0.212    0.408    3.602
  315.000   91.347  215.124    0.215    0.444    3.571
  315.250   93.498  215.662    0.218    0.452    3.744
  315.500   93.208  216.190    0.220    0.426    4.073
  315.750   85.894  216.222    0.223    0.407    4.514
  316.000   82.239  216.245    0.226    0.378    4.865
  316.250   83.173  216.270    0.225    0.355    5.007
  316.500   88.076  216.293    0.225    0.328    5.010
  316.750   92.063  216.827    0.225    0.346    4.877
  317.000   96.966  217.365    0.227    0.369    4.490
  317.250   97.594  217.391    0.228    0.392    4.021
  317.500   94.555  217.416    0.230    0.402    3.877
  317.750   94.261  216.933    0.231    0.411    3.739
  318.000   94.582  215.943    0.228    0.417    3.848
  318.250   82.683  215.962    0.217    0.400    3.996
  318.500   77.810  215.482    0.211    0.410    4.348
  318.750   72.632  214.995    0.205    0.415    4.642
  319.000   69.593  214.512    0.194    0.384    4.958
  319.250   68.693  214.534    0.203    0.350    5.197
  319.500   74.208  215.072    0.227    0.382    4.921
  319.750   78.498  215.607    0.243    0.422    4.657
  320.000   82.485  216.145    0.240    0.401    4.249
  320.250   84.638  217.182    0.240    0.417    3.875
  320.500   84.656  218.226    0.246    0.414    3.535
  320.750   87.115  218.255    0.250    0.375    3.195
  321.000   88.961  217.771    0.251    0.346    2.941
  321.250   92.339  217.287    0.254    0.382    2.609
  321.500   94.796  217.819    0.248    0.434    2.540
  321.750   89.315  218.863    0.231    0.497    2.566
  322.000   86.275  220.928    0.224    0.536    2.689
  322.250   85.067  223.500    0.224    0.519    2.926
  322.500   84.166  226.577    0.225    0.481    3.525
  322.750   83.568  229.148    0.226    0.432    4.408
  323.000   85.724  228.668    0.221    0.390    4.706
  323.250   87.570  227.169    0.213    0.345    4.843
  323.500   87.282  224.643    0.215    0.347    4.892
  323.750   86.992  222.122    0.220    0.338    4.896
  324.000   86.089  221.642    0.216    0.319    4.946
  324.250   80.605  221.158    0.208    0.338    5.090
  324.500   79.704  220.672    0.215    0.378    5.335
  324.750   83.385  219.679    0.221    0.403    5.645
  325.000   73.466  215.325    0.262    0.425    5.448
  325.250   68.336  207.777    0.258    0.437    5.395
  325.500   61.701  207.257    0.230    0.461    5.393
  325.750   56.572  207.241    0.237    0.476    5.392
  326.000   55.959  207.220    0.299    0.403    5.340
  326.250   60.764  207.701    0.321    0.359    5.288
  326.500   64.064  209.193    0.312    0.331    5.189
  326.750   67.666  210.180    0.266    0.326    5.091
  327.000   71.268  211.163    0.238    0.334    5.042
  327.250   74.569  211.145    0.247    0.373    4.855
  327.500   79.979  211.628    0.250    0.412    4.420
  327.750   87.796  211.610    0.245    0.394    3.949
  328.000   85.678  212.096    0.243    0.396    3.495
  328.250   81.450  212.577    0.243    0.409    3.094
  328.500   85.353  213.060    0.248    0.449    3.007
  328.750   81.429  213.040    0.262    0.468    3.063
  329.000   73.891  213.026    0.284    0.463    3.458
  329.250   70.266  211.500    0.284    0.432    4.169
  329.500   70.857  210.478    0.284    0.417    4.663
  329.750   71.448  209.958    0.284    0.426    5.071
  330.000   72.945  210.443    0.275    0.366    5.069
  330.250   76.847  211.930    0.253    0.334    5.067
  330.500   80.149  213.418    0.230    0.356    5.066
  330.750   78.933  214.398    0.208    0.394    5.160
  331.000   74.708  214.884    0.190    0.391    5.406
  331.250   71.383  215.370    0.183    0.380    5.663
  331.500   71.374  216.357    0.197    0.378    5.714
  331.750   74.976  218.346    0.207    0.403    5.766
  332.000   78.578  218.328    0.202    0.420    5.873
  332.250   75.255  218.309    0.180    0.409    6.039
  332.500   73.738  219.796    0.170    0.370    6.151
  332.750   75.835  216.767    0.177    0.355    6.444
  333.000   77.329  220.261    0.181    0.388    6.814
  333.250   74.907  222.250    0.155    0.330    6.940
  333.500   71.888  217.214    0.159    0.290    6.938
  333.750   73.681  215.690    0.189    0.405    7.067
  334.000   73.973  216.675    0.188    0.484    7.403
  334.250   70.650  216.655    0.100    0.395    8.281
  334.500   64.618  216.132    0.004    0.179    9.437
  334.750   58.284  212.606    0.053    0.151    9.886
  335.000   51.047  212.587    0.106    0.226   10.260
  335.250   61.875  218.588    0.154    0.302   10.353
  335.500   70.296  219.072    0.173    0.361    9.337
  335.750   79.618  223.572    0.182    0.415    7.813
  336.000   80.208  223.052    0.179    0.398    6.599
  336.250   79.595  221.528    0.178    0.352    6.355
  336.500   79.885  222.014    0.189    0.345    6.473
  336.750   82.886  224.500    0.203    0.370    6.593
  337.000   84.681  223.984    0.211    0.365    6.715
  337.250   82.262  223.462    0.208    0.360    6.969
  337.500   80.443  223.443    0.201    0.370    7.165
  337.750   81.939  222.926    0.195    0.381    7.230
  338.000   81.023  218.389    0.184    0.381    7.296
  338.250   78.301  215.359    0.165    0.374    7.363
  338.500   78.895  215.845    0.169    0.366    7.360
  338.750   78.583  214.319    0.184    0.348    7.358
  339.000   79.775  214.303    0.216    0.348    7.219
  339.250   82.776  216.292    0.204    0.365    7.016
  339.500   84.570  214.264    0.195    0.379    6.756
  339.750   85.465  215.749    0.193    0.362    6.567
  340.000   84.549  216.739    0.194    0.345    6.324
  340.250   83.636  214.711    0.199    0.317    6.502
  340.500   83.323  213.689    0.206    0.330    6.685
  340.750   83.312  213.673    0.211    0.359    6.745
  341.000   86.011  214.156    0.217    0.362    6.807
  341.250   88.408  213.636    0.219    0.339    6.805
  341.500   86.892  213.618    0.219    0.327    6.739
  341.750   86.580  213.599    0.219    0.316    6.612
  342.000   83.257  211.576    0.219    0.326    6.426
  342.250   78.129  211.053    0.208    0.349    6.305
  342.500   77.516  213.045    0.196    0.343    6.186
  342.750   80.815  214.529    0.190    0.338    6.013
  343.000   84.719  214.511    0.191    0.351    5.900
  343.250   82.600  212.488    0.196    0.341    5.898
  343.500   82.891  210.964    0.214    0.308    5.951
  343.750   84.385  211.447    0.231    0.303    5.949
  344.000   84.073  211.928    0.242    0.341    6.174
  344.250   82.557  211.411    0.249    0.407    6.529
  344.500   76.223  211.892    0.246    0.410    6.904
  344.750   70.190  210.867    0.209    0.368    7.300
  345.000   64.760  210.350    0.173    0.316    7.648
  345.250   63.543  209.832    0.188    0.307    7.937
  345.500   65.340  212.320    0.253    0.393    8.161
  345.750   68.942  215.817    0.238    0.386    7.932
