~VERSION INFORMATION
 VERS.                 2.0:   CWLS LOG ASCII STANDARD -VERSION 2.0
 WRAP.                  NO:   ONE LINE PER DEPTH STEP
~WELL INFORMATION BLOCK
#MNEM.UNIT           DATA                    DESCRIPTION OF MNEMONIC
#---------    -------------------            -------------------------------
# Generated from Intellog Unique Number	CW_82_90/WELL/3425
WELL.         SHERRIT LIEGE                  : Well_name    - WELL
LOC .         00/06-36-089-21W4/0            : Location     - LOCATION
UWI .         00/06-36-089-21W4/0            : Uwi          - UNIQUE WELL ID
ENTR.         MAX                            : Entered      - ENTERED BY
SRVC.         SCHLUMBERGER                   : Scn          - SERVICE COMPANY
STRT.M        100                            : top_depth    - START DEPTH
STOP.M        242                            : bot_depth    - STOP DEPTH
STEP.M        0.25                           : increment    - STEP LENGTH
 NULL. -999.2500:NULL Value
~CURVE INFORMATION BLOCK
#MNEM UNIT       ERCB CURVE CODE    CURVE DESCRIPTION
#-----------   ------------------   ----------------------------------
DEPT.M        00 001 00 00         : DEPTH        - DEPTH
ILD .OHMM     00 120 00 00         : RESD         - DEEP RESISTIVITY (DIL)
NPHI.V/V      00 330 00 00         : PHIN         - NEUTRON POROSITY (SANDSTONE)
DPHI.V/V      00 890 00 00         : PHID         - DENSITY POROSITY (SANDSTONE)
CALI.MM       00 280 01 00         : CAL          - CALIPER
GR  .API      00 310 00 00         : GR           - GAMMA RAY
~PARAMETER INFORMATION
#MNEM.UNIT           DATA             DESCRIPTION OF MNEMONIC
#---------         -----------     ------------------------------
GL  .M        513                  : gl           - GROUND LEVEL ELEVATION
EREF.M        516.3                : kb           - ELEVATION OF DEPTH REFERENCE
DATM.M        513                  : datum        - DATUM ELEVATION
TDD .M        243.4                : tdd          - TOTAL DEPTH DRILLER
RUN .         ONE                  : Run          - RUN NUMBER
ENG .         BILL                 : Engineer     - RECORDING ENGINEER
WIT .         JIM                  : Witness      - WITNESSED BY
MUD .         GEL                  : Mud_type     - MUD TYPE
MATR.         SANDSTONE            : Logunit      - NEUTRON MATRIX
TMAX.C        24                   : BHT          - MAXIMUM RECORDED TEMPERATURE
BHTD.M        243.4                : BHTDEP       - MAXIMUM RECORDED TEMPERATURE
MATR.         1                    : LOGUNIT      - NEUTRON MATRIX
RMT .C        19.4                 : MDTP         - TEMPERATURE OF MUD
NEUT.         1                    : NEUTRON      - NEUTRON TYPE
RESI.         0                    : RESIST       - RESISTIVITY TYPE
RMC .OHMM     2.674                : RMC          - RESISTIVITY OF MUD CAKE
RMF .OHMM     2.97                 : RMF          - RESISTIVITY OF MUD FILTRATE
SUFT.C        -12                  : SUFT         - SURFACE TEMPERATURE
~A  DEPTH     RESD     PHIN     PHID      CAL       GR
# ...
  209.500   14.771    0.426    0.176  163.785   93.762
  209.750   14.086    0.445    0.198  163.729   91.341
  210.000   13.685    0.448    0.207  163.164   88.009
  210.250   13.919    0.450    0.190  163.079   87.379
  210.500   14.161    0.422    0.163  162.523   89.710
  210.750   14.142    0.424    0.140  161.459   94.713
  211.000   13.993    0.435    0.177  161.384   98.829
  211.250   13.588    0.411    0.189  160.828  101.762
  211.500   12.721    0.393    0.189  161.243  102.309
  211.750   12.131    0.405    0.203  162.619   98.395
  212.000   11.893    0.420    0.208  162.563   95.671
  212.250   12.555    0.455    0.203  162.469   92.334
  212.500   13.247    0.448    0.177  162.413   90.811
  212.750   13.231    0.402    0.139  162.809   88.675
  213.000   13.461    0.408    0.118  163.723   88.336
  213.250   13.944    0.417    0.202  162.668   90.073
  213.500   14.189    0.402    0.195  161.104   91.512
  213.750   14.565    0.423    0.169  160.549   92.357
  214.000   14.682    0.445    0.150  160.483   94.677
  214.250   14.662    0.440    0.157  161.868   98.805
  214.500   14.503    0.434    0.177  162.292  103.516
  214.750   14.355    0.427    0.195  162.698  107.924
  215.000   14.600    0.428    0.207  161.153  102.826
  215.250   14.849    0.436    0.207  159.127   94.742
  215.500   14.834    0.370    0.169  157.583   93.207
  215.750   14.678    0.363    0.141  158.459  102.380
  216.000   14.523    0.381    0.122  160.834  104.420
  216.250   13.847    0.396    0.161  161.258  107.347
  216.500   13.330    0.427    0.202  161.192  110.565
  216.750   12.827    0.421    0.193  161.098  110.214
  217.000   12.230    0.411    0.188  161.532  107.502
  217.250   12.105    0.403    0.180  161.938  100.012
  217.500   13.015    0.398    0.162  162.352  100.256
  217.750   13.606    0.407    0.173  162.287  104.081
  218.000   13.588    0.400    0.196  162.212  103.427
  218.250   13.082    0.411    0.200  163.597  102.499
  218.500   12.133    0.421    0.195  164.021  101.255
  218.750   11.356    0.430    0.188  163.437   97.930
  219.000   11.552    0.440    0.170  161.412   98.483
  219.250   12.422    0.407    0.172  158.397  104.985
  219.500   12.870    0.381    0.204  155.382  107.608
  219.750   13.586    0.373    0.214  152.848  108.453
  220.000   14.475    0.377    0.218  151.803  108.114
  220.250   15.420    0.387    0.195  151.727   98.840
  220.500   17.044    0.331    0.123  153.603   93.439
  220.750   18.666    0.294    0.077  156.967   96.068
  221.000   18.813    0.271    0.070  162.272  110.297
  221.250   17.941    0.306    0.128  166.126  109.660
  221.500   15.313    0.353    0.162  169.970  106.037
  221.750   14.333    0.396    0.177  173.315  106.882
  222.000   13.795    0.388    0.190  174.229  112.783
  222.250   13.402    0.374    0.194  164.337  116.905
  222.500   13.019    0.376    0.194  164.770  112.390
  222.750   12.646    0.395    0.193  165.675  114.722
  223.000   12.284    0.416    0.193  166.552  118.839
  223.250   11.607    0.439    0.193  166.985  118.488
  223.500   10.467    0.447    0.196  168.371  116.959
  223.750    9.893    0.459    0.195  169.765  115.424
  224.000    9.348    0.471    0.199  169.700  114.187
  224.250    9.080    0.498    0.202  168.136  106.102
  224.500    9.762    0.523    0.166  167.090   96.835
  224.750   10.889    0.486    0.022  165.555   89.643
  225.000   12.260    0.400    0.040  163.021  100.308
  225.250   12.942    0.337    0.086  161.975  109.184
  225.500   13.285    0.417    0.143  161.391  112.110
  225.750   13.145    0.400    0.198  159.790  109.368
  226.000   12.771    0.402    0.201  159.281  107.845
  226.250   12.177    0.480    0.191  159.197  106.316
  226.500   12.160    0.449    0.114  159.140  101.206
  226.750   12.034    0.398    0.019  160.045  106.518
  227.000   11.264    0.381    0.062  162.420  114.198
  227.250   10.545    0.388    0.108  163.306  121.586
  227.500   10.149    0.433    0.155  163.250  124.519
  227.750    9.859    0.424    0.193  164.644  126.262
  228.000    9.667    0.418    0.201  163.099  129.188
  228.250    9.477    0.438    0.186  160.085  133.602
  228.500    9.376    0.434    0.159  159.001  136.826
  228.750    9.363    0.429    0.146  158.945  133.203
  229.000    9.435    0.428    0.172  159.360  128.391
  229.250    9.600    0.426    0.178  162.715  122.698
  229.500   10.129    0.427    0.160  165.579  110.153
  229.750   10.694    0.431    0.139  167.454  101.176
  230.000   12.043    0.394    0.110  164.449  105.590
  230.250   12.829    0.328    0.025  163.385  109.112
  230.500   13.171    0.329    0.129  163.319  107.273
  230.750   13.151    0.356    0.144  164.224  104.549
  231.000   14.012    0.378    0.161  165.119  103.008
  231.250   14.519    0.360    0.148  165.053  101.771
  231.500   14.366    0.362    0.152  164.978  101.128
  231.750   13.697    0.391    0.167  163.923  100.480
  232.000   13.681    0.402    0.181  161.870  100.141
  232.250   13.787    0.396    0.179  159.825   99.504
  232.500   13.639    0.402    0.174  158.789   98.552
  232.750   13.376    0.406    0.163  157.734   97.618
  233.000   13.114    0.384    0.146  161.560   95.792
  233.250   12.386    0.382    0.145  163.953   93.068
  233.500   11.596    0.397    0.158  164.849   88.844
  233.750   10.559    0.413    0.175  163.803   85.816
  234.000   10.743    0.430    0.188  161.759   83.395
  234.250   13.512    0.444    0.196  160.214   80.368
  234.500   17.965    0.427    0.200  158.660   78.833
  234.750   23.016    0.408    0.208  158.104   80.576
  235.000   34.500    0.427    0.223  158.020   82.003
  235.250   42.215    0.477    0.316  157.944   82.556
  235.500   50.701    0.498    0.328  157.869   83.110
  235.750   62.602    0.491    0.323  158.294   84.537
  236.000   75.199    0.487    0.317  158.219   85.989
  236.250   87.043    0.472    0.310  158.143   88.915
  236.500   87.716    0.459    0.309  158.558   92.437
  236.750   79.156    0.448    0.303  158.973   96.850
  237.000   30.269    0.468    0.289  160.368  102.757
  237.250   18.534    0.449    0.241  161.753  105.976
  237.500   14.028    0.364    0.204  162.649  106.523
  237.750   12.428    0.373    0.187  162.592  106.778
  238.000   12.878    0.396    0.173  163.497  106.719
  238.250   13.592    0.402    0.164  163.403  106.380
  238.500   14.479    0.395    0.161  162.848  106.035
  238.750   16.299    0.386    0.183  160.813  105.392
  239.000   18.183    0.386    0.209  158.768  105.345
  239.250   19.556    0.390    0.224  155.254  105.291
  239.500   21.413    0.395    0.181  154.218  105.249
  239.750   23.451    0.399    0.172  153.653  105.190
  240.000   26.166    0.403    0.203  153.569  104.547
  240.250   29.728    0.414    0.245  153.475  103.019
  240.500   33.175    0.415    0.267  153.908  101.484
  240.750   38.041    0.416    0.264  154.813  100.550
  241.000   42.048    0.416    0.256  155.718   99.889
  241.250   46.484    0.417    0.250  155.634   99.854
  241.500   49.518    0.418    0.250  155.568   99.800
  241.750   51.785    0.418    0.256  155.983   99.759
  242.000   54.659    0.411    0.259  156.388   99.711
