~VERSION INFORMATION
 VERS.                 2.0:   CWLS LOG ASCII STANDARD -VERSION 2.0
 WRAP.                  NO:   ONE LINE PER DEPTH STEP
~WELL INFORMATION BLOCK
#MNEM.UNIT           DATA                    DESCRIPTION OF MNEMONIC
#---------    -------------------            -------------------------------
# Generated from Intellog Unique Number	CS_73_76/WELL/2179
WELL.         MIAMI OIL PRODUCERS INC.       : Well_name    - WELL
LOC .         00/07-33-074-11W4/0            : Location     - LOCATION
UWI .         00/07-33-074-11W4/0            : Uwi          - UNIQUE WELL ID
ENTR.         SP                             : Entered      - ENTERED BY
SRVC.         SCHLUMBERGER                   : Scn          - SERVICE COMPANY
STRT.M        280.416                        : top_depth    - START DEPTH
STOP.M        514.916                        : bot_depth    - STOP DEPTH
STEP.M        0.25                           : increment    - STEP LENGTH
 NULL. -999.2500:NULL Value
~CURVE INFORMATION BLOCK
#MNEM UNIT       ERCB CURVE CODE    CURVE DESCRIPTION
#-----------   ------------------   ----------------------------------
DEPT.M        00 001 00 00         : DEPTH        - DEPTH
GR  .API      00 310 00 00         : GR           - GAMMA RAY
DPHI.V/V      00 890 00 00         : PHID         - DENSITY POROSITY (SANDSTONE)
NPHI.V/V      00 330 00 00         : PHIN         - NEUTRON POROSITY (SANDSTONE)
ILD .OHMM     00 120 00 00         : RESD         - DEEP RESISTIVITY (DIL)
~PARAMETER INFORMATION
#MNEM.UNIT           DATA             DESCRIPTION OF MNEMONIC
#---------         -----------     ------------------------------
GL  .M        657.149              : gl           - GROUND LEVEL ELEVATION
EREF.M        660.38               : kb           - ELEVATION OF DEPTH REFERENCE
DATM.M        657.149              : datum        - DATUM ELEVATION
TDD .M        743.712              : tdd          - TOTAL DEPTH DRILLER
RUN .         `                    : Run          - RUN NUMBER
ENG .         BILL                 : Engineer     - RECORDING ENGINEER
WIT .         JIM                  : Witness      - WITNESSED BY
MUD .         GEL                  : Mud_type     - MUD TYPE
MATR.         SANDSTONE            : Logunit      - NEUTRON MATRIX
TMAX.C        26.1111              : BHT          - MAXIMUM RECORDED TEMPERATURE
BHTD.M        743.712              : BHTDEP       - MAXIMUM RECORDED TEMPERATURE
MATR.         1                    : LOGUNIT      - NEUTRON MATRIX
RMT .C        25                   : MDTP         - TEMPERATURE OF MUD
NEUT.         1                    : NEUTRON      - NEUTRON TYPE
RESI.         0                    : RESIST       - RESISTIVITY TYPE
RMC .OHMM     0.25                 : RMC          - RESISTIVITY OF MUD CAKE
RMF .OHMM     0.25                 : RMF          - RESISTIVITY OF MUD FILTRATE
SUFT.C        15                   : SUFT         - SURFACE TEMPERATURE
~A  DEPTH       GR     PHID     PHIN     RESD
# ...
  367.416   66.162    0.306    0.652    7.917
  367.666   69.387    0.311    0.644    7.917
  367.916   70.979    0.317    0.649    7.917
  368.166   67.733    0.322    0.647    7.901
  368.416   68.785    0.319    0.640    8.076
  368.666   72.944    0.311    0.646    8.060
  368.916   69.381    0.324    0.655    8.168
  369.166   67.450    0.310    0.685    8.205
  369.416   70.435    0.301    0.673    8.209
  369.666   71.461    0.314    0.623    8.208
  369.916   69.540    0.307    0.612    8.208
  370.166   68.062    0.284    0.636    8.204
  370.416   68.027    0.279    0.639    8.125
  370.666   67.984    0.293    0.644    8.060
  370.916   68.543    0.305    0.645    8.042
  371.166   69.297    0.283    0.644    8.220
  371.416   71.725    0.293    0.641    8.205
  371.666   72.311    0.302    0.640    8.098
  371.916   72.698    0.314    0.641    7.843
  372.166   71.547    0.311    0.660    6.810
  372.416   76.046    0.300    0.683    5.683
  372.666   80.320    0.287    0.708    4.761
  372.916   88.143    0.279    0.733    4.026
  373.166   94.919    0.270    0.758    3.495
  373.416   98.261    0.263    0.774    3.133
  373.666   96.512    0.265    0.749    3.600
  373.916   94.169    0.280    0.723    3.877
  374.166   91.885    0.284    0.696    4.264
  374.416   91.285    0.265    0.690    5.068
  374.666   93.259    0.248    0.687    5.637
  374.916   92.440    0.246    0.691    6.115
  375.166   90.302    0.262    0.695    6.342
  375.416   88.509    0.254    0.690    6.322
  375.666   85.901    0.245    0.683    6.445
  375.916   82.498    0.255    0.682    6.447
  376.166   79.138    0.265    0.684    6.473
  376.416   80.093    0.278    0.688    6.561
  376.666   82.793    0.289    0.685    6.751
  376.916   85.514    0.284    0.678    6.933
  377.166   85.947    0.274    0.666    7.166
  377.416   83.413    0.267    0.363    7.758
  377.666   76.076    0.273    0.329    9.064
  377.916   66.475    0.234    0.347   11.326
  378.166   59.772    0.177    0.384   12.711
  378.416   54.855    0.127    0.433   13.970
  378.666   59.061    0.075    0.463   14.773
  378.916   62.578    0.162    0.487   13.731
  379.166   66.258    0.246    0.530   12.096
  379.416   69.524    0.280    0.560   10.335
  379.666   73.544    0.302    0.609    9.297
  379.916   75.894    0.314    0.683    8.207
  380.166   76.543    0.301    0.679    7.553
  380.416   77.221    0.306    0.676    7.461
  380.666   78.206    0.309    0.668    7.444
  380.916   79.419    0.285    0.667    7.612
  381.166   80.744    0.297    0.668    7.601
  381.416   81.772    0.317    0.668    7.743
  381.666   81.718    0.308    0.661    7.735
  381.916   80.675    0.292    0.654    7.733
  382.166   79.615    0.278    0.662    7.733
  382.416   79.421    0.263    0.683    7.737
  382.666   79.940    0.256    0.669    7.606
  382.916   82.222    0.263    0.688    7.448
  383.166   84.389    0.249    0.707    7.264
  383.416   87.521    0.257    0.718    6.940
  383.666   88.963    0.271    0.715    6.794
  383.916   89.478    0.256    0.710    6.661
  384.166   86.838    0.259    0.704    6.667
  384.416   84.772    0.271    0.698    6.622
  384.666   84.784    0.281    0.692    6.546
  384.916   86.739    0.282    0.681    6.544
  385.166   88.558    0.272    0.671    6.544
  385.416   90.076    0.253    0.662    6.542
  385.666   91.422    0.242    0.666    6.469
  385.916   91.353    0.240    0.686    6.420
  386.166   90.800    0.271    0.692    6.531
  386.416   90.012    0.250    0.698    6.562
  386.666   90.854    0.236    0.701    6.286
  386.916   92.365    0.262    0.700    6.306
  387.166   93.107    0.261    0.695    6.303
  387.416   93.021    0.246    0.689    6.302
  387.666   92.460    0.256    0.682    6.302
  387.916   91.741    0.270    0.674    6.301
  388.166   91.801    0.266    0.670    6.300
  388.416   91.850    0.253    0.662    6.300
  388.666   91.087    0.242    0.647    6.301
  388.916   91.204    0.250    0.643    6.294
  389.166   89.475    0.239    0.661    6.426
  389.416   89.324    0.255    0.676    6.416
  389.666   89.245    0.270    0.674    6.414
  389.916   89.901    0.240    0.662    6.417
  390.166   90.565    0.257    0.668    6.424
  390.416   91.508    0.254    0.676    6.538
  390.666   92.261    0.243    0.670    6.532
  390.916   92.874    0.248    0.651    6.530
  391.166   92.491    0.252    0.643    6.539
  391.416   90.573    0.242    0.712    6.357
  391.666   89.203    0.235    0.745    5.657
  391.916   88.530    0.249    0.753    4.673
  392.166   88.622    0.257    0.749    3.918
  392.416   90.195    0.248    0.741    3.271
  392.666   92.115    0.249    0.720    2.893
  392.916   94.793    0.273    0.709    2.624
  393.166   96.772    0.268    0.715    2.392
  393.416   96.437    0.266    0.723    2.254
  393.666   95.090    0.276    0.728    2.337
  393.916   93.241    0.264    0.738    2.551
  394.166   90.253    0.277    0.747    2.953
  394.416   86.592    0.266    0.719    3.426
  394.666   84.194    0.261    0.701    4.398
  394.916   81.841    0.265    0.673    5.017
  395.166   79.422    0.256    0.640    6.228
  395.416   75.405    0.236    0.597    7.769
  395.666   72.194    0.188    0.575    8.869
  395.916   70.326    0.117    0.480    9.221
  396.166   65.891    0.076    0.542    9.380
  396.416   67.607    0.123    0.627    8.874
  396.666   67.165    0.213    0.649    8.230
  396.916   63.546    0.324    0.640    7.746
  397.166   59.818    0.347    0.627    6.994
  397.416   58.595    0.337    0.616    6.496
  397.666   58.497    0.329    0.628    6.215
  397.916   57.425    0.344    0.646    5.942
  398.166   57.399    0.339    0.623    5.873
  398.416   57.355    0.352    0.598    5.835
  398.666   57.370    0.348    0.590    5.831
  398.916   56.645    0.334    0.581    5.831
  399.166   52.866    0.347    0.586    5.830
  399.416   55.573    0.349    0.595    5.830
  399.666   58.985    0.343    0.604    5.830
  399.916   61.483    0.357    0.607    5.831
  400.166   59.083    0.353    0.632    5.746
  400.416   58.309    0.338    0.637    5.724
  400.666   61.957    0.331    0.642    5.721
  400.916   64.955    0.341    0.642    5.720
  401.166   63.121    0.354    0.633    5.720
  401.416   60.735    0.349    0.623    5.719
  401.666   60.584    0.365    0.632    5.707
  401.916   63.822    0.359    0.639    5.831
  402.166   63.656    0.357    0.647    5.838
  402.416   62.307    0.365    0.652    5.602
  402.666   60.881    0.358    0.657    5.502
  402.916   67.000    0.355    0.653    5.511
  403.166   68.340    0.348    0.628    5.512
  403.416   68.914    0.336    0.619    5.513
  403.666   72.193    0.321    0.614    5.616
  403.916   73.130    0.327    0.613    5.601
  404.166   74.740    0.335    0.620    5.714
  404.416   74.768    0.341    0.622    5.610
  404.666   74.017    0.341    0.622    5.499
  404.916   74.105    0.331    0.625    5.417
  405.166   73.413    0.317    0.631    5.257
  405.416   73.507    0.322    0.639    5.111
  405.666   73.982    0.321    0.652    5.033
  405.916   74.896    0.310    0.657    5.013
  406.166   75.907    0.305    0.641    5.116
  406.416   80.124    0.299    0.647    5.170
  406.666   79.069    0.260    0.666    5.489
  406.916   75.008    0.280    0.665    5.712
  407.166   72.493    0.295    0.630    6.084
  407.416   70.292    0.287    0.589    6.326
  407.666   67.828    0.224    0.606    6.604
  407.916   69.050    0.210    0.632    6.958
  408.166   72.203    0.235    0.643    6.990
  408.416   74.230    0.279    0.645    6.878
  408.666   71.326    0.299    0.651    6.670
  408.916   71.612    0.291    0.659    6.467
  409.166   75.508    0.279    0.669    6.377
  409.416   77.594    0.291    0.672    6.251
  409.666   74.702    0.300    0.672    6.134
  409.916   72.877    0.309    0.669    6.137
  410.166   71.945    0.316    0.663    6.101
  410.416   75.281    0.322    0.661    6.025
  410.666   75.839    0.329    0.660    6.008
