~VERSION INFORMATION
 VERS.                 2.0:   CWLS LOG ASCII STANDARD -VERSION 2.0
 WRAP.                  NO:   ONE LINE PER DEPTH STEP
~WELL INFORMATION BLOCK
#MNEM.UNIT           DATA                    DESCRIPTION OF MNEMONIC
#---------    -------------------            -------------------------------
# Generated from Intellog Unique Number	CW_73_75/WELL/619
WELL.         HB AMOCO MARTIN HILLS 06-33    : Well_name    - WELL
LOC .         00/06-33-074-26W4/0            : Location     - LOCATION
UWI .         00/06-33-074-26W4/0            : Uwi          - UNIQUE WELL ID
ENTR.         JAYE                           : Entered      - ENTERED BY
SRVC.         SCHLUMBERGER                   : Scn          - SERVICE COMPANY
DATE.         9 FEB 77                       : Date         - LOG DATE
STRT.M        554.736                        : top_depth    - START DEPTH
STOP.M        771.236                        : bot_depth    - STOP DEPTH
STEP.M        0.25                           : increment    - STEP LENGTH
 NULL. -999.2500:NULL Value
~CURVE INFORMATION BLOCK
#MNEM UNIT       ERCB CURVE CODE    CURVE DESCRIPTION
#-----------   ------------------   ----------------------------------
DEPT.M        00 001 00 00         : DEPTH        - DEPTH
ILD .OHMM     00 120 00 00         : RESD         - DEEP RESISTIVITY (DIL)
NPHI.V/V      00 330 00 00         : PHIN         - NEUTRON POROSITY (SANDSTONE)
DPHI.V/V      00 890 00 00         : PHID         - DENSITY POROSITY (SANDSTONE)
GR  .API      00 310 00 00         : GR           - GAMMA RAY
CALI.MM       00 280 01 00         : CAL          - CALIPER
~PARAMETER INFORMATION
#MNEM.UNIT           DATA             DESCRIPTION OF MNEMONIC
#---------         -----------     ------------------------------
GL  .M        817.778              : gl           - GROUND LEVEL ELEVATION
EREF.M        820.826              : kb           - ELEVATION OF DEPTH REFERENCE
DATM.M        817.778              : datum        - DATUM ELEVATION
TDD .M        745.236              : tdd          - TOTAL DEPTH DRILLER
RUN .         ONE                  : Run          - RUN NUMBER
ENG .         PRICE                : Engineer     - RECORDING ENGINEER
WIT .         MAQUE                : Witness      - WITNESSED BY
BASE.         EDM                  : Branch       - HOME BASE OF LOGGING UNIT
MUD .         GEL CHEM             : Mud_type     - MUD TYPE
MATR.         SANDSTONE            : Logunit      - NEUTRON MATRIX
TMAX.C        25.5556              : BHT          - MAXIMUM RECORDED TEMPERATURE
BHTD.M        746.15               : BHTDEP       - MAXIMUM RECORDED TEMPERATURE
RMT .C        18.8889              : MDTP         - TEMPERATURE OF MUD
MUDD.KG/M     1170                 : MWT          - MUD DENSITY
NEUT.         1                    : NEUTRON      - NEUTRON TYPE
RESI.         0                    : RESIST       - RESISTIVITY TYPE
RM  .OHMM     4.49                 : RM           - RESISTIVITY OF MUD
RMC .OHMM     0                    : RMC          - RESISTIVITY OF MUD CAKE
RMF .OHMM     4.59                 : RMF          - RESISTIVITY OF MUD FILTRATE
SUFT.C        -17.7778             : SUFT         - SURFACE TEMPERATURE
~A  DEPTH     RESD     PHIN     PHID       GR      CAL
# ...
  591.236    4.153    0.399    0.152   86.650  147.468
  591.486    4.121    0.441    0.204   85.455  140.160
  591.736    4.089    0.461    0.242   83.713  136.790
  591.986    4.058    0.459    0.272   79.089  136.330
  592.236    4.027    0.441    0.304   74.528  138.254
  592.486    3.974    0.438    0.327   71.313  143.184
  592.736    3.923    0.454    0.320   70.674  144.798
  592.986    3.815    0.463    0.314   72.487  143.917
  593.236    3.717    0.461    0.309   73.803  142.528
  593.486    3.596    0.456    0.297   75.673  141.645
  593.736    3.497    0.463    0.283   77.848  140.873
  593.986    3.720    0.471    0.290   81.681  140.304
  594.236    4.211    0.481    0.302   85.756  139.524
  594.486    4.637    0.486    0.264   90.202  135.534
  594.736    5.079    0.488    0.241   91.276  133.931
  594.986    5.294    0.504    0.235   90.696  135.231
  595.236    5.206    0.518    0.239   86.562  138.502
  595.486    4.936    0.517    0.248   80.899  140.634
  595.736    4.544    0.492    0.265   73.701  142.146
  595.986    4.285    0.479    0.288   69.936  142.930
  596.236    4.122    0.462    0.274   68.803  143.187
  596.486    4.083    0.455    0.282   69.082  143.241
  596.736    4.111    0.455    0.272   74.323  143.511
  596.986    4.310    0.469    0.253   81.034  143.771
  597.236    4.485    0.485    0.234   85.967  144.343
  597.486    4.558    0.479    0.223   87.164  144.711
  597.736    4.490    0.463    0.242   80.334  144.763
  597.986    4.343    0.466    0.246   72.281  145.041
  598.236    4.240    0.457    0.268   67.229  144.980
  598.486    4.222    0.433    0.293   63.158  145.042
  598.736    4.467    0.447    0.295   62.271  144.991
  598.986    5.302    0.460    0.292   63.470  144.735
  599.236    6.156    0.469    0.306   66.932  143.856
  599.486    6.854    0.456    0.300   66.473  142.774
  599.736    7.238    0.459    0.276   65.464  142.935
  599.986    7.409    0.423    0.243   67.825  144.242
  600.236    6.834    0.373    0.182   64.248  145.529
  600.486    5.775    0.309    0.131   59.560  147.661
  600.736    5.070    0.261    0.090   55.978  149.899
  600.986    4.914    0.338    0.105   56.992  150.885
  601.236    5.768    0.377    0.130   58.311  149.072
  601.486    7.219    0.434    0.274   58.593  146.222
  601.736    9.252    0.433    0.292   58.071  145.455
  601.986   12.850    0.404    0.245   57.183  145.709
  602.236   18.852    0.360    0.200   55.992  144.624
  602.486   23.336    0.310    0.114   54.553  141.778
  602.736   23.413    0.164    0.012   52.933  143.802
  602.986   21.914    0.140   -0.017   51.681  147.698
  603.236   19.032    0.145   -0.024   50.609  149.418
  603.486   15.589    0.153   -0.028   49.356  149.266
  603.736   11.549    0.171   -0.027   48.901  148.906
  603.986    9.617    0.191   -0.017   50.953  148.338
  604.236    7.553    0.232    0.083   56.375  147.044
  604.486    6.441    0.269    0.147   61.740  145.851
  604.736    5.697    0.354    0.199   63.732  141.032
  604.986    5.179    0.401    0.230   70.626  140.367
  605.236    4.794    0.378    0.242   69.741  140.105
  605.486    4.390    0.349    0.203   67.322  139.335
  605.736    4.013    0.357    0.186   68.277  141.462
  605.986    3.715    0.414    0.204   70.147  145.253
  606.236    3.484    0.455    0.324   71.774  139.704
  606.486    3.267    0.459    0.302   72.847  138.618
  606.736    3.108    0.457    0.289   74.414  137.017
  606.986    2.947    0.463    0.302   75.734  138.525
  607.236    2.903    0.465    0.291   78.214  140.343
  607.486    2.944    0.455    0.281   81.065  140.504
  607.736    3.149    0.454    0.263   86.672  139.211
  607.986    3.154    0.473    0.234   94.365  137.811
  608.236    3.176    0.484    0.212   92.869  142.121
  608.486    3.305    0.494    0.241   89.466  144.362
  608.736    3.433    0.506    0.277   83.621  142.342
  608.986    3.540    0.505    0.288   80.835  141.563
  609.236    3.738    0.494    0.276   81.846  141.107
  609.486    3.904    0.485    0.279   85.126  142.091
  609.736    4.033    0.488    0.283   86.263  142.253
  609.986    3.995    0.505    0.285   82.864  141.484
  610.236    3.787    0.494    0.299   77.505  141.019
  610.486    3.697    0.483    0.309   75.515  140.754
  610.736    3.655    0.481    0.316   78.124  140.296
  610.986    3.755    0.454    0.305   75.522  139.737
  611.236    4.258    0.461    0.296   72.003  139.372
  611.486    5.349    0.465    0.295   71.422  139.013
  611.736    6.609    0.450    0.297   72.250  138.134
  611.986    8.834    0.444    0.300   73.388  137.149
  612.236   10.995    0.435    0.285   74.397  137.201
  612.486   12.559    0.415    0.250   72.104  137.363
  612.736   12.170    0.305    0.230   68.523  138.563
  612.986   10.883    0.263    0.077   67.882  142.245
  613.236    9.297    0.251    0.064   68.708  146.456
  613.486    7.798    0.258    0.058   70.947  148.890
  613.736    6.411    0.265    0.051   67.981  150.923
  613.986    5.232    0.270    0.050   66.970  151.182
  614.236    4.536    0.287    0.089   67.067  149.166
  614.486    4.027    0.309    0.120   67.832  145.796
  614.736    3.634    0.331    0.155   68.724  139.832
  614.986    3.445    0.346    0.149   69.370  137.405
  615.236    3.381    0.462    0.207   69.403  137.774
  615.486    3.337    0.473    0.278   70.046  138.759
  615.736    3.305    0.462    0.304   72.958  139.536
  615.986    3.192    0.447    0.321   76.120  140.009
  616.236    2.998    0.441    0.325   75.965  140.064
  616.486    2.842    0.453    0.321   76.981  140.222
  616.736    2.714    0.464    0.314   80.014  140.484
  616.986    2.679    0.480    0.319   83.171  140.646
  617.236    2.703    0.529    0.333   88.107  140.498
  617.486    2.906    0.573    0.340   95.795  137.747
  617.736    3.266    0.569    0.321  103.980  130.647
  617.986    3.603    0.545    0.310   94.146  133.613
  618.236    4.130    0.506    0.297   79.598  139.783
  618.486    4.362    0.470    0.321   71.237  139.422
  618.736    4.312    0.478    0.341   69.799  135.953
  618.986    4.248    0.532    0.375   69.098  137.149
  619.236    4.094    0.579    0.413   72.440  139.280
  619.486    3.910    0.597    0.440   80.007  142.656
  619.736    3.768    0.546    0.370   85.615  145.613
  619.986    3.645    0.450    0.295   84.791  146.710
  620.236    3.564    0.475    0.248   80.783  145.833
  620.486    3.525    0.479    0.263   78.852  145.263
  620.736    3.536    0.487    0.273   78.460  144.705
  620.986    3.548    0.476    0.277   79.532  144.336
  621.236    3.553    0.469    0.278   79.195  144.083
  621.486    3.558    0.469    0.266   79.965  143.835
  621.736    3.544    0.470    0.250   82.262  143.257
  621.986    3.517    0.468    0.240   85.913  143.008
  622.236    3.471    0.471    0.232   89.560  142.748
  622.486    3.540    0.478    0.227   95.473  142.910
  622.736    3.571    0.485    0.219  100.223  143.482
  622.986    3.622    0.483    0.201  101.054  144.370
  623.236    3.722    0.471    0.170  100.962  145.772
  623.486    3.844    0.473    0.189   98.606  148.322
  623.736    3.971    0.483    0.206   97.229  149.827
  623.986    4.140    0.497    0.206   93.831  150.814
  624.236    4.293    0.502    0.241   83.941  148.276
  624.486    4.403    0.494    0.273   78.274  142.008
  624.736    4.329    0.475    0.284   80.394  137.391
  624.986    4.265    0.468    0.285   83.003  134.544
  625.236    4.051    0.470    0.286   84.318  133.768
  625.486    3.826    0.479    0.278   85.147  134.034
  625.736    3.661    0.489    0.257   86.833  135.646
  625.986    3.541    0.494    0.238   93.299  138.296
  626.236    3.482    0.490    0.214   93.088  142.298
  626.486    3.506    0.473    0.216   95.630  144.731
  626.736    3.635    0.465    0.200   99.709  147.175
  626.986    3.853    0.473    0.185  100.723  148.372
  627.236    4.024    0.498    0.183   99.959  147.806
  627.486    4.082    0.508    0.209   98.642  145.576
