~VERSION INFORMATION
 VERS.                 2.0:   CWLS LOG ASCII STANDARD -VERSION 2.0
 WRAP.                  NO:   ONE LINE PER DEPTH STEP
~WELL INFORMATION BLOCK
#MNEM.UNIT           DATA                    DESCRIPTION OF MNEMONIC
#---------    -------------------            -------------------------------
# Generated from Intellog Unique Number	CC_84_87/WELL/1067
NULL.         -999.25                        : NULL_VALUE
COMP.         PARAMOUNT RESOURCES LTD        : COMPANY
WELL.         PARAMOUNT ET AL LIVOCK         : Well_name    - WELL
LOC .         06-08-086-18W4                 : Location     - LOCATION          
UWI .         00/06-08-086-18W400            : Uwi          - UNIQUE WELL ID    
ENTR.         DW                             : Entered      - ENTERED BY        
SRVC.         COMPUTALOG                     : Scn          - SERVICE COMPANY   
DATE.         15 FEB 78                      : Date         - LOG DATE
STRT.M        192.024                        : top_depth    - START DEPTH       
STOP.M        252.983                        : bot_depth    - STOP DEPTH        
STEP.M        0.305                          : increment    - STEP LENGTH       
~CURVE INFORMATION BLOCK
#MNEM UNIT       ERCB CURVE CODE    CURVE DESCRIPTION
#-----------   ------------------   ----------------------------------
DEPT.M        00 001 00 00         : DEPTH        - DEPTH                       
DPHI.V/V      00 890 00 00         : PHID         - DENSITY POROSITY (LIMESTONE)
NPHI.V/V      00 330 00 00         : PHIN         - NEUTRON POROSITY (LIMESTONE)
GR  .API      00 310 00 00         : GR           - GAMMA RAY                   
ILD .OHMM     00 120 00 00         : RESD         - DEEP RESISTIVITY (DIL)      
~PARAMETER INFORMATION       
#MNEM.UNIT           DATA             DESCRIPTION OF MNEMONIC
#---------         -----------     ------------------------------
GL  .M        502.768              : gl           - GROUND LEVEL ELEVATION      
EREF.M        505.816              : kb           - ELEVATION OF DEPTH REFERENCE
DATM.M        505.816              : datum        - DATUM ELEVATION             
TDD .M        207.874              : tdd          - TOTAL DEPTH DRILLER         
RUN .         ONE                  : Run          - RUN NUMBER                  
ENG .         BILL                 : Engineer     - RECORDING ENGINEER          
WIT .         JIM                  : Witness      - WITNESSED BY                
MUD .         GEL                  : Mud_type     - MUD TYPE                    
MATR.         LIMESTONE            : Logunit      - NEUTRON MATRIX              
TMAX.C        15.5556              : BHT          - MAXIMUM RECORDED TEMPERATURE
BHTD.M        207.874              : BHTDEP       - MAXIMUM RECORDED TEMPERATURE
MATR.         1                    : LOGUNIT      - NEUTRON MATRIX              
RMT .C        25                   : MDTP         - TEMPERATURE OF MUD          
NEUT.         1                    : NEUTRON      - NEUTRON TYPE                
RESI.         0                    : RESIST       - RESISTIVITY TYPE            
RMC .OHMM     0.25                 : RMC          - RESISTIVITY OF MUD CAKE     
RMF .OHMM     0.25                 : RMF          - RESISTIVITY OF MUD FILTRATE 
SUFT.C        15                   : SUFT         - SURFACE TEMPERATURE         
~A  DEPTH     PHID     PHIN       GR     RESD
  192.024    0.485    0.531   68.853    8.017
  192.329    0.371    0.600   72.541    7.438
  192.634    0.274    0.607   75.615    6.612
  192.938    0.290    0.478   70.697    6.364
  193.243    0.304    0.498   63.320    6.446
  193.548    0.298    0.510   66.393    7.190
  193.853    0.285    0.497   67.623    8.264
  194.158    0.228    0.461   67.008    8.843
  194.462    0.169    0.439   73.770    9.008
  194.767    0.149    0.409   62.705    8.926
  195.072    0.159    0.372   63.320    8.347
  195.377    0.191    0.360   71.311    7.686
  195.682    0.200    0.389   79.303    7.355
  195.986    0.214    0.379   72.541    7.355
  196.291    0.225    0.366   73.156    7.603
  196.596    0.207    0.350   80.533    7.934
  196.901    0.079    0.330   78.689    8.347
  197.206    0.069    0.181   66.393    9.339
  197.510    0.184    0.290   62.705   10.331
  197.815    0.202    0.331   73.156   11.405
  198.120    0.211    0.341   82.992   11.653
  198.425    0.219    0.350   69.467   11.240
  198.729    0.244    0.371   63.320   11.074
  199.034    0.276    0.382   62.090   11.240
  199.339    0.189    0.318   69.467   11.653
  199.644    0.193    0.322   70.082   12.231
  199.949    0.229    0.357   62.705   12.562
  200.253    0.195    0.322   53.484   12.975
  200.558    0.150    0.293   55.943   13.471
  200.863    0.191    0.386   61.475   13.554
  201.168    0.334    0.476   71.926   11.818
  201.473    0.306    0.467   72.541   10.826
  201.777    0.229    0.361   67.008   10.331
  202.082    0.163    0.298   63.320   10.165
  202.387    0.207    0.359   63.320   10.744
  202.692    0.170    0.393   61.475   12.314
  202.997    0.147    0.335   62.090   13.223
  203.301    0.172    0.351   75.615   13.058
  203.606    0.145    0.312   79.918   12.397
  203.911    0.175    0.313   78.689   11.818
  204.216    0.202    0.346   73.770   11.736
  204.521    0.209    0.370   66.393   11.983
  204.825    0.172    0.354   66.393   12.231
  205.130    0.224    0.320   68.853   12.066
  205.435    0.299    0.410   68.238   11.736
  205.740    0.365    0.477   66.393   11.488
  206.045    0.222    0.430   63.320   11.653
  206.349    0.211    0.403   67.623   11.653
  206.654    0.185    0.347   75.615   10.331
  206.959    0.174    0.312   78.074    9.917
  207.264    0.142    0.344   81.147    9.917
  207.569    0.055    0.230   84.221   10.826
  207.873    0.025    0.159   82.992   13.388
  208.178    0.100    0.229   57.787   14.297
  208.483    0.185    0.303   63.320   14.546
  208.788    0.196    0.360   69.467   14.546
  209.092    0.137    0.391   71.926   14.132
  209.397    0.132    0.326   67.008   12.231
  209.702    0.168    0.366   77.459   10.661
  210.007    0.166    0.378   87.295   10.248
  210.312    0.127    0.328   79.303   10.248
  210.616    0.048    0.292   77.459   10.331
  210.921    0.102    0.324   85.451   10.496
  211.226    0.189    0.355   87.910   10.661
  211.531    0.133    0.322   83.607   10.909
  211.836    0.101    0.303   76.230   10.826
  212.140    0.152    0.296   70.082   10.826
  212.445    0.195    0.303   74.385   10.909
  212.750    0.195    0.331   81.147   11.405
  213.055    0.185    0.351   84.221   11.736
  213.360    0.177    0.341   83.607   11.901
  213.664    0.172    0.298   81.147   11.653
  213.969    0.174    0.277   79.303   11.405
  214.274    0.189    0.276   76.230   11.488
  214.579    0.209    0.309   74.385   12.231
  214.884    0.209    0.283   76.844   13.388
  215.188    0.196    0.264   73.770   14.546
  215.493    0.124    0.195   64.549   16.860
  215.798    0.039    0.163   57.172   19.422
  216.103    0.073    0.172   68.238   20.331
  216.408    0.140    0.270   78.074   20.000
  216.712    0.176    0.290   84.221   18.760
  217.017    0.179    0.298   87.910   16.529
  217.322    0.189    0.307   89.139   14.876
  217.627    0.196    0.318   80.533   14.132
  217.932    0.202    0.326   79.303   13.884
  218.236    0.201    0.309   81.762   14.380
  218.541    0.144    0.274   79.303   15.124
  218.846    0.026    0.233   72.541   15.620
  219.151    0.042    0.216   67.008   16.364
  219.455    0.085    0.233   72.541   16.529
  219.760    0.191    0.310   82.992   16.116
  220.065    0.184    0.329   87.295   13.471
  220.370    0.190    0.339   97.131   11.736
  220.675    0.195    0.355   89.754   10.826
  220.979    0.181    0.354   95.902    8.264
  221.284    0.163    0.351   97.131    6.859
  221.589    0.155    0.356   84.221    6.777
  221.894    0.015    0.290   68.853    7.025
  222.199    0.062    0.208   67.623    7.934
  222.503    0.175    0.238   73.770   13.306
  222.808    0.179    0.276   78.689   13.967
  223.113    0.172    0.314   84.221   13.636
  223.418    0.168    0.333   89.139   11.653
  223.723    0.158    0.350   90.369    9.752
  224.027    0.152    0.355   86.066    8.512
  224.332    0.159    0.334   82.377    8.017
  224.637    0.174    0.338   82.992    8.347
  224.942    0.180    0.346   81.762    8.843
  225.247    0.175    0.356   81.147    8.926
  225.551    0.176    0.365   86.066    8.678
  225.856    0.184    0.378   97.746    8.099
  226.161    0.186    0.367   89.139    7.521
  226.466    0.184    0.340   85.451    7.355
  226.771    0.145    0.351   98.975    7.521
  227.075    0.000    0.347   78.689    8.430
  227.380    0.004    0.248   77.459   10.000
  227.685    0.105    0.250   82.377   11.405
  227.990    0.160    0.267   87.295   13.471
  228.295    0.171    0.286   94.672   14.380
  228.599    0.175    0.286   91.598   13.884
  228.904    0.172    0.278   87.295   13.554
  229.209    0.179    0.277   89.754   13.306
  229.514    0.184    0.286   89.754   13.140
  229.818    0.186    0.296   84.836   13.140
  230.123    0.149    0.293   76.844   14.876
  230.428    0.159    0.240   71.311   16.777
  230.733    0.179    0.278   69.467   18.182
  231.038    0.174    0.298   76.230   18.678
  231.342    0.189    0.303   78.074   18.760
  231.647    0.221    0.260   77.459   17.355
  231.952    0.182    0.257   70.697   16.777
  232.257    0.142    0.216   63.934   16.942
  232.562    0.055    0.168   60.861   19.669
  232.866    0.071    0.176   58.402   20.165
  233.171    0.134    0.230   57.172   20.248
  233.476    0.175    0.259   61.475   20.331
  233.781    0.184    0.272   71.926   20.248
  234.086    0.189    0.282   72.541   19.008
  234.390    0.202    0.292   63.320   17.273
  234.695    0.189    0.297   65.779   16.529
  235.000    0.176    0.296   71.926   16.446
  235.305    0.166    0.265   67.008   17.107
  235.610    0.149    0.233   68.853   17.851
  235.914    0.132    0.235   80.533   18.430
  236.219    0.133    0.240   78.689   19.174
  236.524    0.128    0.246   71.926   19.504
  236.829    0.129    0.261   68.853   19.256
  237.134    0.185    0.309   74.385   18.678
  237.438    0.201    0.314   83.607   17.851
  237.743    0.200    0.308   79.918   16.281
  238.048    0.196    0.298   74.385   14.959
  238.353    0.175    0.288   76.230   14.297
  238.658    0.115    0.286   90.369   13.802
  238.962    0.159    0.299   96.516   13.140
  239.267    0.182    0.333   82.377   12.231
  239.572    0.182    0.362   76.230   11.570
  239.877    0.182    0.330   92.828   10.496
  240.182    0.180    0.345   92.828    8.264
  240.486    0.176    0.356   89.754    7.025
  240.791    0.174    0.341   87.910    6.033
  241.096    0.175    0.313   97.131    5.372
  241.401    0.180    0.313  100.205    5.207
  241.705    0.156    0.325   96.516    5.289
  242.010    0.148    0.335   90.984    5.620
  242.315    0.177    0.355   97.746    6.859
  242.620    0.101    0.320   80.533    7.934
  242.925    0.166    0.259   49.180   10.413
  243.229    0.214    0.308   33.812   14.959
  243.534    0.264    0.323   31.352   17.107
  243.839    0.275    0.329   31.967   19.752
  244.144    0.272    0.349   31.352   20.248
  244.449    0.264    0.323   33.812   20.413
  244.753    0.256    0.336   37.500   20.496
