~VERSION INFORMATION
 VERS.                 2.0:   CWLS LOG ASCII STANDARD -VERSION 2.0
 WRAP.                  NO:   ONE LINE PER DEPTH STEP
~WELL INFORMATION BLOCK
#MNEM.UNIT           DATA                    DESCRIPTION OF MNEMONIC
#---------    -------------------            -------------------------------
# Generated from Intellog Unique Number	CW_70_72/WELL/620
NULL.         -999.25                        : NULL_VALUE
WELL.         SUNDANCE ET AL CALLS 06-11     : Well_name    - WELL              
LOC .         06-11-071-22W4                 : Location     - LOCATION          
UWI .         00/06-11-071-22W4/0            : Uwi          - UNIQUE WELL ID    
ENTR.         JAYE                           : Entered      - ENTERED BY        
SRVC.         SCHLUMBERGER                   : Scn          - SERVICE COMPANY   
DATE.         4 FEB 71                       : Date         - LOG DATE          
STRT.M        402.336                        : top_depth    - START DEPTH       
STOP.M        647.336                        : bot_depth    - STOP DEPTH        
STEP.M        0.25                           : increment    - STEP LENGTH       
~CURVE INFORMATION BLOCK
#MNEM UNIT       ERCB CURVE CODE    CURVE DESCRIPTION
#-----------   ------------------   ----------------------------------
DEPT.M        00 001 00 00         : DEPTH        - DEPTH                       
DPHI.V/V      00 890 00 00         : PHID         - DENSITY POROSITY (SANDSTONE)
NPHI.V/V      00 330 00 00         : PHIN         - NEUTRON POROSITY (SANDSTONE)
GR  .API      00 310 00 00         : GR           - GAMMA RAY                   
CALI.IN       00 280 01 00         : CAL          - CALIPER                     
ILD .OHMM     00 120 00 00         : RESD         - DEEP RESISTIVITY (DIL)      
~PARAMETER INFORMATION       
#MNEM.UNIT           DATA             DESCRIPTION OF MNEMONIC
#---------         -----------     ------------------------------
GL  .F        2232.5               : gl           - GROUND LEVEL ELEVATION      
EREF.F        2245                 : kb           - ELEVATION OF DEPTH REFERENCE
DATM.F        2232.5               : datum        - DATUM ELEVATION             
TDD .F        2156                 : tdd          - TOTAL DEPTH DRILLER         
RUN .         ONE                  : Run          - RUN NUMBER                  
ENG .         LANGTON/WILLIAMS     : Engineer     - RECORDING ENGINEER          
WIT .         GREENE               : Witness      - WITNESSED BY                
BASE.         EDM                  : Branch       - HOME BASE OF LOGGING UNIT   
MATR.         SANDSTONE            : Logunit      - NEUTRON MATRIX              
TMAX.C        24.4444              : BHT          - MAXIMUM RECORDED TEMPERATURE
BHTD.M        649.224              : BHTDEP       - MAXIMUM RECORDED TEMPERATURE
RMT .C        -17.7778             : MDTP         - TEMPERATURE OF MUD          
MUDD.KG/M     960                  : MWT          - MUD DENSITY                 
NEUT.         1                    : NEUTRON      - NEUTRON TYPE                
RESI.         0                    : RESIST       - RESISTIVITY TYPE            
RM  .OHMM     0                    : RM           - RESISTIVITY OF MUD          
RMC .OHMM     0                    : RMC          - RESISTIVITY OF MUD CAKE     
RMF .OHMM     0                    : RMF          - RESISTIVITY OF MUD FILTRATE 
SUFT.C        0                    : SUFT         - SURFACE TEMPERATURE         
~A  DEPTH     PHID     PHIN       GR      CAL     RESD
  402.336    0.329    0.459   15.261    6.119    9.507
  402.586    0.321    0.438   14.409    6.029   10.946
  402.836    0.322    0.344   14.042    5.936   12.353
  403.086    0.329    0.337   13.979    5.875   13.436
  403.336    0.333    0.337   13.795    5.863   13.627
  403.586    0.328    0.337   13.490    5.871   13.398
  403.836    0.321    0.334   13.427    5.919   13.270
  404.086    0.320    0.329   14.094    5.980   13.235
  404.336    0.320    0.329   15.552    6.045   13.201
  404.586    0.316    0.338   17.010    6.118   13.248
  404.836    0.313    0.349   18.528    6.162   13.261
  405.086    0.316    0.357   19.560    6.255   13.328
  405.336    0.321    0.363   20.166    6.292   13.370
  405.586    0.325    0.364   20.165    6.336   13.432
  405.836    0.333    0.365   20.224    6.364   13.451
  406.086    0.339    0.369   20.101    6.385   13.419
  406.336    0.348    0.371   19.977    6.385   13.384
  406.586    0.352    0.370   19.733    6.393   13.256
  406.836    0.352    0.365   19.427    6.401   13.176
  407.086    0.343    0.360   19.547    6.417   13.170
  407.336    0.340    0.357   19.910    6.449   13.214
  407.586    0.333    0.354   20.334    6.485   13.227
  407.836    0.328    0.354   20.880    6.526   13.340
  408.086    0.330    0.355   21.729    6.582   13.428
  408.336    0.333    0.358   22.822    6.643   13.571
  408.586    0.332    0.360   23.671    6.752   13.687
  408.836    0.317    0.357   24.399    6.809   13.729
  409.086    0.309    0.346   25.127    6.874   13.851
  409.336    0.309    0.338   25.977    6.926   13.765
  409.586    0.307    0.339   27.495    6.971   13.835
  409.836    0.305    0.350   29.744    7.032   13.900
  410.086    0.307    0.364   33.390    7.084   13.944
  410.336    0.311    0.371   36.550    7.129   13.960
  410.586    0.324    0.385   41.291    7.185   14.005
  410.836    0.335    0.383   46.275    7.258   13.867
  411.086    0.326    0.384   54.239    7.335   12.207
  411.336    0.314    0.419   64.756    7.456    9.482
  411.586    0.295    0.442   73.267    7.554    7.543
  411.836    0.311    0.473   71.684    7.614    6.057
  412.086    0.325    0.450   68.825    7.517    5.168
  412.336    0.339    0.419   63.411    7.343    4.997
  412.586    0.364    0.425   59.032    7.476    4.902
  412.836    0.385    0.455   53.680    7.894    4.928
  413.086    0.395    0.454   49.300    8.048    5.271
  413.336    0.361    0.406   44.921    7.281    5.775
  413.586    0.333    0.389   43.217    6.908    6.168
  413.836    0.394    0.404   45.282    6.924    6.465
  414.086    0.440    0.478   48.260    6.949    6.954
  414.336    0.585    0.521   51.907    7.155    6.111
  414.586    0.600    0.604   56.039    7.889    5.291
  414.836    0.602    0.604   58.774    8.975    4.736
  415.086    0.595    0.599   62.907    9.413    4.429
  415.336    0.583    0.572   65.276    9.879    3.957
  415.586    0.551    0.528   62.782   10.284    3.735
  415.836    0.526    0.518   56.700    9.161    3.810
  416.086    0.520    0.527   53.233    7.600    4.038
  416.336    0.558    0.561   52.623    7.779    4.434
  416.586    0.587    0.589   52.439    7.981    4.690
  416.836    0.598    0.596   50.795    7.373    4.935
  417.086    0.600    0.600   48.666    7.312    5.089
  417.336    0.602    0.602   44.104    9.833    4.822
  417.586    0.603    0.603   41.245   12.476    4.445
  417.836    0.603    0.647   44.709   13.428    4.314
  418.086    0.603    0.648   48.598   13.133    4.271
  418.336    0.602    0.566   52.731   12.857    4.307
  418.586    0.596    0.483   55.891   13.262    4.393
  418.836    0.585    0.471   56.194   13.396    4.530
  419.086    0.587    0.492   54.672   12.856    4.671
  419.336    0.598    0.520   50.536   11.194    4.773
  419.586    0.600    0.599   46.399   11.113    4.683
  419.836    0.601    0.621   45.364   11.324    4.587
  420.086    0.602    0.603   47.186   11.510    4.609
  420.336    0.603    0.579   50.772   11.672    4.736
  420.586    0.603    0.549   54.358   11.887    4.865
  420.836    0.602    0.501   58.309   11.887    4.962
  421.086    0.602    0.496   60.982   11.157    4.979
  421.336    0.602    0.516   59.156   11.631    4.966
  421.586    0.602    0.553   57.756   12.892    4.936
  421.836    0.601    0.586   55.322   13.313    4.960
  422.086    0.601    0.599   53.254   13.727    5.030
  422.336    0.600    0.594   51.853   14.241    5.177
  422.586    0.600    0.581   51.487   14.626    5.429
  422.836    0.600    0.542   51.789   14.853    5.680
  423.086    0.600    0.552   53.125   14.188    5.879
  423.336    0.599    0.546   55.191   14.707    5.779
  423.586    0.598    0.499   57.986   15.076    5.629
  423.836    0.598    0.474   60.295   15.039    5.463
  424.086    0.597    0.460   60.780   13.174    5.351
  424.336    0.597    0.486   60.413    9.769    5.258
  424.586    0.596    0.506   60.168   10.653    5.208
  424.836    0.595    0.486   60.167   11.954    5.147
  425.086    0.595    0.464   60.773   14.155    5.098
  425.336    0.595    0.456   62.109   13.843    4.993
  425.586    0.593    0.454   64.296   12.801    4.890
  425.836    0.588    0.457   67.213   12.132    4.815
  426.086    0.580    0.460   70.495    9.923    4.716
  426.336    0.566    0.465   73.290    9.623    4.602
  426.586    0.528    0.471   77.423    9.558    4.425
  426.836    0.396    0.476   81.739    9.278    4.192
  427.086    0.319    0.481   86.479    8.641    3.957
  427.336    0.240    0.487   92.376    8.033    3.716
  427.586    0.208    0.494   97.603    7.818    3.501
  427.836    0.201    0.507   97.358    7.972    3.281
  428.086    0.213    0.517   96.931    7.988    3.098
  428.336    0.211    0.513   96.990    7.769    2.913
  428.586    0.214    0.506   97.171    7.749    2.827
  428.836    0.229    0.501   97.291    7.874    2.728
  429.086    0.252    0.515   97.593    8.069    2.619
  429.336    0.264    0.526   97.774    8.093    2.536
  429.586    0.269    0.540   97.833    7.858    2.416
  429.836    0.276    0.560   97.710    7.452    2.315
  430.086    0.280    0.576   97.647    7.610    2.255
  430.336    0.285    0.581   97.828    8.129    2.217
  430.586    0.282    0.582   98.434    8.194    2.207
  430.836    0.273    0.584   98.129    8.125    2.194
  431.086    0.273    0.576   97.154    8.096    2.184
  431.336    0.273    0.561   95.632    8.080    2.175
  431.586    0.267    0.537   93.199    8.088    2.135
  431.836    0.258    0.540   91.495    8.112    2.113
  432.086    0.276    0.549   90.885    8.149    2.104
  432.336    0.293    0.537   92.829    8.161    2.127
  432.586    0.299    0.514   95.381    8.055    2.114
  432.836    0.293    0.508   93.738    8.051    2.116
  433.086    0.301    0.517   89.784    8.326    2.107
  433.336    0.314    0.535   86.255    8.375    2.153
  433.586    0.333    0.549   83.457    8.124    2.188
  433.836    0.359    0.556   83.881    8.399    2.207
  434.086    0.380    0.565   86.919    8.987    2.201
  434.336    0.388    0.576   89.836    9.335    2.176
  434.586    0.400    0.571   90.625    8.480    2.155
  434.836    0.428    0.573   88.252    8.164    2.146
  435.086    0.449    0.596   86.122    8.293    2.144
  435.336    0.447    0.592   86.364    9.039    2.183
  435.586    0.437    0.579   87.943    9.404    2.226
  435.836    0.419    0.547   88.975    8.832    2.287
  436.086    0.414    0.533   90.372    8.260    2.358
  436.336    0.430    0.534   91.465    9.492    2.459
  436.586    0.426    0.536   92.618    9.375    2.583
  436.836    0.398    0.532   93.954    8.560    2.668
  437.086    0.359    0.527   95.594    8.535    2.731
  437.336    0.316    0.524   97.903    8.304    2.760
  437.586    0.284    0.514  100.151    8.045    2.763
  437.836    0.272    0.505  101.670    7.862    2.756
  438.086    0.259    0.499  102.337    7.809    2.755
  438.336    0.263    0.529  102.335    7.984    2.768
  438.586    0.282    0.550  101.178    8.085    2.798
