~VERSION INFORMATION
 VERS.                 2.0:   CWLS LOG ASCII STANDARD -VERSION 2.0
 WRAP.                  NO:   ONE LINE PER DEPTH STEP
~WELL INFORMATION BLOCK
#MNEM.UNIT           DATA                    DESCRIPTION OF MNEMONIC
#---------    -------------------            -------------------------------
# Generated from Intellog Unique Number	CW_70_72/WELL/3016
NULL.         -999.25                        : NULL_VALUE
WELL.         GULF CHISHOLM 07-10            : Well_name    - WELL              
LOC .         07-10-070-26W4                 : Location     - LOCATION          
UWI .         00/07-10-070-26W4/0            : Uwi          - UNIQUE WELL ID    
ENTR.         J                              : Entered      - ENTERED BY        
SRVC.         SCHLUMBERGER                   : Scn          - SERVICE COMPANY   
DATE.         12 MAR 77                      : Date         - LOG DATE          
STRT.M        463.296                        : top_depth    - START DEPTH       
STOP.M        701.046                        : bot_depth    - STOP DEPTH        
STEP.M        0.25                           : increment    - STEP LENGTH       
~CURVE INFORMATION BLOCK
#MNEM UNIT       ERCB CURVE CODE    CURVE DESCRIPTION
#-----------   ------------------   ----------------------------------
DEPT.M        00 001 00 00         : DEPTH        - DEPTH                       
ILD .OHMM     00 120 00 00         : RESD         - DEEP RESISTIVITY (DIL)      
CALI.MM       00 280 01 00         : CAL          - CALIPER                     
GR  .API      00 310 00 00         : GR           - GAMMA RAY                   
NPHI.V/V      00 330 00 00         : PHIN         - NEUTRON POROSITY (SANDSTONE)
DPHI.V/V      00 890 00 00         : PHID         - DENSITY POROSITY (SANDSTONE)
~PARAMETER INFORMATION       
#MNEM.UNIT           DATA             DESCRIPTION OF MNEMONIC
#---------         -----------     ------------------------------
GL  .M        638.861              : gl           - GROUND LEVEL ELEVATION      
EREF.M        642.214              : kb           - ELEVATION OF DEPTH REFERENCE
DATM.M        638.861              : datum        - DATUM ELEVATION             
TDD .M        701.345              : tdd          - TOTAL DEPTH DRILLER         
RUN .         ONE                  : Run          - RUN NUMBER                  
ENG .         FIGGURES             : Engineer     - RECORDING ENGINEER          
WIT .         LANE                 : Witness      - WITNESSED BY                
BASE.         EDM                  : Branch       - HOME BASE OF LOGGING UNIT   
MATR.         SANDSTONE            : Logunit      - NEUTRON MATRIX              
TMAX.C        25.5556              : BHT          - MAXIMUM RECORDED TEMPERATURE
BHTD.M        701.345              : BHTDEP       - MAXIMUM RECORDED TEMPERATURE
RMT .C        16.6667              : MDTP         - TEMPERATURE OF MUD          
MUDD.KG/M     1116                 : MWT          - MUD DENSITY                 
NEUT.         1                    : NEUTRON      - NEUTRON TYPE                
RESI.         0                    : RESIST       - RESISTIVITY TYPE            
RM  .OHMM     0.54                 : RM           - RESISTIVITY OF MUD          
RMC .OHMM     0.25                 : RMC          - RESISTIVITY OF MUD CAKE     
RMF .OHMM     0.25                 : RMF          - RESISTIVITY OF MUD FILTRATE 
SUFT.C        -17.7778             : SUFT         - SURFACE TEMPERATURE         
~A  DEPTH     RESD      CAL       GR     PHIN     PHID
# ...
  536.296    4.304  154.738   66.604    0.227    0.133
  536.546    3.311  154.423   68.661    0.229    0.086
  536.796    2.529  153.794   69.687    0.303    0.146
  537.046    2.116  153.067   69.923    0.352    0.198
  537.296    1.811  152.234   70.221    0.393    0.226
  537.546    1.651  151.712   71.549    0.429    0.265
  537.796    1.534  151.601   75.789    0.456    0.288
  538.046    1.524  151.694   78.270    0.444    0.305
  538.296    1.546  152.094   78.508    0.438    0.313
  538.546    1.555  152.392   75.468    0.431    0.309
  538.796    1.569  152.383   74.371    0.431    0.315
  539.046    1.582  152.373   73.334    0.453    0.322
  539.296    1.601  151.952   72.417    0.447    0.315
  539.546    1.630  152.045   71.988    0.441    0.299
  539.796    1.662  151.419   70.951    0.433    0.293
  540.046    1.700  151.205   69.611    0.449    0.287
  540.296    1.724  150.578   68.938    0.462    0.300
  540.546    1.742  150.053   70.388    0.462    0.311
  540.796    1.747  149.942   72.808    0.460    0.312
  541.046    1.756  150.138   72.196    0.452    0.308
  541.296    1.754  150.539   70.128    0.449    0.301
  541.546    1.737  150.938   69.637    0.438    0.290
  541.796    1.723  151.135   69.510    0.432    0.291
  542.046    1.703  151.126   69.686    0.430    0.296
  542.296    1.667  151.012   71.257    0.434    0.302
  542.546    1.624  151.107   74.648    0.444    0.306
  542.796    1.603  151.506   76.340    0.442    0.310
  543.046    1.575  151.290   72.331    0.438    0.300
  543.296    1.565  151.180   69.839    0.430    0.288
  543.546    1.544  151.169   69.894    0.431    0.284
  543.796    1.540  151.158   70.919    0.430    0.296
  544.046    1.536  151.355   71.277    0.422    0.309
  544.296    1.533  151.448   71.635    0.418    0.321
  544.546    1.537  151.541   72.175    0.426    0.317
  544.796    1.550  151.634   72.714    0.439    0.303
  545.046    1.552  151.419   73.499    0.457    0.295
  545.296    1.564  150.997   74.886    0.473    0.301
  545.546    1.564  151.297   75.367    0.483    0.310
  545.796    1.564  151.800   76.149    0.478    0.317
  546.046    1.680  151.686   78.206    0.491    0.323
  546.296    1.707  151.266   80.688    0.500    0.325
  546.546    1.746  150.947   79.529    0.496    0.320
  546.796    1.807  150.731   79.220    0.487    0.322
  547.046    1.838  150.313   80.245    0.478    0.313
  547.296    1.892  150.920   82.543    0.471    0.303
  547.546    1.975  151.114   84.358    0.462    0.285
  547.796    2.066  151.002   86.960    0.462    0.277
  548.046    2.217  151.198   91.018    0.532    0.295
  548.296    2.357  151.599   96.108    0.558    0.308
  548.546    2.530  151.485  100.773    0.555    0.299
  548.796    2.720  151.271  102.162    0.533    0.321
  549.046    2.914  151.057  101.671    0.462    0.294
  549.296    3.031  150.738   99.846    0.474    0.243
  549.546    3.136  150.831  100.567    0.494    0.213
  549.796    3.175  151.849  104.444    0.488    0.238
  550.046    3.178  151.837  103.285    0.473    0.235
  550.296    3.146  151.726   99.337    0.465    0.210
  550.546    3.087  152.844   94.782    0.460    0.204
  550.796    2.958  153.862   91.500    0.456    0.216
  551.046    2.834  153.956   92.830    0.451    0.222
  551.296    2.750  152.919   93.613    0.446    0.216
  551.546    2.779  151.678   91.301    0.443    0.227
  551.796    2.843  150.537   88.566    0.444    0.230
  552.046    2.904  150.116   85.466    0.445    0.248
  552.296    2.961  150.108   82.550    0.446    0.255
  552.546    2.980  150.303   79.329    0.445    0.239
  552.796    2.967  150.087   76.170    0.415    0.227
  553.046    2.954  150.077   75.921    0.389    0.216
  553.296    2.991  150.066   82.102    0.400    0.205
  553.546    3.032  150.673   87.131    0.422    0.270
  553.796    3.131  150.869   91.613    0.435    0.259
  554.046    3.287  151.064   94.944    0.442    0.241
  554.296    3.542  151.775   98.577    0.447    0.238
  554.546    3.670  152.996  101.543    0.450    0.238
  554.796    3.882  154.528  103.479    0.454    0.210
  555.046    4.045  155.750  105.232    0.456    0.194
  555.296    4.256  156.255  106.135    0.456    0.181
  555.546    4.386  156.861  105.281    0.451    0.174
  555.796    4.505  157.980  103.698    0.443    0.168
  556.046    4.592  158.381  100.841    0.434    0.174
  556.296    4.640  158.064  101.260    0.427    0.166
  556.546    4.637  157.336  102.771    0.417    0.168
  556.796    4.592  156.708  105.555    0.413    0.166
  557.046    4.547  156.185  107.611    0.412    0.147
  557.296    4.485  155.867  108.698    0.415    0.149
  557.546    4.392  155.548  110.754    0.421    0.165
  557.796    4.201  155.334  113.295    0.427    0.188
  558.046    4.130  155.428  114.078    0.430    0.170
  558.296    4.059  155.931  112.375    0.424    0.157
  558.546    3.917  157.051  109.336    0.416    0.133
  558.796    3.651  157.657  108.966    0.419    0.155
  559.046    3.282  157.853  113.509    0.420    0.168
  559.296    2.933  157.225  111.987    0.415    0.162
  559.546    2.636  156.293  108.342    0.437    0.165
  559.796    2.457  154.742  104.455    0.466    0.154
  560.046    2.282  153.807   99.233    0.469    0.175
  560.296    2.171  152.666   88.975    0.455    0.213
  560.546    2.225  152.146   84.724    0.442    0.254
  560.796    2.401  151.621   89.025    0.436    0.283
  561.046    2.892  151.408   96.055    0.432    0.265
  561.296    3.189  151.911  102.478    0.428    0.240
  561.546    3.602  152.620  105.748    0.432    0.215
  561.796    3.967  153.739  110.473    0.422    0.185
  562.046    4.118  154.755  112.712    0.428    0.174
  562.296    4.229  155.158  110.644    0.448    0.147
  562.546    4.304  155.148  113.428    0.440    0.158
  562.796    4.365  155.137  109.176    0.434    0.181
  563.046    4.361  154.613  105.229    0.478    0.203
  563.296    4.351  154.193  100.067    0.509    0.236
  563.546    4.308  153.669   93.692    0.541    0.308
  563.796    4.280  153.251   89.926    0.554    0.402
  564.046    4.154  152.622   86.645    0.563    0.449
  564.296    3.951  151.894  101.317    0.526    0.282
  564.546    3.793  151.062  109.682    0.454    0.250
  564.796    3.776  150.232  113.194    0.426    0.193
  565.046    3.857  150.017  111.611    0.423    0.180
  565.296    3.969  150.931  110.756    0.438    0.171
  565.546    4.046  152.565  110.205    0.457    0.154
  565.796    4.149  153.891  112.443    0.467    0.139
  566.046    4.183  154.908  117.592    0.465    0.146
  566.296    4.135  155.410  120.014    0.454    0.169
  566.546    4.012  155.402  120.068    0.468    0.161
  566.796    3.810  155.290  117.940    0.483    0.157
  567.046    3.597  154.970  114.962    0.473    0.150
  567.296    3.293  154.550  114.592    0.457    0.145
  567.546    3.098  153.923  112.038    0.452    0.130
  567.796    2.962  153.504  107.968    0.457    0.140
  568.046    2.822  152.776  103.960    0.452    0.170
  568.296    2.734  152.148  100.133    0.442    0.194
  568.546    2.702  151.625   96.670    0.433    0.207
  568.796    2.725  151.205   95.208    0.427    0.214
  569.046    2.793  151.195   94.898    0.428    0.222
  569.296    2.880  151.288   94.892    0.431    0.230
  569.546    2.985  151.997   95.068    0.431    0.239
  569.796    3.099  151.577   95.124    0.437    0.228
  570.046    3.266  151.360   94.754    0.442    0.213
  570.296    3.416  151.761   94.021    0.434    0.207
  570.546    3.635  152.164   92.679    0.421    0.211
  570.796    3.663  152.048   91.947    0.415    0.206
  571.046    3.707  151.937   90.605    0.406    0.187
  571.296    3.654  151.929   90.116    0.389    0.182
  571.546    3.622  151.816   89.321    0.357    0.192
  571.796    3.580  151.806   88.952    0.360    0.169
  572.046    3.577  152.619   92.646    0.384    0.189
  572.296    3.704  153.225   97.007    0.404    0.211
  572.546    3.760  153.829   98.094    0.419    0.235
