~VERSION INFORMATION
 VERS.                 2.0:   CWLS LOG ASCII STANDARD -VERSION 2.0
 WRAP.                  NO:   ONE LINE PER DEPTH STEP
~WELL INFORMATION BLOCK
#MNEM.UNIT           DATA                    DESCRIPTION OF MNEMONIC
#---------    -------------------            -------------------------------
# Generated from Intellog Unique Number	CW_73_75/WELL/2735
WELL.         BRENDA ET AL MARTEN HILLS 09-1 : Well_name    - WELL
LOC .         00/09-10-073-25W4/0            : Location     - LOCATION
UWI .         00/09-10-073-25W4/0            : Uwi          - UNIQUE WELL ID
ENTR.         JAYE                           : Entered      - ENTERED BY
SRVC.         SCHLUMBERGER                   : Scn          - SERVICE COMPANY
DATE.         16 FEB 82                      : Date         - LOG DATE
STRT.M        390                            : top_depth    - START DEPTH
STOP.M        620                            : bot_depth    - STOP DEPTH
STEP.M        0.25                           : increment    - STEP LENGTH
 NULL. -999.2500:NULL Value
~CURVE INFORMATION BLOCK
#MNEM UNIT       ERCB CURVE CODE    CURVE DESCRIPTION
#-----------   ------------------   ----------------------------------
DEPT.M        00 001 00 00         : DEPTH        - DEPTH
DPHI.V/V      00 890 00 00         : PHID         - DENSITY POROSITY (SANDSTONE)
NPHI.V/V      00 330 00 00         : PHIN         - NEUTRON POROSITY (SANDSTONE)
GR  .API      00 310 00 00         : GR           - GAMMA RAY
CALI.MM       00 280 01 00         : CAL          - CALIPER
ILD .OHMM     00 120 00 00         : RESD         - DEEP RESISTIVITY (DIL)
~PARAMETER INFORMATION
#MNEM.UNIT           DATA             DESCRIPTION OF MNEMONIC
#---------         -----------     ------------------------------
GL  .M        633.6                : gl           - GROUND LEVEL ELEVATION
EREF.M        637.3                : kb           - ELEVATION OF DEPTH REFERENCE
DATM.M        633.6                : datum        - DATUM ELEVATION
TDD .M        628                  : tdd          - TOTAL DEPTH DRILLER
RUN .         ONE                  : Run          - RUN NUMBER
ENG .         SMYTHE               : Engineer     - RECORDING ENGINEER
WIT .         SAY                  : Witness      - WITNESSED BY
BASE.         EDM                  : Branch       - HOME BASE OF LOGGING UNIT
MUD .         GEL MUDM             : Mud_type     - MUD TYPE
MATR.         SANDSTONE            : Logunit      - NEUTRON MATRIX
TMAX.C        28                   : BHT          - MAXIMUM RECORDED TEMPERATURE
BHTD.M        627.5                : BHTDEP       - MAXIMUM RECORDED TEMPERATURE
RMT .C        12.7                 : MDTP         - TEMPERATURE OF MUD
MUDD.KG/M     1110                 : MWT          - MUD DENSITY
NEUT.         1                    : NEUTRON      - NEUTRON TYPE
RESI.         0                    : RESIST       - RESISTIVITY TYPE
RM  .OHMM     4.32                 : RM           - RESISTIVITY OF MUD
RMC .OHMM     0                    : RMC          - RESISTIVITY OF MUD CAKE
RMF .OHMM     4.55                 : RMF          - RESISTIVITY OF MUD FILTRATE
SUFT.C        0                    : SUFT         - SURFACE TEMPERATURE
~A  DEPTH     PHID     PHIN       GR      CAL     RESD
  390.000    0.257    0.560  100.981  185.668    2.634
  390.250    0.283    0.546   97.568  175.272    2.525
  390.500    0.283    0.528  100.491  166.659    2.371
  390.750    0.263    0.511  105.238  165.678    2.217
  391.000    0.237    0.488  103.583  167.623    2.027
  391.250    0.244    0.516   98.916  170.198    1.907
  391.500    0.300    0.593   94.058  176.746    2.006
  391.750    0.327    0.523   84.435  188.003    2.636
  392.000    0.153    0.466   79.074  180.223    3.373
  392.250    0.159    0.420   69.009  164.184    4.179
  392.500    0.222    0.431   68.733  159.128    4.984
  392.750    0.269    0.452   63.939  157.310    5.447
  393.000    0.292    0.455   55.254  155.813    5.602
  393.250    0.302    0.439   50.902  154.927    5.600
  393.500    0.311    0.442   48.303  154.263    5.482
  393.750    0.319    0.455   47.404  154.009    5.285
  394.000    0.333    0.452   50.265  154.186    4.878
  394.250    0.332    0.432   54.507  154.766    4.293
  394.500    0.328    0.420   56.367  156.201    3.807
  394.750    0.322    0.427   57.097  157.403    3.691
  395.000    0.298    0.438   60.965  158.939    3.877
  395.250    0.243    0.443   61.882  160.356    4.118
  395.500    0.136    0.421   61.919  161.472    4.366
  395.750    0.094    0.378   68.927  160.275    4.347
  396.000    0.190    0.363   75.303  160.135    4.136
  396.250    0.231    0.382   82.432  163.963    3.913
  396.500    0.266    0.426   92.137  177.000    3.203
  396.750    0.287    0.455   99.956  187.834    3.283
  397.000    0.286    0.475  105.455  174.304    3.428
  397.250    0.289    0.504   98.591  164.851    3.459
  397.500    0.306    0.440   87.772  158.535    3.484
  397.750    0.323    0.396   87.183  156.611    3.542
  398.000    0.291    0.403   93.373  156.779    3.643
  398.250    0.289    0.428   92.158  158.002    3.951
  398.500    0.273    0.420   89.434  158.900    4.343
  398.750    0.224    0.404   88.597  159.699    4.510
  399.000    0.190    0.387   91.521  159.863    4.508
  399.250    0.191    0.391  105.304  163.795    4.463
  399.500    0.214    0.449  112.749  169.822    4.572
  399.750    0.246    0.483  104.252  169.474    4.649
  400.000    0.266    0.396   88.160  169.953    4.755
  400.250    0.246    0.373   80.861  175.358    4.993
  400.500    0.222    0.370   79.075  174.266    5.204
  400.750    0.242    0.398   73.843  166.800    5.172
  401.000    0.265    0.407   64.531  159.966    5.073
  401.250    0.252    0.401   60.365  156.261    4.900
  401.500    0.247    0.410   62.916  156.961    4.715
  401.750    0.269    0.405   69.545  161.518    4.529
  402.000    0.270    0.418   78.682  170.473    4.284
  402.250    0.287    0.439   83.491  180.998    4.202
  402.500    0.278    0.442   86.356  184.618    4.216
  402.750    0.255    0.435   90.033  177.467    4.287
  403.000    0.265    0.457   98.355  182.238    4.384
  403.250    0.281    0.475   83.144  171.947    4.492
  403.500    0.270    0.451   73.831  161.131    4.619
  403.750    0.263    0.419   72.366  156.387    4.769
  404.000    0.261    0.421   77.611  156.247    4.877
  404.250    0.256    0.432   79.220  157.876    4.931
  404.500    0.241    0.421   82.587  160.243    4.854
  404.750    0.213    0.406   87.457  162.714    4.618
  405.000    0.190    0.397   94.273  163.823    4.625
  405.250    0.204    0.396   88.916  161.688    4.720
  405.500    0.240    0.388   76.715  157.890    4.595
  405.750    0.275    0.366   65.773  155.544    4.281
  406.000    0.283    0.345   58.845  154.770    3.996
  406.250    0.278    0.373   57.315  154.322    3.745
  406.500    0.291    0.407   53.776  154.073    3.590
  406.750    0.312    0.415   45.718  154.134    3.527
  407.000    0.319    0.386   42.558  154.413    3.513
  407.250    0.308    0.347   56.089  154.368    3.538
  407.500    0.284    0.370   65.791  154.235    3.583
  407.750    0.262    0.395   72.734  154.074    3.630
  408.000    0.259    0.396   64.490  154.041    3.705
  408.250    0.272    0.370   53.609  153.800    3.774
  408.500    0.277    0.344   57.914  153.849    3.809
  408.750    0.272    0.379   73.015  153.913    3.807
  409.000    0.276    0.390   77.951  154.083    3.813
  409.250    0.265    0.386   74.975  154.262    3.833
  409.500    0.248    0.399   84.493  154.526    3.905
  409.750    0.240    0.419   97.145  154.607    4.046
  410.000    0.238    0.408   99.129  154.671    4.234
  410.250    0.228    0.396   94.900  154.632    4.379
  410.500    0.214    0.391   98.328  154.383    4.495
  410.750    0.200    0.395  101.506  154.126    4.510
  411.000    0.204    0.407   94.767  153.775    4.398
  411.250    0.247    0.427   78.298  153.837    4.005
  411.500    0.265    0.446   73.442  153.898    3.683
  411.750    0.293    0.440   77.686  156.260    3.386
  412.000    0.276    0.425   96.554  161.555    3.066
  412.250    0.261    0.438  107.135  167.174    2.862
  412.500    0.244    0.456  113.828  170.261    2.687
  412.750    0.233    0.533  116.377  172.211    2.566
  413.000    0.226    0.554  118.675  174.158    2.507
  413.250    0.247    0.558  123.418  176.952    2.464
  413.500    0.275    0.557  129.921  179.835    2.472
  413.750    0.290    0.536  128.580  182.512    2.538
  414.000    0.281    0.551  122.091  183.203    2.680
  414.250    0.271    0.543  118.428  182.647    2.918
  414.500    0.251    0.504  115.959  183.022    3.141
  414.750    0.249    0.464  109.782  184.969    3.375
  415.000    0.299    0.477  103.798  188.272    3.592
  415.250    0.312    0.474  102.140  197.750    3.808
  415.500    0.284    0.447  107.641  210.891    4.022
  415.750    0.265    0.454  105.670  196.206    4.176
  416.000    0.304    0.468   95.039  171.167    4.336
  416.250    0.301    0.457   77.318  159.624    4.467
  416.500    0.307    0.444   70.014  154.880    4.508
  416.750    0.313    0.436   70.806  154.940    4.438
  417.000    0.308    0.423   70.972  155.114    4.328
  417.250    0.297    0.401   76.096  155.393    4.228
  417.500    0.286    0.420   81.404  155.566    4.235
  417.750    0.277    0.444   77.740  155.518    4.314
  418.000    0.260    0.439   72.009  155.071    4.462
  418.250    0.240    0.427   68.216  154.910    4.581
  418.500    0.255    0.440   65.931  154.874    4.587
  418.750    0.287    0.464   68.043  155.048    4.372
  419.000    0.301    0.457   65.574  155.121    4.192
  419.250    0.317    0.446   62.535  155.176    4.026
  419.500    0.328    0.433   59.184  155.355    3.956
  419.750    0.340    0.423   55.961  155.627    3.909
  420.000    0.340    0.418   56.312  155.782    3.864
  420.250    0.333    0.416   61.498  155.652    3.899
  420.500    0.329    0.416   61.476  155.502    3.964
  420.750    0.323    0.422   61.574  155.255    4.016
  421.000    0.326    0.428   63.246  155.223    4.022
  421.250    0.319    0.421   64.165  155.375    3.974
  421.500    0.302    0.409   68.407  155.758    3.898
  421.750    0.278    0.432   78.361  156.025    3.852
  422.000    0.262    0.465   88.003  156.722    3.850
  422.250    0.279    0.485   88.043  156.787    4.013
  422.500    0.302    0.493   81.867  156.639    4.344
  422.750    0.320    0.470   76.007  156.189    4.562
  423.000    0.332    0.446   75.166  156.035    4.492
  423.250    0.324    0.426   77.652  155.790    4.306
  423.500    0.308    0.415   79.076  155.542    4.104
  423.750    0.294    0.423   81.186  155.708    3.972
  424.000    0.272    0.434   85.990  156.930    3.978
  424.250    0.265    0.454  107.745  159.287    4.107
  424.500    0.289    0.458  116.695  169.709    4.248
  424.750    0.266    0.438  123.762  172.597    4.352
  425.000    0.233    0.401  118.717  172.245    4.350
  425.250    0.241    0.407  107.962  170.740    4.266
  425.500    0.247    0.437   99.779  166.620    4.129
  425.750    0.235    0.465   94.548  169.410    3.981
  426.000    0.243    0.484   87.745  169.785    3.788
  426.250    0.261    0.468   81.697  167.232    3.610
