~VERSION INFORMATION
 VERS.                 2.0:   CWLS LOG ASCII STANDARD -VERSION 2.0
 WRAP.                  NO:   ONE LINE PER DEPTH STEP
~WELL INFORMATION BLOCK
#MNEM.UNIT           DATA                    DESCRIPTION OF MNEMONIC
#---------    -------------------            -------------------------------
# Generated from Intellog Unique Number	CW_82_90/WELL/3414
WELL.         CDN SUP LIEGE                  : Well_name    - WELL
LOC .         00/03-18-089-19W4/0            : Location     - LOCATION
UWI .         00/03-18-089-19W400            : Uwi          - UNIQUE WELL ID
ENTR.         MAX                            : Entered      - ENTERED BY
SRVC.         SCHLUMBERGER                   : Scn          - SERVICE COMPANY
STRT.M        110                            : top_depth    - START DEPTH
STOP.M        262                            : bot_depth    - STOP DEPTH
STEP.M        0.25                           : increment    - STEP LENGTH
 NULL. -999.2500:NULL Value
~CURVE INFORMATION BLOCK
#MNEM UNIT       ERCB CURVE CODE    CURVE DESCRIPTION
#-----------   ------------------   ----------------------------------
DEPT.M        00 001 00 00         : DEPTH        - DEPTH
CALI.MM       00 280 01 00         : CAL          - CALIPER
DPHI.V/V      00 890 00 00         : PHID         - DENSITY POROSITY (SANDSTONE)
NPHI.V/V      00 330 00 00         : PHIN         - NEUTRON POROSITY (SANDSTONE)
ILD .OHMM     00 120 00 00         : RESD         - DEEP RESISTIVITY (DIL)
GR  .API      00 310 00 00         : GR           - GAMMA RAY
~PARAMETER INFORMATION
#MNEM.UNIT           DATA             DESCRIPTION OF MNEMONIC
#---------         -----------     ------------------------------
GL  .M        504.11               : gl           - GROUND LEVEL ELEVATION
EREF.M        507.31               : kb           - ELEVATION OF DEPTH REFERENCE
DATM.M        504.11               : datum        - DATUM ELEVATION
TDD .M        262                  : tdd          - TOTAL DEPTH DRILLER
RUN .         ONE                  : Run          - RUN NUMBER
ENG .         BILL                 : Engineer     - RECORDING ENGINEER
WIT .         JIM                  : Witness      - WITNESSED BY
MUD .         GEL                  : Mud_type     - MUD TYPE
MATR.         SANDSTONE            : Logunit      - NEUTRON MATRIX
TMAX.C        17                   : BHT          - MAXIMUM RECORDED TEMPERATURE
BHTD.M        262                  : BHTDEP       - MAXIMUM RECORDED TEMPERATURE
MATR.         1                    : LOGUNIT      - NEUTRON MATRIX
RMT .C        17                   : MDTP         - TEMPERATURE OF MUD
NEUT.         1                    : NEUTRON      - NEUTRON TYPE
RESI.         0                    : RESIST       - RESISTIVITY TYPE
RMC .OHMM     4.17                 : RMC          - RESISTIVITY OF MUD CAKE
RMF .OHMM     4.17                 : RMF          - RESISTIVITY OF MUD FILTRATE
SUFT.C        -10                  : SUFT         - SURFACE TEMPERATURE
~A  DEPTH      CAL     PHID     PHIN     RESD       GR
# ...
  183.000  203.819    0.110    0.410   20.469   59.080
  183.250  205.308    0.086    0.324   23.092   55.848
  183.500  208.271    0.138    0.329   25.573   57.627
  183.750  211.730    0.152    0.344   26.794   61.766
  184.000  214.206    0.167    0.352   25.829   64.136
  184.250  215.700    0.201    0.373   23.773   63.261
  184.500  215.715    0.226    0.405   21.087   64.746
  184.750  214.258    0.212    0.438   18.192   67.998
  185.000  209.852    0.248    0.452   15.695   73.020
  185.250  205.447    0.271    0.459   14.581   73.326
  185.500  204.974    0.272    0.473   14.587   71.863
  185.750  208.432    0.252    0.467   14.863   69.220
  186.000  212.869    0.237    0.458   15.007   68.052
  186.250  217.308    0.222    0.453   15.433   68.355
  186.500  218.800    0.233    0.458   15.726   69.840
  186.750  218.328    0.259    0.477   15.877   71.914
  187.000  217.852    0.285    0.475   15.736   71.924
  187.250  217.874    0.259    0.455   16.336   68.102
  187.500  217.395    0.119    0.377   17.925   62.808
  187.750  216.924    0.058    0.306   20.409   59.575
  188.000  216.941    0.004    0.247   23.671   58.997
  188.250  216.465    0.090    0.235   28.228   61.071
  188.500  216.489    0.197    0.297   32.440   65.208
  188.750  216.993    0.226    0.364   23.915   71.410
  189.000  217.998    0.214    0.401   19.518   72.599
  189.250  219.976    0.187    0.455   16.378   68.777
  189.500  221.961    0.131    0.434   15.936   59.944
  189.750  221.489    0.059    0.409   16.089   56.712
  190.000  221.013    0.156    0.327   16.094   64.092
  190.250  221.524    0.210    0.438   15.951   75.304
  190.500  222.519    0.186    0.439   15.810   77.969
  190.750  223.028    0.167    0.426   15.526   74.736
  191.000  223.050    0.192    0.437   15.105   74.159
  191.250  223.063    0.209    0.457   15.110   75.640
  191.500  223.578    0.223    0.450   15.116   83.614
  191.750  223.589    0.238    0.445   14.982   85.390
  192.000  224.100    0.236    0.448   14.576   86.580
  192.250  223.626    0.228    0.457   14.053   83.054
  192.500  223.643    0.217    0.473   13.298   80.412
  192.750  223.661    0.209    0.469   12.938   80.717
  193.000  223.189    0.208    0.461   13.063   81.906
  193.250  223.204    0.218    0.464   12.946   83.684
  193.500  222.731    0.229    0.492   12.481   86.054
  193.750  222.259    0.226    0.517   12.032   87.834
  194.000  222.274    0.204    0.507   12.035   84.895
  194.250  221.802    0.143    0.491   12.152   80.780
  194.500  221.818    0.180    0.458   12.497   79.316
  194.750  221.835    0.221    0.453   12.734   81.095
  195.000  221.361    0.233    0.451   12.739   83.464
  195.250  220.396    0.238    0.453   12.742   84.948
  195.500  219.922    0.233    0.471   12.059   84.369
  195.750  218.959    0.209    0.499   12.063   82.612
  196.000  220.448    0.173    0.495   12.522   77.020
  196.250  222.435    0.148    0.479   13.240   71.429
  196.500  222.448    0.156    0.444   13.368   72.325
  196.750  219.522    0.198    0.469   13.127   79.115
  197.000  219.535    0.222    0.479   12.423   82.663
  197.250  219.557    0.178    0.477   11.976   82.675
  197.500  219.572    0.168    0.459   11.870   82.097
  197.750  222.048    0.203    0.442   12.552   81.810
  198.000  225.013    0.222    0.446   12.909   82.117
  198.250  225.522    0.195    0.460   12.676   83.010
  198.500  225.046    0.178    0.444   12.220   85.085
  198.750  223.589    0.152    0.431   11.889   86.275
  199.000  221.153    0.165    0.413   11.251   86.875
  199.250  218.222    0.191    0.462   10.746   86.885
  199.500  217.255    0.209    0.452   10.749   86.601
  199.750  218.748    0.214    0.423   10.556   86.022
  200.000  215.607    0.214    0.415    9.828   84.968
  200.250  214.587    0.212    0.442    9.824   87.918
  200.500  215.543    0.210    0.455    9.909   88.789
  200.750  215.014    0.203    0.468   10.760   88.472
  201.000  210.520    0.189    0.455   11.904   82.507
  201.250  206.530    0.134    0.415   13.168   81.598
  201.500  199.556    0.116    0.380   13.404   83.954
  201.750  200.017    0.188    0.438   13.151   87.199
  202.000  202.958    0.218    0.434   12.903   87.179
  202.250  205.400    0.224    0.431   12.777   85.668
  202.500  205.366    0.226    0.431   13.622   84.460
  202.750  200.381    0.225    0.412   15.350   84.147
  203.000  189.454    0.215    0.386   16.980   85.313
  203.250  188.426    0.199    0.371   19.309   86.483
  203.500  191.362    0.177    0.355   18.944   86.166
  203.750  196.280    0.140    0.334   17.586   84.066
  204.000  200.706    0.117    0.312   15.731   83.746
  204.250  208.594    0.152    0.344   13.818   85.214
  204.500  217.472    0.214    0.391   10.764   89.055
  204.750  223.867    0.220    0.427   10.271   88.144
  205.000  224.332    0.216    0.405   11.155   85.744
  205.250  223.308    0.207    0.409   11.675   88.098
  205.500  223.769    0.209    0.434   12.106   90.751
  205.750  223.735    0.210    0.442   12.099   90.736
  206.000  223.701    0.206    0.448   11.979   88.931
  206.250  224.158    0.205    0.469   11.540   90.393
  206.500  224.628    0.212    0.481   10.614   92.160
  206.750  224.590    0.220    0.472    9.761   94.516
  207.000  224.057    0.219    0.485    8.733   96.573
  207.250  223.532    0.222    0.496    8.257   94.468
  207.500  223.494    0.227    0.471    7.808   93.562
  207.750  220.489    0.228    0.468    7.314   92.056
  208.000  210.557    0.226    0.494    7.177   89.359
  208.250  200.126    0.220    0.487    7.722   82.212
  208.500  189.195    0.182    0.458    9.029   72.982
  208.750  189.161    0.139    0.440   11.470   71.769
  209.000  198.539    0.152    0.425   13.163   76.207
  209.250  210.883    0.194    0.430   13.402   81.239
  209.500  216.786    0.212    0.424   11.880   86.264
  209.750  220.713    0.212    0.462   11.131   91.596
  210.000  223.155    0.209    0.483   10.050   92.170
  210.250  223.616    0.208    0.487    9.592   89.476
  210.500  224.082    0.204    0.469    9.154   87.963
  210.750  224.043    0.206    0.450    9.147   89.131
  211.000  224.005    0.216    0.450    9.399   91.784
  211.250  222.981    0.220    0.465    8.725   93.551
  211.500  222.452    0.215    0.477    8.403   95.610
  211.750  220.442    0.222    0.479    8.093   97.075
  212.000  217.437    0.233    0.465    7.941   98.243
  212.250  213.929    0.218    0.456    7.791   98.815
  212.500  211.923    0.187    0.429    7.503   96.715
  212.750  210.400    0.147    0.417    7.362   95.209
  213.000  212.351    0.189    0.456    7.291   96.377
  213.250  217.268    0.200    0.468    7.087   98.733
  213.500  223.171    0.202    0.489    6.954   99.604
  213.750  223.137    0.207    0.503    6.885   98.985
  214.000  220.624    0.211    0.490    6.882   97.484
  214.250  220.594    0.206    0.464    7.269   92.119
  214.500  221.059    0.135    0.442    8.041   85.558
  214.750  221.521    0.086    0.404    8.895   76.925
  215.000  220.983    0.007    0.329   10.891   73.340
  215.250  219.959    0.116    0.335   12.617   77.478
  215.500  219.430    0.185    0.375   13.204   88.450
  215.750  221.377    0.203    0.411   12.602   89.321
  216.000  223.323    0.156    0.412   11.484   80.982
  216.250  223.293    0.121    0.394   10.660   73.535
  216.500  220.784    0.109    0.367   10.554   72.921
  216.750  219.256    0.132    0.330   10.548   83.595
  217.000  220.716    0.182    0.362   10.640   92.487
  217.250  223.158    0.195    0.429   10.439   96.623
  217.500  222.130    0.190    0.433   11.128   95.711
  217.750  221.110    0.174    0.414   12.312   91.829
  218.000  219.095    0.155    0.422   14.130   90.026
  218.250  216.586    0.042    0.367   14.254   90.006
  218.500  211.592    0.088    0.322   13.728   92.659
  218.750  210.572    0.191    0.369   11.728   95.612
  219.000  214.000    0.194    0.423   11.089   97.077
  219.250  217.436    0.138    0.417   12.042   86.657
