~VERSION INFORMATION
 VERS.                 2.0:   CWLS LOG ASCII STANDARD -VERSION 2.0
 WRAP.                  NO:   ONE LINE PER DEPTH STEP
~WELL INFORMATION BLOCK
#MNEM.UNIT           DATA                    DESCRIPTION OF MNEMONIC
#---------    -------------------            -------------------------------
# Generated from Intellog Unique Number	CS_69_70/WELL/689
WELL.         AEC PRIMROSE                   : Well_name    - WELL
LOC .         00/05-04-069-04W4/0            : Location     - LOCATION
UWI .         00/05-04-069-04W4/0            : Uwi          - UNIQUE WELL ID
ENTR.         SP                             : Entered      - ENTERED BY
SRVC.         SCHLUMBERGER                   : Scn          - SERVICE COMPANY
STRT.M        350                            : top_depth    - START DEPTH
STOP.M        615                            : bot_depth    - STOP DEPTH
STEP.M        0.25                           : increment    - STEP LENGTH
 NULL. -999.2500:NULL Value
~CURVE INFORMATION BLOCK
#MNEM UNIT       ERCB CURVE CODE    CURVE DESCRIPTION
#-----------   ------------------   ----------------------------------
DEPT.M        00 001 00 00         : DEPTH        - DEPTH
ILD .OHMM     00 120 00 00         : RESD         - DEEP RESISTIVITY (DIL)
DPHI.V/V      00 890 00 00         : PHID         - DENSITY POROSITY (LIMESTONE)
NPHI.V/V      00 330 00 00         : PHIN         - NEUTRON POROSITY (LIMESTONE)
GR  .API      00 310 00 00         : GR           - GAMMA RAY
~PARAMETER INFORMATION
#MNEM.UNIT           DATA             DESCRIPTION OF MNEMONIC
#---------         -----------     ------------------------------
GL  .M        724.4                : gl           - GROUND LEVEL ELEVATION
EREF.M        728.1                : kb           - ELEVATION OF DEPTH REFERENCE
DATM.M        724.4                : datum        - DATUM ELEVATION
TDD .M        625                  : tdd          - TOTAL DEPTH DRILLER
RUN .         ONE                  : Run          - RUN NUMBER
ENG .         BILL                 : Engineer     - RECORDING ENGINEER
WIT .         JIM                  : Witness      - WITNESSED BY
MUD .         GEL                  : Mud_type     - MUD TYPE
MATR.         LIMESTONE            : Logunit      - NEUTRON MATRIX
TMAX.C        23                   : BHT          - MAXIMUM RECORDED TEMPERATURE
BHTD.M        625                  : BHTDEP       - MAXIMUM RECORDED TEMPERATURE
MATR.         1                    : LOGUNIT      - NEUTRON MATRIX
RMT .C        25                   : MDTP         - TEMPERATURE OF MUD
NEUT.         1                    : NEUTRON      - NEUTRON TYPE
RESI.         0                    : RESIST       - RESISTIVITY TYPE
RMC .OHMM     0.25                 : RMC          - RESISTIVITY OF MUD CAKE
RMF .OHMM     0.25                 : RMF          - RESISTIVITY OF MUD FILTRATE
SUFT.C        15                   : SUFT         - SURFACE TEMPERATURE
~A  DEPTH     RESD     PHID     PHIN       GR
# ...
  437.000    5.637    0.356    0.438   56.812
  437.250    5.562    0.357    0.428   56.087
  437.500    5.498    0.356    0.424   54.508
  437.750    5.446    0.350    0.423   54.515
  438.000    5.293    0.347    0.425   55.008
  438.250    5.193    0.349    0.428   55.259
  438.500    5.173    0.354    0.433   54.840
  438.750    5.211    0.358    0.433   54.785
  439.000    5.289    0.349    0.434   55.279
  439.250    5.398    0.346    0.428   55.712
  439.500    5.469    0.355    0.423   56.573
  439.750    5.561    0.353    0.422   57.432
  440.000    5.655    0.338    0.420   58.779
  440.250    5.718    0.325    0.420   59.029
  440.500    5.750    0.321    0.422   57.816
  440.750    5.641    0.351    0.433   55.385
  441.000    5.432    0.364    0.438   54.538
  441.250    5.269    0.355    0.452   54.180
  441.500    5.112    0.354    0.465   54.307
  441.750    5.034    0.356    0.456   54.923
  442.000    4.949    0.357    0.450   55.356
  442.250    4.901    0.357    0.452   55.728
  442.500    4.873    0.355    0.468   56.284
  442.750    4.881    0.364    0.472   56.473
  443.000    4.899    0.357    0.471   56.906
  443.250    4.907    0.350    0.467   57.462
  443.500    4.897    0.344    0.454   58.138
  443.750    4.877    0.340    0.441   59.303
  444.000    4.867    0.344    0.440   60.468
  444.250    4.848    0.352    0.445   61.633
  444.500    4.828    0.352    0.448   62.552
  444.750    4.809    0.345    0.449   62.986
  445.000    4.772    0.343    0.449   62.200
  445.250    4.754    0.351    0.448   59.220
  445.500    4.726    0.355    0.461   58.007
  445.750    4.734    0.353    0.481   58.136
  446.000    4.759    0.348    0.477   58.447
  446.250    4.803    0.344    0.461   58.271
  446.500    4.839    0.344    0.457   57.303
  446.750    4.856    0.353    0.459   55.662
  447.000    4.873    0.356    0.454   54.816
  447.250    4.854    0.322    0.441   61.283
  447.500    4.844    0.299    0.428   70.250
  447.750    4.807    0.276    0.443   81.532
  448.000    4.593    0.253    0.465   89.463
  448.250    4.448    0.270    0.486   83.558
  448.500    4.405    0.298    0.484   80.089
  448.750    4.480    0.316    0.472   75.280
  449.000    4.633    0.333    0.458   77.725
  449.250    4.774    0.331    0.449   80.291
  449.500    4.956    0.311    0.470   81.151
  449.750    5.145    0.301    0.500   77.378
  450.000    5.291    0.321    0.507   68.791
  450.250    5.411    0.331    0.469   65.445
  450.500    5.544    0.327    0.446   63.805
  450.750    5.659    0.325    0.440   62.411
  451.000    5.754    0.332    0.451   62.112
  451.250    5.840    0.341    0.447   61.874
  451.500    5.906    0.324    0.436   61.821
  451.750    5.949    0.318    0.452   62.376
  452.000    5.970    0.327    0.466   63.053
  452.250    5.981    0.328    0.474   62.937
  452.500    5.968    0.322    0.463   58.371
  452.750    5.945    0.318    0.441   62.463
  453.000    5.921    0.316    0.435   64.724
  453.250    5.920    0.317    0.432   64.974
  453.500    5.919    0.324    0.421   61.506
  453.750    5.940    0.335    0.429   60.781
  454.000    5.984    0.327    0.437   61.092
  454.250    6.027    0.328    0.444   59.880
  454.500    6.049    0.332    0.448   58.120
  454.750    6.094    0.329    0.437   57.089
  455.000    6.127    0.328    0.428   55.877
  455.250    6.172    0.332    0.422   57.285
  455.500    6.194    0.327    0.417   59.791
  455.750    6.181    0.314    0.420   61.808
  456.000    6.157    0.295    0.430   65.411
  456.250    6.178    0.295    0.440   67.795
  456.500    6.201    0.312    0.447   61.828
  456.750    6.234    0.331    0.435   57.994
  457.000    6.268    0.324    0.430   59.891
  457.250    6.386    0.305    0.433   67.029
  457.500    6.470    0.250    0.430   74.715
  457.750    6.113    0.252    0.465   84.657
  458.000    5.198    0.269    0.490   96.427
  458.250    4.084    0.282    0.567  100.822
  458.500    3.402    0.282    0.580  103.755
  458.750    3.004    0.279    0.569  105.163
  459.000    2.791    0.303    0.576  103.645
  459.250    2.738    0.316    0.571   98.654
  459.500    2.779    0.285    0.553   97.930
  459.750    2.799    0.251    0.550   98.972
  460.000    2.809    0.250    0.574   99.526
  460.250    2.825    0.265    0.606   99.228
  460.500    2.872    0.283    0.626   96.493
  460.750    2.926    0.299    0.617   92.841
  461.000    2.998    0.309    0.595   89.252
  461.250    3.119    0.295    0.527   84.992
  461.500    3.484    0.287    0.502   82.377
  461.750    3.997    0.285    0.490   81.835
  462.000    4.585    0.277    0.489   82.391
  462.250    5.161    0.268    0.490   83.250
  462.500    5.563    0.266    0.494   84.964
  462.750    5.897    0.260    0.487   86.189
  463.000    6.019    0.254    0.480   87.292
  463.250    5.995    0.253    0.487   88.091
  463.500    5.882    0.257    0.495   88.767
  463.750    5.793    0.258    0.488   89.750
  464.000    5.781    0.248    0.488   91.341
  464.250    5.747    0.241    0.487   94.579
  464.500    5.724    0.249    0.478   96.596
  464.750    5.680    0.241    0.469   96.176
  465.000    5.542    0.237    0.474   94.353
  465.250    5.356    0.251    0.493   95.275
  465.500    5.109    0.265    0.506   97.293
  465.750    4.845    0.262    0.507   99.249
  466.000    4.648    0.263    0.493  100.596
  466.250    4.475    0.267    0.493   99.018
  466.500    4.309    0.253    0.483   98.660
  466.750    3.966    0.238    0.472  100.252
  467.000    2.747    0.231    0.487  101.538
  467.250    1.899    0.223    0.508  102.519
  467.500    1.274    0.217    0.527  101.916
  467.750    1.235    0.218    0.516   99.728
  468.000    1.596    0.218    0.475   97.358
  468.250    2.034    0.221    0.485   95.598
  468.500    2.516    0.237    0.521   95.115
  468.750    3.123    0.254    0.518   93.719
  469.000    3.741    0.289    0.512   87.082
  469.250    4.040    0.297    0.480   88.186
  469.500    4.140    0.274    0.457   90.813
  469.750    4.115    0.256    0.452   95.027
  470.000    4.030    0.245    0.474   97.409
  470.250    3.881    0.239    0.485  100.647
  470.500    3.660    0.224    0.492  101.749
  470.750    3.531    0.214    0.519  101.573
  471.000    3.537    0.249    0.537   96.644
  471.250    3.671    0.289    0.522   93.663
  471.500    3.877    0.316    0.498   90.255
  471.750    4.226    0.320    0.466   82.216
  472.000    4.669    0.325    0.454   81.430
  472.250    4.939    0.328    0.449   84.851
  472.500    5.176    0.335    0.454   86.259
  472.750    5.234    0.327    0.453   86.143
  473.000    5.223    0.316    0.466   85.784
  473.250    5.086    0.308    0.475   85.547
  473.500    5.047    0.314    0.449   81.104
  473.750    5.152    0.322    0.451   77.270
  474.000    5.259    0.329    0.473   72.707
  474.250    5.690    0.245    0.507   70.091
  474.500    6.515    0.148    0.526   67.051
  474.750    7.702    0.039    0.392   64.314
  475.000    9.652    0.015    0.211   61.211
  475.250   10.906    0.009    0.172   56.219
  475.500   11.757    0.222    0.335   58.542
  475.750   11.513    0.311    0.404   63.608
  476.000    8.437    0.325    0.440   67.332
  476.250    6.372    0.334    0.456   69.472
  476.500    5.712    0.340    0.468   71.003
  476.750    5.428    0.343    0.473   71.985
  477.000    5.396    0.338    0.482   71.442
  477.250    5.487    0.329    0.488   69.438
  477.500    5.580    0.324    0.490   68.651
  477.750    5.631    0.325    0.483   68.475
  478.000    5.673    0.318    0.474   71.042
  478.250    5.715    0.309    0.468   71.474
  478.500    5.703    0.294    0.476   68.433
  478.750    5.511    0.297    0.477   66.489
  479.000    5.247    0.317    0.459   64.728
  479.250    5.090    0.330    0.439   66.198
  479.500    5.051    0.326    0.442   69.434
  479.750    5.165    0.315    0.446   76.269
  480.000    5.292    0.314    0.482   79.139
  480.250    5.443    0.323    0.508   76.402
