~VERSION INFORMATION
 VERS.                 2.0:   CWLS LOG ASCII STANDARD -VERSION 2.0
 WRAP.                  NO:   ONE LINE PER DEPTH STEP
~WELL INFORMATION BLOCK
#MNEM.UNIT           DATA                    DESCRIPTION OF MNEMONIC
#---------    -------------------            -------------------------------
# Generated from Intellog Unique Number	CW_82_90/WELL/3068
WELL.         07-36-086-22W4                 : Well_name    - WELL
LOC .         00/07-36-086-22W4/0            : Location     - LOCATION
UWI .         00/07-36-086-22W4/0            : Uwi          - UNIQUE WELL ID
ENTR.         MAX                            : Entered      - ENTERED BY
SRVC.         SCHLUMBERGER                   : Scn          - SERVICE COMPANY
STRT.M        152.4                          : top_depth    - START DEPTH
STOP.M        350.4                          : bot_depth    - STOP DEPTH
STEP.M        0.25                           : increment    - STEP LENGTH
 NULL. -999.2500:NULL Value
~CURVE INFORMATION BLOCK
#MNEM UNIT       ERCB CURVE CODE    CURVE DESCRIPTION
#-----------   ------------------   ----------------------------------
DEPT.M        00 001 00 00         : DEPTH        - DEPTH
ILD .OHMM     00 120 00 00         : RESD         - DEEP RESISTIVITY (DIL)
NPHI.V/V      00 330 00 00         : PHIN         - NEUTRON POROSITY (SANDSTONE)
DPHI.V/V      00 890 00 00         : PHID         - DENSITY POROSITY (SANDSTONE)
CALI.MM       00 280 01 00         : CAL          - CALIPER
GR  .API      00 310 00 00         : GR           - GAMMA RAY
~PARAMETER INFORMATION
#MNEM.UNIT           DATA             DESCRIPTION OF MNEMONIC
#---------         -----------     ------------------------------
GL  .M        567.842              : gl           - GROUND LEVEL ELEVATION
EREF.M        571.195              : kb           - ELEVATION OF DEPTH REFERENCE
DATM.M        567.842              : datum        - DATUM ELEVATION
TDD .M        350.215              : tdd          - TOTAL DEPTH DRILLER
RUN .         ONE                  : Run          - RUN NUMBER
ENG .         BILL                 : Engineer     - RECORDING ENGINEER
WIT .         JIM                  : Witness      - WITNESSED BY
MUD .         GEL                  : Mud_type     - MUD TYPE
MATR.         SANDSTONE            : Logunit      - NEUTRON MATRIX
TMAX.C        15.5556              : BHT          - MAXIMUM RECORDED TEMPERATURE
BHTD.M        350.215              : BHTDEP       - MAXIMUM RECORDED TEMPERATURE
MATR.         1                    : LOGUNIT      - NEUTRON MATRIX
RMT .C        9.44444              : MDTP         - TEMPERATURE OF MUD
NEUT.         1                    : NEUTRON      - NEUTRON TYPE
RESI.         0                    : RESIST       - RESISTIVITY TYPE
RMC .OHMM     7.05                 : RMC          - RESISTIVITY OF MUD CAKE
RMF .OHMM     7.05                 : RMF          - RESISTIVITY OF MUD FILTRATE
SUFT.C        -23.3333             : SUFT         - SURFACE TEMPERATURE
~A  DEPTH     RESD     PHIN     PHID      CAL       GR
# ...
  225.400    7.952    0.538    0.282  225.097   84.755
  225.650    8.240    0.525    0.279  225.086   85.916
  225.900    8.693    0.519    0.271  224.580   85.910
  226.150    8.927    0.505    0.262  224.573   86.778
  226.400    8.924    0.501    0.250  224.561   89.396
  226.650    8.530    0.489    0.256  225.042   92.305
  226.900    7.588    0.501    0.250  225.035   94.048
  227.150    6.339    0.514    0.236  224.530   88.211
  227.400    6.168    0.493    0.234  224.026   78.874
  227.650    6.929    0.484    0.277  224.016   75.370
  227.900    7.997    0.496    0.297  224.495   76.528
  228.150    8.823    0.483    0.289  224.486   80.313
  228.400    8.586    0.515    0.273  224.476   87.305
  228.650    7.046    0.552    0.252  224.466   94.296
  228.900    5.992    0.558    0.221  223.962   97.206
  229.150    5.427    0.527    0.229  224.442   96.033
  229.400    4.959    0.514    0.247  224.433   98.942
  229.650    4.740    0.513    0.239  224.423   97.769
  229.900    4.450    0.548    0.221  224.413   92.515
  230.150    4.489    0.538    0.212  224.401   84.636
  230.400    4.822    0.518    0.176  224.884   86.089
  230.650    5.514    0.531    0.196  224.873   88.414
  230.900    6.421    0.516    0.220  224.864   85.200
  231.150    7.681    0.508    0.241  225.347   79.363
  231.400    9.106    0.500    0.265  225.829   73.526
  231.650   10.047    0.495    0.275  226.310   69.436
  231.900   10.987    0.502    0.289  225.809   67.681
  232.150   12.015    0.512    0.279  225.797   65.926
  232.400   13.022    0.505    0.303  225.787   64.170
  232.650   13.986    0.489    0.312  225.777   62.123
  232.900   14.108    0.498    0.297  225.270   66.491
  233.150   13.243    0.491    0.281  225.753   75.230
  233.400   12.212    0.503    0.274  226.236   78.432
  233.650   10.767    0.532    0.258  225.239   83.965
  233.900    6.996    0.572    0.260  225.227   88.624
  234.150    5.201    0.562    0.264  224.725   86.869
  234.400    5.536    0.534    0.271  224.714   78.989
  234.650    6.164    0.524    0.273  224.703   73.444
  234.900    7.711    0.520    0.278  224.693   68.772
  235.150    8.508    0.514    0.304  225.174   67.308
  235.400    9.731    0.506    0.319  225.164   67.592
  235.650   11.746    0.522    0.302  225.154   67.586
  235.900   13.434    0.528    0.291  225.143   67.581
  236.150   14.300    0.521    0.280  224.639   67.866
  236.400   14.167    0.512    0.304  225.617   68.734
  236.650   12.603    0.503    0.307  225.112   70.770
  236.900   10.249    0.504    0.288  224.606   76.303
  237.150    7.827    0.500    0.280  225.091   82.419
  237.400    6.657    0.514    0.269  225.080   87.662
  237.650    5.561    0.542    0.263  225.066   88.821
  237.900    5.082    0.559    0.263  225.057   88.814
  238.150    4.857    0.565    0.262  225.048   89.683
  238.400    5.217    0.565    0.258  225.037   86.178
  238.650    6.706    0.527    0.249  225.025   79.758
  238.900    8.618    0.488    0.229  224.521   73.337
  239.150   10.978    0.424    0.206  224.512   65.750
  239.400   13.859    0.427    0.155  224.501   62.828
  239.650   18.135    0.400    0.132  224.491   64.862
  239.900   21.694    0.361    0.091  224.479   62.232
  240.150   24.371    0.318    0.114  224.465   59.017
  240.400   23.927    0.292    0.100  224.458   57.554
  240.650   22.667    0.278    0.082  223.460   56.089
  240.900   20.714    0.267    0.069  222.460   58.125
  241.150   17.618    0.288    0.094  222.946   61.909
  241.400   13.215    0.369    0.157  223.428   70.358
  241.650   11.651    0.469    0.207  223.418   83.472
  241.900   10.646    0.479    0.213  224.393   89.881
  242.150   10.454    0.490    0.201  224.383   89.290
  242.400   10.173    0.500    0.210  224.373   90.159
  242.650   10.079    0.503    0.210  224.855   92.778
  242.900   10.075    0.499    0.200  225.338   95.687
  243.150    9.982    0.496    0.225  225.822   95.681
  243.400    9.889    0.496    0.222  225.811   92.757
  243.650    9.886    0.497    0.213  226.293   91.877
  243.900    9.883    0.498    0.223  226.776   91.870
  244.150    9.968    0.490    0.226  226.767   91.281
  244.400   10.146    0.487    0.227  227.248   89.818
  244.650   10.234    0.490    0.218  227.238   88.936
  244.900   10.138    0.489    0.203  227.227   88.930
  245.150   10.045    0.478    0.218  227.712   90.381
  245.400    9.952    0.466    0.217  227.701   92.125
  245.650   10.038    0.456    0.208  228.185   92.119
  245.900   10.125    0.450    0.193  228.666   89.779
  246.150   10.121    0.455    0.187  229.148   88.898
  246.400   10.119    0.464    0.196  230.126   88.893
  246.650    9.758    0.471    0.210  230.115   89.761
  246.900    9.161    0.481    0.216  230.600   90.046
  247.150    8.678    0.490    0.210  229.599   90.330
  247.400    8.369    0.485    0.202  229.591   89.450
  247.650    8.217    0.477    0.206  229.086   87.987
  247.900    8.288    0.478    0.200  229.076   89.145
  248.150    8.666    0.488    0.193  229.066   90.597
  248.400    9.061    0.484    0.181  228.561   94.382
  248.650    9.732    0.491    0.179  228.550   97.290
  248.900   10.547    0.498    0.188  228.538   96.119
  249.150   11.743    0.498    0.180  228.529   89.406
  249.400   14.173    0.480    0.170  228.025   84.444
  249.650   17.262    0.391    0.152  227.518   75.398
  249.900   19.920    0.334    0.062  227.016   66.354
  250.150   21.784    0.331    0.040  227.004   64.307
  250.400   20.635    0.384    0.086  226.499   71.589
  250.650   16.043    0.407    0.124  226.489   74.498
  250.900   14.272    0.444    0.159  226.479   70.118
  251.150   13.043    0.469    0.273  226.469   65.155
  251.400   12.135    0.490    0.299  226.459   63.108
  251.650   11.189    0.473    0.287  225.951   65.726
  251.900   10.134    0.457    0.270  225.943   77.383
  252.150    8.697    0.466    0.242  225.929   82.625
  252.400    7.135    0.502    0.215  225.922   89.907
  252.650    7.734    0.511    0.216  225.909   91.066
  252.900    7.131    0.509    0.204  225.897   93.686
  253.150    6.695    0.509    0.176  225.889   98.052
  253.400    6.285    0.508    0.191  225.877   97.462
  253.650    5.954    0.508    0.205  225.867   96.290
  253.900    5.846    0.518    0.220  225.857   92.784
  254.150    6.167    0.530    0.220  225.847   90.445
  254.400    6.928    0.559    0.220  224.354   88.108
  254.650    8.362    0.547    0.259  223.356   80.521
  254.900    9.479    0.511    0.267  222.851   70.893
  255.150   10.939    0.456    0.259  222.841   68.554
  255.400   12.399    0.459    0.225  222.830   62.716
  255.650   13.559    0.467    0.238  223.313   60.960
  255.900   13.800    0.453    0.280  223.304   62.411
  256.150   13.918    0.449    0.293  223.292   64.737
  256.400   14.422    0.450    0.280  223.280   65.898
  256.650   14.812    0.450    0.265  223.765   69.099
  256.900   14.941    0.450    0.239  224.247   77.839
  257.150   13.777    0.449    0.209  224.732   82.790
  257.400   10.712    0.450    0.231  224.721   86.865
  257.650    9.876    0.457    0.223  225.204   91.525
  257.900    9.963    0.477    0.209  225.192   94.726
  258.150   10.894    0.493    0.207  225.181   91.803
  258.400   11.596    0.492    0.212  225.171   90.340
  258.650   12.234    0.477    0.204  225.653   90.332
  258.900   12.906    0.473    0.187  225.643   90.327
  259.150   13.255    0.452    0.177  226.621   90.029
  259.400   13.132    0.444    0.166  228.092   84.482
  259.650   12.894    0.439    0.151  229.068   84.185
  259.900   12.546    0.429    0.135  228.562   89.136
  260.150   12.430    0.436    0.191  228.554   92.628
  260.400   12.315    0.461    0.204  228.543   93.497
  260.650   12.201    0.477    0.196  230.012   94.072
  260.900   12.308    0.494    0.184  230.990   95.233
  261.150   12.413    0.481    0.212  231.470   97.851
  261.400   12.634    0.460    0.206  232.449   97.845
  261.650   12.975    0.450    0.197  232.440   98.422
