~VERSION INFORMATION
 VERS.                 2.0:   CWLS LOG ASCII STANDARD -VERSION 2.0
 WRAP.                  NO:   ONE LINE PER DEPTH STEP
~WELL INFORMATION BLOCK
#MNEM.UNIT           DATA                    DESCRIPTION OF MNEMONIC
#---------    -------------------            -------------------------------
# Generated from Intellog Unique Number	CX_WELLS/WELL/2574
WELL.         CHARD                          : Well_name    - WELL
LOC .         00/06-02-080-07W4/0            : Location     - LOCATION
UWI .         00/06-02-080-07W400            : Uwi          - UNIQUE WELL ID
ENTR.         T                              : Entered      - ENTERED BY
SRVC.         SCHLUMBERGER                   : Scn          - SERVICE COMPANY
STRT.M        140                            : top_depth    - START DEPTH
STOP.M        380                            : bot_depth    - STOP DEPTH
STEP.M        0.25                           : increment    - STEP LENGTH
 NULL. -999.2500:NULL Value
~CURVE INFORMATION BLOCK
#MNEM UNIT       ERCB CURVE CODE    CURVE DESCRIPTION
#-----------   ------------------   ----------------------------------
DEPT.M        00 001 00 00         : DEPTH        - DEPTH
GR  .API      00 310 00 00         : GR           - GAMMA RAY
NPHI.V/V      00 330 00 00         : PHIN         - NEUTRON POROSITY (SANDSTONE)
DPHI.V/V      00 890 00 00         : PHID         - DENSITY POROSITY (SANDSTONE)
ILD .OHMM     00 120 00 00         : RESD         - DEEP RESISTIVITY (DIL)
~PARAMETER INFORMATION
#MNEM.UNIT           DATA             DESCRIPTION OF MNEMONIC
#---------         -----------     ------------------------------
GL  .M        559.1                : gl           - GROUND LEVEL ELEVATION
EREF.M        562.7                : kb           - ELEVATION OF DEPTH REFERENCE
DATM.M        562.7                : datum        - DATUM ELEVATION
TDD .M        393.7                : tdd          - TOTAL DEPTH DRILLER
RUN .         ONE                  : Run          - RUN NUMBER
ENG .         BILL                 : Engineer     - RECORDING ENGINEER
WIT .         JIM                  : Witness      - WITNESSED BY
MUD .         GEL                  : Mud_type     - MUD TYPE
MATR.         SANDSTONE            : Logunit      - NEUTRON MATRIX
TMAX.C        20                   : BHT          - MAXIMUM RECORDED TEMPERATURE
BHTD.M        393                  : BHTDEP       - MAXIMUM RECORDED TEMPERATURE
MATR.         1                    : LOGUNIT      - NEUTRON MATRIX
RMT .C        20                   : MDTP         - TEMPERATURE OF MUD
NEUT.         1                    : NEUTRON      - NEUTRON TYPE
RESI.         5.65                 : RESIST       - RESISTIVITY TYPE
RMC .OHMM     6.4                  : RMC          - RESISTIVITY OF MUD CAKE
RMF .OHMM     5.2                  : RMF          - RESISTIVITY OF MUD FILTRATE
SUFT.C        3                    : SUFT         - SURFACE TEMPERATURE
~A  DEPTH       GR     PHIN     PHID     RESD
# ...
  227.000   56.386    0.448    0.363   28.498
  227.250   55.840    0.450    0.368   28.560
  227.500   55.281    0.447    0.373   28.585
  227.750   55.321    0.437    0.371   28.647
  228.000   55.374    0.427    0.370   28.722
  228.250   55.426    0.422    0.367   28.760
  228.500   55.506    0.422    0.369   28.797
  228.750   55.532    0.431    0.368   28.873
  229.000   56.210    0.438    0.367   28.354
  229.250   58.724    0.438    0.360   28.391
  229.500   60.586    0.439    0.353   27.906
  229.750   65.534    0.445    0.343   27.416
  230.000   74.779    0.474    0.319   25.909
  230.250   88.906    0.502    0.291   22.634
  230.500   93.854    0.511    0.264   10.628
  230.750   98.829    0.525    0.259    6.058
  231.000   93.973    0.538    0.270    4.194
  231.250   90.341    0.548    0.267    3.019
  231.500   87.334    0.558    0.273    2.693
  231.750   83.715    0.562    0.279    2.803
  232.000   79.485    0.561    0.290    3.035
  232.250   75.267    0.538    0.317    3.483
  232.500   72.859    0.526    0.322    4.323
  232.750   69.240    0.506    0.322    4.961
  233.000   66.247    0.481    0.314    5.922
  233.250   63.852    0.476    0.312    6.409
  233.500   62.654    0.461    0.304    7.075
  233.750   64.556    0.434    0.293    7.963
  234.000   77.486    0.422    0.279    9.506
  234.250   79.348    0.430    0.257   11.123
  234.500   86.132    0.458    0.249   11.595
  234.750   98.450    0.463    0.238   10.947
  235.000  102.161    0.479    0.248    9.951
  235.250  104.674    0.484    0.256    8.872
  235.500  105.352    0.490    0.245    7.909
  235.750  105.379    0.495    0.250    7.471
  236.000  105.431    0.502    0.255    6.928
  236.250  104.886    0.510    0.259    6.544
  236.500  104.326    0.516    0.269    6.187
  236.750  104.366    0.523    0.280    5.959
  237.000  103.208    0.539    0.287    5.631
  237.250  103.261    0.551    0.280    5.021
  237.500  102.702    0.550    0.251    4.476
  237.750  102.129    0.554    0.240    4.232
  238.000   98.537    0.538    0.245    4.157
  238.250   97.951    0.529    0.247    4.085
  238.500   99.228    0.534    0.250    4.090
  238.750  101.143    0.536    0.255    3.944
  239.000  101.781    0.539    0.258    3.873
  239.250  102.459    0.535    0.261    3.807
  239.500  101.900    0.530    0.268    3.812
  239.750  101.940    0.525    0.272    3.817
  240.000  101.381    0.514    0.275    3.979
  240.250  100.209    0.518    0.283    4.060
  240.500   97.828    0.523    0.289    4.317
  240.750   94.821    0.527    0.292    4.492
  241.000   93.637    0.520    0.292    4.586
  241.250   93.078    0.524    0.286    4.778
  241.500   94.979    0.533    0.275    4.881
  241.750   95.045    0.557    0.268    4.703
  242.000   95.072    0.575    0.266    4.359
  242.250   95.124    0.568    0.266    4.281
  242.500   95.177    0.556    0.272    4.045
  242.750   94.032    0.553    0.282    3.824
  243.000   93.447    0.561    0.288    3.756
  243.250   92.289    0.563    0.294    3.619
  243.500   91.118    0.577    0.309    3.698
  243.750   88.736    0.575    0.317    4.004
  244.000   87.565    0.549    0.302    4.418
  244.250   86.980    0.510    0.300    5.172
  244.500   87.032    0.495    0.303    6.055
  244.750   87.085    0.486    0.304    6.687
  245.000   85.941    0.494    0.306    6.958
  245.250   85.381    0.502    0.310    7.253
  245.500   84.809    0.507    0.312    7.259
  245.750   83.625    0.478    0.313    7.138
  246.000   83.066    0.468    0.304    7.148
  246.250   81.908    0.453    0.290    7.160
  246.500   80.737    0.482    0.292    7.460
  246.750   80.177    0.489    0.294    7.613
  247.000   78.993    0.498    0.295    8.087
  247.250   78.447    0.492    0.296    8.592
  247.500   77.875    0.481    0.298    9.115
  247.750   76.118    0.469    0.298   10.269
  248.000   74.947    0.458    0.298   11.118
  248.250   73.763    0.462    0.298   11.806
  248.500   72.579    0.467    0.299   12.300
  248.750   71.408    0.471    0.303   12.316
  249.000   70.849    0.477    0.305   12.333
  249.250   70.302    0.481    0.306   12.127
  249.500   70.329    0.477    0.306   12.137
  249.750   70.382    0.473    0.301   12.159
  250.000   71.046    0.473    0.297   12.419
  250.250   72.336    0.463    0.292   12.684
  250.500   73.001    0.453    0.291   13.210
  250.750   73.054    0.445    0.288   13.493
  251.000   73.732    0.445    0.286   13.522
  251.250   74.396    0.446    0.282   13.540
  251.500   74.436    0.446    0.277   13.563
  251.750   76.351    0.444    0.274   13.332
  252.000   76.989    0.438    0.272   12.851
  252.250   77.654    0.435    0.270   12.372
  252.500   77.121    0.432    0.270   12.155
  252.750   75.937    0.432    0.269   11.492
  253.000   75.391    0.433    0.269   11.291
  253.250   75.430    0.435    0.269   11.088
  253.500   76.082    0.437    0.270   10.693
  253.750   77.372    0.440    0.273   10.497
  254.000   78.023    0.450    0.283   10.123
  254.250   81.136    0.460    0.294   10.136
  254.500   82.439    0.487    0.297    9.954
  254.750   81.254    0.517    0.300    9.592
  255.000   80.070    0.533    0.308    8.719
  255.250   78.300    0.540    0.335    8.239
  255.500   78.366    0.545    0.326    7.939
  255.750   78.393    0.545    0.311    7.653
  256.000   82.742    0.541    0.311    7.233
  256.250   85.841    0.536    0.313    6.703
  256.500   91.402    0.531    0.316    6.454
  256.750   95.764    0.559    0.312    5.984
  257.000   96.416    0.573    0.289    5.546
  257.250   96.482    0.584    0.293    5.042
  257.500   96.521    0.573    0.302    4.408
  257.750   95.350    0.557    0.309    4.164
  258.000   92.982    0.547    0.315    3.859
  258.250   91.784    0.547    0.335    3.942
  258.500   90.001    0.559    0.339    4.186
  258.750   88.231    0.570    0.342    4.534
  259.000   87.646    0.560    0.347    5.005
  259.250   86.501    0.530    0.342    5.417
  259.500   86.541    0.506    0.333    6.466
  259.750   85.969    0.485    0.321    7.138
  260.000   82.363    0.479    0.308    8.356
  260.250   79.343    0.481    0.284    9.402
  260.500   74.500    0.485    0.182   10.179
  260.750   70.895    0.482    0.066   10.397
  261.000   73.395    0.422    0.095   10.420
  261.250   77.718    0.365    0.152   10.638
  261.500   83.890    0.422    0.246   10.661
  261.750   86.391    0.497    0.276   10.277
  262.000   88.931    0.503    0.270    9.899
  262.250   88.957    0.501    0.250    9.721
  262.500   90.260    0.499    0.236    9.190
  262.750   90.300    0.490    0.246    8.852
  263.000   91.576    0.476    0.252    8.697
  263.250   91.629    0.489    0.257    8.222
  263.500   92.294    0.511    0.257    8.078
  263.750   92.959    0.510    0.257    7.784
  264.000   93.637    0.504    0.258    7.359
  264.250   94.275    0.506    0.270    7.227
  264.500   94.966    0.512    0.294    6.701
  264.750   94.992    0.524    0.302    6.327
  265.000   95.670    0.535    0.311    5.643
  265.250   95.736    0.551    0.327    5.331
  265.500   95.164    0.570    0.336    4.754
  265.750   95.204    0.576    0.345    4.320
  266.000   94.059    0.580    0.350    3.360
  266.250   94.098    0.587    0.349    2.938
  266.500   94.138    0.587    0.323    2.776
  266.750   94.191    0.585    0.309    2.837
  267.000   94.244    0.580    0.300    3.013
  267.250   94.310    0.574    0.296    3.136
  267.500   93.764    0.534    0.299    3.462
  267.750   93.191    0.514    0.299    3.977
  268.000   91.421    0.483    0.296    4.304
  268.250   90.224    0.474    0.295    4.939
  268.500   86.020    0.466    0.306    6.127
  268.750   84.210    0.435    0.327    7.313
  269.000   81.230    0.420    0.340    7.762
  269.250   79.447    0.395    0.342    8.920
  269.500   80.085    0.394    0.339    9.654
  269.750   82.586    0.400    0.336   10.866
  270.000   85.724    0.406    0.330   11.099
  270.250   86.975    0.428    0.325   10.291
