~VERSION INFORMATION
 VERS.                 2.0:   CWLS LOG ASCII STANDARD -VERSION 2.0
 WRAP.                  NO:   ONE LINE PER DEPTH STEP
~WELL INFORMATION BLOCK
#MNEM.UNIT           DATA                    DESCRIPTION OF MNEMONIC
#---------    -------------------            -------------------------------
# Generated from Intellog Unique Number	CW_82_90/WELL/532
WELL.         06-26-082-20W4                 : Well_name    - WELL
LOC .         00/06-26-082-20W4/0            : Location     - LOCATION
UWI .         00/06-26-082-20W4/0            : Uwi          - UNIQUE WELL ID
ENTR.         JAYE                           : Entered      - ENTERED BY
SRVC.         SCHLUMBERGER                   : Scn          - SERVICE COMPANY
DATE.         22 JAN 75                      : Date         - LOG DATE
STRT.M        179.832                        : top_depth    - START DEPTH
STOP.M        365.832                        : bot_depth    - STOP DEPTH
STEP.M        0.25                           : increment    - STEP LENGTH
 NULL. -999.2500:NULL Value
~CURVE INFORMATION BLOCK
#MNEM UNIT       ERCB CURVE CODE    CURVE DESCRIPTION
#-----------   ------------------   ----------------------------------
DEPT.M        00 001 00 00         : DEPTH        - DEPTH
CALI.MM       00 280 01 00         : CAL          - CALIPER
GR  .API      00 310 00 00         : GR           - GAMMA RAY
NPHI.V/V      00 330 00 00         : PHIN         - NEUTRON POROSITY (SANDSTONE)
DPHI.V/V      00 890 00 00         : PHID         - DENSITY POROSITY (SANDSTONE)
ILD .OHMM     00 120 00 00         : RESD         - DEEP RESISTIVITY (DIL)
~PARAMETER INFORMATION
#MNEM.UNIT           DATA             DESCRIPTION OF MNEMONIC
#---------         -----------     ------------------------------
GL  .M        594.36               : gl           - GROUND LEVEL ELEVATION
EREF.M        596.798              : kb           - ELEVATION OF DEPTH REFERENCE
DATM.M        594.36               : datum        - DATUM ELEVATION
TDD .M        369.418              : tdd          - TOTAL DEPTH DRILLER
RUN .         ONE                  : Run          - RUN NUMBER
ENG .         CURRIE               : Engineer     - RECORDING ENGINEER
WIT .         CUMMINS              : Witness      - WITNESSED BY
BASE.         EDMONTON             : Branch       - HOME BASE OF LOGGING UNIT
MUD .         GEL CHEM             : Mud_type     - MUD TYPE
MATR.         SANDSTONE            : Logunit      - NEUTRON MATRIX
TMAX.C        20                   : BHT          - MAXIMUM RECORDED TEMPERATURE
BHTD.M        369.418              : BHTDEP       - MAXIMUM RECORDED TEMPERATURE
RMT .C        21.1111              : MDTP         - TEMPERATURE OF MUD
MUDD.KG/M     9100                 : MWT          - MUD DENSITY
NEUT.         1                    : NEUTRON      - NEUTRON TYPE
RESI.         0                    : RESIST       - RESISTIVITY TYPE
RM  .OHMM     4.62                 : RM           - RESISTIVITY OF MUD
RMC .OHMM     0.25                 : RMC          - RESISTIVITY OF MUD CAKE
RMF .OHMM     5.52                 : RMF          - RESISTIVITY OF MUD FILTRATE
SUFT.C        4                    : SUFT         - SURFACE TEMPERATURE
~A  DEPTH      CAL       GR     PHIN     PHID     RESD
# ...
  216.332  167.266   64.122    0.490    0.369   29.480
  216.582  163.348   62.745    0.488    0.366   41.183
  216.832  161.512   62.216    0.479    0.368   42.640
  217.082  160.399   59.688    0.486    0.376   40.760
  217.332  159.707   59.462    0.494    0.385   38.809
  217.582  159.522   61.117    0.498    0.385   37.767
  217.832  159.450   63.015    0.502    0.380   36.318
  218.082  159.999   62.972    0.511    0.373   35.199
  218.332  161.175   65.051    0.519    0.351   33.579
  218.582  162.141   64.217    0.516    0.339   31.527
  218.832  163.416   63.326    0.499    0.350   29.953
  219.082  164.802   63.100    0.489    0.355   28.921
  219.332  165.866   60.936    0.494    0.358   29.063
  219.582  169.842   59.254    0.512    0.366   29.787
  219.832  172.786   59.333    0.516    0.364   31.400
  220.082  170.317   59.715    0.504    0.361   33.035
  220.332  165.570   59.857    0.494    0.359   35.173
  220.582  163.209   59.930    0.493    0.363   36.197
  220.832  161.268   55.221    0.491    0.363   37.258
  221.082  160.053   55.417    0.498    0.371   38.574
  221.332  159.462   53.979    0.494    0.377   40.495
  221.582  159.176   53.087    0.493    0.383   43.030
  221.832  159.211   52.803    0.499    0.383   47.120
  222.082  159.655   51.608    0.503    0.384   49.564
  222.332  159.581   51.989    0.515    0.375   52.044
  222.582  160.031   55.040    0.529    0.379   52.501
  222.832  160.366   55.964    0.540    0.385   51.201
  223.082  160.818   56.162    0.518    0.389   50.425
  223.332  160.947   55.998    0.521    0.387   50.064
  223.582  161.189   56.257    0.539    0.392   50.505
  223.832  161.215   55.123    0.556    0.382   50.145
  224.082  161.560   54.413    0.551    0.373   49.206
  224.332  161.905   53.887    0.528    0.369   48.353
  224.582  162.246   53.961    0.537    0.385   45.488
  224.832  162.383   54.467    0.534    0.384   42.534
  225.082  162.311   55.572    0.545    0.375   38.755
  225.332  162.550   57.291    0.555    0.375   32.863
  225.582  162.781   57.243    0.564    0.380   28.428
  225.832  162.811   56.413    0.545    0.377   24.247
  226.082  162.947   57.278    0.525    0.359   23.041
  226.332  162.766   57.782    0.536    0.342   25.226
  226.582  162.487   58.162    0.543    0.357   29.919
  226.832  162.518   57.633    0.541    0.371   33.753
  227.082  159.948   56.438    0.520    0.381   37.028
  227.332  158.211   52.878    0.508    0.390   37.883
  227.582  158.450   52.834    0.508    0.389   35.707
  227.832  159.105   56.247    0.512    0.385   32.601
  228.082  160.698   57.842    0.515    0.379   29.586
  228.332  161.139   56.827    0.515    0.383   27.172
  228.582  161.796   55.936    0.495    0.389   24.806
  228.832  162.243   56.620    0.493    0.384   22.782
  229.082  162.268   58.517    0.503    0.376   20.719
  229.332  162.505   60.352    0.494    0.377   19.645
  229.582  161.917   59.521    0.500    0.376   18.705
  229.832  160.905   59.721    0.508    0.372   18.275
  230.082  159.899   60.041    0.507    0.373   17.753
  230.332  159.834   60.058    0.499    0.375   17.484
  230.582  160.476   60.863    0.497    0.371   17.290
  230.832  162.064   61.669    0.494    0.361   17.337
  231.082  162.407   60.959    0.504    0.328   17.527
  231.332  162.542   60.797    0.503    0.323   17.609
  231.582  162.368   61.847    0.493    0.336   17.909
  231.832  162.506   62.163    0.500    0.353   18.284
  232.082  162.737   62.665    0.506    0.355   18.854
  232.332  162.876   62.501    0.502    0.365   19.287
  232.582  163.009   63.252    0.506    0.370   19.613
  232.832  163.243   63.807    0.519    0.375   19.827
  233.082  163.173   66.435    0.520    0.369   19.961
  233.332  163.204   68.936    0.517    0.368   20.061
  233.582  163.026   69.014    0.513    0.370   20.033
  233.832  163.062   66.668    0.510    0.361   19.891
  234.082  163.193   65.956    0.508    0.357   19.831
  234.332  163.430   66.157    0.498    0.359   19.686
  234.582  163.457   65.933    0.491    0.363   19.391
  234.832  163.588   62.251    0.492    0.342   19.366
  235.082  163.412   60.508    0.491    0.326   19.303
  235.332  162.611   60.951    0.489    0.295   18.824
  235.582  161.395   60.967    0.489    0.330   18.651
  235.832  160.490   58.862    0.492    0.320   17.268
  236.082  160.519   59.182    0.494    0.311   15.828
  236.332  161.176   60.595    0.492    0.289   14.392
  236.582  161.938   62.977    0.488    0.286   13.352
  236.832  162.791   65.236    0.492    0.297   13.743
  237.082  162.932   66.954    0.509    0.285   14.515
  237.332  162.861   67.818    0.516    0.313   16.150
  237.582  162.781   68.744    0.512    0.318   17.262
  237.832  164.059   68.399    0.503    0.330   17.872
  238.082  165.237   66.718    0.498    0.343   17.049
  238.332  165.467   64.067    0.483    0.350   15.195
  238.582  165.294   61.841    0.491    0.359   12.681
  238.832  163.452   61.313    0.492    0.347   11.348
  239.082  162.135   61.150    0.483    0.332   11.705
  239.332  163.096   58.257    0.501    0.313   12.994
  239.582  164.373   55.002    0.492    0.333   14.659
  239.832  164.510   55.198    0.504    0.343   15.796
  240.082  163.814   56.003    0.516    0.348   16.621
  240.332  163.013   59.117    0.513    0.351   16.898
  240.582  162.520   59.857    0.499    0.354   16.915
  240.832  162.136   59.026    0.498    0.353   16.724
  241.082  161.854   56.802    0.493    0.336   16.575
  241.332  161.680   55.543    0.500    0.339   16.585
  241.582  161.610   56.835    0.507    0.348   16.564
  241.832  161.634   58.553    0.491    0.344   16.547
  242.082  161.564   58.386    0.481    0.326   16.491
  242.332  161.806   58.706    0.493    0.314   16.471
  242.582  162.252   60.179    0.481    0.340   16.386
  242.832  162.585   60.498    0.467    0.345   16.108
  243.082  163.246   59.789    0.457    0.328   15.864
  243.332  163.482   58.349    0.467    0.314   15.847
  243.582  163.715   59.277    0.474    0.333   16.114
  243.832  163.952   60.445    0.468    0.324   17.087
  244.082  164.189   59.372    0.454    0.296   19.239
  244.332  164.534   53.508    0.420    0.250   21.880
  244.582  165.290   49.221    0.183    0.106   24.637
  244.832  168.026   48.696    0.176    0.033   25.611
  245.082  167.537   47.679    0.187    0.034   24.430
  245.332  166.422   47.697    0.219    0.061   20.798
  245.582  165.306   52.627    0.263    0.122   17.920
  245.832  164.402   55.068    0.420    0.272   17.441
  246.082  163.814   55.632    0.452    0.336   17.843
  246.332  163.945   53.526    0.426    0.252   18.806
  246.582  163.975   54.150    0.378    0.208   22.304
  246.832  164.422   52.892    0.270    0.161   28.028
  247.082  166.320   47.272    0.239    0.139   36.148
  247.332  169.364   43.106    0.208    0.102   42.786
  247.582  172.301   43.305    0.184    0.061   46.378
  247.832  171.503   45.021    0.160    0.045   48.695
  248.082  167.480   45.100    0.132    0.030   48.544
  248.332  165.328   45.599    0.129    0.028   47.719
  248.582  164.842   45.435    0.130    0.018   46.909
  248.832  164.870   44.726    0.141    0.019   45.737
  249.082  164.705   46.443    0.152    0.025   42.178
  249.332  164.835   47.004    0.170    0.034   38.657
  249.582  165.072   50.174    0.201    0.066   33.374
  249.832  165.825   50.189    0.232    0.090   28.869
  250.082  166.475   48.875    0.258    0.112   25.222
  250.332  166.615   49.680    0.294    0.141   21.388
  250.582  165.294   50.547    0.361    0.176   18.464
  250.832  164.284   50.866    0.396    0.217   16.789
  251.082  163.172   50.277    0.486    0.272   15.576
  251.332  162.268   52.477    0.499    0.336   14.860
  251.582  161.885   54.313    0.507    0.364   14.290
  251.832  162.226   54.148    0.509    0.368   14.044
  252.082  162.878   52.831    0.504    0.364   14.059
  252.332  163.637   53.819    0.500    0.346   14.180
  252.582  163.976   54.686    0.500    0.344   14.450
