~VERSION INFORMATION
 VERS.                 2.0:   CWLS LOG ASCII STANDARD -VERSION 2.0
 WRAP.                  NO:   ONE LINE PER DEPTH STEP
~WELL INFORMATION BLOCK
#MNEM.UNIT           DATA                    DESCRIPTION OF MNEMONIC
#---------    -------------------            -------------------------------
# Generated from Intellog Unique Number	CC_80_83/WELL/1184
NULL.         -999.25                        : NULL_VALUE
WELL.         CWWE KEANE                     : Well_name    - WELL
LOC .         07-15-080-14W4                 : Location     - LOCATION          
UWI .         00/07-15-080-14W4/0            : Uwi          - UNIQUE WELL ID    
ENTR.         DW                             : Entered      - ENTERED BY        
SRVC.         SCHLUMBERGER                   : Scn          - SERVICE COMPANY   
DATE.         23 DEC 84                      : Date         - LOG DATE
STRT.M        255                            : top_depth    - START DEPTH       
STOP.M        494.99                         : bot_depth    - STOP DEPTH        
STEP.M        0.3                            : increment    - STEP LENGTH       
~CURVE INFORMATION BLOCK
#MNEM UNIT       ERCB CURVE CODE    CURVE DESCRIPTION
#-----------   ------------------   ----------------------------------
DEPT.M        00 001 00 00         : DEPTH        - DEPTH                       
DPHI.V/V      00 890 00 00         : PHID         - DENSITY POROSITY (LIMESTONE)
NPHI.V/V      00 330 00 00         : PHIN         - NEUTRON POROSITY (LIMESTONE)
GR  .API      00 310 00 00         : GR           - GAMMA RAY                   
ILD .OHMM     00 120 00 00         : RESD         - DEEP RESISTIVITY (DIL)      
~PARAMETER INFORMATION       
#MNEM.UNIT           DATA             DESCRIPTION OF MNEMONIC
#---------         -----------     ------------------------------
GL  .M        674.75               : gl           - GROUND LEVEL ELEVATION      
EREF.M        678.8                : kb           - ELEVATION OF DEPTH REFERENCE
DATM.M        678.8                : datum        - DATUM ELEVATION             
TDD .M        504                  : tdd          - TOTAL DEPTH DRILLER         
RUN .         ONE                  : Run          - RUN NUMBER                  
ENG .         BILL                 : Engineer     - RECORDING ENGINEER          
WIT .         JIM                  : Witness      - WITNESSED BY                
MUD .         GEL                  : Mud_type     - MUD TYPE                    
MATR.         LIMESTONE            : Logunit      - NEUTRON MATRIX              
TMAX.C        20                   : BHT          - MAXIMUM RECORDED TEMPERATURE
BHTD.M        503                  : BHTDEP       - MAXIMUM RECORDED TEMPERATURE
MATR.         1                    : LOGUNIT      - NEUTRON MATRIX              
RMT .C        25                   : MDTP         - TEMPERATURE OF MUD          
NEUT.         1                    : NEUTRON      - NEUTRON TYPE                
RESI.         0                    : RESIST       - RESISTIVITY TYPE            
RMC .OHMM     0.25                 : RMC          - RESISTIVITY OF MUD CAKE     
RMF .OHMM     0.25                 : RMF          - RESISTIVITY OF MUD FILTRATE 
SUFT.C        15                   : SUFT         - SURFACE TEMPERATURE         
~A  DEPTH     PHID     PHIN       GR     RESD
# ...
  463.792    0.399    0.110   32.045 1499.390
  464.092    0.374    0.127   37.618 1589.100
  464.392    0.393    0.109   40.713 1445.230
  464.692    0.410    0.096   35.752  713.038
  464.992    0.384    0.181   33.269  468.642
  465.292    0.376    0.208   32.025  387.384
  465.591    0.365    0.193   28.921  359.187
  465.891    0.366    0.136   28.299  345.892
  466.191    0.384    0.142   27.676  352.810
  466.491    0.391    0.155   28.290  381.177
  466.791    0.386    0.151   28.288  403.901
  467.091    0.368    0.142   29.522  419.945
  467.391    0.371    0.141   30.759  420.229
  467.691    0.386    0.137   31.375  436.910
  467.991    0.396    0.101   26.413  462.996
  468.291    0.406    0.100   25.169  472.269
  468.591    0.409    0.085   26.404  429.537
  468.891    0.416    0.076   24.542  383.259
  469.191    0.434    0.078   23.298  355.326
  469.491    0.413    0.142   27.013  342.229
  469.791    0.403    0.128   28.249  369.659
  470.091    0.413    0.069   24.525  447.830
  470.391    0.434    0.065   23.283  474.514
  470.691    0.440    0.098   22.039  431.628
  470.991    0.437    0.121   23.895  330.504
  471.291    0.410    0.182   24.510  258.028
  471.591    0.321    0.309   23.886  248.471
  471.891    0.309    0.348   22.643  239.333
  472.191    0.317    0.353   20.779  221.867
  472.491    0.321    0.342   20.157  226.347
  472.791    0.304    0.339   22.631  222.187
  473.091    0.317    0.350   23.867  205.973
  473.391    0.318    0.343   24.483  183.811
  473.691    0.303    0.353   23.239  180.459
  473.991    0.323    0.369   21.996  164.116
  474.291    0.331    0.359   21.373  105.809
  474.591    0.307    0.338   21.369   49.301
  474.891    0.268    0.318   26.323   33.666
  475.191    0.238    0.316   69.699   23.434
  475.491    0.231    0.334   72.793   21.312
  475.791    0.224    0.333   68.451   18.656
  476.091    0.200    0.321   65.349   14.844
  476.391    0.184    0.311   69.682   11.588
  476.691    0.182    0.307   69.059   10.741
  476.991    0.187    0.311   67.816   10.150
  477.291    0.195    0.313   67.812    9.777
  477.591    0.209    0.311   68.428    9.598
  477.891    0.220    0.311   63.467    9.424
  478.191    0.217    0.311   57.266    9.251
  478.491    0.209    0.314   53.543    9.086
  478.791    0.222    0.333   59.736    9.089
  479.091    0.221    0.327   56.014    9.270
  479.391    0.205    0.317   54.151    9.638
  479.691    0.189    0.305   57.865    9.830
  479.991    0.185    0.297   61.580    9.839
  480.291    0.199    0.306   57.858    9.844
  480.591    0.207    0.312   53.516    9.664
  480.891    0.195    0.313   56.611    9.489
  481.191    0.199    0.310   62.804    9.496
  481.491    0.191    0.305   58.462    9.500
  481.791    0.183    0.303   54.739    9.329
  482.091    0.189    0.312   51.016    9.157
  482.391    0.215    0.317   49.154    8.820
  482.691    0.206    0.311   54.728    8.827
  482.991    0.209    0.306   60.921    9.178
  483.291    0.199    0.308   63.396    9.010
  483.591    0.194    0.312   58.434    8.679
  483.891    0.219    0.316   52.233    8.200
  484.191    0.216    0.303   66.483    7.457
  484.491    0.209    0.310   66.479    6.782
  484.791    0.219    0.333   47.884    6.169
  485.091    0.252    0.351   44.161    5.830
  485.391    0.262    0.349   45.397    5.833
  485.691    0.277    0.342   41.055    6.065
  485.991    0.269    0.342   44.150    6.305
  486.291    0.231    0.320   52.822    6.192
  486.591    0.254    0.317   47.240    6.078
  486.891    0.261    0.331   36.702    5.855
  487.191    0.260    0.331   37.317    5.857
  487.491    0.245    0.340   52.807    5.752
  487.791    0.249    0.352   51.563    5.754
  488.091    0.280    0.338   37.925    5.983
  488.391    0.262    0.326   37.922    6.715
  488.691    0.235    0.316   45.354    7.829
  488.991    0.219    0.302   59.604    8.620
  489.291    0.179    0.292   71.374    7.841
  489.591    0.173    0.287   67.651    7.132
  489.891    0.189    0.319   40.381    7.000
  490.190    0.289    0.337   28.602    6.872
  490.490    0.331    0.367   23.641    7.566
  490.790    0.366    0.493   20.538    9.524
  491.090    0.322    0.544   18.055   12.454
  491.390    0.274    0.584   16.193   15.673
  491.690    0.229    0.554   16.188   17.256
  491.990    0.209    0.453   16.184   15.696
  492.290    0.202    0.418   16.800   15.409
  492.590    0.212    0.495   16.177   16.646
  492.890    0.230    0.509   14.313   19.785
  493.190    0.194    0.470   13.070   23.970
  493.490    0.170    0.437   11.827   26.388
  493.790    0.169    0.427   10.583   30.190
  494.090    0.178    0.407    9.960   34.529
  494.390    0.208    0.400   11.196   43.457
  494.690    0.238    0.436   14.910   54.694
  494.990    0.187    0.393   18.004   70.161
