~VERSION INFORMATION
 VERS.                 2.0:   CWLS LOG ASCII STANDARD -VERSION 2.0
 WRAP.                  NO:   ONE LINE PER DEPTH STEP
~WELL INFORMATION BLOCK
#MNEM.UNIT           DATA                    DESCRIPTION OF MNEMONIC
#---------    -------------------            -------------------------------
# Generated from Intellog Unique Number	CS_69_70/WELL/701
NULL.         -999.25                        : NULL_VALUE
WELL.         HUSKY OIL OPERATION            : Well_name    - WELL              
LOC .         00/05-19-070-05W4/0            : Location     - LOCATION          
UWI .         00/05-19-070-05W4/0            : Uwi          - UNIQUE WELL ID    
ENTR.         SP                             : Entered      - ENTERED BY        
SRVC.         SCHLUMBERGER                   : Scn          - SERVICE COMPANY   
STRT.M        305                            : top_depth    - START DEPTH       
STOP.M        550                            : bot_depth    - STOP DEPTH        
STEP.M        0.25                           : increment    - STEP LENGTH       
~CURVE INFORMATION BLOCK
#MNEM UNIT       ERCB CURVE CODE    CURVE DESCRIPTION
#-----------   ------------------   ----------------------------------
DEPT.M        00 001 00 00         : DEPTH        - DEPTH                       
ILD .OHMM     00 120 00 00         : RESD         - DEEP RESISTIVITY (DIL)      
DPHI.V/V      00 890 00 00         : PHID         - DENSITY POROSITY (LIMESTONE)
NPHI.V/V      00 330 00 00         : PHIN         - NEUTRON POROSITY (LIMESTONE)
GR  .API      00 310 00 00         : GR           - GAMMA RAY                   
~PARAMETER INFORMATION       
#MNEM.UNIT           DATA             DESCRIPTION OF MNEMONIC
#---------         -----------     ------------------------------
GL  .M        667.3                : gl           - GROUND LEVEL ELEVATION      
EREF.M        671                  : kb           - ELEVATION OF DEPTH REFERENCE
DATM.M        667                  : datum        - DATUM ELEVATION             
TDD .M        555                  : tdd          - TOTAL DEPTH DRILLER         
RUN .         ONE                  : Run          - RUN NUMBER                  
ENG .         BILL                 : Engineer     - RECORDING ENGINEER          
WIT .         JIM                  : Witness      - WITNESSED BY                
MUD .         GEL                  : Mud_type     - MUD TYPE                    
MATR.         LIMESTONE            : Logunit      - NEUTRON MATRIX              
TMAX.C        26                   : BHT          - MAXIMUM RECORDED TEMPERATURE
BHTD.M        555                  : BHTDEP       - MAXIMUM RECORDED TEMPERATURE
MATR.         1                    : LOGUNIT      - NEUTRON MATRIX              
RMT .C        25                   : MDTP         - TEMPERATURE OF MUD          
NEUT.         1                    : NEUTRON      - NEUTRON TYPE                
RESI.         0                    : RESIST       - RESISTIVITY TYPE            
RMC .OHMM     0.25                 : RMC          - RESISTIVITY OF MUD CAKE     
RMF .OHMM     0.25                 : RMF          - RESISTIVITY OF MUD FILTRATE 
SUFT.C        15                   : SUFT         - SURFACE TEMPERATURE         
~A  DEPTH     RESD     PHID     PHIN       GR
  305.000    2.953    0.243    0.540   99.800
  305.250    3.010    0.250    0.538  105.861
  305.500    3.012    0.253    0.535  105.875
  305.750    3.013    0.249    0.530  101.049
  306.000    3.072    0.243    0.522   98.038
  306.250    3.073    0.235    0.536   99.862
  306.500    3.133    0.229    0.541  104.716
  306.750    3.193    0.240    0.520  102.915
  307.000    3.256    0.243    0.503   99.900
  307.250    3.257    0.231    0.517   99.312
  307.500    3.320    0.223    0.533  100.535
  307.750    3.448    0.218    0.538  101.149
  308.000    3.648    0.229    0.540  101.766
  308.250    3.860    0.227    0.548   95.122
  308.500    3.935    0.217    0.499   93.927
  308.750    3.937    0.213    0.487   96.360
  309.000    3.939    0.213    0.482   95.766
  309.250    3.797    0.218    0.495   92.753
  309.500    3.525    0.221    0.506   90.347
  309.750    3.273    0.233    0.493   94.598
  310.000    3.096    0.239    0.495   97.025
  310.250    2.984    0.245    0.540  100.060
  310.500    3.100    0.250    0.556   99.468
  310.750    3.280    0.253    0.550  101.900
  311.000    3.536    0.258    0.536  102.522
  311.250    3.672    0.248    0.521  100.716
  311.500    3.886    0.237    0.506   97.706
  311.750    3.961    0.235    0.490   98.928
  312.000    4.038    0.246    0.479  101.361
  312.250    4.040    0.231    0.455  101.974
  312.500    3.893    0.211    0.445   99.569
  312.750    3.683    0.184    0.506   97.162
  313.000    3.484    0.229    0.524   95.966
  313.250    3.619    0.253    0.534   95.978
  313.500    4.283    0.277    0.522   91.149
  313.750    5.262    0.507    0.517   77.858
  314.000    6.837    0.517    0.542   65.771
  314.250    9.051    0.487    0.601   63.969
  314.500   11.544    0.393    0.541   62.772
  314.750   14.183    0.349    0.490   67.627
  315.000   15.872    0.328    0.478   68.846
  315.250   16.483    0.315    0.478   60.994
  315.500   15.594    0.321    0.483   51.934
  315.750   13.690    0.355    0.487   47.711
  316.000   11.580    0.369    0.489   55.589
  316.250   10.552    0.351    0.487   58.624
  316.500    9.264    0.322    0.487   58.642
  316.750    8.286    0.311    0.489   58.650
  317.000    7.552    0.306    0.485   58.665
  317.250    7.417    0.307    0.482   59.885
  317.500    7.420    0.311    0.480   63.525
  317.750    7.563    0.313    0.479   68.983
  318.000    7.709    0.304    0.473   75.045
  318.250    7.859    0.284    0.450   78.682
  318.500    8.162    0.243    0.433   87.165
  318.750    8.320    0.215    0.419   89.594
  319.000    8.170    0.142    0.406   85.374
  319.250    7.875    0.098    0.441   79.338
  319.500    7.733    0.158    0.457   77.534
  319.750    7.737    0.210    0.469   78.154
  320.000    7.741    0.279    0.472   78.770
  320.250    7.744    0.307    0.474   81.203
  320.500    7.894    0.301    0.475   84.843
  320.750    7.898    0.289    0.475   88.486
  321.000    7.613    0.296    0.475   90.310
  321.250    7.337    0.301    0.476  101.818
  321.500    7.072    0.304    0.476  109.092
  321.750    6.944    0.308    0.466  110.914
  322.000    7.212    0.284    0.463  110.321
  322.250    7.352    0.265    0.460  108.518
  322.500    7.780    0.250    0.465   97.649
  322.750    7.930    0.239    0.450   94.632
  323.000    8.084    0.227    0.443   89.202
  323.250    8.240    0.222    0.447   92.237
  323.500    8.245    0.224    0.460   93.461
  323.750    8.096    0.219    0.466   94.076
  324.000    7.803    0.229    0.473   95.300
  324.250    7.663    0.263    0.479   95.915
  324.500    7.525    0.281    0.482   90.484
  324.750    7.528    0.296    0.482   97.151
  325.000    7.257    0.313    0.474  106.843
  325.250    7.259    0.288    0.462  106.855
  325.500    6.997    0.265    0.448  102.634
  325.750    6.497    0.125    0.437   97.804
  326.000    5.812    0.093    0.412  108.704
  326.250    5.296    0.110    0.431  117.184
  326.500    4.917    0.163    0.452  117.197
  326.750    4.566    0.197    0.467  117.816
  327.000    4.319    0.193    0.459  121.457
  327.250    4.011    0.187    0.474  119.050
  327.500    3.655    0.213    0.491  116.038
  327.750    3.331    0.220    0.498  118.468
  328.000    3.151    0.202    0.513  119.691
  328.250    3.398    0.193    0.526  120.309
  328.500    3.528    0.224    0.542  118.508
  328.750    4.176    0.239    0.548  114.892
  329.000    5.035    0.241    0.500  112.482
  329.250    6.186    0.227    0.450  108.866
  329.500    7.743    0.222    0.423   97.387
  329.750    9.693    0.225    0.402   79.859
  330.000   10.847    0.272    0.298   67.772
  330.250   10.852    0.353    0.275   55.689
  330.500    9.529    0.389    0.280   50.863
  330.750    9.013    0.378    0.331   52.085
  331.000    8.527    0.365    0.396   53.915
  331.250    8.067    0.354    0.429   54.528
  331.500    8.223    0.348    0.414   55.755
  331.750    8.540    0.343    0.412   55.762
  332.000    8.705    0.339    0.408   56.381
  332.250    8.874    0.331    0.404   56.998
  332.500    9.047    0.328    0.386   58.827
  332.750    8.883    0.318    0.377   60.653
  333.000    8.722    0.301    0.364   64.293
  333.250    8.892    0.289    0.361   69.752
  333.500    9.236    0.281    0.361   69.157
  333.750    9.413    0.286    0.378   60.706
  334.000    9.596    0.298    0.387   61.924
  334.250    9.422    0.255    0.385   63.153
  334.500    9.082    0.185    0.381   63.161
  334.750    8.592    0.150    0.384   64.380
  335.000    8.437    0.197    0.390   64.392
  335.250    8.132    0.252    0.397   63.799
  335.500    7.985    0.309    0.403   62.607
  335.750    7.989    0.310    0.406   62.614
  336.000    7.845    0.331    0.410   62.022
  336.250    7.850    0.348    0.414   62.037
  336.500    7.854    0.359    0.423   61.444
  336.750    7.857    0.354    0.420   62.663
  337.000    8.010    0.343    0.411   67.517
  337.250    8.013    0.328    0.410   72.978
  337.500    8.169    0.319    0.406   75.407
  337.750    8.327    0.305    0.403   76.625
  338.000    8.648    0.297    0.397   79.662
  338.250    9.151    0.287    0.394   82.698
  338.500    9.504    0.276    0.395   81.504
  338.750   10.056    0.267    0.401   77.888
  339.000   10.061    0.254    0.379   73.061
  339.250   10.066    0.214    0.330   69.440
  339.500    9.702    0.170    0.346   76.712
  339.750    9.008    0.255    0.375   82.170
  340.000    8.847    0.258    0.389   85.814
  340.250    8.687    0.244    0.394   88.243
  340.500    8.855    0.239    0.407   90.068
  340.750    9.196    0.255    0.419   90.083
  341.000    9.552    0.268    0.429   87.674
  341.250    9.379    0.273    0.429   92.528
  341.500    9.040    0.260    0.423   98.590
  341.750    8.714    0.250    0.417   99.202
  342.000    8.398    0.248    0.423   94.982
  342.250    7.945    0.243    0.426   87.735
  342.500    7.657    0.237    0.423   72.026
  342.750    7.661    0.257    0.431   67.194
  343.000    7.665    0.302    0.442   59.346
  343.250    7.814    0.336    0.421   60.569
  343.500    7.964    0.345    0.416   64.213
  343.750    8.119    0.337    0.426   66.034
  344.000    8.123    0.331    0.441   64.837
  344.250    7.977    0.342    0.405   71.506
  344.500    7.689    0.336    0.386   85.427
  344.750    7.410    0.320    0.381   98.143
  345.000    7.142    0.277    0.390  104.808
  345.250    6.884    0.243    0.420  108.447
  345.500    6.761    0.241    0.442  108.463
  345.750    6.639    0.245    0.467  104.239
  346.000    6.519    0.255    0.491   98.811
  346.250    6.522    0.257    0.481   95.198
  346.500    6.525    0.255    0.473   94.599
  346.750    6.408    0.248    0.487   94.009
  347.000    6.411    0.240    0.483   94.022
  347.250    6.535    0.236    0.502   94.031
  347.500    6.787    0.240    0.518   97.067
  347.750    7.049    0.245    0.492  100.106
  348.000    7.600    0.251    0.469  101.327
  348.250    7.893    0.252    0.465   99.529
