~VERSION INFORMATION
 VERS.                 2.0:   CWLS LOG ASCII STANDARD -VERSION 2.0
 WRAP.                  NO:   ONE LINE PER DEPTH STEP
~WELL INFORMATION BLOCK
#MNEM.UNIT           DATA                    DESCRIPTION OF MNEMONIC
#---------    -------------------            -------------------------------
# Generated from Intellog Unique Number	CS_73_76/WELL/1973
WELL.         AMOCO                          : Well_name    - WELL
LOC .         00/08-04-073-04W4/0            : Location     - LOCATION
UWI .         00/08-04-073-04W4/0            : Uwi          - UNIQUE WELL ID
ENTR.         T                              : Entered      - ENTERED BY
SRVC.         SCHLUMBERGER                   : Scn          - SERVICE COMPANY
STRT.M        325                            : top_depth    - START DEPTH
STOP.M        520                            : bot_depth    - STOP DEPTH
STEP.M        0.25                           : increment    - STEP LENGTH
 NULL. -999.2500:NULL Value
~CURVE INFORMATION BLOCK
#MNEM UNIT       ERCB CURVE CODE    CURVE DESCRIPTION
#-----------   ------------------   ----------------------------------
DEPT.M        00 001 00 00         : DEPTH        - DEPTH
GR  .API      00 310 00 00         : GR           - GAMMA RAY
NPHI.V/V      00 330 00 00         : PHIN         - NEUTRON POROSITY (SANDSTONE)
DPHI.V/V      00 890 00 00         : PHID         - DENSITY POROSITY (SANDSTONE)
ILD .OHMM     00 120 00 00         : RESD         - DEEP RESISTIVITY (DIL)
~PARAMETER INFORMATION
#MNEM.UNIT           DATA             DESCRIPTION OF MNEMONIC
#---------         -----------     ------------------------------
GL  .M        707                  : gl           - GROUND LEVEL ELEVATION
EREF.M        711                  : kb           - ELEVATION OF DEPTH REFERENCE
DATM.M        711                  : datum        - DATUM ELEVATION
TDD .M        535                  : tdd          - TOTAL DEPTH DRILLER
RUN .         ONE                  : Run          - RUN NUMBER
ENG .         BILL                 : Engineer     - RECORDING ENGINEER
WIT .         JIM                  : Witness      - WITNESSED BY
MUD .         GEL                  : Mud_type     - MUD TYPE
MATR.         SANDSTONE            : Logunit      - NEUTRON MATRIX
TMAX.C        13                   : BHT          - MAXIMUM RECORDED TEMPERATURE
BHTD.M        535                  : BHTDEP       - MAXIMUM RECORDED TEMPERATURE
MATR.         1                    : LOGUNIT      - NEUTRON MATRIX
RMT .C        25                   : MDTP         - TEMPERATURE OF MUD
NEUT.         1                    : NEUTRON      - NEUTRON TYPE
RESI.         0                    : RESIST       - RESISTIVITY TYPE
RMC .OHMM     3.53                 : RMC          - RESISTIVITY OF MUD CAKE
RMF .OHMM     4.12                 : RMF          - RESISTIVITY OF MUD FILTRATE
SUFT.C        15                   : SUFT         - SURFACE TEMPERATURE
~A  DEPTH       GR     PHIN     PHID     RESD
# ...
  412.000   74.601    0.450    0.277    1.337
  412.250   79.957    0.453    0.266    1.362
  412.500   84.123    0.456    0.259    1.497
  412.750   87.099    0.459    0.247    1.583
  413.000   91.265    0.462    0.230    1.772
  413.250   94.837    0.467    0.218    1.840
  413.500   94.839    0.471    0.212    1.984
  413.750   94.841    0.477    0.218    2.060
  414.000   95.439    0.479    0.231    2.139
  414.250   95.441    0.483    0.235    2.221
  414.500   96.039    0.495    0.225    2.264
  414.750   96.040    0.505    0.219    2.264
  415.000   97.828    0.513    0.223    2.308
  415.250   98.425    0.517    0.226    2.308
  415.500   96.048    0.517    0.225    2.397
  415.750   93.076    0.515    0.237    2.489
  416.000   90.105    0.509    0.250    2.585
  416.250   84.754    0.503    0.249    2.684
  416.500   80.593    0.486    0.224    2.788
  416.750   81.785    0.445    0.222    2.788
  417.000   83.572    0.471    0.225    2.737
  417.250   84.764    0.477    0.225    2.738
  417.500   85.955    0.485    0.227    2.739
  417.750   87.742    0.490    0.233    2.740
  418.000   90.124    0.497    0.215    2.591
  418.250   93.100    0.498    0.209    2.592
  418.500   94.887    0.497    0.213    2.545
  418.750   96.674    0.498    0.220    2.545
  419.000   97.271    0.510    0.228    2.546
  419.250   96.084    0.530    0.234    2.547
  419.500   94.302    0.530    0.239    2.645
  419.750   93.115    0.526    0.232    3.130
  420.000   93.118    0.515    0.231    3.312
  420.250   91.931    0.504    0.228    3.439
  420.500   88.959    0.484    0.227    3.506
  420.750   86.582    0.473    0.224    3.573
  421.000   88.370    0.468    0.223    3.641
  421.250   88.966    0.465    0.222    3.711
  421.500   90.158    0.462    0.217    3.782
  421.750   91.945    0.457    0.214    3.783
  422.000   92.542    0.450    0.213    3.715
  422.250   93.141    0.451    0.215    3.647
  422.500   93.143    0.460    0.213    3.580
  422.750   93.144    0.468    0.212    3.515
  423.000   93.743    0.476    0.211    3.387
  423.250   94.340    0.485    0.209    3.264
  423.500   94.936    0.483    0.210    3.204
  423.750   96.129    0.482    0.225    3.087
  424.000   96.131    0.484    0.224    2.920
  424.250   96.133    0.484    0.217    2.710
  424.500   96.136    0.489    0.210    2.661
  424.750   96.733    0.497    0.206    2.516
  425.000   97.330    0.511    0.205    2.471
  425.250   97.928    0.521    0.202    2.471
  425.500   98.525    0.526    0.197    2.472
  425.750   99.121    0.518    0.194    2.519
  426.000  100.314    0.518    0.195    2.568
  426.250  100.911    0.525    0.203    2.666
  426.500  102.103    0.521    0.206    2.769
  426.750  102.701    0.512    0.211    2.822
  427.000  102.702    0.512    0.208    2.876
  427.250  101.516    0.518    0.203    2.877
  427.500  100.329    0.525    0.191    2.878
  427.750   99.736    0.529    0.192    2.825
  428.000   98.549    0.531    0.205    2.880
  428.250   97.362    0.536    0.225    2.935
  428.500   96.769    0.537    0.234    3.105
  428.750   96.178    0.539    0.242    3.164
  429.000   95.584    0.537    0.250    3.348
  429.250   94.397    0.528    0.256    3.477
  429.500   92.616    0.503    0.256    3.544
  429.750   91.428    0.479    0.242    3.544
  430.000   91.430    0.466    0.233    3.545
  430.250   90.838    0.478    0.225    3.822
  430.500   90.840    0.473    0.220    3.615
  430.750   90.843    0.465    0.218    3.483
  431.000   90.846    0.460    0.244    3.294
  431.250   90.848    0.490    0.250    3.115
  431.500   90.256    0.503    0.256    3.002
  431.750   89.069    0.504    0.260    3.003
  432.000   87.881    0.500    0.264    3.060
  432.250   86.694    0.497    0.216    3.119
  432.500   84.912    0.492    0.197    3.300
  432.750   80.750    0.479    0.185    3.624
  433.000   75.400    0.458    0.164    3.626
  433.250   77.186    0.434    0.180    3.303
  433.500   84.327    0.411    0.230    3.183
  433.750   87.303    0.439    0.240    3.183
  434.000   90.279    0.456    0.256    3.184
  434.250   86.714    0.489    0.263    3.186
  434.500   83.148    0.493    0.273    3.187
  434.750   81.959    0.495    0.285    3.071
  435.000   80.177    0.487    0.297    2.904
  435.250   78.395    0.458    0.306    2.905
  435.500   78.398    0.450    0.302    2.960
  435.750   78.401    0.455    0.292    3.017
  436.000   79.593    0.486    0.272    3.133
  436.250   80.191    0.502    0.272    3.254
  436.500   80.192    0.504    0.268    3.316
  436.750   81.385    0.492    0.249    3.379
  437.000   83.766    0.473    0.238    3.381
  437.250   86.743    0.442    0.232    3.257
  437.500   87.934    0.441    0.232    3.198
  437.750   86.747    0.454    0.233    3.199
  438.000   83.181    0.470    0.240    3.200
  438.250   80.210    0.464    0.250    3.261
  438.500   79.022    0.452    0.265    3.324
  438.750   76.645    0.443    0.271    3.325
  439.000   77.242    0.435    0.264    3.389
  439.250   80.814    0.428    0.256    3.205
  439.500   82.601    0.420    0.245    3.088
  439.750   85.577    0.414    0.236    2.976
  440.000   87.364    0.466    0.222    2.977
  440.250   89.152    0.492    0.213    2.922
  440.500   89.748    0.521    0.217    2.869
  440.750   90.941    0.532    0.239    2.613
  441.000   92.132    0.542    0.245    2.337
  441.250   94.515    0.552    0.252    2.210
  441.500   95.112    0.544    0.262    2.295
  441.750   96.304    0.532    0.237    2.339
  442.000   96.900    0.522    0.231    2.429
  442.250   98.687    0.516    0.228    2.476
  442.500  100.474    0.514    0.225    2.523
  442.750   96.908    0.513    0.225    2.524
  443.000   95.126    0.511    0.225    2.572
  443.250   91.560    0.508    0.223    2.622
  443.500   89.778    0.507    0.229    2.722
  443.750   87.996    0.506    0.249    2.827
  444.000   85.618    0.501    0.255    2.991
  444.250   82.647    0.488    0.264    3.048
  444.500   80.270    0.466    0.272    3.165
  444.750   79.678    0.459    0.282    3.287
  445.000   79.086    0.451    0.290    3.350
  445.250   77.898    0.446    0.293    3.052
  445.500   77.306    0.439    0.300    2.886
  445.750   74.929    0.428    0.305    2.833
  446.000   73.742    0.421    0.311    2.782
  446.250   70.771    0.439    0.319    2.731
  446.500   68.393    0.438    0.325    2.681
  446.750   64.827    0.427    0.331    2.632
  447.000   65.424    0.419    0.339    2.537
  447.250   67.806    0.429    0.341    2.490
  447.500   68.403    0.444    0.329    2.491
  447.750   66.026    0.452    0.317    2.446
  448.000   62.460    0.458    0.306    2.446
  448.250   62.463    0.462    0.299    2.637
  448.500   62.465    0.466    0.291    2.951
  448.750   61.278    0.468    0.284    3.764
  449.000   60.685    0.460    0.272    4.540
  449.250   60.093    0.428    0.256    4.214
  449.500   57.716    0.399    0.104    3.562
  449.750   55.340    0.332    0.055    2.743
  450.000   58.910    0.297    0.088    2.594
  450.250   62.482    0.335    0.120    2.453
  450.500   65.459    0.382    0.152    2.235
  450.750   66.055    0.419    0.186    2.194
  451.000   67.247    0.459    0.231    2.154
  451.250   66.061    0.458    0.284    2.155
  451.500   65.468    0.465    0.320    2.155
  451.750   64.281    0.468    0.312    2.238
  452.000   63.689    0.468    0.304    2.281
  452.250   63.691    0.467    0.309    2.369
  452.500   64.288    0.464    0.307    2.414
  452.750   64.885    0.460    0.298    2.460
  453.000   66.078    0.457    0.292    2.507
  453.250   66.674    0.454    0.292    2.556
  453.500   67.271    0.451    0.297    2.557
  453.750   67.274    0.442    0.297    2.605
  454.000   67.276    0.434    0.298    2.656
  454.250   67.874    0.445    0.302    2.810
  454.500   70.256    0.457    0.299    2.918
  454.750   72.637    0.464    0.291    2.973
  455.000   75.018    0.459    0.279    2.974
  455.250   78.590    0.428    0.258    2.975
