~VERSION INFORMATION
 VERS.                 2.0:   CWLS LOG ASCII STANDARD -VERSION 2.0
 WRAP.                  NO:   ONE LINE PER DEPTH STEP
~WELL INFORMATION BLOCK
#MNEM.UNIT           DATA                    DESCRIPTION OF MNEMONIC
#---------    -------------------            -------------------------------
# Generated from Intellog Unique Number	CX_WELLS/WELL/3016
WELL.         TRITON ET AL DIVIDE            : Well_name    - WELL
LOC .         00/06-22-082-12W4/0            : Location     - LOCATION
UWI .         00/06-22-082-12W400            : Uwi          - UNIQUE WELL ID
ENTR.         T                              : Entered      - ENTERED BY
SRVC.         SCHLUMBERGER                   : Scn          - SERVICE COMPANY
DATE.         03/04/92                       : Date         - LOG DATE
STRT.M        295                            : top_depth    - START DEPTH
STOP.M        515                            : bot_depth    - STOP DEPTH
STEP.M        0.25                           : increment    - STEP LENGTH
 NULL. -999.2500:NULL Value
~CURVE INFORMATION BLOCK
#MNEM UNIT       ERCB CURVE CODE    CURVE DESCRIPTION
#-----------   ------------------   ----------------------------------
DEPT.M        00 001 00 00         : DEPTH        - DEPTH
GR  .API      00 310 00 00         : GR           - GAMMA RAY
NPHI.V/V      00 330 00 00         : PHIN         - NEUTRON POROSITY (SANDSTONE)
DPHI.V/V      00 890 00 00         : PHID         - DENSITY POROSITY (SANDSTONE)
ILD .OHMM     00 120 00 00         : RESD         - DEEP RESISTIVITY (OTHER)
~PARAMETER INFORMATION
#MNEM.UNIT           DATA             DESCRIPTION OF MNEMONIC
#---------         -----------     ------------------------------
GL  .M        740.69               : gl           - GROUND LEVEL ELEVATION
EREF.M        744.42               : kb           - ELEVATION OF DEPTH REFERENCE
DATM.M        744.42               : datum        - DATUM ELEVATION
TDD .M        526                  : tdd          - TOTAL DEPTH DRILLER
RUN .         ONE                  : Run          - RUN NUMBER
ENG .         JO                   : Engineer     - RECORDING ENGINEER
WIT .         TIM                  : Witness      - WITNESSED BY
MUD .         GEL                  : Mud_type     - MUD TYPE
MATR.         SANDSTONE            : Logunit      - NEUTRON MATRIX
TMAX.C        24                   : BHT          - MAXIMUM RECORDED TEMPERATURE
BHTD.M        526                  : BHTDEP       - MAXIMUM RECORDED TEMPERATURE
RMT .C        24                   : MDTP         - TEMPERATURE OF MUD
MUDD.KG/M     1                    : MWT          - MUD DENSITY
NEUT.         1                    : NEUTRON      - NEUTRON TYPE
RESI.         2.65                 : RESIST       - RESISTIVITY TYPE
RM  .OHMM     2.65                 : RM           - RESISTIVITY OF MUD
RMC .OHMM     1.52                 : RMC          - RESISTIVITY OF MUD CAKE
RMF .OHMM     2.86                 : RMF          - RESISTIVITY OF MUD FILTRATE
SUFT.C        4                    : SUFT         - SURFACE TEMPERATURE
~A  DEPTH       GR     PHIN     PHID     RESD
# ...
  382.000   73.690    0.501    0.289    9.751
  382.250   74.260    0.523    0.290    8.982
  382.500   74.836    0.570    0.289    8.444
  382.750   81.383    0.581    0.282    8.270
  383.000   88.523    0.575    0.277    8.438
  383.250   86.109    0.564    0.281    8.788
  383.500   81.911    0.555    0.288    9.152
  383.750   79.508    0.552    0.299    9.531
  384.000   77.100    0.527    0.316   10.131
  384.250   71.107    0.528    0.327   10.551
  384.500   70.484    0.524    0.328   11.214
  384.750   73.451    0.515    0.312   11.680
  385.000   74.618    0.493    0.313   12.163
  385.250   74.597    0.489    0.313   12.159
  385.500   73.984    0.483    0.311   12.154
  385.750   72.769    0.477    0.310   12.152
  386.000   72.146    0.471    0.310   11.900
  386.250   71.528    0.467    0.310   11.656
  386.500   72.104    0.465    0.309   11.651
  386.750   73.271    0.466    0.305   11.412
  387.000   73.260    0.468    0.301   11.409
  387.250   73.234    0.468    0.296   11.174
  387.500   74.406    0.467    0.296   10.944
  387.750   76.180    0.464    0.297   10.501
  388.000   76.153    0.460    0.298   10.078
  388.250   76.729    0.458    0.301    9.283
  388.500   79.100    0.453    0.302    8.377
  388.750   83.255    0.453    0.301    7.110
  389.000   89.201    0.463    0.279    6.034
  389.250   99.324    0.513    0.244    5.227
  389.500  108.850    0.540    0.233    4.436
  389.750  111.807    0.478    0.220    4.257
  390.000  111.786    0.474    0.220    4.002
  390.250  111.760    0.476    0.224    3.840
  390.500  111.147    0.477    0.226    3.685
  390.750  109.938    0.477    0.230    3.684
  391.000  108.116    0.477    0.232    3.759
  391.250  107.508    0.477    0.234    4.078
  391.500  106.288    0.477    0.235    4.334
  391.750  103.880    0.481    0.241    4.703
  392.000  100.881    0.499    0.247    5.102
  392.250   96.672    0.496    0.253    5.535
  392.500   93.673    0.480    0.257    5.765
  392.750   87.679    0.464    0.260    6.384
  393.000   85.276    0.457    0.253    6.926
  393.250   88.239    0.461    0.247    7.514
  393.500   90.604    0.474    0.240    8.320
  393.750   87.594    0.495    0.236    8.666
  394.000   85.186    0.514    0.236    9.211
  394.250   83.971    0.505    0.244    9.208
  394.500   80.961    0.490    0.257    9.018
  394.750   79.155    0.486    0.268    8.833
  395.000   77.344    0.484    0.268    8.476
  395.250   77.924    0.466    0.263    7.968
  395.500  104.159    0.460    0.257    7.490
  395.750  108.911    0.485    0.250    7.489
  396.000  107.100    0.491    0.243    7.335
  396.250  102.901    0.492    0.236    7.184
  396.500   95.123    0.489    0.231    7.182
  396.750   87.941    0.488    0.233    7.179
  397.000   79.561    0.500    0.256    7.477
  397.250   72.976    0.497    0.277    7.947
  397.500   71.761    0.490    0.292    8.622
  397.750   74.127    0.488    0.273    9.547
  398.000   73.509    0.481    0.261   10.148
  398.250   72.294    0.469    0.262   10.788
  398.500   71.069    0.459    0.268   11.704
  398.750   70.461    0.452    0.289   12.697
  399.000   72.230    0.446    0.295   13.497
  399.250   72.209    0.440    0.301   14.056
  399.500   70.989    0.433    0.307   14.341
  399.750   72.763    0.446    0.305   14.633
  400.000   75.720    0.462    0.301   14.628
  400.250   75.102    0.466    0.301   14.622
  400.500   73.893    0.463    0.302   14.322
  400.750   71.485    0.466    0.304   14.316
  401.000   73.254    0.474    0.305   14.023
  401.250   72.636    0.474    0.311   14.306
  401.500   72.018    0.471    0.313   14.303
  401.750   70.793    0.457    0.315   14.895
  402.000   70.169    0.455    0.315   15.834
  402.250   69.562    0.450    0.312   17.532
  402.500   68.342    0.440    0.187   19.817
  402.750   65.337    0.412    0.157   23.814
  403.000   62.338    0.368    0.122   27.475
  403.250   56.941    0.162    0.043   30.422
  403.500   53.941    0.188    0.093   27.455
  403.750   54.517    0.249    0.129   24.275
  404.000   61.651    0.317    0.196   21.909
  404.250   64.619    0.396    0.273   18.595
  404.500   66.388    0.444    0.311   16.441
  404.750   66.963    0.459    0.321   14.835
  405.000   66.936    0.459    0.321   14.236
  405.250   66.319    0.459    0.320   13.661
  405.500   65.109    0.456    0.319   13.380
  405.750   66.281    0.453    0.318   13.105
  406.000   69.840    0.448    0.321   13.101
  406.250   67.427    0.443    0.327   13.095
  406.500   65.621    0.438    0.330   13.090
  406.750   64.401    0.458    0.333   13.088
  407.000   66.767    0.456    0.329   12.817
  407.250   71.524    0.449    0.303   12.299
  407.500   71.498    0.440    0.284   12.046
  407.750   73.863    0.435    0.273   11.559
  408.000   76.234    0.442    0.265   11.322
  408.250   78.595    0.455    0.266   10.642
  408.500   79.165    0.465    0.271   10.425
  408.750   77.950    0.472    0.278   10.004
  409.000   79.117    0.464    0.283    9.798
  409.250   79.703    0.456    0.284    9.596
  409.500   79.677    0.457    0.282    9.399
  409.750   79.059    0.462    0.280    9.395
  410.000   80.822    0.464    0.276    9.392
  410.250   82.005    0.465    0.274    9.390
  410.500   83.774    0.469    0.271    9.385
  410.750   85.543    0.474    0.264    9.575
  411.000   86.715    0.497    0.257    9.574
  411.250   86.694    0.500    0.254    9.768
  411.500   86.673    0.491    0.251   10.172
  411.750   86.055    0.470    0.245   10.594
  412.000   84.238    0.452    0.234   10.809
  412.250   82.432    0.351    0.181   11.029
  412.500   78.825    0.355    0.189   11.025
  412.750   92.534    0.381    0.212   11.023
  413.000   96.087    0.423    0.240   10.795
  413.250   93.082    0.450    0.245   10.792
  413.500   90.674    0.460    0.239   10.354
  413.750   88.266    0.473    0.233    9.537
  414.000   87.648    0.486    0.233    9.152
  414.250   87.632    0.490    0.237    8.429
  414.500   89.396    0.492    0.237    8.089
  414.750   91.165    0.492    0.234    7.923
  415.000   93.536    0.492    0.233    7.921
  415.250   95.902    0.491    0.233    7.918
  415.500   98.267    0.490    0.261    8.079
  415.750   99.439    0.489    0.268    8.413
  416.000   93.446    0.487    0.277    8.585
  416.250   87.452    0.483    0.267    8.940
  416.500   88.629    0.477    0.241    9.310
  416.750   92.183    0.470    0.235    9.895
  417.000   92.764    0.455    0.231   10.097
  417.250   89.759    0.451    0.239   10.304
  417.500   84.368    0.459    0.260   10.730
  417.750   79.567    0.464    0.265   10.949
  418.000   79.541    0.470    0.270   11.170
  418.250   81.315    0.465    0.265   11.166
  418.500   84.272    0.439    0.242   11.164
  418.750   85.455    0.434    0.236   11.160
  419.000   87.224    0.440    0.229   10.930
  419.250   88.396    0.446    0.219   10.705
  419.500   90.756    0.445    0.214   10.485
  419.750   91.337    0.441    0.219   10.269
  420.000   92.504    0.439    0.222    9.854
  420.250   92.483    0.442    0.219    9.455
  420.500   93.058    0.465    0.221    9.261
  420.750   93.628    0.476    0.227    9.071
  421.000   93.618    0.484    0.233    8.526
  421.250   94.177    0.494    0.238    8.525
  421.500   95.360    0.505    0.248    8.181
  421.750   96.522    0.513    0.258    7.849
  422.000   96.506    0.510    0.256    7.847
  422.250   96.490    0.486    0.233    7.528
  422.500   95.861    0.484    0.231    7.527
  422.750   95.851    0.485    0.231    7.372
  423.000   96.416    0.486    0.233    7.369
  423.250   97.593    0.486    0.233    7.367
  423.500   98.163    0.486    0.232    7.516
  423.750   97.556    0.486    0.232    7.515
  424.000   96.938    0.483    0.233    7.668
  424.250   97.513    0.482    0.234    7.985
  424.500   95.702    0.483    0.239    8.148
  424.750   90.907    0.485    0.244    8.311
  425.000   90.886    0.482    0.248    8.310
  425.250   96.832    0.465    0.245    8.307
