~VERSION INFORMATION
 VERS.                 2.0:   CWLS LOG ASCII STANDARD -VERSION 2.0
 WRAP.                  NO:   ONE LINE PER DEPTH STEP
~WELL INFORMATION BLOCK
#MNEM.UNIT           DATA                    DESCRIPTION OF MNEMONIC
#---------    -------------------            -------------------------------
# Generated from Intellog Unique Number	CW_79_81/WELL/2446
WELL.         AMOCO PELICAN                  : Well_name    - WELL
LOC .         00/05-01-081-23W4/0            : Location     - LOCATION
UWI .         00/05-01-081-23W4/0            : Uwi          - UNIQUE WELL ID
ENTR.         MAX                            : Entered      - ENTERED BY
SRVC.         COMPUTALOG                     : Scn          - SERVICE COMPANY
STRT.M        200                            : top_depth    - START DEPTH
STOP.M        459.75                         : bot_depth    - STOP DEPTH
STEP.M        0.25                           : increment    - STEP LENGTH
 NULL. -999.2500:NULL Value
~CURVE INFORMATION BLOCK
#MNEM UNIT       ERCB CURVE CODE    CURVE DESCRIPTION
#-----------   ------------------   ----------------------------------
DEPT.M        00 001 00 00         : DEPTH        - DEPTH
ILD .OHMM     00 120 00 00         : RESD         - DEEP RESISTIVITY (DIL)
NPHI.V/V      00 330 00 00         : PHIN         - NEUTRON POROSITY (SANDSTONE)
DPHI.V/V      00 890 00 00         : PHID         - DENSITY POROSITY (SANDSTONE)
GR  .API      00 310 00 00         : GR           - GAMMA RAY
CALI.MM       00 280 01 00         : CAL          - CALIPER
~PARAMETER INFORMATION
#MNEM.UNIT           DATA             DESCRIPTION OF MNEMONIC
#---------         -----------     ------------------------------
GL  .M        593.34               : gl           - GROUND LEVEL ELEVATION
EREF.M        597.04               : kb           - ELEVATION OF DEPTH REFERENCE
DATM.M        593.34               : datum        - DATUM ELEVATION
TDD .M        456                  : tdd          - TOTAL DEPTH DRILLER
RUN .         ONE                  : Run          - RUN NUMBER
ENG .         BILL                 : Engineer     - RECORDING ENGINEER
WIT .         JIM                  : Witness      - WITNESSED BY
MUD .         GEL                  : Mud_type     - MUD TYPE
MATR.         SANDSTONE            : Logunit      - NEUTRON MATRIX
TMAX.C        31                   : BHT          - MAXIMUM RECORDED TEMPERATURE
BHTD.M        456                  : BHTDEP       - MAXIMUM RECORDED TEMPERATURE
MATR.         1                    : LOGUNIT      - NEUTRON MATRIX
RMT .C        21                   : MDTP         - TEMPERATURE OF MUD
NEUT.         1                    : NEUTRON      - NEUTRON TYPE
RESI.         0                    : RESIST       - RESISTIVITY TYPE
RMC .OHMM     4.9                  : RMC          - RESISTIVITY OF MUD CAKE
RMF .OHMM     5.6                  : RMF          - RESISTIVITY OF MUD FILTRATE
SUFT.C        -10                  : SUFT         - SURFACE TEMPERATURE
~A  DEPTH     RESD     PHIN     PHID       GR      CAL
# ...
  236.500   39.010    0.408    0.346   50.677  214.733
  236.750   37.005    0.408    0.342   50.685  214.545
  237.000   34.336    0.409    0.337   51.181  215.269
  237.250   30.283    0.417    0.342   52.510  217.497
  237.500   26.390    0.429    0.350   53.025  220.469
  237.750   25.611    0.442    0.351   53.519  222.110
  238.000   27.432    0.436    0.349   53.649  221.618
  238.250   29.600    0.418    0.346   53.293  219.399
  238.500   30.787    0.402    0.343   52.510  216.877
  238.750   31.815    0.407    0.344   51.293  216.320
  239.000   33.597    0.414    0.346   50.035  215.490
  239.250   35.901    0.414    0.349   49.313  214.287
  239.500   38.582    0.423    0.354   48.774  213.996
  239.750   40.530    0.435    0.357   48.661  215.836
  240.000   41.293    0.444    0.357   49.399  219.501
  240.250   41.468    0.436    0.357   52.361  223.419
  240.500   40.828    0.432    0.356   56.172  224.701
  240.750   39.921    0.432    0.358   57.641  223.499
  241.000   37.504    0.425    0.357   57.101  221.079
  241.250   36.303    0.413    0.354   55.771  219.065
  241.500   37.165    0.408    0.347   54.562  217.863
  241.750   40.245    0.437    0.341   54.339  216.834
  242.000   41.191    0.461    0.341   55.617  217.694
  242.250   40.882    0.466    0.348   56.597  220.545
  242.500   39.895    0.464    0.354   58.674  223.398
  242.750   38.870    0.454    0.357   60.873  224.833
  243.000   37.864    0.442    0.357   62.220  224.137
  243.250   36.138    0.437    0.354   61.388  220.723
  243.500   34.501    0.431    0.353   59.621  217.783
  243.750   32.983    0.421    0.356   57.684  217.794
  244.000   32.441    0.416    0.354   57.205  219.023
  244.250   32.917    0.418    0.351   57.822  220.456
  244.500   34.166    0.423    0.350   58.742  221.282
  244.750   35.681    0.426    0.351   58.347  220.640
  245.000   36.806    0.437    0.352   56.330  219.388
  245.250   39.044    0.440    0.355   54.390  220.215
  245.500   41.203    0.437    0.359   54.643  221.344
  245.750   42.936    0.432    0.360   55.746  222.168
  246.000   44.471    0.426    0.356   57.093  222.587
  246.250   46.861    0.418    0.348   58.858  223.011
  246.500   46.857    0.404    0.338   59.119  223.025
  246.750   44.796    0.421    0.341   58.884  217.766
  247.000   41.375    0.440    0.351   59.015  215.245
  247.250   38.286    0.451    0.357   59.144  211.206
  247.500   36.163    0.445    0.355   59.274  205.645
  247.750   35.158    0.415    0.355   60.025  202.482
  248.000   35.429    0.408    0.364   61.300  200.806
  248.250   34.383    0.421    0.369   61.796  200.415
  248.500   33.749    0.435    0.369   61.926  200.937
  248.750   32.494    0.444    0.369   61.812  201.966
  249.000   30.126    0.440    0.369   61.334  203.094
  249.250   25.425    0.414    0.365   59.774  203.923
  249.500   20.264    0.392    0.356   58.008  203.936
  249.750   16.623    0.380    0.328   55.583  205.574
  250.000   15.115    0.424    0.326   51.516  205.689
  250.250   14.574    0.460    0.337   49.699  205.094
  250.500   14.492    0.458    0.348   51.836  204.297
  250.750   14.235    0.426    0.346   57.443  203.333
  251.000   13.080    0.412    0.347   57.454  202.503
  251.250    9.311    0.421    0.345   58.676  202.518
  251.500    6.749    0.435    0.340   64.099  203.139
  251.750    5.363    0.440    0.332   70.799  204.775
  252.000    4.689    0.434    0.321   76.951  207.223
  252.250    4.471    0.433    0.306   83.096  209.841
  252.500    4.402    0.431    0.292   89.441  210.703
  252.750    4.435    0.423    0.291   83.123  211.528
  253.000    4.517    0.424    0.287   86.295  213.265
  253.250    4.551    0.429    0.278   91.413  215.914
  253.500    4.508    0.432    0.282   94.037  219.072
  253.750    4.414    0.426    0.325   92.934  222.687
  254.000    4.279    0.426    0.312   93.447  226.507
  254.250    4.215    0.437    0.295   94.916  228.547
  254.500    4.199    0.452    0.274   95.107  229.675
  254.750    4.215    0.466    0.260   94.873  230.095
  255.000    4.254    0.476    0.258   94.820  229.805
  255.250    4.331    0.482    0.273   95.316  228.182
  255.500    4.398    0.477    0.279   95.325  226.087
  255.750    4.530    0.448    0.288   94.360  224.883
  256.000    4.666    0.430    0.292   92.848  223.986
  256.250    4.595    0.438    0.281   92.370  223.392
  256.500    4.355    0.462    0.259   93.656  223.304
  256.750    4.190    0.474    0.245   96.637  224.388
  257.000    4.157    0.488    0.252   96.900  225.664
  257.250    4.346    0.456    0.241   92.771  225.680
  257.500    4.618    0.445    0.233   87.365  223.871
  257.750    4.867    0.449    0.230   85.670  222.263
  258.000    5.015    0.457    0.231   88.902  221.668
  258.250    5.037    0.462    0.234   94.611  222.020
  258.500    4.959    0.468    0.228   95.129  223.727
  258.750    4.813    0.479    0.223   95.136  225.362
  259.000    4.724    0.483    0.228   96.786  226.087
  259.250    4.758    0.472    0.237   99.471  226.101
  259.500    4.920    0.451    0.246  101.001  225.203
  259.750    5.145    0.439    0.248   97.097  222.618
  260.000    5.145    0.438    0.247   94.570  221.785
  260.250    5.030    0.429    0.248   96.039  220.989
  260.500    4.947    0.411    0.248   96.960  220.495
  260.750    4.928    0.408    0.248   97.090  220.307
  261.000    4.983    0.429    0.247   96.369  220.424
  261.250    5.142    0.466    0.256   94.412  221.100
  261.500    5.387    0.471    0.279   91.886  222.382
  261.750    5.799    0.451    0.291   89.948  223.612
  262.000    6.481    0.438    0.304   87.462  224.843
  262.250    7.001    0.436    0.320   82.603  225.667
  262.500    7.080    0.437    0.337   75.009  226.086
  262.750    6.880    0.431    0.334   67.191  226.931
  263.000    6.670    0.428    0.294   74.297  229.057
  263.250    6.424    0.425    0.271   82.335  228.262
  263.500    6.401    0.414    0.284   85.081  225.337
  263.750    6.472    0.414    0.314   81.684  222.309
  264.000    6.557    0.425    0.334   75.975  219.990
  264.250    6.574    0.430    0.306   77.180  217.640
  264.500    6.423    0.428    0.294   80.737  215.967
  264.750    6.049    0.422    0.277   84.395  215.981
  265.000    5.763    0.419    0.260   86.959  215.995
  265.250    5.553    0.421    0.244   89.644  216.211
  265.500    5.441    0.432    0.232   92.026  216.631
  265.750    5.515    0.460    0.231   91.984  217.053
  266.000    5.689    0.467    0.237   91.739  217.069
  266.250    5.860    0.440    0.241   91.992  221.543
  266.500    6.003    0.429    0.250   86.222  224.496
  266.750    6.138    0.421    0.261   80.024  223.903
  267.000    6.276    0.414    0.271   76.139  220.066
  267.250    6.438    0.415    0.277   74.751  215.113
  267.500    6.538    0.417    0.285   76.282  212.593
  267.750    6.489    0.401    0.291   77.018  212.203
  268.000    6.225    0.399    0.290   82.685  212.419
  268.250    5.977    0.413    0.282   90.237  214.258
  268.500    5.878    0.442    0.272   96.327  216.909
  268.750    6.109    0.471    0.270   95.182  217.313
  269.000    6.658    0.459    0.283   84.545  215.216
  269.250    7.272    0.444    0.294   74.089  213.607
  269.500    8.202    0.442    0.308   67.650  212.304
  269.750    9.091    0.434    0.310   68.632  211.507
  270.000    9.289    0.421    0.296   76.731  211.115
  270.250    8.017    0.426    0.264   88.037  210.811
  270.500    6.780    0.457    0.225   88.553  211.249
  270.750    6.008    0.474    0.224   90.750  212.073
  271.000    5.582    0.479    0.225   94.044  213.505
  271.250    5.361    0.475    0.228   95.878  215.954
  271.500    5.252    0.464    0.233   96.372  218.707
  271.750    5.174    0.449    0.240   98.176  220.191
  272.000    5.174    0.460    0.246   97.426  221.474
  272.250    5.135    0.478    0.251   95.488  222.705
  272.500    5.068    0.476    0.258   94.097  223.632
  272.750    4.955    0.466    0.266   93.254  223.241
