~VERSION INFORMATION
 VERS.                 2.0:   CWLS LOG ASCII STANDARD -VERSION 2.0
 WRAP.                  NO:   ONE LINE PER DEPTH STEP
~WELL INFORMATION BLOCK
#MNEM.UNIT           DATA                    DESCRIPTION OF MNEMONIC
#---------    -------------------            -------------------------------
# Generated from Intellog Unique Number	CX_WELLS/WELL/2574
WELL.         CHARD                          : Well_name    - WELL
LOC .         00/06-02-080-07W4/0            : Location     - LOCATION
UWI .         00/06-02-080-07W400            : Uwi          - UNIQUE WELL ID
ENTR.         T                              : Entered      - ENTERED BY
SRVC.         SCHLUMBERGER                   : Scn          - SERVICE COMPANY
STRT.M        140                            : top_depth    - START DEPTH
STOP.M        380                            : bot_depth    - STOP DEPTH
STEP.M        0.25                           : increment    - STEP LENGTH
 NULL. -999.2500:NULL Value
~CURVE INFORMATION BLOCK
#MNEM UNIT       ERCB CURVE CODE    CURVE DESCRIPTION
#-----------   ------------------   ----------------------------------
DEPT.M        00 001 00 00         : DEPTH        - DEPTH
GR  .API      00 310 00 00         : GR           - GAMMA RAY
NPHI.V/V      00 330 00 00         : PHIN         - NEUTRON POROSITY (SANDSTONE)
DPHI.V/V      00 890 00 00         : PHID         - DENSITY POROSITY (SANDSTONE)
ILD .OHMM     00 120 00 00         : RESD         - DEEP RESISTIVITY (DIL)
~PARAMETER INFORMATION
#MNEM.UNIT           DATA             DESCRIPTION OF MNEMONIC
#---------         -----------     ------------------------------
GL  .M        559.1                : gl           - GROUND LEVEL ELEVATION
EREF.M        562.7                : kb           - ELEVATION OF DEPTH REFERENCE
DATM.M        562.7                : datum        - DATUM ELEVATION
TDD .M        393.7                : tdd          - TOTAL DEPTH DRILLER
RUN .         ONE                  : Run          - RUN NUMBER
ENG .         BILL                 : Engineer     - RECORDING ENGINEER
WIT .         JIM                  : Witness      - WITNESSED BY
MUD .         GEL                  : Mud_type     - MUD TYPE
MATR.         SANDSTONE            : Logunit      - NEUTRON MATRIX
TMAX.C        20                   : BHT          - MAXIMUM RECORDED TEMPERATURE
BHTD.M        393                  : BHTDEP       - MAXIMUM RECORDED TEMPERATURE
MATR.         1                    : LOGUNIT      - NEUTRON MATRIX
RMT .C        20                   : MDTP         - TEMPERATURE OF MUD
NEUT.         1                    : NEUTRON      - NEUTRON TYPE
RESI.         5.65                 : RESIST       - RESISTIVITY TYPE
RMC .OHMM     6.4                  : RMC          - RESISTIVITY OF MUD CAKE
RMF .OHMM     5.2                  : RMF          - RESISTIVITY OF MUD FILTRATE
SUFT.C        3                    : SUFT         - SURFACE TEMPERATURE
~A  DEPTH       GR     PHIN     PHID     RESD
  140.000   92.467    0.566    0.309    3.470
  140.250   92.520    0.558    0.306    3.477
  140.500   91.961    0.549    0.295    3.483
  140.750   90.776    0.525    0.291    3.557
  141.000   90.843    0.530    0.291    3.563
  141.250   92.119    0.540    0.288    3.641
  141.500   92.771    0.557    0.283    3.717
  141.750   94.047    0.564    0.278    3.873
  142.000   94.738    0.553    0.275    3.958
  142.250   94.153    0.532    0.283    4.039
  142.500   90.534    0.510    0.298    4.127
  142.750   90.587    0.518    0.297    4.132
  143.000   93.087    0.525    0.290    3.985
  143.250   96.200    0.539    0.284    3.765
  143.500   97.476    0.547    0.277    3.558
  143.750   94.483    0.522    0.272    3.776
  144.000   92.686    0.515    0.268    4.088
  144.250   93.976    0.504    0.269    4.426
  144.500   95.253    0.506    0.272    4.702
  144.750   94.082    0.512    0.272    4.899
  145.000   81.883    0.519    0.260    5.105
  145.250   75.803    0.516    0.239    5.314
  145.500   63.617    0.375    0.238    5.756
  145.750   56.939    0.398    0.254    6.109
  146.000   80.272    0.432    0.272    6.490
  146.250   77.863    0.492    0.293    6.753
  146.500   72.396    0.450    0.336    6.900
  146.750   68.178    0.435    0.294    6.396
  147.000   71.290    0.463    0.271    5.925
  147.250   80.522    0.491    0.273    5.181
  147.500   84.859    0.513    0.284    4.709
  147.750   82.463    0.526    0.293    4.810
  148.000   75.173    0.475    0.290    7.533
  148.250   70.929    0.440    0.285   10.920
  148.500   65.488    0.426    0.291   16.134
  148.750   64.916    0.426    0.301   21.233
  149.000   64.981    0.427    0.313   20.860
  149.250   67.469    0.429    0.327   19.334
  149.500   68.746    0.432    0.326   17.560
  149.750   68.798    0.441    0.293   14.206
  150.000   71.911    0.460    0.287   12.182
  150.250   78.096    0.469    0.282   10.250
  150.500   89.177    0.470    0.274    9.317
  150.750   90.466    0.471    0.269    8.805
  151.000   90.506    0.477    0.268    8.820
  151.250   89.934    0.482    0.279    9.182
  151.500   88.763    0.496    0.301   10.335
  151.750   87.591    0.498    0.316   11.190
  152.000   86.421    0.455    0.327   12.601
  152.250   85.263    0.439    0.318   13.374
  152.500   84.078    0.434    0.316   15.350
  152.750   81.085    0.426    0.314   17.285
  153.000   78.677    0.418    0.319   18.354
  153.250   72.610    0.417    0.323   19.490
  153.500   68.978    0.417    0.318   20.695
  153.750   69.057    0.415    0.303   21.138
  154.000   69.709    0.410    0.293   21.194
  154.250   69.775    0.405    0.288   20.822
  154.500   75.934    0.415    0.294   19.669
  154.750   85.777    0.426    0.302   17.887
  155.000   89.501    0.438    0.311   16.889
  155.250   92.002    0.445    0.305   15.359
  155.500   93.891    0.458    0.290   14.514
  155.750   97.029    0.463    0.283   14.533
  156.000   99.530    0.455    0.282   14.851
  156.250  100.793    0.449    0.278   15.480
  156.500  102.708    0.446    0.273   15.500
  156.750  103.347    0.441    0.265   15.513
  157.000  100.340    0.438    0.258   15.248
  157.250   91.200    0.431    0.261   15.574
  157.500   83.298    0.426    0.269   16.212
  157.750   65.006    0.422    0.280   17.230
  158.000   60.137    0.416    0.310   17.929
  158.250   54.683    0.413    0.326   19.411
  158.500   51.676    0.409    0.297   20.216
  158.750   49.281    0.414    0.296   20.251
  159.000   53.617    0.413    0.301   20.693
  159.250   64.698    0.410    0.308   21.145
  159.500   68.422    0.416    0.285   21.164
  159.750   70.311    0.419    0.228   22.041
  160.000   63.020    0.416    0.147   21.256
  160.250   64.909    0.371    0.163   21.284
  160.500   68.633    0.397    0.207   20.911
  160.750   71.147    0.409    0.257   20.553
  161.000   67.515    0.428    0.291   20.974
  161.250   61.449    0.445    0.328   21.423
  161.500   55.981    0.410    0.328   21.881
  161.750   52.362    0.418    0.331   22.350
  162.000   65.278    0.419    0.329   22.838
  162.250   68.391    0.413    0.314   22.878
  162.500   67.845    0.409    0.304   22.908
  162.750   66.674    0.406    0.297   22.948
  163.000   66.115    0.406    0.299   22.997
  163.250   64.944    0.407    0.305   23.038
  163.500   63.773    0.407    0.312   23.078
  163.750   63.825    0.409    0.327   23.128
  164.000   64.503    0.414    0.340   23.633
  164.250   65.141    0.419    0.353   24.118
  164.500   65.806    0.424    0.352   24.655
  164.750   67.083    0.430    0.348   24.688
  165.000   67.761    0.435    0.347   25.216
  165.250   69.649    0.437    0.345   25.260
  165.500   70.314    0.442    0.348   25.304
  165.750   70.367    0.451    0.356   24.860
  166.000   70.433    0.455    0.365   24.893
  166.250   71.071    0.461    0.371   24.456
  166.500   72.361    0.461    0.372   23.586
  166.750   73.624    0.451    0.372   23.172
  167.000   75.513    0.447    0.369   22.756
  167.250   77.415    0.452    0.362   22.786
  167.500   78.678    0.459    0.351   22.835
  167.750   79.955    0.468    0.342   22.865
  168.000   79.409    0.461    0.330   22.905
  168.250   80.686    0.457    0.320   23.405
  168.500   84.436    0.459    0.319   23.456
  168.750   85.686    0.460    0.318   23.487
  169.000   87.575    0.458    0.315   23.518
  169.250   88.240    0.452    0.314   23.569
  169.500   88.904    0.444    0.312   23.610
  169.750   88.957    0.439    0.309   23.641
  170.000   85.352    0.428    0.307   23.682
  170.250   82.345    0.423    0.307   23.723
  170.500   79.338    0.417    0.308   23.318
  170.750   80.003    0.407    0.308   23.348
  171.000   83.102    0.408    0.306   22.497
  171.250   86.826    0.441    0.298   21.270
  171.500   91.774    0.476    0.283   19.326
  171.750   97.335    0.497    0.263   16.898
  172.000  104.730    0.511    0.215   14.206
  172.250  112.140    0.517    0.207    9.102
  172.500  112.206    0.530    0.215    7.222
  172.750  114.094    0.550    0.223    5.733
  173.000  115.983    0.576    0.239    5.413
  173.250  115.424    0.575    0.251    4.733
  173.500  105.672    0.569    0.263    4.219
  173.750   85.518    0.565    0.273    3.835
  174.000   68.424    0.555    0.284    4.154
  174.250   59.910    0.532    0.303    5.052
  174.500   54.455    0.459    0.324    9.428
  174.750   52.672    0.380    0.305   12.396
  175.000   52.725    0.397    0.291   15.993
  175.250   52.166    0.411    0.283   20.227
  175.500   49.172    0.426    0.281   22.329
  175.750   46.165    0.426    0.307   23.721
  176.000   43.145    0.423    0.336   24.218
  176.250   40.737    0.420    0.343   24.736
  176.500   37.118    0.418    0.342   24.790
  176.750   32.901    0.411    0.344   25.309
  177.000   30.492    0.406    0.354   25.354
  177.250   30.545    0.407    0.360   25.409
  177.500   32.447    0.407    0.345   25.453
  177.750   33.724    0.406    0.320   25.497
  178.000   35.612    0.410    0.306   25.050
  178.250   50.963    0.430    0.317   25.094
  178.500   55.911    0.437    0.341   25.138
  178.750   59.050    0.426    0.341   25.182
  179.000   59.077    0.425    0.332   25.226
  179.250   59.755    0.439    0.327   25.269
  179.500   61.018    0.445    0.326   25.325
  179.750   62.920    0.448    0.324   24.870
  180.000   66.657    0.445    0.318   24.935
  180.250   70.368    0.442    0.310   24.487
  180.500   75.317    0.444    0.303   22.696
  180.750   80.877    0.452    0.279   21.429
  181.000   87.661    0.466    0.266   18.023
  181.250  104.861    0.486    0.239   15.158
  181.500  106.137    0.490    0.206   11.568
  181.750  105.591    0.479    0.186    8.998
  182.000  105.644    0.468    0.178    8.674
  182.250  106.309    0.473    0.182    9.033
  182.500  107.586    0.481    0.189    9.972
  182.750  104.579    0.489    0.223   12.132
  183.000  100.947    0.486    0.295   14.759
  183.250   97.328    0.481    0.309   16.293
