~VERSION INFORMATION
 VERS.                 2.0:   CWLS LOG ASCII STANDARD -VERSION 2.0
 WRAP.                  NO:   ONE LINE PER DEPTH STEP
~WELL INFORMATION BLOCK
#MNEM.UNIT           DATA                    DESCRIPTION OF MNEMONIC
#---------    -------------------            -------------------------------
# Generated from Intellog Unique Number	CS_69_70/WELL/134
WELL.         AFC MEDLEY 6-7-69 2 W4M        : Well_name    - WELL
LOC .         00/06-07-069-02W4/0            : Location     - LOCATION
UWI .         00/06-07-069-02W4/0            : Uwi          - UNIQUE WELL ID
ENTR.         ANDERSEN                       : Entered      - ENTERED BY
SRVC.         SCHLUMBERGER                   : Scn          - SERVICE COMPANY
STRT.M        375                            : top_depth    - START DEPTH
STOP.M        625                            : bot_depth    - STOP DEPTH
STEP.M        0.25                           : increment    - STEP LENGTH
 NULL. -999.2500:NULL Value
~CURVE INFORMATION BLOCK
#MNEM UNIT       ERCB CURVE CODE    CURVE DESCRIPTION
#-----------   ------------------   ----------------------------------
DEPT.M        00 001 00 00         : DEPTH        - DEPTH
ILD .OHMM     00 120 00 00         : RESD         - DEEP RESISTIVITY (DIL)
DPHI.V/V      00 890 00 00         : PHID         - DENSITY POROSITY (SANDSTONE)
NPHI.V/V      00 330 00 00         : PHIN         - NEUTRON POROSITY (SANDSTONE)
CALI.MM       00 280 01 00         : CAL          - CALIPER
GR  .API      00 310 00 00         : GR           - GAMMA RAY
~PARAMETER INFORMATION
#MNEM.UNIT           DATA             DESCRIPTION OF MNEMONIC
#---------         -----------     ------------------------------
GL  .M        717.8                : gl           - GROUND LEVEL ELEVATION
EREF.M        721.4                : kb           - ELEVATION OF DEPTH REFERENCE
DATM.M        721.4                : datum        - DATUM ELEVATION
TDD .M        626                  : tdd          - TOTAL DEPTH DRILLER
RUN .         ONE                  : Run          - RUN NUMBER
ENG .         BILL                 : Engineer     - RECORDING ENGINEER
WIT .         JIM                  : Witness      - WITNESSED BY
MUD .         GEL                  : Mud_type     - MUD TYPE
MATR.         SANDSTONE            : Logunit      - NEUTRON MATRIX
TMAX.C        27                   : BHT          - MAXIMUM RECORDED TEMPERATURE
BHTD.M        626                  : BHTDEP       - MAXIMUM RECORDED TEMPERATURE
MATR.         1                    : LOGUNIT      - NEUTRON MATRIX
RMT .C        19                   : MDTP         - TEMPERATURE OF MUD
NEUT.         1                    : NEUTRON      - NEUTRON TYPE
RESI.         0                    : RESIST       - RESISTIVITY TYPE
RMC .OHMM     3.3                  : RMC          - RESISTIVITY OF MUD CAKE
RMF .OHMM     6.9                  : RMF          - RESISTIVITY OF MUD FILTRATE
SUFT.C        15                   : SUFT         - SURFACE TEMPERATURE
~A  DEPTH     RESD     PHID     PHIN      CAL       GR
# ...
  557.500    4.931    0.322    0.382  157.917   39.904
  557.750    4.758    0.309    0.355  157.887   41.617
  558.000    4.676    0.310    0.365  156.908   36.998
  558.250    4.680    0.323    0.366  155.933   31.804
  558.500    4.599    0.334    0.368  155.913   28.910
  558.750    4.519    0.343    0.367  156.848   29.474
  559.000    4.442    0.352    0.364  156.823   30.616
  559.250    4.445    0.353    0.358  156.813   34.056
  559.500    4.449    0.348    0.360  156.788   32.895
  559.750    4.536    0.349    0.371  156.768   32.878
  560.000    4.624    0.352    0.381  156.738   32.866
  560.250    4.712    0.355    0.383  156.728   31.702
  560.500    4.803    0.354    0.390  156.709   30.541
  560.750    5.078    0.345    0.359  156.684   31.681
  561.000    5.176    0.324    0.355  155.709   34.548
  561.250    5.275    0.299    0.364  155.674   42.598
  561.500    5.282    0.273    0.365  155.659   50.647
  561.750    5.192    0.280    0.356  156.599   51.781
  562.000    5.100    0.286    0.346  156.584   51.769
  562.250    5.012    0.293    0.352  156.564   52.909
  562.500    4.925    0.275    0.357  155.580   50.021
  562.750    4.930    0.282    0.345  155.560   45.399
  563.000    4.935    0.306    0.344  155.540   41.359
  563.250    4.938    0.325    0.349  155.520   38.465
  563.500    4.943    0.332    0.348  156.460   40.178
  563.750    4.947    0.324    0.353  156.440   44.776
  564.000    4.774    0.318    0.359  156.420   45.340
  564.250    4.692    0.329    0.356  156.400   37.842
  564.500    4.696    0.339    0.362  155.410   32.645
  564.750    4.700    0.352    0.375  155.390   30.905
  565.000    4.789    0.361    0.376  156.330   30.893
  565.250    4.972    0.362    0.358  156.305   34.336
  565.500    5.161    0.325    0.347  156.295   39.507
  565.750    5.263    0.308    0.338  156.270   46.980
  566.000    5.078    0.293    0.336  157.210   54.454
  566.250    4.901    0.297    0.338  157.185   61.349
  566.500    4.814    0.316    0.347  157.165   58.461
  566.750    4.732    0.331    0.353  157.140   49.233
  567.000    4.566    0.336    0.363  157.125   40.008
  567.250    4.570    0.344    0.368  157.106   34.813
  567.500    4.744    0.347    0.363  158.050   31.922
  567.750    4.925    0.344    0.353  158.025   28.453
  568.000    4.929    0.330    0.323  158.001   29.595
  568.250    5.024    0.311    0.315  158.940   49.161
  568.500    5.028    0.304    0.327  158.920   52.025
  568.750    5.032    0.337    0.343  159.860   37.042
  569.000    5.130    0.335    0.356  159.840   33.575
  569.250    5.229    0.340    0.354  158.866   32.411
  569.500    5.330    0.348    0.349  157.881   31.824
  569.750    5.433    0.347    0.342  156.901   32.388
  570.000    5.539    0.321    0.327  156.876   35.252
  570.250    5.646    0.270    0.320  156.862   38.695
  570.500    5.649    0.250    0.320  157.801   37.531
  570.750    5.552    0.269    0.322  159.701   38.095
  571.000    5.556    0.283    0.332  160.641   36.931
  571.250    5.460    0.306    0.341  161.580   31.737
  571.500    5.269    0.326    0.340  161.555   25.385
  571.750    5.085    0.322    0.335  161.536   24.225
  572.000    4.998    0.293    0.328  161.511   23.631
  572.250    4.822    0.307    0.323  161.491   24.773
  572.500    4.739    0.328    0.332  161.476   27.068
  572.750    4.573    0.346    0.353  161.451   29.353
  573.000    4.576    0.358    0.386  161.426   28.771
  573.250    4.580    0.364    0.389  161.406   25.874
  573.500    4.584    0.365    0.382  161.381   23.562
  573.750    4.589    0.361    0.371  160.412   21.823
  574.000    4.594    0.348    0.368  160.392   25.841
  574.250    4.513    0.337    0.372  157.488   30.436
  574.500    4.435    0.331    0.375  156.508   31.576
  574.750    4.359    0.336    0.372  156.488   29.836
  575.000    4.362    0.344    0.363  156.468   25.215
  575.250    4.447    0.361    0.365  157.408   23.476
  575.500    4.533    0.365    0.361  157.388   22.312
  575.750    4.622    0.343    0.350  158.318   22.297
  576.000    4.799    0.342    0.347  158.308   22.285
  576.250    4.890    0.336    0.348  159.243   22.273
  576.500    5.076    0.323    0.347  159.223   22.261
  576.750    5.269    0.316    0.340  159.203   22.246
  577.000    5.371    0.311    0.321  160.143   22.813
  577.250    5.475    0.308    0.297  160.118   22.801
  577.500    5.479    0.308    0.291  160.098   23.362
  577.750    5.485    0.314    0.305  160.078   23.350
  578.000    5.490    0.322    0.321  160.053   23.914
  578.250    5.494    0.324    0.326  160.038   23.902
  578.500    5.499    0.304    0.315  160.018   23.887
  578.750    5.605    0.298    0.303  159.993   23.875
  579.000    5.611    0.294    0.293  159.978   23.866
  579.250    5.613    0.275    0.280  159.958   23.854
  579.500    5.618    0.275    0.283  159.938   23.842
  579.750    5.728    0.280    0.293  159.914   23.830
  580.000    5.733    0.287    0.295  160.848   23.815
  580.250    5.739    0.292    0.290  160.828   23.797
  580.500    5.742    0.290    0.281  160.814   23.785
  580.750    5.746    0.299    0.292  161.753   23.779
  581.000    5.751    0.303    0.305  161.728   23.189
  581.250    5.756    0.305    0.309  161.709   23.180
  581.500    5.762    0.298    0.307  161.684   23.165
  581.750    5.562    0.292    0.304  161.664   22.574
  582.000    5.565    0.289    0.304  161.644   21.989
  582.250    5.370    0.289    0.291  161.619   21.977
  582.500    5.088    0.297    0.299  161.609   21.384
  582.750    5.001    0.320    0.318  161.584   21.378
  583.000    4.826    0.334    0.325  161.564   20.790
  583.250    4.828    0.338    0.324  161.539   21.354
  583.500    4.746    0.336    0.331  161.519   21.912
  583.750    4.750    0.336    0.339  161.499   21.903
  584.000    4.754    0.340    0.339  162.434   22.466
  584.250    4.759    0.342    0.339  162.424   23.030
  584.500    4.762    0.339    0.346  162.404   23.015
  584.750    4.766    0.343    0.355  162.379   23.003
  585.000    4.770    0.339    0.350  162.359   22.988
  585.250    4.775    0.345    0.343  162.340   22.398
  585.500    4.692    0.351    0.347  163.274   22.392
  585.750    4.695    0.350    0.351  163.254   22.377
  586.000    4.700    0.345    0.354  163.230   21.789
  586.250    4.704    0.342    0.344  163.215   22.353
  586.500    4.708    0.338    0.348  164.154   22.917
  586.750    4.712    0.341    0.355  165.094   24.056
  587.000    4.717    0.343    0.353  165.074   24.614
  587.250    4.809    0.347    0.336  163.130   24.033
  587.500    4.811    0.343    0.333  162.155   21.714
  587.750    4.815    0.340    0.340  162.125   20.551
  588.000    4.821    0.343    0.343  162.111   21.115
  588.250    4.826    0.349    0.348  161.126   22.254
  588.500    4.828    0.354    0.357  160.156   22.242
  588.750    4.833    0.363    0.373  159.172   21.076
  589.000    4.837    0.349    0.346  158.192   21.064
  589.250    4.840    0.336    0.335  158.172   20.476
  589.500    4.845    0.336    0.335  158.152   20.467
  589.750    4.939    0.338    0.328  159.092   21.031
  590.000    4.944    0.340    0.329  160.032   21.595
  590.250    4.947    0.339    0.329  160.012   22.156
  590.500    4.951    0.338    0.332  160.937   22.141
  590.750    4.955    0.339    0.334  160.922   21.556
  591.000    4.869    0.344    0.338  160.907   21.541
  591.250    4.873    0.346    0.345  160.877   20.953
  591.500    4.790    0.348    0.350  160.867   21.517
  591.750    4.795    0.345    0.352  159.887   22.081
  592.000    4.797    0.345    0.348  158.903   22.069
  592.250    4.804    0.346    0.351  157.923   22.057
  592.500    4.807    0.347    0.356  156.944   20.894
  592.750    4.899    0.347    0.363  156.924   20.306
  593.000    4.903    0.345    0.360  156.904   20.291
  593.250    4.908    0.344    0.351  157.843   20.279
  593.500    4.913    0.339    0.337  158.783   20.843
  593.750    4.915    0.333    0.330  161.632   22.555
