~VERSION INFORMATION
 VERS.                 2.0:   CWLS LOG ASCII STANDARD -VERSION 2.0
 WRAP.                  NO:   ONE LINE PER DEPTH STEP
~WELL INFORMATION BLOCK
#MNEM.UNIT           DATA                    DESCRIPTION OF MNEMONIC
#---------    -------------------            -------------------------------
# Generated from Intellog Unique Number	CS_77_79/WELL/894
WELL.         AMOCO LEISMER                  : Well_name    - WELL
LOC .         00/07-11-078-09W4/0            : Location     - LOCATION
UWI .         00/07-11-078-09W4/0            : Uwi          - UNIQUE WELL ID
ENTR.         JHS                            : Entered      - ENTERED BY
SRVC.         SCHLUMBERGER                   : Scn          - SERVICE COMPANY
STRT.M        167.640                        : top_depth    - START DEPTH
STOP.M        399.140                        : bot_depth    - STOP DEPTH
STEP.M        0.25                           : increment    - STEP LENGTH
 NULL. -999.2500:NULL Value
~CURVE INFORMATION BLOCK
#MNEM UNIT       ERCB CURVE CODE    CURVE DESCRIPTION
#-----------   ------------------   ----------------------------------
DEPT.M        00 001 00 00         : DEPTH        - DEPTH
RHOB.KG/M3    00 350 00 00         : DENS         - BULK DENSITY
GR  .API      00 310 00 00         : GR           - GAMMA RAY
DPHI.V/V      00 890 00 00         : PHID         - DENSITY POROSITY (SANDSTONE)
NPHI.V/V      00 330 00 00         : PHIN         - NEUTRON POROSITY (SANDSTONE)
ILD .OHMM     00 120 00 00         : RESD         - DEEP RESISTIVITY (DIL)
~PARAMETER INFORMATION
#MNEM.UNIT           DATA             DESCRIPTION OF MNEMONIC
#---------         -----------     ------------------------------
GL  .M        597.164              : gl           - GROUND LEVEL ELEVATION
EREF.M        600.669              : kb           - ELEVATION OF DEPTH REFERENCE
DATM.M        600.669              : datum        - DATUM ELEVATION
TDD .M        405.384              : tdd          - TOTAL DEPTH DRILLER
RUN .         ONE                  : Run          - RUN NUMBER
ENG .         BILL                 : Engineer     - RECORDING ENGINEER
WIT .         JIM                  : Witness      - WITNESSED BY
MUD .         GEL                  : Mud_type     - MUD TYPE
MATR.         SANDSTONE            : Logunit      - NEUTRON MATRIX
TMAX.C        21.1111              : BHT          - MAXIMUM RECORDED TEMPERATURE
BHTD.M        405.384              : BHTDEP       - MAXIMUM RECORDED TEMPERATURE
MATR.         1                    : LOGUNIT      - NEUTRON MATRIX
RMT .C        25                   : MDTP         - TEMPERATURE OF MUD
NEUT.         1                    : NEUTRON      - NEUTRON TYPE
RESI.         0                    : RESIST       - RESISTIVITY TYPE
RMC .OHMM     0.25                 : RMC          - RESISTIVITY OF MUD CAKE
RMF .OHMM     0.25                 : RMF          - RESISTIVITY OF MUD FILTRATE
SUFT.C        15                   : SUFT         - SURFACE TEMPERATURE
~A  DEPTH     DENS       GR     PHID     PHIN     RESD
# ...
  240.640    0.000   63.743    0.308    0.431   25.706
  240.890    0.000   64.105    0.312    0.425   26.569
  241.140    0.000   64.072    0.318    0.431   26.800
  241.390   -0.000   63.576    0.327    0.431   27.206
  241.640   -0.000   67.445    0.328    0.426   27.140
  241.890   -0.000   65.815    0.334    0.425   27.690
  242.140    0.000   64.698    0.350    0.438   27.201
  242.390    0.000   67.941    0.334    0.453   27.230
  242.640    0.000   67.309    0.318    0.466   27.241
  242.890   -0.000   65.246    0.323    0.462   27.193
  243.140   -0.000   65.156    0.328    0.449   27.777
  243.390   -0.000   67.492    0.328    0.447   28.303
  243.640    0.000   66.828    0.318    0.447   28.216
  243.890    0.000   63.411    0.329    0.458   28.738
  244.140   -0.000   61.544    0.327    0.474   28.310
  244.390   -0.000   61.538    0.326    0.462   28.335
  244.640   -0.000   61.470    0.338    0.445   28.438
  244.890    0.000   59.897    0.331    0.435   28.880
  245.140    0.000   59.341    0.335    0.437   28.826
  245.390    0.000   61.133    0.361    0.462   29.465
  245.640   -0.000   61.195    0.350    0.469   29.428
  245.890   -0.000   59.606    0.343    0.460   29.441
  246.140   -0.000   61.105    0.337    0.447   29.451
  246.390    0.000   60.823    0.326    0.453   29.462
  246.640    0.000   58.664    0.338    0.466   29.473
  246.890    0.000   56.261    0.346    0.452   29.479
  247.140   -0.000   58.136    0.345    0.450   29.133
  247.390   -0.000   61.475    0.339    0.455   28.971
  247.640    0.000   60.620    0.349    0.460   28.965
  247.890    0.000   57.876    0.353    0.458   28.957
  248.140    0.000   57.493    0.337    0.461   28.897
  248.390   -0.000   58.494    0.356    0.466   28.446
  248.640   -0.000   60.507    0.364    0.450   28.515
  248.890   -0.000   61.682    0.343    0.447   27.921
  249.140    0.000   59.132    0.332    0.449   28.025
  249.390    0.000   56.824    0.327    0.450   27.451
  249.640    0.000   55.833    0.320    0.455   26.954
  249.890   -0.000   59.407    0.341    0.460   27.039
  250.140   -0.000   59.945    0.355    0.449   26.432
  250.390    0.000   60.012    0.343    0.443   26.510
  250.640    0.000   62.020    0.354    0.441   25.676
  250.890    0.000   64.284    0.340    0.443   25.476
  251.140   -0.000   64.179    0.343    0.446   24.716
  251.390   -0.000   64.571    0.341    0.437   23.657
  251.640   -0.000   64.224    0.331    0.436   23.693
  251.890    0.000   62.661    0.333    0.450   23.311
  252.140    0.000   61.366    0.318    0.472   23.334
  252.390    0.000   60.039    0.331    0.471   23.347
  252.640   -0.000   59.955    0.346    0.455   23.027
  252.890   -0.000   60.282    0.330    0.452   22.975
  253.140   -0.000   61.337    0.347    0.477   22.514
  253.390    0.000   63.350    0.352    0.484   22.300
  253.640    0.000   64.288    0.338    0.486   21.700
  253.890   -0.000   62.645    0.329    0.484   21.358
  254.140   -0.000   60.324    0.316    0.451   20.889
  254.390   -0.000   58.986    0.323    0.447   21.477
  254.640    0.000   58.614    0.284    0.434   22.852
  254.890    0.000   52.995    0.254    0.416   24.308
  255.140    0.000   48.765    0.142    0.332   25.238
  255.390   -0.000   48.275    0.066    0.276   24.942
  255.640   -0.000   49.937    0.043    0.255   22.858
  255.890   -0.000   55.057    0.212    0.380   21.321
  256.140    0.000   60.600    0.274    0.426   19.477
  256.390    0.000   64.233    0.312    0.473   17.967
  256.640   -0.000   64.492    0.312    0.474   17.154
  256.890   -0.000   63.843    0.310    0.463   16.645
  257.140   -0.000   64.992    0.328    0.471   16.127
  257.390    0.000   65.307    0.336    0.484   16.194
  257.640    0.000   63.825    0.337    0.491   16.872
  257.890    0.000   64.720    0.328    0.507   17.553
  258.140   -0.000   66.325    0.330    0.500   17.563
  258.390   -0.000   65.355    0.345    0.477   16.832
  258.640   -0.000   65.782    0.342    0.471   15.005
  258.890    0.000   69.418    0.327    0.483   12.682
  259.140    0.000   75.006    0.312    0.496    8.382
  259.390    0.000   85.002    0.287    0.511    5.462
  259.640   -0.000   88.445    0.273    0.534    4.804
  259.890   -0.000   83.308    0.279    0.541    4.963
  260.140    0.000   78.425    0.281    0.548    5.638
  260.390    0.000   76.736    0.305    0.539    6.815
  260.640    0.000   76.585    0.310    0.461    8.281
  260.890   -0.000   83.091    0.294    0.452    9.171
  261.140   -0.000   88.678    0.277    0.441    8.627
  261.390   -0.000   95.642    0.252    0.445    6.831
  261.640    0.000  101.187    0.226    0.467    5.351
  261.890    0.000  103.766    0.185    0.480    4.447
  262.140    0.000  103.695    0.179    0.492    4.158
  262.390   -0.000  107.324    0.205    0.504    4.089
  262.640   -0.000  105.711    0.196    0.513    4.003
  262.890    0.000  105.952    0.201    0.512    4.015
  263.140    0.000  109.931    0.214    0.479    3.940
  263.390    0.000  108.846    0.210    0.491    3.837
  263.640   -0.000  108.421    0.223    0.492    3.610
  263.890   -0.000  108.380    0.232    0.504    3.428
  264.140   -0.000  108.143    0.203    0.527    3.330
  264.390    0.000  104.966    0.200    0.545    3.234
  264.640    0.000  104.906    0.226    0.534    3.166
  264.890    0.000  104.902    0.206    0.548    3.108
  265.140   -0.000  102.546    0.237    0.559    3.169
  265.390   -0.000  100.743    0.243    0.540    3.297
  265.640   -0.000   99.514    0.259    0.539    3.476
  265.890    0.000   96.768    0.268    0.543    3.733
  266.140    0.000   91.600    0.254    0.538    4.200
  266.390   -0.000   87.152    0.257    0.514    4.743
  266.640   -0.000   86.263    0.241    0.505    5.115
  266.890   -0.000   89.451    0.269    0.505    5.015
  267.140    0.000   93.366    0.237    0.512    4.723
  267.390    0.000   96.296    0.225    0.525    4.059
  267.640    0.000   99.967    0.221    0.544    3.660
  267.890   -0.000  102.404    0.233    0.565    3.448
  268.140   -0.000  104.157    0.227    0.549    3.266
  268.390   -0.000  101.361    0.221    0.548    3.174
  268.640    0.000   99.019    0.219    0.570    3.118
  268.890    0.000   96.867    0.230    0.593    3.119
  269.140   -0.000   99.104    0.233    0.568    3.180
  269.390   -0.000   99.285    0.220    0.570    3.299
  269.640   -0.000   97.277    0.222    0.572    3.664
  269.890    0.000   98.545    0.238    0.546    4.019
  270.140    0.000   98.566    0.255    0.518    4.547
  270.390    0.000   92.907    0.266    0.482    5.005
  270.640   -0.000   87.457    0.260    0.440    5.238
  270.890   -0.000   87.256    0.240    0.434    5.210
  271.140   -0.000   87.948    0.211    0.453    5.053
  271.390    0.000   90.987    0.211    0.469    4.822
  271.640    0.000   92.664    0.216    0.476    4.777
  271.890    0.000   94.438    0.222    0.461    5.075
  272.140   -0.000   89.466    0.212    0.443    5.618
  272.390   -0.000   86.616    0.205    0.430    6.322
  272.640    0.000   84.371    0.212    0.428    6.931
  272.890    0.000   84.815    0.215    0.443    6.956
  273.140    0.000   90.276    0.206    0.456    6.624
  273.390   -0.000   93.687    0.207    0.466    6.268
  273.640   -0.000   95.813    0.198    0.449    5.552
  273.890   -0.000   96.250    0.223    0.453    5.038
  274.140    0.000   96.178    0.243    0.473    4.609
  274.390    0.000   98.364    0.251    0.496    4.247
  274.640    0.000   99.923    0.230    0.512    3.994
  274.890   -0.000   98.293    0.218    0.505    3.866
  275.140   -0.000   98.499    0.218    0.495    3.837
  275.390    0.000  101.803    0.236    0.517    3.716
  275.640    0.000  103.818    0.256    0.552    3.575
  275.890    0.000  103.202    0.246    0.534    3.289
  276.140   -0.000  103.729    0.249    0.553    3.097
  276.390   -0.000  100.317    0.252    0.561    3.082
  276.640   -0.000   95.134    0.243    0.533    3.321
  276.890    0.000   88.125    0.262    0.498    3.960
