~VERSION INFORMATION
 VERS.                 2.0:   CWLS LOG ASCII STANDARD -VERSION 2.0
 WRAP.                  NO:   ONE LINE PER DEPTH STEP
~WELL INFORMATION BLOCK
#MNEM.UNIT           DATA                    DESCRIPTION OF MNEMONIC
#---------    -------------------            -------------------------------
# Generated from Intellog Unique Number	CW_73_75/WELL/2726
WELL.         UNIGAS ET AL TOMATO 05-02      : Well_name    - WELL
LOC .         00/05-02-073-23W4/0            : Location     - LOCATION
UWI .         00/05-02-073-23W4/0            : Uwi          - UNIQUE WELL ID
ENTR.         JAYE                           : Entered      - ENTERED BY
SRVC.         SCHLUMBERGER                   : Scn          - SERVICE COMPANY
DATE.         14 DEC 80                      : Date         - LOG DATE
STRT.M        325                            : top_depth    - START DEPTH
STOP.M        622                            : bot_depth    - STOP DEPTH
STEP.M        0.25                           : increment    - STEP LENGTH
 NULL. -999.2500:NULL Value
~CURVE INFORMATION BLOCK
#MNEM UNIT       ERCB CURVE CODE    CURVE DESCRIPTION
#-----------   ------------------   ----------------------------------
DEPT.M        00 001 00 00         : DEPTH        - DEPTH
ILD .OHMM     00 120 00 00         : RESD         - DEEP RESISTIVITY (DIL)
NPHI.V/V      00 330 00 00         : PHIN         - NEUTRON POROSITY (SANDSTONE)
DPHI.V/V      00 890 00 00         : PHID         - DENSITY POROSITY (SANDSTONE)
GR  .API      00 310 00 00         : GR           - GAMMA RAY
CALI.MM       00 280 01 00         : CAL          - CALIPER
~PARAMETER INFORMATION
#MNEM.UNIT           DATA             DESCRIPTION OF MNEMONIC
#---------         -----------     ------------------------------
GL  .M        625                  : gl           - GROUND LEVEL ELEVATION
EREF.M        627.5                : kb           - ELEVATION OF DEPTH REFERENCE
DATM.M        625                  : datum        - DATUM ELEVATION
TDD .M        624                  : tdd          - TOTAL DEPTH DRILLER
RUN .         ONE                  : Run          - RUN NUMBER
ENG .         KUZIO                : Engineer     - RECORDING ENGINEER
BASE.         EDM                  : Branch       - HOME BASE OF LOGGING UNIT
MUD .         GEL CHEM             : Mud_type     - MUD TYPE
MATR.         SANDSTONE            : Logunit      - NEUTRON MATRIX
TMAX.C        23.3                 : BHT          - MAXIMUM RECORDED TEMPERATURE
BHTD.M        625                  : BHTDEP       - MAXIMUM RECORDED TEMPERATURE
RMT .C        16.6                 : MDTP         - TEMPERATURE OF MUD
MUDD.KG/M     1110                 : MWT          - MUD DENSITY
NEUT.         1                    : NEUTRON      - NEUTRON TYPE
RESI.         0                    : RESIST       - RESISTIVITY TYPE
RM  .OHMM     3.19                 : RM           - RESISTIVITY OF MUD
RMC .OHMM     0                    : RMC          - RESISTIVITY OF MUD CAKE
RMF .OHMM     3.11                 : RMF          - RESISTIVITY OF MUD FILTRATE
SUFT.C        0                    : SUFT         - SURFACE TEMPERATURE
~A  DEPTH     RESD     PHIN     PHID       GR      CAL
# ...
  398.000    2.808    0.477    0.157   95.720  181.569
  398.250    2.596    0.527    0.111   97.055  195.237
  398.500    2.499    0.577    0.172   99.143  210.673
  398.750    2.424    0.591    0.258   96.236  229.649
  399.000    2.423    0.568    0.324   97.135  230.526
  399.250    2.494    0.575    0.412  100.971  212.680
  399.500    2.601    0.583    0.362  105.491  188.911
  399.750    2.775    0.566    0.323  109.137  198.209
  400.000    3.030    0.551    0.346  112.407  212.718
  400.250    3.405    0.517    0.425  111.998  226.695
  400.500    3.818    0.500    0.461  108.903  240.984
  400.750    4.398    0.490    0.359  105.249  199.949
  401.000    5.008    0.445    0.313  101.469  181.065
  401.250    5.364    0.474    0.364  101.873  192.867
  401.500    5.659    0.480    0.398  105.080  191.763
  401.750    5.890    0.490    0.249   97.743  178.087
  402.000    6.073    0.503    0.265   78.239  173.239
  402.250    6.285    0.439    0.285   63.476  161.530
  402.500    6.418    0.416    0.284   60.323  158.461
  402.750    6.480    0.418    0.305   64.095  159.550
  403.000    6.393    0.445    0.307   68.365  160.521
  403.250    6.154    0.460    0.299   71.259  161.402
  403.500    5.679    0.454    0.304   73.100  161.964
  403.750    5.393    0.437    0.307   71.188  161.807
  404.000    5.281    0.425    0.302   71.404  161.740
  404.250    5.271    0.421    0.294   78.481  161.167
  404.500    5.383    0.444    0.276   85.997  160.899
  404.750    5.613    0.468    0.287   80.469  160.523
  405.000    5.754    0.452    0.315   70.199  159.840
  405.250    5.821    0.435    0.287   72.851  159.886
  405.500    5.787    0.426    0.252   78.370  161.804
  405.750    5.710    0.414    0.231   84.072  165.173
  406.000    5.613    0.431    0.198   92.461  172.606
  406.250    5.475    0.457    0.219   95.794  174.624
  406.500    5.340    0.467    0.237   90.642  171.340
  406.750    5.170    0.462    0.219   87.114  167.333
  407.000    5.014    0.454    0.209   85.017  164.672
  407.250    4.853    0.443    0.239   86.104  163.260
  407.500    4.789    0.420    0.278   88.877  164.243
  407.750    4.890    0.437    0.317   89.779  165.534
  408.000    5.228    0.454    0.369   86.188  165.369
  408.250    5.537    0.475    0.327   83.842  156.677
  408.500    5.698    0.474    0.292   83.245  150.277
  408.750    5.774    0.462    0.290   81.586  147.617
  409.000    5.752    0.468    0.286   80.865  147.559
  409.250    5.621    0.478    0.274   84.198  149.059
  409.500    5.536    0.465    0.254   91.838  152.123
  409.750    5.515    0.445    0.223  107.840  154.969
  410.000    5.546    0.430    0.217  116.353  158.969
  410.250    5.632    0.441    0.256  101.653  162.862
  410.500    5.718    0.475    0.280   88.576  163.011
  410.750    5.762    0.476    0.276   72.193  161.809
  411.000    5.685    0.463    0.258   69.598  160.084
  411.250    5.631    0.433    0.225   71.498  159.194
  411.500    5.556    0.415    0.210   72.460  159.339
  411.750    5.535    0.399    0.233   76.979  160.640
  412.000    5.524    0.391    0.225   86.804  163.487
  412.250    5.545    0.432    0.177  100.308  170.084
  412.500    5.717    0.480    0.220  100.835  175.119
  412.750    6.218    0.483    0.265   91.440  168.092
  413.000    6.699    0.464    0.299   80.171  160.546
  413.250    6.907    0.450    0.314   74.395  155.605
  413.500    6.946    0.450    0.315   73.049  154.710
  413.750    6.867    0.451    0.297   74.638  154.966
  414.000    6.737    0.446    0.272   78.096  155.330
  414.250    6.647    0.446    0.257   82.490  155.167
  414.500    6.659    0.477    0.265   80.021  155.203
  414.750    6.621    0.458    0.240   77.052  155.556
  415.000    6.483    0.389    0.211   81.013  156.233
  415.250    6.240    0.419    0.201   82.473  156.899
  415.500    6.006    0.441    0.208   83.561  157.151
  415.750    5.726    0.461    0.215   87.645  157.297
  416.000    5.511    0.470    0.236   89.293  157.341
  416.250    5.194    0.473    0.242   87.572  157.702
  416.500    4.980    0.467    0.231   89.660  157.845
  416.750    4.812    0.451    0.220   91.931  158.213
  417.000    4.720    0.454    0.210   88.527  158.561
  417.250    4.693    0.470    0.232   85.747  158.821
  417.500    4.738    0.476    0.250   87.210  159.378
  417.750    4.793    0.468    0.258   90.543  160.356
  418.000    4.904    0.457    0.243   96.187  161.445
  418.250    5.213    0.463    0.249   98.895  161.695
  418.500    5.626    0.467    0.266   89.561  161.427
  418.750    5.935    0.481    0.276   77.420  163.036
  419.000    6.456    0.471    0.293   75.391  163.076
  419.250    7.076    0.437    0.270   77.476  162.814
  419.500    7.667    0.435    0.246   80.933  163.273
  419.750    8.197    0.457    0.212   85.641  164.361
  420.000    8.564    0.452    0.179   88.788  165.128
  420.250    8.597    0.383    0.159   82.200  165.387
  420.500    7.666    0.358    0.139   75.799  165.635
  420.750    6.732    0.415    0.130   81.192  165.786
  421.000    6.272    0.450    0.173   87.710  166.037
  421.250    5.968    0.468    0.188   91.043  165.459
  421.500    5.625    0.457    0.140   91.820  165.607
  421.750    5.383    0.445    0.141   97.650  167.002
  422.000    5.161    0.440    0.162   97.740  168.398
  422.250    4.996    0.460    0.179   91.401  169.899
  422.500    4.929    0.477    0.196   96.797  171.088
  422.750    5.092    0.492    0.212   96.511  169.576
  423.000    5.496    0.486    0.245   88.612  164.941
  423.250    6.012    0.471    0.252   70.416  161.447
  423.500    6.730    0.490    0.269   58.837  159.829
  423.750    7.605    0.587    0.340   51.627  157.277
  424.000    8.594    0.615    0.518   49.218  154.822
  424.250    9.842    0.597    0.320   52.303  152.474
  424.500   11.890    0.441    0.297   52.205  148.151
  424.750   14.121    0.367    0.282   45.867  148.508
  425.000   17.093    0.321    0.260   39.030  152.400
  425.250   19.538    0.335    0.234   34.876  154.216
  425.500   20.029    0.327    0.219   33.343  156.133
  425.750   16.232    0.300    0.214   33.556  157.839
  426.000   13.231    0.281    0.214   36.517  157.989
  426.250   11.140    0.277    0.263   42.471  155.746
  426.500   10.067    0.344    0.280   47.615  150.593
  426.750    9.839    0.388    0.287   49.392  147.722
  427.000   10.125    0.408    0.261   45.548  149.435
  427.250   10.742    0.317    0.230   38.461  153.013
  427.500   11.310    0.290    0.216   30.127  157.740
  427.750   11.684    0.305    0.214   28.283  160.176
  428.000   11.594    0.305    0.229   30.492  160.120
  428.250   11.266    0.288    0.219   29.832  159.340
  428.500   10.741    0.277    0.205   26.115  158.963
  428.750   10.318    0.297    0.221   22.213  158.177
  429.000    9.799    0.301    0.234   23.174  157.390
  429.250    9.360    0.293    0.233   25.197  157.010
  429.500    8.974    0.297    0.230   29.032  156.849
  429.750    8.539    0.298    0.231   29.121  156.484
  430.000    8.172    0.288    0.230   28.711  156.313
  430.250    7.805    0.284    0.221   33.105  155.850
  430.500    7.384    0.328    0.243   38.375  155.888
  430.750    7.094    0.365    0.272   42.334  155.514
  431.000    6.973    0.386    0.305   45.105  155.141
  431.250    7.053    0.399    0.322   46.441  154.878
  431.500    7.175    0.398    0.326   46.407  155.234
  431.750    7.285    0.383    0.313   45.749  155.697
  432.000    7.383    0.372    0.301   44.215  155.841
  432.250    7.468    0.364    0.292   43.242  155.991
  432.500    7.525    0.359    0.283   44.642  156.242
  432.750    7.496    0.360    0.293   47.167  157.431
  433.000    7.340    0.370    0.313   47.755  158.830
  433.250    7.201    0.370    0.321   47.596  159.710
  433.500    7.119    0.378    0.325   47.873  160.270
  433.750    7.132    0.388    0.333   49.083  160.842
  434.000    7.242    0.397    0.340   51.230  160.990
  434.250    7.669    0.411    0.338   54.129  160.930
