~VERSION INFORMATION
 VERS.                 2.0:   CWLS LOG ASCII STANDARD -VERSION 2.0
 WRAP.                  NO:   ONE LINE PER DEPTH STEP
~WELL INFORMATION BLOCK
#MNEM.UNIT           DATA                    DESCRIPTION OF MNEMONIC
#---------    -------------------            -------------------------------
# Generated from Intellog Unique Number	CN_94_101/WELL/3206
WELL.         NORTHSTAR ENERGY CORP.         : Well_name    - WELL
LOC .         00/06-36-095-16W4/0            : Location     - LOCATION
UWI .         00/06-36-095-16W400            : Uwi          - UNIQUE WELL ID
ENTR.         JOETTE                         : Entered      - ENTERED BY
SRVC.         SCHLUMBERGER                   : Scn          - SERVICE COMPANY
DATE.         07/20/92                       : Date         - LOG DATE
STRT.M        200                            : top_depth    - START DEPTH
STOP.M        325                            : bot_depth    - STOP DEPTH
STEP.M        0.25                           : increment    - STEP LENGTH
 NULL. -999.2500:NULL Value
~CURVE INFORMATION BLOCK
#MNEM UNIT       ERCB CURVE CODE    CURVE DESCRIPTION
#-----------   ------------------   ----------------------------------
DEPT.M        00 001 00 00         : DEPTH        - DEPTH
GR  .API      00 310 00 00         : GR           - GAMMA RAY
NPHI.V/V      00 330 00 00         : PHIN         - NEUTRON POROSITY (SANDSTONE)
DPHI.V/V      00 890 00 00         : PHID         - DENSITY POROSITY (SANDSTONE)
ILD .OHMM     00 120 00 00         : RESD         - DEEP RESISTIVITY (DIL)
~PARAMETER INFORMATION
#MNEM.UNIT           DATA             DESCRIPTION OF MNEMONIC
#---------         -----------     ------------------------------
GL  .M        567.8                : gl           - GROUND LEVEL ELEVATION
EREF.M        571.4                : kb           - ELEVATION OF DEPTH REFERENCE
DATM.M        571.4                : datum        - DATUM ELEVATION
TDD .M        341                  : tdd          - TOTAL DEPTH DRILLER
RUN .         0.000000             : Run          - RUN NUMBER
MUD .         GEL                  : Mud_type     - MUD TYPE
MATR.         SANDSTONE            : Logunit      - NEUTRON MATRIX
TMAX.C        35                   : BHT          - MAXIMUM RECORDED TEMPERATURE
BHTD.M        341                  : BHTDEP       - MAXIMUM RECORDED TEMPERATURE
RMT .C        15                   : MDTP         - TEMPERATURE OF MUD
MUDD.KG/M     1088                 : MWT          - MUD DENSITY
NEUT.         1                    : NEUTRON      - NEUTRON TYPE
RESI.         0                    : RESIST       - RESISTIVITY TYPE
RM  .OHMM     0.25                 : RM           - RESISTIVITY OF MUD
RMC .OHMM     0.48                 : RMC          - RESISTIVITY OF MUD CAKE
RMF .OHMM     0.19                 : RMF          - RESISTIVITY OF MUD FILTRATE
SUFT.C        4                    : SUFT         - SURFACE TEMPERATURE
BTZC.MM       0                    : BITZC        - BIT SIZE CONSTANT
MDW .KG/M     0                    : MDW          - MUD WEIGHT
~A  DEPTH       GR     PHIN     PHID     RESD
# ...
  243.500   98.429    0.396    0.256   12.616
  243.750   97.803    0.403    0.251   11.060
  244.000   95.382    0.383    0.242   10.646
  244.250   91.765    0.374    0.253    9.872
  244.500   86.340    0.373    0.272    9.678
  244.750   81.535    0.374    0.280    9.664
  245.000   80.908    0.382    0.252    9.652
  245.250   89.841    0.393    0.246    9.638
  245.500   92.197    0.402    0.248    9.632
  245.750   89.193    0.401    0.246    9.620
  246.000   84.373    0.346    0.223    9.609
  246.250   81.945    0.296    0.170   10.730
  246.500   80.137    0.278    0.133   12.907
  246.750   76.520    0.283    0.083   14.413
  247.000   73.501    0.292    0.128   14.126
  247.250   78.855    0.316    0.202   14.109
  247.500   86.001    0.327    0.188   14.353
  247.750   94.344    0.360    0.141   14.344
  248.000   90.130    0.334    0.094   14.063
  248.250   82.925    0.317    0.041   13.530
  248.500   84.690    0.347    0.087   12.549
  248.750   94.827    0.399    0.119   10.407
  249.000  105.562    0.431    0.173    8.793
  249.250  107.932    0.446    0.209    7.711
  249.500  109.099    0.448    0.208    7.150
  249.750  111.463    0.451    0.211    6.881
  250.000  113.228    0.451    0.216    6.744
  250.250  111.398    0.447    0.215    6.614
  250.500  109.575    0.438    0.205    6.604
  250.750  113.127    0.436    0.204    6.718
  251.000  116.693    0.436    0.209    6.838
  251.250  119.063    0.436    0.214    7.090
  251.500  117.831    0.436    0.156    7.624
  251.750  113.012    0.434    0.138    7.908
  252.000  109.402    0.435    0.211    8.044
  252.250  111.167    0.448    0.228    7.599
  252.500  112.327    0.454    0.232    7.315
  252.750  113.494    0.453    0.235    6.783
  253.000  116.455    0.453    0.239    6.287
  253.250  118.818    0.455    0.244    6.052
  253.500  118.790    0.456    0.247    5.824
  253.750  119.957    0.466    0.247    5.497
  254.000  122.327    0.488    0.245    5.391
  254.250  124.690    0.488    0.237    5.288
  254.500  119.878    0.479    0.219    5.282
  254.750  110.281    0.472    0.187    5.274
  255.000  100.670    0.465    0.190    5.368
  255.250  103.638    0.455    0.213    5.462
  255.500  107.803    0.450    0.222    5.558
  255.750  112.550    0.442    0.218    5.656
  256.000  110.130    0.432    0.191    5.755
  256.250  107.716    0.430    0.171    5.961
  256.500  108.285    0.452    0.197    6.067
  256.750  113.040    0.454    0.220    6.177
  257.000  123.177    0.439    0.222    6.402
  257.250  123.141    0.412    0.222    6.514
  257.500  117.140    0.399    0.215    6.628
  257.750  108.739    0.387    0.125    6.745
  258.000  110.504    0.375    0.133    7.123
  258.250  117.651    0.379    0.151    7.666
  258.500  123.004    0.409    0.179    7.944
  258.750  122.378    0.414    0.199    7.793
  259.000  117.558    0.426    0.205    6.960
  259.250  115.742    0.431    0.206    6.335
  259.500  115.713    0.426    0.206    6.329
  259.750  115.684    0.423    0.200    6.322
  260.000  113.854    0.424    0.193    6.196
  260.250  113.228    0.431    0.192    5.743
  260.500  113.206    0.440    0.203    5.529
  260.750  111.981    0.457    0.225    4.936
  261.000  111.354    0.492    0.238    4.753
  261.250  110.728    0.485    0.231    4.490
  261.500  110.699    0.471    0.219    4.402
  261.750  110.065    0.457    0.210    4.396
  262.000  108.242    0.458    0.202    4.392
  262.250  109.416    0.458    0.192    4.551
  262.500  108.790    0.445    0.180    4.634
  262.750   96.794    0.397    0.167    5.079
  263.000   87.197    0.362    0.159    5.778
  263.250   75.209    0.318    0.179    8.851
  263.500   62.615    0.318    0.224   11.254
  263.750   62.594    0.297    0.269   12.111
  264.000   61.369    0.209    0.323   13.035
  264.250   56.556    0.176    0.350   15.973
  264.500   47.550    0.177    0.374   21.481
  264.750   47.522    0.187    0.385   32.298
  265.000   48.689    0.199    0.384   56.364
  265.250   46.859    0.213    0.388   66.550
  265.500   44.445    0.219    0.395   66.431
  265.750   45.014    0.227    0.400   66.372
  266.000   46.779    0.241    0.396   65.071
  266.250   48.538    0.274    0.389   64.994
  266.500   49.107    0.284    0.384   64.916
  266.750   49.676    0.287    0.376   64.858
  267.000   52.039    0.290    0.369   63.587
  267.250   53.804    0.300    0.364   62.341
  267.500   54.373    0.315    0.356   59.976
  267.750   54.352    0.335    0.349   58.801
  268.000   55.511    0.386    0.338   57.666
  268.250   56.088    0.431    0.322   55.478
  268.500   57.248    0.436    0.313   52.406
  268.750   57.212    0.449    0.305   50.433
  269.000   57.197    0.460    0.299   46.777
  269.250   57.169    0.461    0.299   43.373
  269.500   56.535    0.452    0.298   40.958
  269.750   55.908    0.436    0.301   37.978
  270.000   54.683    0.434    0.307   33.303
  270.250   54.654    0.422    0.308   29.762
  270.500   55.230    0.407    0.308   26.588
  270.750   56.989    0.413    0.308   22.880
  271.000   58.163    0.429    0.311   22.025
  271.250   58.134    0.437    0.312   21.196
  271.500   57.500    0.438    0.317   21.170
  271.750   57.471    0.444    0.318   21.542
  272.000   58.040    0.448    0.321   22.331
  272.250   59.215    0.451    0.322   23.584
  272.500   59.784    0.456    0.320   25.850
  272.750   61.549    0.453    0.309   28.858
  273.000   59.128    0.424    0.290   29.924
  273.250   51.924    0.420    0.288   34.042
  273.500   45.915    0.420    0.308   46.640
  273.750   39.301    0.420    0.319   56.119
  274.000   39.279    0.418    0.326   66.260
  274.250   39.251    0.417    0.330   68.688
  274.500   38.011    0.418    0.332   67.343
  274.750   36.787    0.418    0.334   69.810
  275.000   36.160    0.416    0.336   71.035
  275.250   38.523    0.411    0.336   67.081
  275.500   40.893    0.406    0.331   63.386
  275.750   41.462    0.410    0.328   57.690
  276.000   41.434    0.420    0.324   50.590
  276.250   41.405    0.431    0.324   44.364
  276.500   42.572    0.423    0.322   36.782
  276.750   45.533    0.410    0.315   31.661
  277.000   47.306    0.402    0.312   28.285
  277.250   47.875    0.395    0.310   28.243
  277.500   46.038    0.390    0.310   28.739
  277.750   43.624    0.378    0.310   29.252
  278.000   38.811    0.371    0.310   29.765
  278.250   32.205    0.359    0.309   32.034
  278.500   33.372    0.365    0.307   33.821
  278.750   38.127    0.389    0.306   31.958
  279.000   41.088    0.391    0.307   26.994
  279.250   41.059    0.392    0.309   29.043
  279.500   40.432    0.392    0.315   42.875
  279.750   39.208    0.400    0.323   72.070
  280.000   37.983    0.420    0.332   82.013
  280.250   37.349    0.427    0.345   83.427
  280.500   36.729    0.422    0.344   80.286
  280.750   36.700    0.417    0.341   73.050
  281.000   38.465    0.416    0.338   67.734
  281.250   40.828    0.420    0.334   60.512
  281.500   43.192    0.430    0.333   56.125
  281.750   44.359    0.437    0.331   50.141
  282.000   47.911    0.418    0.290   45.622
  282.250   44.301    0.404    0.170   42.302
  282.500   37.694    0.310    0.082   43.044
  282.750   42.450    0.237    0.076   50.838
  283.000   46.607    0.254    0.117   55.707
  283.250   47.176    0.321    0.152   51.653
  283.500   48.343    0.372    0.290   46.146
  283.750   50.108    0.404    0.305   41.238
  284.000   51.275    0.407    0.307   33.561
  284.250   50.050    0.394    0.296   31.128
  284.500   48.228    0.381    0.294   33.481
  284.750   48.199    0.374    0.298   38.100
  285.000   56.542    0.377    0.299   38.757
  285.250   58.891    0.390    0.300   34.625
  285.500   60.065    0.404    0.299   34.584
  285.750   60.627    0.407    0.293   32.659
  286.000   60.612    0.403    0.289   32.038
  286.250   59.978    0.399    0.287   30.264
  286.500   58.156    0.390    0.286   29.124
  286.750   56.938    0.379    0.287   29.090
