~VERSION INFORMATION
 VERS.                 2.0:   CWLS LOG ASCII STANDARD -VERSION 2.0
 WRAP.                  NO:   ONE LINE PER DEPTH STEP
~WELL INFORMATION BLOCK
#MNEM.UNIT           DATA                    DESCRIPTION OF MNEMONIC
#---------    -------------------            -------------------------------
# Generated from Intellog Unique Number	CW_82_90/WELL/3433
WELL.         TEXEX WOODEN                   : Well_name    - WELL
LOC .         00/07-35-088-24W4/0            : Location     - LOCATION
UWI .         00/07-35-088-24W4/0            : Uwi          - UNIQUE WELL ID
ENTR.         MAX                            : Entered      - ENTERED BY
SRVC.         SCHLUMBERGER                   : Scn          - SERVICE COMPANY
STRT.M        60.96                          : top_depth    - START DEPTH
STOP.M        304.71                         : bot_depth    - STOP DEPTH
STEP.M        0.25                           : increment    - STEP LENGTH
 NULL. -999.2500:NULL Value
~CURVE INFORMATION BLOCK
#MNEM UNIT       ERCB CURVE CODE    CURVE DESCRIPTION
#-----------   ------------------   ----------------------------------
DEPT.M        00 001 00 00         : DEPTH        - DEPTH
ILD .OHMM     00 120 00 00         : RESD         - DEEP RESISTIVITY (DIL)
NPHI.V/V      00 330 00 00         : PHIN         - NEUTRON POROSITY (SANDSTONE)
DPHI.V/V      00 890 00 00         : PHID         - DENSITY POROSITY (SANDSTONE)
CALI.MM       00 280 01 00         : CAL          - CALIPER
GR  .API      00 310 00 00         : GR           - GAMMA RAY
~PARAMETER INFORMATION
#MNEM.UNIT           DATA             DESCRIPTION OF MNEMONIC
#---------         -----------     ------------------------------
GL  .M        524.866              : gl           - GROUND LEVEL ELEVATION
EREF.M        527.914              : kb           - ELEVATION OF DEPTH REFERENCE
DATM.M        524.866              : datum        - DATUM ELEVATION
TDD .M        304.495              : tdd          - TOTAL DEPTH DRILLER
RUN .         ONE                  : Run          - RUN NUMBER
ENG .         BILL                 : Engineer     - RECORDING ENGINEER
WIT .         JIM                  : Witness      - WITNESSED BY
MUD .         GEL                  : Mud_type     - MUD TYPE
MATR.         SANDSTONE            : Logunit      - NEUTRON MATRIX
TMAX.C        14.4444              : BHT          - MAXIMUM RECORDED TEMPERATURE
BHTD.M        304.495              : BHTDEP       - MAXIMUM RECORDED TEMPERATURE
MATR.         1                    : LOGUNIT      - NEUTRON MATRIX
RMT .C        6.66667              : MDTP         - TEMPERATURE OF MUD
NEUT.         1                    : NEUTRON      - NEUTRON TYPE
RESI.         0                    : RESIST       - RESISTIVITY TYPE
RMC .OHMM     4.24                 : RMC          - RESISTIVITY OF MUD CAKE
RMF .OHMM     4.24                 : RMF          - RESISTIVITY OF MUD FILTRATE
SUFT.C        -23.3333             : SUFT         - SURFACE TEMPERATURE
~A  DEPTH     RESD     PHIN     PHID      CAL       GR
# ...
  170.460    5.638    0.444    0.237  228.772   55.910
  170.710    5.585    0.446    0.247  234.057   55.270
  170.960    5.433    0.461    0.240  240.945   55.254
  171.210    5.145    0.466    0.233  252.082   55.862
  171.460    4.700    0.447    0.222  256.839   56.161
  171.710    4.255    0.459    0.239  254.682   56.143
  171.960    3.852    0.488    0.211  257.844   56.441
  172.210    3.551    0.529    0.280  250.905   57.994
  172.460    3.424    0.550    0.313  255.659   60.490
  172.710    3.422    0.564    0.365  273.708   61.099
  172.960    3.482    0.555    0.371  286.971   59.513
  173.210    3.575    0.561    0.347  285.349   60.439
  173.460    3.737    0.543    0.321  286.381   61.050
  173.710    3.907    0.509    0.333  257.644   59.460
  173.960    4.158    0.491    0.316  253.895   59.760
  174.210    4.426    0.474    0.331  244.825   58.800
  174.460    4.841    0.448    0.194  240.013   54.700
  174.710    5.293    0.433    0.168  243.175   51.855
  174.960    5.999    0.447    0.138  236.232   50.899
  175.210    6.160    0.461    0.221  234.603   54.339
  175.460    6.156    0.468    0.283  240.962   59.658
  175.710    6.099    0.459    0.260  248.903   62.153
  175.960    6.040    0.478    0.237  254.195   63.077
  176.210    6.091    0.497    0.256  272.776   61.487
  176.460    6.309    0.496    0.286  277.533   59.903
  176.710    6.194    0.471    0.242  247.729   57.377
  176.960    6.594    0.461    0.206  244.511   54.846
  177.210    6.832    0.454    0.218  244.484   55.142
  177.460    7.078    0.443    0.196  247.108   55.754
  177.710    7.333    0.430    0.235  246.548   56.051
  177.960    7.530    0.427    0.234  243.866   56.661
  178.210    7.801    0.438    0.224  235.325   57.587
  178.460    8.082    0.437    0.247  229.977   57.886
  178.710    8.373    0.426    0.232  227.826   57.554
  178.960    8.521    0.421    0.224  225.669   57.224
  179.210    8.671    0.419    0.224  224.578   56.894
  179.460    8.667    0.422    0.216  224.018   59.075
  179.710    8.662    0.426    0.217  223.456   62.194
  179.960    8.426    0.425    0.226  223.432   60.920
  180.210    8.198    0.420    0.236  223.936   59.336
  180.460    7.556    0.415    0.237  224.440   58.378
  180.710    6.841    0.420    0.245  226.528   58.359
  180.960    6.194    0.438    0.251  228.631   58.659
  181.210    5.313    0.458    0.261  237.113   58.641
  181.460    4.853    0.484    0.275  250.909   58.938
  181.710    4.596    0.498    0.305  274.806   59.862
  181.960    4.431    0.513    0.279  293.915   60.476
  182.210    4.272    0.499    0.297  281.127   62.337
  182.460    4.119    0.485    0.326  259.302   64.521
  182.710    3.831    0.476    0.292  243.852   68.272
  182.960    3.182    0.524    0.280  250.859   72.493
  183.210    3.014    0.533    0.246  267.642   70.278
  183.460    2.959    0.508    0.242  254.934   63.385
  183.710    2.956    0.477    0.255  229.034   62.099
  183.960    2.980    0.497    0.246  256.901   66.414
  184.210    3.114    0.513    0.282  271.058   73.519
  184.460    3.224    0.491    0.260  245.158   72.856
  184.710    3.369    0.480    0.210  238.229   73.748
  184.960    3.713    0.472    0.215  237.614   74.956
  185.210    4.019    0.480    0.224  234.390   73.669
  185.460    3.981    0.475    0.270  230.104   69.266
  185.710    3.943    0.471    0.281  227.926   63.312
  185.960    3.802    0.480    0.256  231.536   58.908
  186.210    3.699    0.507    0.230  243.067   61.356
  186.460    3.631    0.499    0.259  266.182   65.666
  186.710    3.596    0.479    0.281  259.771   61.579
  186.960    3.593    0.507    0.253  261.299   64.027
  187.210    3.591    0.519    0.258  262.282   65.230
  187.460    3.588    0.501    0.211  257.987   64.250
  187.710    3.618    0.477    0.214  250.540   64.525
  187.960    3.680    0.510    0.199  255.212   64.483
  188.210    3.710    0.513    0.222  263.046   62.569
  188.460    3.741    0.489    0.234  263.493   60.038
  188.710    3.805    0.480    0.204  253.411   63.414
  188.960    3.905    0.478    0.224  255.975   65.556
  189.210    4.008    0.464    0.232  258.531   66.749
  189.460    4.077    0.471    0.207  251.065   62.667
  189.710    4.259    0.459    0.231  251.539   58.886
  189.960    4.571    0.437    0.247  251.987   54.789
  190.210    4.948    0.430    0.233  245.593   52.569
  190.460    5.454    0.439    0.220  237.092   50.665
  190.710    5.957    0.440    0.231  232.797   48.757
  190.960    6.507    0.425    0.234  225.867   50.883
  191.210    6.738    0.428    0.222  225.788   53.958
  191.460    6.159    0.438    0.229  232.050   56.723
  191.710    5.681    0.464    0.215  240.411   60.415
  191.960    5.147    0.486    0.235  250.879   65.042
  192.210    4.747    0.498    0.249  272.949   70.290
  192.460    4.301    0.494    0.213  256.535   73.039
  192.710    3.967    0.477    0.198  263.315   69.574
  192.960    3.826    0.463    0.212  262.182   70.160
  193.210    3.591    0.476    0.245  256.842   75.093
  193.460    3.526    0.515    0.236  256.762   73.189
  193.710    3.430    0.502    0.246  257.737   70.331
  193.960    3.337    0.497    0.251  259.792   69.677
  194.210    3.395    0.513    0.235  264.464   66.519
  194.460    3.547    0.526    0.256  267.020   63.988
  194.710    3.840    0.527    0.280  272.219   59.895
  194.960    4.308    0.524    0.304  266.879   55.186
  195.210    4.705    0.508    0.309  254.680   56.078
  195.460    4.829    0.497    0.293  240.909   60.699
  195.710    4.657    0.507    0.243  231.871   59.102
  195.960    4.372    0.494    0.250  233.382   59.366
  196.210    4.033    0.516    0.238  238.045   64.308
  196.460    3.589    0.533    0.213  244.307   68.935
  196.710    3.252    0.548    0.213  249.497   72.933
  196.960    3.192    0.530    0.247  242.576   73.203
  197.210    3.335    0.518    0.258  241.443   69.427
  197.460    3.423    0.521    0.209  248.223   62.851
  197.710    3.482    0.511    0.223  242.892   56.269
  197.960    3.448    0.477    0.180  232.801   53.426
  198.210    3.266    0.409    0.073  226.398   61.787
  198.460    3.150    0.471    0.046  236.348   68.280
  198.710    3.038    0.507    0.100  246.817   76.952
  198.960    3.009    0.526    0.188  248.846   78.778
  199.210    3.143    0.522    0.219  245.086   77.491
  199.460    3.433    0.510    0.218  243.953   74.644
  199.710    3.783    0.497    0.243  245.991   69.934
  199.960    4.133    0.488    0.275  250.654   66.153
  200.210    4.555    0.491    0.303  257.978   65.178
  200.460    5.111    0.475    0.310  258.953   62.958
  200.710    5.784    0.460    0.270  248.344   60.116
  200.960    6.375    0.447    0.261  235.609   55.396
  201.210    6.902    0.440    0.233  231.323   54.426
  201.460    7.211    0.435    0.197  232.289   54.696
  201.710    7.467    0.429    0.226  233.281   55.894
  201.960    7.595    0.422    0.253  235.327   55.541
  202.210    7.589    0.414    0.238  238.410   55.183
  202.460    7.585    0.423    0.242  240.456   54.514
  202.710    7.578    0.423    0.250  241.957   53.233
  202.960    7.573    0.430    0.266  242.932   51.635
  203.210    7.567    0.443    0.260  243.907   50.349
  203.460    7.428    0.458    0.249  244.899   50.608
  203.710    6.912    0.467    0.255  246.401   50.883
  203.960    6.376    0.477    0.266  247.911   53.642
  204.210    5.574    0.480    0.222  250.467   59.513
  204.460    5.188    0.490    0.188  254.094   67.251
  204.710    4.576    0.484    0.207  260.355   68.454
  204.960    4.258    0.492    0.246  275.039   66.545
  205.210    4.070    0.498    0.211  276.014   63.693
  205.460    4.103    0.490    0.206  278.060   61.779
  205.710    4.522    0.480    0.218  280.089   58.947
  205.960    5.165    0.473    0.248  277.902   57.028
  206.210    5.348    0.469    0.241  264.666   59.792
  206.460    5.250    0.484    0.220  274.608   64.730
  206.710    4.973    0.490    0.229  279.280   69.039
