~VERSION INFORMATION
 VERS.                 2.0:   CWLS LOG ASCII STANDARD -VERSION 2.0
 WRAP.                  NO:   ONE LINE PER DEPTH STEP
~WELL INFORMATION BLOCK
#MNEM.UNIT           DATA                    DESCRIPTION OF MNEMONIC
#---------    -------------------            -------------------------------
# Generated from Intellog Unique Number	CS_71_72/WELL/3324
WELL.         AEC FOSTER CREEK 7-12          : Well_name    - WELL
LOC .         07-12-071-03W4                 : Location     - LOCATION
UWI .         00/07-12-071-03W4/0            : Uwi          - UNIQUE WELL ID
ENTR.         ANDERSEN                       : Entered      - ENTERED BY
SRVC.         COMPUTALOG                     : Scn          - SERVICE COMPANY
STRT.M        345                            : top_depth    - START DEPTH
STOP.M        571.75                         : bot_depth    - STOP DEPTH
STEP.M        0.25                           : increment    - STEP LENGTH
 NULL. -999.2500:NULL Value
~CURVE INFORMATION BLOCK
#MNEM UNIT       ERCB CURVE CODE    CURVE DESCRIPTION
#-----------   ------------------   ----------------------------------
DEPT.M        00 001 00 00         : DEPTH        - DEPTH
ILD .OHMM     00 120 00 00         : RESD         - DEEP RESISTIVITY (DIL)
CALI.MM       00 280 01 00         : CAL          - CALIPER
DPHI.V/V      00 890 00 00         : PHID         - DENSITY POROSITY (SANDSTONE)
NPHI.V/V      00 330 00 00         : PHIN         - NEUTRON POROSITY (SANDSTONE)
GR  .API      00 310 00 00         : GR           - GAMMA RAY
~PARAMETER INFORMATION
#MNEM.UNIT           DATA             DESCRIPTION OF MNEMONIC
#---------         -----------     ------------------------------
GL  .M        697.61               : gl           - GROUND LEVEL ELEVATION
EREF.M        701.01               : kb           - ELEVATION OF DEPTH REFERENCE
DATM.M        701.01               : datum        - DATUM ELEVATION
TDD .M        585.5                : tdd          - TOTAL DEPTH DRILLER
RUN .         ONE                  : Run          - RUN NUMBER
ENG .         BILL                 : Engineer     - RECORDING ENGINEER
WIT .         JIM                  : Witness      - WITNESSED BY
MUD .         GEL                  : Mud_type     - MUD TYPE
MATR.         SANDSTONE            : Logunit      - NEUTRON MATRIX
TMAX.C        31                   : BHT          - MAXIMUM RECORDED TEMPERATURE
BHTD.M        585.5                : BHTDEP       - MAXIMUM RECORDED TEMPERATURE
RMT .C        15                   : MDTP         - TEMPERATURE OF MUD
MUDD.KG/M     1100                 : MWT          - MUD DENSITY
NEUT.         1                    : NEUTRON      - NEUTRON TYPE
RESI.         0                    : RESIST       - RESISTIVITY TYPE
RM  .OHMM     2.7                  : RM           - RESISTIVITY OF MUD
RMC .OHMM     2.1                  : RMC          - RESISTIVITY OF MUD CAKE
RMF .OHMM     3.5                  : RMF          - RESISTIVITY OF MUD FILTRATE
SUFT.C        15                   : SUFT         - SURFACE TEMPERATURE
~A  DEPTH     RESD      CAL     PHID     PHIN       GR
# ...
  527.500    4.021  165.351    0.315    0.377   34.507
  527.750    4.096  165.314    0.315    0.364   36.845
  528.000    4.329  165.278    0.317    0.368   42.091
  528.250    4.330  165.256    0.314    0.394   51.995
  528.500    4.332  165.227    0.298    0.408   56.661
  528.750    4.333  165.205    0.270    0.403   40.961
  529.000    4.256  166.152    0.275    0.408   44.460
  529.250    4.258  166.123    0.311    0.419   48.544
  529.500    4.260  166.086    0.310    0.420   46.227
  529.750    4.185  167.040    0.279    0.412   38.672
  530.000    4.186  167.004    0.312    0.403   32.283
  530.250    4.187  166.975    0.351    0.404   31.712
  530.500    4.189  166.946    0.349    0.412   33.466
  530.750    4.346  166.917    0.324    0.419   46.279
  531.000    4.676  166.880    0.269    0.421   56.765
  531.250    4.940  166.851    0.247    0.412   68.418
  531.500    5.220  166.829    0.179    0.396   64.354
  531.750    5.617  166.800    0.177    0.401   55.635
  532.000    5.418  166.764    0.267    0.402   52.736
  532.250    5.226  166.742    0.266    0.403   50.419
  532.500    5.133  166.706    0.270    0.403   49.847
  532.750    5.136  166.684    0.285    0.396   55.677
  533.000    5.232  166.648    0.286    0.406   58.597
  533.250    5.428  166.626    0.272    0.413   65.591
  533.500    5.735  166.597    0.254    0.437   59.782
  533.750    5.843  166.561    0.235    0.446   65.612
  534.000    5.636  166.531    0.270    0.427   80.754
  534.250    5.436  166.510    0.252    0.408   67.379
  534.500    5.244  165.505    0.221    0.394   54.586
  534.750    4.876  165.476    0.222    0.403   59.834
  535.000    4.704  164.464    0.258    0.396   46.460
  535.250    4.620  164.435    0.269    0.376   41.817
  535.500    4.622  164.406    0.312    0.359   43.576
  535.750    4.540  163.401    0.298    0.364   44.745
  536.000    4.460  163.365    0.281    0.371   47.668
  536.250    4.381  163.343    0.281    0.367   47.678
  536.500    4.226  162.339    0.294    0.364   43.615
  536.750    4.228  162.310    0.311    0.372   40.718
  537.000    4.153  162.281    0.311    0.383   40.729
  537.250    4.079  162.251    0.316    0.392   39.575
  537.500    4.080  162.215    0.316    0.400   39.004
  537.750    4.008  162.193    0.318    0.396   40.178
  538.000    4.010  162.157    0.318    0.388   40.189
  538.250    4.012  162.135    0.319    0.388   38.450
  538.500    4.013  162.106    0.330    0.391   36.718
  538.750    4.014  162.077    0.326    0.382   37.310
  539.000    4.016  162.041    0.322    0.373   37.903
  539.250    4.092  162.012    0.321    0.366   36.746
  539.500    4.093  161.990    0.326    0.367   36.178
  539.750    4.094  161.953    0.325    0.357   39.095
  540.000    4.096  161.924    0.309    0.365   39.106
  540.250    4.097  161.888    0.285    0.373   37.373
  540.500    4.099  162.827    0.274    0.385   37.383
  540.750    4.100  162.813    0.309    0.379   35.648
  541.000    4.177  162.776    0.328    0.390   36.240
  541.250    4.334  162.747    0.337    0.395   43.234
  541.500    4.496  162.726    0.334    0.378   50.810
  541.750    4.665  162.689    0.316    0.387   54.313
  542.000    4.839  162.667    0.264    0.405   50.831
  542.250    4.842  163.607    0.260    0.402   49.098
  542.500    4.670  163.570    0.278    0.391   52.598
  542.750    4.505  163.556    0.260    0.397   56.103
  543.000    4.345  163.527    0.278    0.401   44.471
  543.250    4.268  163.498    0.315    0.383   34.588
  543.500    4.270  163.468    0.318    0.388   34.017
  543.750    4.351  163.439    0.314    0.389   37.522
  544.000    4.431  163.410    0.307    0.389   41.024
  544.250    4.514  163.367    0.294    0.388   41.614
  544.500    4.599  163.345    0.299    0.388   39.299
  544.750    4.518  163.309    0.299    0.393   39.309
  545.000    4.438  163.294    0.295    0.388   38.156
  545.250    4.359  164.233    0.300    0.389   34.672
  545.500    4.282  164.211    0.310    0.378   31.775
  545.750    4.284  164.168    0.325    0.385   32.368
  546.000    4.285  164.139    0.340    0.375   34.703
  546.250    4.446  164.110    0.333    0.384   37.626
  546.500    4.613  164.081    0.321    0.381   38.801
  546.750    4.615  164.051    0.304    0.394   42.303
  547.000    4.533  164.015    0.298    0.411   38.822
  547.250    4.453  164.001    0.289    0.409   39.414
  547.500    4.374  163.972    0.319    0.411   43.498
  547.750    4.296  163.935    0.345    0.421   38.271
  548.000    4.220  162.938    0.327    0.419   33.626
  548.250    4.071  162.902    0.339    0.402   27.816
  548.500    3.999  162.880    0.353    0.393   27.827
  548.750    4.001  162.843    0.352    0.388   29.001
  549.000    4.002  162.814    0.356    0.399   27.848
  549.250    4.004  162.785    0.364    0.417   27.858
  549.500    4.005  162.756    0.367    0.431   29.614
  549.750    4.080  162.734    0.351    0.445   32.535
  550.000    4.233  162.698    0.331    0.449   37.201
  550.250    4.312  162.662    0.314    0.437   41.867
  550.500    4.314  162.640    0.307    0.441   44.206
  550.750    4.238  162.618    0.347    0.454   43.637
  551.000    4.162  162.582    0.368    0.457   30.259
  551.250    4.089  162.538    0.388    0.436   25.616
  551.500    4.090  162.516    0.371    0.414   26.209
  551.750    4.092  162.487    0.356    0.405   28.547
  552.000    4.168  162.465    0.353    0.393   34.959
  552.250    4.485  162.429    0.347    0.382   42.535
  552.500    4.826  162.400    0.337    0.381   47.784
  552.750    4.917  162.371    0.312    0.394   44.884
  553.000    4.919  162.349    0.284    0.416   40.821
  553.250    4.745  162.320    0.276    0.420   35.017
  553.500    4.661  162.291    0.297    0.430   38.514
  553.750    4.578  162.262    0.327    0.434   45.508
  554.000    4.497  162.226    0.315    0.422   50.759
  554.250    4.418  162.204    0.284    0.412   39.127
  554.500    4.261  162.160    0.292    0.398   33.318
  554.750    4.186  162.138    0.326    0.362   30.419
  555.000    4.112  162.102    0.336    0.376   28.101
  555.250    4.039  162.088    0.348    0.399   25.786
  555.500    3.968  162.051    0.356    0.396   27.540
  555.750    3.969  162.029    0.358    0.396   29.881
  556.000    3.970  162.000    0.355    0.402   28.145
  556.250    3.971  161.964    0.353    0.407   25.249
  556.500    3.973  162.910    0.355    0.416   25.259
  556.750    3.974  162.881    0.356    0.411   27.013
  557.000    3.904  162.845    0.355    0.399   26.441
  557.250    3.906  162.823    0.351    0.401   23.545
  557.500    3.907  162.780    0.345    0.394   24.137
  557.750    3.909  162.758    0.340    0.377   26.475
  558.000    3.982  162.736    0.341    0.389   29.975
  558.250    4.132  162.700    0.343    0.399   36.969
  558.500    4.209  163.653    0.336    0.416   41.638
  558.750    4.288  163.624    0.326    0.402   39.318
  559.000    4.369  163.588    0.319    0.383   39.331
  559.250    4.370  163.566    0.324    0.365   38.175
  559.500    4.371  163.530    0.316    0.356   32.948
  559.750    4.294  164.469    0.303    0.363   27.720
  560.000    4.218  164.454    0.305    0.388   24.239
  560.250    4.144  164.418    0.313    0.395   23.667
  560.500    4.070  164.389    0.321    0.403   23.096
  560.750    4.071  164.360    0.331    0.407   23.109
  561.000    4.073  164.324    0.341    0.401   22.538
  561.250    4.001  164.309    0.347    0.393   22.548
  561.500    4.003  164.280    0.343    0.397   23.140
  561.750    4.004  165.219    0.336    0.403   24.317
  562.000    3.933  165.190    0.335    0.406   23.746
  562.250    3.935  165.161    0.342    0.412   23.756
  562.500    3.865  165.132    0.350    0.412   23.767
  562.750    3.866  166.071    0.350    0.406   23.777
  563.000    3.867  166.042    0.352    0.397   21.460
  563.250    3.799  166.006    0.352    0.392   22.634
  563.500    3.801  165.984    0.350    0.377   24.390
  563.750    3.802  165.948    0.346    0.373   24.398
