~VERSION INFORMATION
 VERS.                 2.0:   CWLS LOG ASCII STANDARD -VERSION 2.0
 WRAP.                  NO:   ONE LINE PER DEPTH STEP
~WELL INFORMATION BLOCK
#MNEM.UNIT           DATA                    DESCRIPTION OF MNEMONIC
#---------    -------------------            -------------------------------
# Generated from Intellog Unique Number	CW_76_78/WELL/694
WELL.         NORTHSTAR ET AL MARTEN HILLS 0 : Well_name    - WELL
LOC .         00/08-09-076-03W5/0            : Location     - LOCATION
UWI .         00/08-09-076-03W5/0            : Uwi          - UNIQUE WELL ID
ENTR.         JAYE                           : Entered      - ENTERED BY
SRVC.         COMPUTALOG                     : Scn          - SERVICE COMPANY
DATE.         19 FEB 81                      : Date         - LOG DATE
STRT.M        520                            : top_depth    - START DEPTH
STOP.M        730                            : bot_depth    - STOP DEPTH
STEP.M        0.25                           : increment    - STEP LENGTH
 NULL. -999.2500:NULL Value
~CURVE INFORMATION BLOCK
#MNEM UNIT       ERCB CURVE CODE    CURVE DESCRIPTION
#-----------   ------------------   ----------------------------------
DEPT.M        00 001 00 00         : DEPTH        - DEPTH
ILD .OHMM     00 120 00 00         : RESD         - DEEP RESISTIVITY (DIL)
NPHI.V/V      00 330 00 00         : PHIN         - NEUTRON POROSITY (SANDSTONE)
DPHI.V/V      00 890 00 00         : PHID         - DENSITY POROSITY (SANDSTONE)
GR  .API      00 310 00 00         : GR           - GAMMA RAY
CALI.MM       00 280 01 00         : CAL          - CALIPER
~PARAMETER INFORMATION
#MNEM.UNIT           DATA             DESCRIPTION OF MNEMONIC
#---------         -----------     ------------------------------
GL  .M        793.13               : gl           - GROUND LEVEL ELEVATION
EREF.M        796.43               : kb           - ELEVATION OF DEPTH REFERENCE
DATM.M        793.13               : datum        - DATUM ELEVATION
TDD .M        743                  : tdd          - TOTAL DEPTH DRILLER
RUN .         ONE                  : Run          - RUN NUMBER
ENG .         HUDSON               : Engineer     - RECORDING ENGINEER
WIT .         HOLT/FITZIMMONS      : Witness      - WITNESSED BY
BASE.         EDM                  : Branch       - HOME BASE OF LOGGING UNIT
MUD .         GEL BASE             : Mud_type     - MUD TYPE
MATR.         SANDSTONE            : Logunit      - NEUTRON MATRIX
TMAX.C        32                   : BHT          - MAXIMUM RECORDED TEMPERATURE
BHTD.M        745                  : BHTDEP       - MAXIMUM RECORDED TEMPERATURE
RMT .C        12                   : MDTP         - TEMPERATURE OF MUD
MUDD.KG/M     1120                 : MWT          - MUD DENSITY
NEUT.         1                    : NEUTRON      - NEUTRON TYPE
RESI.         0                    : RESIST       - RESISTIVITY TYPE
RM  .OHMM     5.4                  : RM           - RESISTIVITY OF MUD
RMC .OHMM     10                   : RMC          - RESISTIVITY OF MUD CAKE
RMF .OHMM     9.3                  : RMF          - RESISTIVITY OF MUD FILTRATE
SUFT.C        0                    : SUFT         - SURFACE TEMPERATURE
~A  DEPTH     RESD     PHIN     PHID       GR      CAL
# ...
  556.500    7.886    0.351    0.308   69.811  151.873
  556.750    7.717    0.347    0.303   72.986  151.731
  557.000    7.632    0.328    0.298   73.670  151.272
  557.250    7.464    0.352    0.294   74.672  151.130
  557.500    7.377    0.376    0.291   77.720  151.206
  557.750    7.249    0.389    0.289   79.106  152.449
  558.000    7.164    0.394    0.298   75.187  154.224
  558.250    7.076    0.373    0.299   71.588  155.148
  558.500    6.989    0.385    0.298   69.204  155.543
  558.750    6.983    0.386    0.303   67.393  156.039
  559.000    6.977    0.402    0.305   66.862  156.223
  559.250    7.010    0.362    0.307   66.714  156.935
  559.500    7.010    0.341    0.308   67.014  158.822
  559.750    6.999    0.347    0.310   68.208  161.449
  560.000    7.032    0.384    0.309   68.316  162.589
  560.250    6.986    0.353    0.305   66.443  162.766
  560.500    6.939    0.336    0.310   66.933  162.520
  560.750    6.892    0.320    0.317   69.088  162.381
  561.000    6.887    0.330    0.322   70.599  161.601
  561.250    6.920    0.366    0.326   71.668  160.607
  561.500    7.034    0.357    0.318   68.962  159.726
  561.750    7.148    0.366    0.309   67.153  158.840
  562.000    7.223    0.345    0.303   66.494  158.485
  562.250    7.297    0.333    0.307   65.578  158.026
  562.500    7.290    0.314    0.310   65.238  157.993
  562.750    7.245    0.306    0.308   65.283  157.960
  563.000    7.237    0.333    0.310   66.542  157.926
  563.250    7.231    0.348    0.313   69.590  157.786
  563.500    7.266    0.364    0.309   67.333  157.644
  563.750    7.299    0.341    0.296   63.477  157.189
  564.000    7.414    0.322    0.289   59.879  157.050
  564.250    7.528    0.315    0.284   60.625  157.230
  564.500    7.521    0.324    0.279   63.546  158.150
  564.750    7.394    0.329    0.284   65.763  158.116
  565.000    7.308    0.342    0.291   62.675  158.083
  565.250    7.260    0.340    0.298   58.309  157.943
  565.500    7.214    0.349    0.304   57.647  157.806
  565.750    7.168    0.336    0.303   63.508  157.559
  566.000    7.168    0.345    0.299   65.534  157.204
  566.250    7.112    0.355    0.298   66.602  156.960
  566.500    7.068    0.371    0.297   65.751  157.033
  566.750    7.022    0.357    0.296   63.493  157.002
  567.000    6.974    0.365    0.296   63.282  157.177
  567.250    6.929    0.374    0.295   65.882  157.360
  567.500    6.841    0.368    0.293   68.738  157.430
  567.750    6.755    0.339    0.298   73.640  157.716
  568.000    6.306    0.327    0.303   72.533  157.687
  568.250    5.616    0.321    0.265   70.723  157.865
  568.500    5.005    0.317    0.243   75.178  157.939
  568.750    4.676    0.325    0.210   82.636  159.075
  569.000    4.510    0.342    0.150   98.722  160.961
  569.250    4.424    0.358    0.126  101.769  163.058
  569.500    4.296    0.357    0.128  103.409  165.049
  569.750    4.210    0.382    0.155  104.477  167.359
  570.000    4.123    0.445    0.211  105.416  170.627
  570.250    4.076    0.424    0.240   99.900  174.751
  570.500    3.867    0.383    0.239   95.214  178.552
  570.750    3.740    0.349    0.199  100.753  178.942
  571.000    3.693    0.335    0.194  104.058  178.482
  571.250    3.607    0.326    0.180  106.019  177.491
  571.500    3.640    0.330    0.176  101.589  176.182
  571.750    3.715    0.336    0.167   97.415  175.402
  572.000    3.870    0.347    0.186   98.289  175.156
  572.250    3.984    0.331    0.184  103.000  173.414
  572.500    4.019    0.355    0.198  105.536  171.893
  572.750    4.133    0.350    0.206   99.572  168.663
  573.000    4.247    0.338    0.223   96.931  160.003
  573.250    4.402    0.302    0.212   98.829  155.814
  573.500    4.476    0.297    0.205   96.698  154.924
  573.750    4.549    0.355    0.203   92.652  154.998
  574.000    4.544    0.382    0.204   93.783  155.501
  574.250    4.497    0.390    0.199   93.508  156.107
  574.500    4.370    0.348    0.189   90.994  156.813
  574.750    4.243    0.341    0.183   87.844  156.787
  575.000    4.195    0.358    0.199   86.608  155.902
  575.250    4.150    0.366    0.212   91.766  155.228
  575.500    4.103    0.343    0.214  100.501  154.662
  575.750    4.097    0.337    0.211  104.764  154.309
  576.000    4.090    0.332    0.214  106.085  154.383
  576.250    4.084    0.312    0.214  102.487  154.665
  576.500    4.238    0.318    0.209   97.227  155.381
  576.750    4.313    0.319    0.205   92.733  156.306
  577.000    4.548    0.336    0.188   95.012  157.016
  577.250    4.703    0.350    0.172   95.632  157.624
  577.500    4.977    0.355    0.192   91.203  158.123
  577.750    5.212    0.331    0.218   88.243  158.831
  578.000    5.489    0.345    0.238   85.155  159.332
  578.250    5.805    0.345    0.249   79.510  159.619
  578.500    5.960    0.349    0.257   74.441  159.691
  578.750    6.034    0.326    0.261   70.650  159.335
  579.000    5.946    0.323    0.263   73.378  159.200
  579.250    5.900    0.338    0.263   78.087  159.165
  579.500    5.894    0.365    0.264   78.962  159.133
  579.750    5.967    0.359    0.270   74.532  159.205
  580.000    6.002    0.337    0.271   73.361  159.171
  580.250    6.157    0.330    0.264   75.515  159.355
  580.500    6.351    0.358    0.253   77.413  159.428
  580.750    6.466    0.378    0.255   77.712  159.604
  581.000    6.459    0.365    0.259   71.491  159.574
  581.250    6.251    0.353    0.258   66.231  159.221
  581.500    6.084    0.357    0.255   65.060  158.864
  581.750    5.957    0.355    0.253   70.535  158.725
  582.000    5.910    0.362    0.248   71.667  158.373
  582.250    5.904    0.341    0.256   72.862  158.017
  582.500    5.977    0.335    0.261   73.162  157.238
  582.750    6.092    0.338    0.267   74.419  156.785
  583.000    6.247    0.356    0.277   74.718  156.431
  583.250    6.442    0.369    0.296   75.211  155.972
  583.500    6.839    0.384    0.286   75.703  155.932
  583.750    7.758    0.385    0.269   75.617  155.798
  584.000    9.401    0.364    0.247   75.279  155.552
  584.250   11.246    0.305    0.222   73.915  155.622
  584.500   12.407    0.274    0.182   70.637  155.801
  584.750   13.527    0.229    0.140   66.271  156.086
  585.000   15.453    0.189    0.106   62.735  156.588
  585.250   17.055    0.133    0.067   59.328  156.981
  585.500   17.049    0.116    0.025   54.514  157.270
  585.750   15.916    0.102   -0.002   51.874  157.873
  586.000   12.610    0.105   -0.014   51.853  158.374
  586.250   10.270    0.119    0.006   53.047  158.979
  586.500    8.694    0.140    0.047   56.160  159.580
  586.750    7.802    0.156    0.079   62.468  159.871
  587.000    7.151    0.198    0.132   64.110  160.367
  587.250    6.824    0.241    0.179   64.153  159.911
  587.500    6.656    0.268    0.211   65.219  157.747
  587.750    6.610    0.341    0.234   64.624  155.156
  588.000    6.562    0.366    0.257   66.393  153.846
  588.250    6.557    0.346    0.259   67.586  152.532
  588.500    6.510    0.326    0.258   68.207  151.329
  588.750    6.504    0.334    0.261   68.827  150.230
  589.000    6.498    0.357    0.263   68.999  149.447
  589.250    6.532    0.374    0.265   67.636  149.098
  589.500    6.525    0.384    0.264   65.123  148.850
  589.750    6.519    0.394    0.262   66.955  149.032
  590.000    6.512    0.381    0.260   72.178  148.998
  590.250    6.465    0.355    0.259   74.010  148.963
  590.500    6.337    0.346    0.258   71.690  149.357
  590.750    6.132    0.337    0.253   70.518  149.853
  591.000    5.881    0.344    0.245   70.052  150.037
  591.250    5.795    0.385    0.260   70.094  150.529
  591.500    5.829    0.363    0.273   70.650  150.928
  591.750    5.903    0.357    0.281   71.334  151.426
  592.000    5.896    0.359    0.276   72.017  151.501
  592.250    5.931    0.378    0.271   72.380  151.682
  592.500    5.966    0.383    0.272   72.680  151.857
  592.750    6.000    0.365    0.278   73.108  151.827
