~VERSION INFORMATION
 VERS.                 2.0:   CWLS LOG ASCII STANDARD -VERSION 2.0
 WRAP.                  NO:   ONE LINE PER DEPTH STEP
~WELL INFORMATION BLOCK
#MNEM.UNIT           DATA                    DESCRIPTION OF MNEMONIC
#---------    -------------------            -------------------------------
# Generated from Intellog Unique Number	CW_76_78/WELL/2802
WELL.         NOVALTA PORTAGE 08-06          : Well_name    - WELL
LOC .         00/08-06-078-19W4/0            : Location     - LOCATION
UWI .         00/08-06-078-19W4/0            : Uwi          - UNIQUE WELL ID
ENTR.         JJ                             : Entered      - ENTERED BY
SRVC.         WESTERN ATLAS                  : Scn          - SERVICE COMPANY
DATE.         20 JAN 83                      : Date         - LOG DATE
STRT.M        287                            : top_depth    - START DEPTH
STOP.M        415                            : bot_depth    - STOP DEPTH
STEP.M        0.25                           : increment    - STEP LENGTH
 NULL. -999.2500:NULL Value
~CURVE INFORMATION BLOCK
#MNEM UNIT       ERCB CURVE CODE    CURVE DESCRIPTION
#-----------   ------------------   ----------------------------------
DEPT.M        00 001 00 00         : DEPTH        - DEPTH
DELT.US/F     00 520 00 00         : DELT         - SONIC TRAVEL TIME
GR  .API      00 310 00 00         : GR           - GAMMA RAY
CALI.MM       00 280 01 00         : CAL          - CALIPER
ILD .OHMM     00 120 00 00         : RESD         - DEEP RESISTIVITY (DIL)
~PARAMETER INFORMATION
#MNEM.UNIT           DATA             DESCRIPTION OF MNEMONIC
#---------         -----------     ------------------------------
GL  .M        562.4                : gl           - GROUND LEVEL ELEVATION
EREF.M        565.92               : kb           - ELEVATION OF DEPTH REFERENCE
DATM.M        562.4                : datum        - DATUM ELEVATION
TDD .M        460                  : tdd          - TOTAL DEPTH DRILLER
RUN .         ONE                  : Run          - RUN NUMBER
ENG .         ANTOLOVICH           : Engineer     - RECORDING ENGINEER
WIT .         RAGHEB               : Witness      - WITNESSED BY
BASE.         RED DEER             : Branch       - HOME BASE OF LOGGING UNIT
MUD .         GEL-CHEM             : Mud_type     - MUD TYPE
MATR.         SANDSTONE            : Logunit      - NEUTRON MATRIX
TMAX.C        24                   : BHT          - MAXIMUM RECORDED TEMPERATURE
BHTD.M        457.7                : BHTDEP       - MAXIMUM RECORDED TEMPERATURE
RMT .C        13                   : MDTP         - TEMPERATURE OF MUD
MUDD.KG/M     1060                 : MWT          - MUD DENSITY
NEUT.         1                    : NEUTRON      - NEUTRON TYPE
RESI.         0                    : RESIST       - RESISTIVITY TYPE
RM  .OHMM     5                    : RM           - RESISTIVITY OF MUD
RMC .OHMM     4.1                  : RMC          - RESISTIVITY OF MUD CAKE
RMF .OHMM     4.5                  : RMF          - RESISTIVITY OF MUD FILTRATE
SUFT.C        5                    : SUFT         - SURFACE TEMPERATURE
~A  DEPTH     DELT       GR      CAL     RESD
  287.000  390.497   71.868  168.689    9.528
  287.250  390.786   70.770  169.684    9.783
  287.500  390.261   69.232  167.952   10.198
  287.750  388.670   68.006  164.662   10.770
  288.000  387.240   66.595  162.304   11.269
  288.250  387.290   64.429  161.414   11.376
  288.500  384.959   64.019  161.462   10.834
  288.750  382.795   69.946  162.247   10.533
  289.000  383.577   72.607  163.654   10.815
  289.250  385.262   69.879  165.163   10.755
  289.500  387.439   66.773  166.789   10.223
  289.750  390.433   66.111  167.144    9.663
  290.000  397.933   70.970  167.923    8.746
  290.250  410.918   77.148  173.311    7.991
  290.500  422.841   80.561  177.953    7.233
  290.750  421.905   78.272  182.078    6.547
  291.000  414.744   75.791  180.249    6.096
  291.250  417.409   76.198  180.404    5.838
  291.500  434.411   73.970  183.171    5.729
  291.750  444.774   71.992  187.921    5.995
  292.000  420.580   71.647  184.415    6.839
  292.250  400.559   66.097  175.688    8.148
  292.500  396.675   59.852  169.884    9.526
  292.750  395.981   54.490  165.227   11.652
  293.000  395.865   52.010  162.773   14.173
  293.250  396.975   53.358  162.614   15.339
  293.500  399.398   53.825  163.182   15.341
  293.750  402.147   51.850  163.441   14.887
  294.000  399.818   49.747  163.490   14.311
  294.250  394.377   47.770  162.910   13.655
  294.500  394.014   46.608  161.918   12.979
  294.750  397.583   48.392  161.552   12.175
  295.000  398.530   52.562  161.293   11.465
  295.250  397.348   54.283  161.019   10.714
  295.500  394.524   54.063  161.697   10.108
  295.750  394.000   53.341  162.587    9.791
  296.000  395.766   52.870  163.257    9.828
  296.250  398.925   52.900  161.319    9.997
  296.500  400.445   54.182  157.923   10.226
  296.750  399.343   56.658  157.554   10.500
  297.000  397.668   55.118  160.214   10.720
  297.250  395.670   55.400  162.460   10.621
  297.500  393.503   56.997  159.374   10.248
  297.750  393.794   55.457  158.798    9.797
  298.000  397.856   53.104  158.849    9.435
  298.250  406.256   56.833  158.791    8.935
  298.500  412.608   62.947  159.471    8.819
  298.750  408.230   64.107  159.416    8.886
  299.000  401.234   59.871  159.778    9.124
  299.250  392.353   56.388  160.556    8.938
  299.500  385.274   57.736  160.811    8.416
  299.750  379.261   62.154  161.806    7.851
  300.000  378.652   66.950  161.538    7.690
  300.250  395.241   69.612  162.528    7.852
  300.500  396.924   71.399  162.054    8.403
  300.750  373.467   74.752  161.478    9.677
  301.000  282.358   69.704  160.696   11.793
  301.250  266.843   58.444  160.224   15.205
  301.500  257.061   46.748  160.267   21.217
  301.750  284.380   42.138  160.736   21.020
  302.000  362.150   48.813  160.576   17.847
  302.250  390.862   55.489  160.832   14.786
  302.500  415.887   60.411  161.409   11.384
  302.750  421.093   63.387  163.134    9.593
  303.000  421.302   66.491  164.747    8.617
  303.250  420.367   67.149  166.888    7.963
  303.500  420.986   67.366  168.713    7.555
  303.750  423.977   67.522  169.805    7.345
  304.000  425.993   68.366  171.634    7.318
  304.250  424.401   71.342  173.037    7.416
  304.500  421.335   71.498  174.032    7.361
  304.750  418.184   68.956  175.334    7.279
  305.000  417.497   68.299  176.740    7.184
  305.250  424.257   70.208  180.241    7.051
  305.500  432.166   72.748  185.305    6.855
  305.750  432.623   72.776  186.612    6.553
  306.000  426.281   73.120  187.600    6.395
  306.250  426.737   75.033  190.787    6.276
  306.500  429.976   75.687  196.168    5.865
  306.750  430.186   74.774  201.647    5.565
  307.000  437.684   72.546  207.134    5.270
  307.250  444.858   69.629  211.572    5.028
  307.500  448.016   68.404  213.711    4.990
  307.750  422.182   69.564  209.371    5.114
  308.000  405.357   71.226  199.701    5.382
  308.250  389.678   72.449  188.253    5.599
  308.500  399.307   73.602  182.554    5.836
  308.750  414.830   75.578  184.803    6.106
  309.000  422.002   78.300  186.731    6.413
  309.250  423.360   77.456  185.525    6.672
  309.500  418.656   74.165  182.657    6.863
  309.750  405.842   72.059  179.985    7.047
  310.000  392.949   70.016  176.479    7.415
  310.250  396.023   66.790  171.720    7.846
  310.500  399.019   64.620  168.210    8.334
  310.750  399.475   64.400  167.532    8.118
  311.000  407.386   70.261  171.130    7.487
  311.250  420.454   72.672  176.095    6.906
  311.500  431.311   74.898  178.859    6.322
  311.750  425.706   75.806  176.819    6.009
  312.000  404.867   76.339  173.210    5.920
  312.250  397.870   74.425  169.705    5.999
  312.500  403.157   70.254  167.566    6.206
  312.750  408.528   67.524  168.135    6.579
  313.000  403.739   66.423  170.588    7.054
  313.250  398.711   68.522  173.459    7.437
  313.500  396.051   71.436  177.590    7.507
  313.750  410.185   73.909  180.981    7.327
  314.000  422.108   77.702  184.895    6.964
  314.250  427.479   80.930  188.706    6.460
  314.500  421.629   78.329  192.730    5.958
  314.750  419.708   75.094  196.439    5.352
  315.000  424.341   72.868  200.565    4.719
  315.250  424.550   73.651  203.432    4.129
  315.500  418.455   75.563  202.439    3.674
  315.750  419.238   76.780  196.741    3.319
  316.000  423.215   77.313  196.264    3.137
  316.250  427.682   75.213  200.397    3.308
  316.500  431.908   74.868  203.893    3.587
  316.750  433.837   76.091  207.176    3.904
  317.000  431.919   77.499  210.886    4.209
  317.250  431.064   79.033  208.953    4.496
  317.500  430.946   79.623  205.770    4.767
  317.750  432.547   79.651  204.239    4.978
  318.000  436.279   77.550  203.562    5.199
  318.250  436.982   77.957  203.291    5.328
  318.500  432.030   79.743  203.341    5.379
  318.750  428.800   79.647  203.298    5.399
  319.000  428.603   77.604  203.451    5.544
  319.250  427.582   74.122  203.815    5.833
  319.500  425.171   72.961  204.273    6.001
  319.750  422.189   75.625  204.529    6.070
  320.000  415.766   78.225  203.953    6.013
  320.250  409.752   75.621  201.180    5.935
  320.500  447.062   72.266  195.378    5.880
  320.750  464.306   70.038  190.201    5.925
  321.000  445.599   72.201  184.919    6.211
  321.250  410.591   75.113  179.638    6.572
  321.500  401.133   77.525  173.943    7.046
  321.750  405.770   78.183  174.723    7.583
  322.000  381.983   72.569  178.332    8.395
  322.250  339.686   66.578  178.370    9.542
  322.500  280.519   59.271  176.120   12.028
  322.750  233.883   54.281  170.526   14.493
  323.000  234.011   52.244  166.710   15.365
  323.250  277.544   54.779  165.609   13.144
  323.500  353.842   61.898  166.075   11.631
  323.750  385.582   70.831  168.113    9.710
  324.000  397.747   78.636  170.145    8.306
  324.250  402.792   82.806  172.183    7.763
  324.500  405.866   82.459  173.077    7.985
  324.750  404.524   81.989  173.334    8.277
  325.000  391.955   80.890  173.277    8.514
  325.250  389.300   78.347  173.327    8.547
  325.500  398.026   78.315  173.476    8.404
  325.750  406.426   78.721  173.523    7.974
  326.000  412.044   77.493  173.782    7.536
  326.250  407.175   76.900  173.833    7.272
  326.500  407.712   77.177  174.926    7.218
  326.750  409.967   79.279  176.546    7.178
  327.000  410.588   81.564  178.787    7.085
  327.250  410.471   82.222  182.809    7.006
  327.500  409.779   81.123  184.322    6.889
  327.750  408.518   78.892  185.207    6.761
  328.000  405.532   79.488  186.719    6.673
  328.250  412.131   81.589  189.593    6.623
  328.500  419.383   82.119  192.254    6.562
  328.750  418.281   80.141  193.455    6.428
  329.000  411.204   80.237  190.369    6.238
  329.250  404.289   81.334  185.614    6.110
  329.500  411.295   82.550  181.585    6.076
  329.750  416.830   83.021  179.958    6.157
  330.000  416.627   83.111  183.455    6.370
  330.250  413.402   83.391  187.692    6.602
