~VERSION INFORMATION
 VERS.                 2.0:   CWLS LOG ASCII STANDARD -VERSION 2.0
 WRAP.                  NO:   ONE LINE PER DEPTH STEP
~WELL INFORMATION BLOCK
#MNEM.UNIT           DATA                    DESCRIPTION OF MNEMONIC
#---------    -------------------            -------------------------------
# Generated from Intellog Unique Number	CC_80_83/WELL/1043
WELL.         01-25-083-02W4                 : Well_name    - WELL
LOC .         00/01-25-083-02W4/0            : Location     - LOCATION
UWI .         00/01-25-083-02W400            : Uwi          - UNIQUE WELL ID
ENTR.         DW                             : Entered      - ENTERED BY
SRVC.         SCHLUMBERGER                   : Scn          - SERVICE COMPANY
STRT.M        90                             : top_depth    - START DEPTH
STOP.M        304.75                         : bot_depth    - STOP DEPTH
STEP.M        0.25                           : increment    - STEP LENGTH
 NULL. -999.2500:NULL Value
~CURVE INFORMATION BLOCK
#MNEM UNIT       ERCB CURVE CODE    CURVE DESCRIPTION
#-----------   ------------------   ----------------------------------
DEPT.M        00 001 00 00         : DEPTH        - DEPTH
GR  .API      00 310 00 00         : GR           - GAMMA RAY
DPHI.V/V      00 890 00 00         : PHID         - DENSITY POROSITY (LIMESTONE)
NPHI.V/V      00 330 00 00         : PHIN         - NEUTRON POROSITY (LIMESTONE)
ILD .OHMM     00 120 00 00         : RESD         - DEEP RESISTIVITY (DIL)
~PARAMETER INFORMATION
#MNEM.UNIT           DATA             DESCRIPTION OF MNEMONIC
#---------         -----------     ------------------------------
GL  .M        477.33               : gl           - GROUND LEVEL ELEVATION
EREF.M        480.33               : kb           - ELEVATION OF DEPTH REFERENCE
DATM.M        480.33               : datum        - DATUM ELEVATION
TDD .M        318                  : tdd          - TOTAL DEPTH DRILLER
RUN .         ONE                  : Run          - RUN NUMBER
ENG .         BILL                 : Engineer     - RECORDING ENGINEER
WIT .         JIM                  : Witness      - WITNESSED BY
MUD .         GEL                  : Mud_type     - MUD TYPE
MATR.         LIMESTONE            : Logunit      - NEUTRON MATRIX
TMAX.C        28                   : BHT          - MAXIMUM RECORDED TEMPERATURE
BHTD.M        318                  : BHTDEP       - MAXIMUM RECORDED TEMPERATURE
MATR.         1                    : LOGUNIT      - NEUTRON MATRIX
RMT .C        25                   : MDTP         - TEMPERATURE OF MUD
NEUT.         1                    : NEUTRON      - NEUTRON TYPE
RESI.         0                    : RESIST       - RESISTIVITY TYPE
RMC .OHMM     0.25                 : RMC          - RESISTIVITY OF MUD CAKE
RMF .OHMM     0.25                 : RMF          - RESISTIVITY OF MUD FILTRATE
SUFT.C        15                   : SUFT         - SURFACE TEMPERATURE
~A  DEPTH       GR     PHID     PHIN     RESD
# ...
  220.500   82.011    0.268    0.424    7.171
  220.750   80.484    0.276    0.425    7.312
  221.000   79.510    0.273    0.442    7.123
  221.250   85.815    0.253    0.479    7.045
  221.500   94.595    0.236    0.505    6.944
  221.750   99.487    0.239    0.500    6.611
  222.000  103.403    0.241    0.481    6.537
  222.250  102.121    0.231    0.462    6.548
  222.500  100.115    0.219    0.432    6.442
  222.750   99.728    0.218    0.431    6.463
  223.000   99.644    0.226    0.473    6.560
  223.250   99.123    0.236    0.510    6.527
  223.500   99.197    0.245    0.502    6.538
  223.750   99.717    0.250    0.494    6.757
  224.000  100.521    0.255    0.519    6.791
  224.250  104.865    0.259    0.539    6.849
  224.500  111.525    0.260    0.543    6.923
  224.750  114.509    0.261    0.512    6.931
  225.000  109.662    0.261    0.435    7.047
  225.250   99.245    0.249    0.413    7.054
  225.500   93.443    0.218    0.403    7.042
  225.750   91.882    0.203    0.412    7.064
  226.000   94.117    0.201    0.432    7.007
  226.250   97.854    0.195    0.435    6.915
  226.500   98.695    0.197    0.415    6.920
  226.750   98.930    0.204    0.364    6.801
  227.000   81.034    0.213    0.355    6.875
  227.250   72.952    0.222    0.373    6.925
  227.500   78.805    0.225    0.383    6.957
  227.750   81.510    0.223    0.382    7.062
  228.000   83.508    0.221    0.375    7.053
  228.250   83.809    0.223    0.375    7.064
  228.500   79.175    0.224    0.374    6.958
  228.750   56.183    0.264    0.342    6.934
  229.000   36.439    0.291    0.301    6.858
  229.250   36.968    0.269    0.282    6.640
  229.500   39.026    0.268    0.270    6.550
  229.750   46.108    0.267    0.276    6.442
  230.000   57.179    0.254    0.303    6.428
  230.250   64.467    0.254    0.317    6.394
  230.500   66.279    0.266    0.316    6.235
  230.750   66.638    0.270    0.324    6.054
  231.000   67.765    0.265    0.332    5.860
  231.250   69.791    0.252    0.337    5.409
  231.500   72.001    0.222    0.342    5.247
  231.750   75.562    0.218    0.355    5.195
  232.000   73.402    0.233    0.362    5.135
  232.250   63.445    0.239    0.338    5.145
  232.500   56.260    0.249    0.296    5.145
  232.750   54.660    0.273    0.285    5.222
  233.000   58.825    0.273    0.302    5.314
  233.250   69.367    0.255    0.322    5.373
  233.500   79.818    0.230    0.332    5.530
  233.750   85.215    0.211    0.333    5.805
  234.000   88.621    0.211    0.331    5.973
  234.250   90.899    0.206    0.338    5.986
  234.500   95.915    0.202    0.343    5.904
  234.750   96.328    0.191    0.333    5.801
  235.000   91.674    0.189    0.323    5.468
  235.250   89.175    0.204    0.330    4.979
  235.500   91.118    0.213    0.347    4.780
  235.750   94.802    0.206    0.357    4.700
  236.000   96.460    0.205    0.365    4.684
  236.250   94.441    0.213    0.379    4.719
  236.500   94.436    0.218    0.386    4.845
  236.750   97.665    0.210    0.366    4.974
  237.000   96.691    0.196    0.338    4.963
  237.250   93.702    0.191    0.340    4.964
  237.500   96.168    0.192    0.337    4.952
  237.750   99.428    0.188    0.349    5.017
  238.000   99.537    0.179    0.372    5.044
  238.250   99.290    0.183    0.376    4.947
  238.500   99.798    0.203    0.364    4.874
  238.750   96.500    0.201    0.357    4.793
  239.000   92.394    0.186    0.355    4.785
  239.250   93.196    0.176    0.351    4.751
  239.500   98.338    0.181    0.347    4.661
  239.750  102.943    0.192    0.346    4.605
  240.000  103.526    0.200    0.343    4.610
  240.250   99.387    0.201    0.336    4.613
  240.500   97.925    0.196    0.340    4.600
  240.750  100.349    0.187    0.350    4.657
  241.000  100.145    0.207    0.359    4.699
  241.250   92.395    0.242    0.350    4.710
  241.500   83.463    0.233    0.318    4.787
  241.750   85.862    0.220    0.317    4.715
  242.000   90.497    0.211    0.327    4.688
  242.250   86.214    0.232    0.337    4.711
  242.500   77.186    0.260    0.342    4.675
  242.750   69.786    0.263    0.337    4.604
  243.000   64.584    0.258    0.328    4.613
  243.250   69.689    0.246    0.319    4.687
  243.500   76.708    0.236    0.311    4.717
  243.750   82.869    0.217    0.322    4.652
  244.000   87.346    0.200    0.349    4.618
  244.250   89.300    0.209    0.366    4.595
  244.500   86.076    0.244    0.355    4.448
  244.750   71.492    0.270    0.319    4.440
  245.000   65.440    0.262    0.305    4.453
  245.250   69.697    0.248    0.328    4.440
  245.500   74.822    0.242    0.355    4.469
  245.750   78.306    0.237    0.353    4.546
  246.000   83.569    0.226    0.335    4.617
  246.250   89.787    0.198    0.342    4.691
  246.500   98.265    0.216    0.355    4.753
  246.750   91.086    0.240    0.346    4.883
  247.000   77.238    0.243    0.329    5.015
  247.250   78.342    0.229    0.335    5.083
  247.500   89.683    0.198    0.356    5.164
  247.750   97.596    0.199    0.356    5.242
  248.000   98.675    0.207    0.350    5.378
  248.250   98.560    0.202    0.351    5.615
  248.500  102.070    0.189    0.363    5.870
  248.750  107.003    0.197    0.374    6.192
  249.000  108.139    0.234    0.367    6.702
  249.250  105.835    0.235    0.348    7.133
  249.500  101.928    0.218    0.341    7.606
  249.750   97.891    0.207    0.339    7.973
  250.000   95.124    0.205    0.335    8.108
  250.250   94.015    0.207    0.333    8.061
  250.500   93.557    0.215    0.338    7.933
  250.750   93.084    0.225    0.355    7.824
  251.000   92.608    0.234    0.358    7.588
  251.250   94.514    0.241    0.339    7.464
  251.500   97.953    0.230    0.327    7.551
  251.750  104.730    0.200    0.339    7.657
  252.000  114.920    0.183    0.360    7.646
  252.250  113.174    0.177    0.367    7.537
  252.500  107.343    0.183    0.367    7.347
  252.750  102.621    0.196    0.363    6.990
  253.000  100.662    0.206    0.353    6.226
  253.250  102.013    0.209    0.340    5.337
  253.500  103.435    0.210    0.332    4.895
  253.750  100.262    0.213    0.337    4.516
  254.000   95.176    0.220    0.351    4.336
  254.250   95.377    0.214    0.367    4.212
  254.500   98.156    0.197    0.364    4.120
  254.750  105.499    0.196    0.349    4.148
  255.000  123.491    0.219    0.352    4.216
  255.250  128.971    0.219    0.354    4.293
  255.500  109.193    0.211    0.348    4.252
  255.750  100.016    0.208    0.343    4.181
  256.000  104.701    0.206    0.341    4.099
  256.250  103.831    0.204    0.343    3.961
  256.500  100.544    0.200    0.354    3.844
  256.750   93.798    0.193    0.370    3.788
  257.000   95.403    0.206    0.371    3.683
  257.250   99.392    0.209    0.342    3.588
  257.500  102.693    0.199    0.316    3.569
  257.750   99.717    0.200    0.328    3.561
  258.000   85.978    0.213    0.355    3.503
  258.250   86.793    0.232    0.349    3.500
  258.500   88.732    0.223    0.332    3.507
  258.750   82.432    0.220    0.316    3.496
  259.000   74.018    0.230    0.322    3.525
  259.250   72.285    0.232    0.351    3.573
  259.500   76.197    0.222    0.357    3.570
  259.750   77.612    0.212    0.344    3.625
  260.000   80.811    0.269    0.336    3.674
  260.250   78.179    0.304    0.333    3.784
  260.500   67.138    0.287    0.331    3.851
  260.750   58.359    0.271    0.340    3.861
  261.000   59.787    0.263    0.354    3.993
  261.250   63.964    0.265    0.342    4.059
  261.500   66.831    0.265    0.335    4.118
  261.750   69.290    0.258    0.351    4.184
  262.000   71.644    0.263    0.370    4.253
  262.250   71.763    0.277    0.370    4.311
  262.500   69.630    0.267    0.360    4.304
  262.750   70.014    0.246    0.346    4.241
  263.000   71.007    0.221    0.334    4.168
  263.250   72.355    0.210    0.325    4.125
  263.500   72.294    0.215    0.314    3.999
  263.750   71.671    0.234    0.319    3.832
