~VERSION INFORMATION
 VERS.                 2.0:   CWLS LOG ASCII STANDARD -VERSION 2.0
 WRAP.                  NO:   ONE LINE PER DEPTH STEP
~WELL INFORMATION BLOCK
#MNEM.UNIT           DATA                    DESCRIPTION OF MNEMONIC
#---------    -------------------            -------------------------------
# Generated from Intellog Unique Number	CS_69_70/WELL/849
NULL.         -999.25                        : NULL_VALUE
WELL.         AMOCO CANADA PETROLEUM         : Well_name    - WELL              
LOC .         00/07-31-070-14W4/0            : Location     - LOCATION          
UWI .         00/07-31-070-14W4/0            : Uwi          - UNIQUE WELL ID    
ENTR.         SP                             : Entered      - ENTERED BY        
SRVC.         SCHLUMBERGER                   : Scn          - SERVICE COMPANY   
STRT.F        1050                           : top_depth    - START DEPTH       
STOP.F        1760.3                         : bot_depth    - STOP DEPTH        
STEP.F        0.82                           : increment    - STEP LENGTH       
~CURVE INFORMATION BLOCK
#MNEM UNIT       ERCB CURVE CODE    CURVE DESCRIPTION
#-----------   ------------------   ----------------------------------
DEPT.F        00 001 00 00         : DEPTH        - DEPTH                       
GR  .API      00 310 00 00         : GR           - GAMMA RAY                   
NPHI.V/V      00 330 00 00         : PHIN         - NEUTRON POROSITY (SANDSTONE)
DPHI.V/V      00 890 00 00         : PHID         - DENSITY POROSITY (SANDSTONE)
ILD .OHMM     00 120 00 00         : RESD         - DEEP RESISTIVITY (DIL)      
~PARAMETER INFORMATION       
#MNEM.UNIT           DATA             DESCRIPTION OF MNEMONIC
#---------         -----------     ------------------------------
GL  .F        2039.71              : gl           - GROUND LEVEL ELEVATION      
EREF.F        2053.71              : kb           - ELEVATION OF DEPTH REFERENCE
DATM.F        2039.71              : datum        - DATUM ELEVATION             
TDD .F        1900                 : tdd          - TOTAL DEPTH DRILLER         
RUN .         ONE                  : Run          - RUN NUMBER                  
ENG .         BILL                 : Engineer     - RECORDING ENGINEER          
WIT .         JIM                  : Witness      - WITNESSED BY                
MUD .         GEL                  : Mud_type     - MUD TYPE                    
MATR.         SANDSTONE            : Logunit      - NEUTRON MATRIX              
TMAX.C        25.5556              : BHT          - MAXIMUM RECORDED TEMPERATURE
BHTD.M        512.369              : BHTDEP       - MAXIMUM RECORDED TEMPERATURE
MATR.         1                    : LOGUNIT      - NEUTRON MATRIX              
RMT .C        25                   : MDTP         - TEMPERATURE OF MUD          
NEUT.         1                    : NEUTRON      - NEUTRON TYPE                
RESI.         0                    : RESIST       - RESISTIVITY TYPE            
RMC .OHMM     0.25                 : RMC          - RESISTIVITY OF MUD CAKE     
RMF .OHMM     0.25                 : RMF          - RESISTIVITY OF MUD FILTRATE 
SUFT.C        15                   : SUFT         - SURFACE TEMPERATURE         
~A  DEPTH       GR     PHIN     PHID     RESD
# ...
 1335.430   69.327    0.426    0.296    3.501
 1336.250   69.912    0.418    0.304    3.498
 1337.070   70.497    0.414    0.307    3.635
 1337.890   68.715    0.411    0.310    4.010
 1338.710   67.530    0.404    0.312    4.338
 1339.530   65.159    0.391    0.312    5.179
 1340.350   63.969    0.374    0.311    6.066
 1341.170   62.188    0.355    0.310    7.246
 1341.990   61.003    0.340    0.298    9.560
 1342.810   59.222    0.317    0.255   12.866
 1343.640   58.035    0.292    0.161   15.372
 1344.460   55.662    0.226    0.049   20.689
 1345.280   55.067    0.193    0.041   19.463
 1346.100   53.878    0.208    0.049   17.950
 1346.920   55.645    0.226    0.046   15.595
 1347.740   54.453    0.242    0.043   13.016
 1348.560   52.677    0.247    0.048   10.871
 1349.380   51.489    0.258    0.111    8.379
 1350.200   60.940    0.326    0.221    6.590
 1351.020   63.889    0.374    0.289    5.613
 1351.840   67.430    0.390    0.287    4.877
 1352.660   74.517    0.411    0.282    4.320
 1353.480   82.784    0.427    0.280    3.983
 1354.300   84.551    0.420    0.287    3.825
 1355.120   84.543    0.425    0.291    3.670
 1355.940   83.948    0.430    0.298    3.664
 1356.760   83.941    0.436    0.300    3.661
 1357.580   81.572    0.448    0.288    3.653
 1358.400   78.611    0.458    0.264    3.648
 1359.220   76.831    0.452    0.253    3.644
 1360.040   81.553    0.447    0.242    3.640
 1360.860   87.458    0.441    0.243    3.634
 1361.680   86.861    0.438    0.247    3.630
 1362.500   83.305    0.439    0.253    3.624
 1363.320   82.710    0.438    0.273    3.693
 1364.140   82.701    0.440    0.275    3.685
 1364.960   80.332    0.444    0.281    3.682
 1365.780   76.188    0.455    0.290    3.678
 1366.600   72.633    0.464    0.282    3.673
 1367.420   73.218    0.472    0.278    3.668
 1368.240   77.942    0.456    0.286    3.735
 1369.060   81.481    0.443    0.295    3.803
 1369.880   79.702    0.439    0.302    3.799
 1370.700   79.106    0.446    0.293    3.795
 1371.520   80.871    0.450    0.281    3.865
 1372.340   82.049    0.458    0.279    3.861
 1373.160   83.813    0.456    0.272    3.856
 1373.980   84.399    0.452    0.264    3.928
 1374.800   84.394    0.451    0.256    3.922
 1375.620   84.387    0.449    0.251    3.917
 1376.440   84.380    0.441    0.243    3.989
 1377.260   85.555    0.434    0.238    3.983
 1378.080   86.139    0.434    0.236    3.979
 1378.900   87.317    0.435    0.239    3.973
 1379.720   88.495    0.435    0.240    3.967
 1380.540   89.670    0.433    0.243    3.960
 1381.360   90.846    0.429    0.243    4.036
 1382.190   93.204    0.427    0.240    4.029
 1383.010   94.972    0.427    0.234    4.105
 1383.830   92.598    0.433    0.231    4.180
 1384.650   92.004    0.438    0.214    4.177
 1385.470   91.406    0.444    0.210    4.341
 1386.290   91.398    0.444    0.205    4.788
 1387.110   90.799    0.445    0.201    5.075
 1387.930   89.612    0.448    0.198    5.172
 1388.750   88.425    0.448    0.194    5.373
 1389.570   86.646    0.430    0.194    5.367
 1390.390   82.502    0.402    0.199    5.254
 1391.210   85.451    0.417    0.202    4.939
 1392.030   91.947    0.444    0.200    4.837
 1392.850   93.123    0.462    0.202    4.644
 1393.670   91.933    0.448    0.203    4.367
 1394.490   91.925    0.453    0.206    4.274
 1395.310   91.920    0.459    0.206    4.186
 1396.130   91.916    0.467    0.205    4.097
 1396.950   91.317    0.477    0.206    3.930
 1397.770   90.719    0.485    0.206    3.928
 1398.590   90.713    0.492    0.208    3.844
 1399.410   90.116    0.478    0.210    3.763
 1400.230   90.111    0.464    0.213    3.757
 1401.050   90.103    0.461    0.217    3.751
 1401.870   88.916    0.461    0.224    3.747
 1402.690   85.953    0.461    0.228    3.816
 1403.510   83.582    0.459    0.233    3.812
 1404.330   81.211    0.448    0.242    3.806
 1405.150   80.614    0.440    0.248    3.800
 1405.970   81.790    0.435    0.251    3.796
 1406.790   82.375    0.432    0.259    3.717
 1407.610   81.777    0.432    0.261    3.639
 1408.430   82.362    0.443    0.262    3.355
 1409.250   85.311    0.467    0.269    3.157
 1410.070   90.625    0.474    0.271    2.797
 1410.890   98.303    0.468    0.272    2.530
 1411.710  104.208    0.466    0.273    2.287
 1412.530  104.791    0.471    0.272    1.909
 1413.350  103.012    0.481    0.270    1.692
 1414.170  101.823    0.493    0.266    1.591
 1414.990  101.817    0.494    0.263    1.653
 1415.810  101.811    0.492    0.261    1.752
 1416.630  101.213    0.489    0.260    1.896
 1417.450  100.616    0.483    0.252    2.133
 1418.270   97.063    0.479    0.246    2.448
 1419.090   95.285    0.475    0.244    2.810
 1419.910   92.323    0.466    0.242    3.100
 1420.730   90.543    0.442    0.242    3.287
 1421.560   89.355    0.431    0.241    3.415
 1422.380   89.349    0.431    0.238    3.409
 1423.200   89.341    0.436    0.241    3.406
 1424.020   89.336    0.443    0.245    3.267
 1424.840   90.511    0.448    0.249    3.137
 1425.660   91.685    0.451    0.259    3.070
 1426.480   92.271    0.457    0.266    3.066
 1427.300   92.265    0.456    0.279    3.123
 1428.120   87.531    0.435    0.291    3.246
 1428.940   86.934    0.422    0.291    3.510
 1429.760   84.563    0.406    0.288    3.872
 1430.580   79.237    0.376    0.257    4.357
 1431.400   74.500    0.325    0.216    4.713
 1432.220   72.722    0.298    0.094    4.614
 1433.040   69.761    0.325    0.117    4.086
 1433.860   65.024    0.388    0.174    3.845
 1434.680   64.427    0.415    0.230    3.546
 1435.500   66.194    0.438    0.262    3.336
 1436.320   66.187    0.441    0.305    3.076
 1437.140   64.406    0.438    0.325    2.893
 1437.960   63.810    0.430    0.331    2.834
 1438.780   63.211    0.425    0.333    2.665
 1439.600   62.615    0.421    0.333    2.507
 1440.420   62.609    0.412    0.328    2.406
 1441.240   62.605    0.410    0.325    2.308
 1442.060   62.004    0.417    0.321    2.306
 1442.880   62.001    0.428    0.321    2.258
 1443.700   61.995    0.434    0.321    2.252
 1444.520   62.578    0.440    0.321    2.251
 1445.340   63.161    0.439    0.324    2.249
 1446.160   64.339    0.445    0.325    2.245
 1446.980   65.511    0.467    0.329    2.242
 1447.800   65.508    0.469    0.332    2.238
 1448.620   65.499    0.464    0.332    2.235
 1449.440   64.903    0.440    0.332    2.233
 1450.260   64.898    0.414    0.332    2.273
 1451.080   64.891    0.409    0.331    2.271
 1451.900   64.886    0.409    0.329    2.268
 1452.720   64.879    0.410    0.326    2.220
 1453.540   64.870    0.406    0.324    2.173
 1454.360   65.458    0.401    0.323    2.127
 1455.180   65.452    0.400    0.325    2.124
 1456.000   64.853    0.403    0.330    2.080
 1456.820   64.848    0.409    0.332    2.119
 1457.640   66.021    0.419    0.332    2.116
 1458.460   66.607    0.442    0.331    2.113
 1459.280   68.373    0.444    0.330    2.111
 1460.100   68.961    0.433    0.326    2.150
 1460.930   70.728    0.422    0.324    2.146
 1461.750   71.904    0.421    0.319    2.144
 1462.570   73.669    0.420    0.317    2.184
 1463.390   74.256    0.415    0.314    2.226
 1464.210   75.430    0.413    0.307    2.267
 1465.030   76.606    0.411    0.300    2.356
 1465.850   78.374    0.414    0.295    2.447
 1466.670   81.913    0.417    0.293    2.493
 1467.490   84.863    0.425    0.290    2.592
 1468.310   87.222    0.436    0.285    2.692
 1469.130   88.398    0.421    0.283    2.799
 1469.950   89.574    0.414    0.273    2.849
 1470.770   90.159    0.421    0.267    2.961
 1471.590   89.562    0.430    0.263    3.018
 1472.410   87.188    0.437    0.261    3.073
 1473.230   86.002    0.432    0.257    3.070
 1474.050   83.632    0.425    0.255    3.127
 1474.870   80.670    0.419    0.251    3.060
 1475.690   77.117    0.421    0.250    3.057
 1476.510   75.928    0.427    0.249    2.934
 1477.330   80.060    0.438    0.251    2.759
