~VERSION INFORMATION
 VERS.                 2.0:   CWLS LOG ASCII STANDARD -VERSION 2.0
 WRAP.                  NO:   ONE LINE PER DEPTH STEP
~WELL INFORMATION BLOCK
#MNEM.UNIT           DATA                    DESCRIPTION OF MNEMONIC
#---------    -------------------            -------------------------------
# Generated from Intellog Unique Number	CS_73_76/WELL/662
WELL.         AMOCO KIRBY                    : Well_name    - WELL
LOC .         00/06-31-073-04W4/0            : Location     - LOCATION
UWI .         00/06-31-073-04W4/0            : Uwi          - UNIQUE WELL ID
ENTR.         SP                             : Entered      - ENTERED BY
SRVC.         SCHLUMBERGER                   : Scn          - SERVICE COMPANY
STRT.M        270                            : top_depth    - START DEPTH
STOP.M        485                            : bot_depth    - STOP DEPTH
STEP.M        0.25                           : increment    - STEP LENGTH
 NULL. -999.2500:NULL Value
~CURVE INFORMATION BLOCK
#MNEM UNIT       ERCB CURVE CODE    CURVE DESCRIPTION
#-----------   ------------------   ----------------------------------
DEPT.M        00 001 00 00         : DEPTH        - DEPTH
DPHI.V/V      00 890 00 00         : PHID         - DENSITY POROSITY (LIMESTONE)
NPHI.V/V      00 330 00 00         : PHIN         - NEUTRON POROSITY (LIMESTONE)
GR  .API      00 310 00 00         : GR           - GAMMA RAY
ILD .OHMM     00 120 00 00         : RESD         - DEEP RESISTIVITY (DIL)
~PARAMETER INFORMATION
#MNEM.UNIT           DATA             DESCRIPTION OF MNEMONIC
#---------         -----------     ------------------------------
GL  .M        664.1                : gl           - GROUND LEVEL ELEVATION
EREF.M        669.1                : kb           - ELEVATION OF DEPTH REFERENCE
DATM.M        664.1                : datum        - DATUM ELEVATION
TDD .M        490                  : tdd          - TOTAL DEPTH DRILLER
RUN .         ONE                  : Run          - RUN NUMBER
ENG .         BILL                 : Engineer     - RECORDING ENGINEER
WIT .         JIM                  : Witness      - WITNESSED BY
MUD .         GEL                  : Mud_type     - MUD TYPE
MATR.         LIMESTONE            : Logunit      - NEUTRON MATRIX
TMAX.C        23                   : BHT          - MAXIMUM RECORDED TEMPERATURE
BHTD.M        490                  : BHTDEP       - MAXIMUM RECORDED TEMPERATURE
MATR.         1                    : LOGUNIT      - NEUTRON MATRIX
RMT .C        25                   : MDTP         - TEMPERATURE OF MUD
NEUT.         1                    : NEUTRON      - NEUTRON TYPE
RESI.         0                    : RESIST       - RESISTIVITY TYPE
RMC .OHMM     0.25                 : RMC          - RESISTIVITY OF MUD CAKE
RMF .OHMM     0.25                 : RMF          - RESISTIVITY OF MUD FILTRATE
SUFT.C        15                   : SUFT         - SURFACE TEMPERATURE
~A  DEPTH     PHID     PHIN       GR     RESD
# ...
  357.000    0.240    0.520  100.256    2.643
  357.250    0.232    0.509   99.643    2.644
  357.500    0.216    0.503   99.028    2.549
  357.750    0.226    0.504   97.205    2.503
  358.000    0.209    0.504   95.396    2.459
  358.250    0.201    0.498   92.382    2.327
  358.500    0.209    0.488   93.567    2.162
  358.750    0.249    0.478   97.147    2.008
  359.000    0.263    0.470   98.335    1.901
  359.250    0.258    0.460   96.517    2.165
  359.500    0.269    0.486   94.702    2.289
  359.750    0.265    0.492   92.890    2.467
  360.000    0.256    0.477   89.277    2.561
  360.250    0.253    0.463   85.062    2.610
  360.500    0.245    0.458   82.644    2.660
  360.750    0.241    0.477   85.625    2.762
  361.000    0.244    0.487   87.409    2.815
  361.250    0.261    0.472   88.000    2.869
  361.500    0.261    0.469   90.384    2.870
  361.750    0.255    0.476   95.163    2.818
  362.000    0.255    0.499   97.548    2.819
  362.250    0.238    0.527   98.133    2.821
  362.500    0.230    0.505   97.519    2.822
  362.750    0.221    0.499   96.906    2.772
  363.000    0.225    0.487   96.290    2.773
  363.250    0.241    0.497   97.476    2.774
  363.500    0.230    0.516  104.656    2.775
  363.750    0.242    0.528  106.443    2.725
  364.000    0.253    0.543  104.627    2.627
  364.250    0.260    0.551  101.610    2.487
  364.500    0.258    0.539   98.593    2.397
  364.750    0.258    0.562   94.377    2.443
  365.000    0.250    0.542   92.566    2.584
  365.250    0.247    0.509   90.754    2.733
  365.500    0.227    0.495   92.535    2.838
  365.750    0.229    0.476   94.320    2.892
  366.000    0.234    0.483   96.104    2.893
  366.250    0.226    0.496   98.490    2.949
  366.500    0.222    0.503   99.075    2.950
  366.750    0.216    0.496   99.057    2.897
  367.000    0.210    0.490  100.241    2.899
  367.250    0.210    0.487  101.428    2.899
  367.500    0.228    0.500  103.807    2.901
  367.750    0.238    0.507  104.998    2.902
  368.000    0.208    0.521  107.383    2.903
  368.250    0.209    0.524  107.968    2.851
  368.500    0.226    0.528  106.150    2.800
  368.750    0.243    0.530  103.733    2.700
  369.000    0.254    0.533  103.120    2.603
  369.250    0.250    0.501  105.504    2.556
  369.500    0.239    0.501  109.686    2.375
  369.750    0.226    0.524  110.875    2.289
  370.000    0.202    0.548  108.459    2.248
  370.250    0.208    0.552  106.640    2.249
  370.500    0.217    0.547  106.031    2.209
  370.750    0.210    0.551  106.612    2.210
  371.000    0.211    0.552  109.595    2.252
  371.250    0.222    0.545  113.178    2.296
  371.500    0.234    0.539  115.561    2.296
  371.750    0.239    0.540  117.352    2.297
  372.000    0.231    0.544  117.936    2.256
  372.250    0.235    0.542  113.720    2.258
  372.500    0.247    0.540  108.307    2.301
  372.750    0.251    0.537  101.693    2.344
  373.000    0.212    0.533   97.479    2.480
  373.250    0.214    0.522   93.862    2.575
  373.500    0.217    0.510   90.844    2.624
  373.750    0.256    0.497   89.632    2.674
  374.000    0.277    0.456   90.219    2.675
  374.250    0.268    0.458   96.196    2.308
  374.500    0.259    0.477   97.388    2.105
  374.750    0.252    0.508   99.172    2.029
  375.000    0.247    0.505   99.154    2.030
  375.250    0.244    0.487   97.941    2.147
  375.500    0.243    0.465   94.925    2.356
  375.750    0.245    0.449   90.104    2.492
  376.000    0.255    0.436   88.892    2.587
  376.250    0.281    0.429   86.472    2.494
  376.500    0.291    0.430   85.261    2.233
  376.750    0.291    0.446   84.049    2.036
  377.000    0.320    0.429   82.833    2.154
  377.250    0.345    0.400   81.621    2.320
  377.500    0.326    0.417   79.203    2.156
  377.750    0.305    0.442   74.991    2.040
  378.000    0.295    0.468   70.776    1.967
  378.250    0.319    0.475   73.159    1.968
  378.500    0.314    0.492   76.740    1.933
  378.750    0.307    0.505   78.526    1.898
  379.000    0.298    0.475   79.107    1.864
  379.250    0.285    0.450   78.498    1.797
  379.500    0.268    0.448   76.080    1.732
  379.750    0.261    0.451   73.066    1.670
  380.000    0.257    0.448   70.651    1.610
  380.250    0.253    0.458   69.435    1.581
  380.500    0.290    0.473   70.624    1.524
  380.750    0.291    0.474   73.603    1.497
  381.000    0.294    0.479   74.791    1.470
  381.250    0.300    0.483   74.778    1.444
  381.500    0.278    0.478   75.960    1.366
  381.750    0.269    0.473   78.345    1.246
  382.000    0.263    0.476   80.131    1.201
  382.250    0.274    0.471   82.512    1.202
  382.500    0.288    0.464   86.094    1.271
  382.750    0.281    0.467   89.081    1.370
  383.000    0.264    0.466   93.264    1.503
  383.250    0.256    0.462   94.452    1.650
  383.500    0.244    0.449   93.834    1.777
  383.750    0.235    0.438   93.218    1.951
  384.000    0.233    0.435   91.401    1.988
  384.250    0.234    0.433   90.792    2.064
  384.500    0.231    0.431   93.172    2.104
  384.750    0.232    0.436   94.359    2.144
  385.000    0.256    0.434   92.541    2.185
  385.250    0.249    0.446   90.728    2.186
  385.500    0.236    0.484   91.913    2.187
  385.750    0.253    0.505   96.097    2.148
  386.000    0.265    0.522  100.279    2.109
  386.250    0.275    0.540  102.067    1.996
  386.500    0.262    0.524  102.050    1.960
  386.750    0.253    0.543  103.231    1.890
  387.000    0.258    0.560  103.820    1.856
  387.250    0.265    0.560  105.002    1.857
  387.500    0.258    0.526  106.189    1.893
  387.750    0.248    0.515  106.771    1.893
  388.000    0.262    0.518  106.755    1.895
  388.250    0.254    0.536  106.743    1.895
  388.500    0.237    0.551  106.726    1.861
  388.750    0.239    0.562  107.314    1.795
  389.000    0.245    0.549  105.499    1.762
  389.250    0.272    0.522   95.281    1.763
  389.500    0.287    0.513   87.467    1.865
  389.750    0.296    0.493   80.255    2.085
  390.000    0.331    0.234   74.241    2.605
  390.250    0.356    0.252   72.424    3.195
  390.500    0.374    0.267   71.210    3.992
  390.750    0.380    0.283   69.992    4.631
  391.000    0.379    0.294   69.380    5.083
  391.250    0.382    0.293   68.164    5.376
  391.500    0.379    0.263   66.948    5.379
  391.750    0.373    0.266   66.936    5.282
  392.000    0.373    0.278   68.719    5.188
  392.250    0.387    0.287   66.905    5.094
  392.500    0.403    0.297   64.490    4.734
  392.750    0.399    0.309   67.469    4.564
  393.000    0.386    0.319   68.659    4.481
  393.250    0.378    0.329   66.244    4.320
  393.500    0.383    0.327   64.429    4.165
  393.750    0.382    0.332   64.414    4.090
  394.000    0.370    0.335   66.191    4.017
  394.250    0.360    0.321   66.181    3.946
  394.500    0.375    0.327   66.166    3.874
  394.750    0.375    0.332   64.349    3.736
  395.000    0.369    0.333   63.733    3.668
  395.250    0.362    0.339   64.911    3.603
  395.500    0.355    0.347   65.502    3.604
  395.750    0.355    0.355   67.884    3.540
  396.000    0.361    0.343   68.476    3.476
  396.250    0.364    0.340   68.459    3.415
  396.500    0.364    0.350   66.641    3.416
  396.750    0.357    0.358   67.824    3.355
  397.000    0.352    0.360   68.414    3.295
  397.250    0.357    0.360   68.396    3.236
  397.500    0.359    0.366   67.182    3.178
  397.750    0.354    0.369   65.969    3.063
  398.000    0.343    0.371   67.151    2.954
  398.250    0.339    0.374   70.126    2.847
  398.500    0.337    0.382   71.315    2.745
  398.750    0.331    0.400   71.305    2.598
  399.000    0.322    0.412   70.691    2.413
  399.250    0.306    0.425   67.675    2.161
  399.500    0.293    0.439   65.260    1.970
  399.750    0.298    0.411   65.246    1.899
  400.000    0.317    0.424   65.829    1.798
  400.250    0.307    0.438   66.411    1.701
