~VERSION INFORMATION
 VERS.                 2.0:   CWLS LOG ASCII STANDARD -VERSION 2.0
 WRAP.                  NO:   ONE LINE PER DEPTH STEP
~WELL INFORMATION BLOCK
#MNEM.UNIT           DATA                    DESCRIPTION OF MNEMONIC
#---------    -------------------            -------------------------------
# Generated from Intellog Unique Number	CW_70_72/WELL/3001
NULL.         -999.25                        : NULL_VALUE
WELL.         NORCEN SHERRITT MITSUE 03-22   : Well_name    - WELL              
LOC .         03-22-070-02W5                 : Location     - LOCATION          
UWI .         00/03-22-070-02W5/0            : Uwi          - UNIQUE WELL ID    
ENTR.         JAYE                           : Entered      - ENTERED BY        
SRVC.         COMPUTALOG                     : Scn          - SERVICE COMPANY   
DATE.         23 FEB 84                      : Date         - LOG DATE          
STRT.M        435                            : top_depth    - START DEPTH       
STOP.M        655                            : bot_depth    - STOP DEPTH        
STEP.M        0.25                           : increment    - STEP LENGTH       
~CURVE INFORMATION BLOCK
#MNEM UNIT       ERCB CURVE CODE    CURVE DESCRIPTION
#-----------   ------------------   ----------------------------------
DEPT.M        00 001 00 00         : DEPTH        - DEPTH                       
ILD .OHMM     00 120 00 00         : RESD         - DEEP RESISTIVITY (DIL)      
CALI.MM       00 280 01 00         : CAL          - CALIPER                     
GR  .API      00 310 00 00         : GR           - GAMMA RAY                   
NPHI.V/V      00 330 00 00         : PHIN         - NEUTRON POROSITY (SANDSTONE)
DPHI.V/V      00 890 00 00         : PHID         - DENSITY POROSITY (SANDSTONE)
~PARAMETER INFORMATION       
#MNEM.UNIT           DATA             DESCRIPTION OF MNEMONIC
#---------         -----------     ------------------------------
GL  .M        597.2                : gl           - GROUND LEVEL ELEVATION      
EREF.M        600.95               : kb           - ELEVATION OF DEPTH REFERENCE
DATM.M        597.2                : datum        - DATUM ELEVATION             
TDD .M        673                  : tdd          - TOTAL DEPTH DRILLER         
RUN .         ONE                  : Run          - RUN NUMBER                  
ENG .         MACLEAN              : Engineer     - RECORDING ENGINEER          
WIT .         BOGNER/CARLSON       : Witness      - WITNESSED BY                
BASE.         EDMONTON             : Branch       - HOME BASE OF LOGGING UNIT   
MUD .         GEL CHEM             : Mud_type     - MUD TYPE                    
MATR.         SANDSTONE            : Logunit      - NEUTRON MATRIX              
TMAX.C        28                   : BHT          - MAXIMUM RECORDED TEMPERATURE
BHTD.M        671.5                : BHTDEP       - MAXIMUM RECORDED TEMPERATURE
RMT .C        19                   : MDTP         - TEMPERATURE OF MUD          
MUDD.KG/M     1120                 : MWT          - MUD DENSITY                 
NEUT.         1                    : NEUTRON      - NEUTRON TYPE                
RESI.         0                    : RESIST       - RESISTIVITY TYPE            
RM  .OHMM     3.5                  : RM           - RESISTIVITY OF MUD          
RMC .OHMM     2.8                  : RMC          - RESISTIVITY OF MUD CAKE     
RMF .OHMM     3.5                  : RMF          - RESISTIVITY OF MUD FILTRATE 
SUFT.C        5                    : SUFT         - SURFACE TEMPERATURE         
~A  DEPTH     RESD      CAL       GR     PHIN     PHID
  435.000    2.293  210.073  112.038    0.468    0.174
  435.250    2.315  215.271  114.524    0.481    0.181
  435.500    2.338  216.795  115.254    0.491    0.177
  435.750    2.365  214.485  113.863    0.471    0.171
  436.000    2.392  213.299  111.157    0.459    0.172
  436.250    2.456  210.462  107.199    0.437    0.175
  436.500    2.532  208.440  105.864    0.426    0.175
  436.750    2.615  206.231  105.409    0.452    0.175
  437.000    2.726  205.466  104.329    0.459    0.178
  437.250    2.859  204.401  102.689    0.425    0.184
  437.500    2.925  205.726  100.976    0.409    0.186
  437.750    2.964  206.628   97.459    0.403    0.189
  438.000    2.998  207.753   94.313    0.423    0.197
  438.250    3.016  208.449   92.792    0.413    0.202
  438.500    2.954  208.531   90.651    0.389    0.200
  438.750    2.782  208.188   90.321    0.379    0.195
  439.000    2.585  208.582   93.557    0.390    0.191
  439.250    2.339  208.328   97.164    0.431    0.204
  439.500    2.109  208.005  101.712    0.503    0.239
  439.750    1.960  207.755  103.697    0.526    0.265
  440.000    1.945  207.306  100.802    0.457    0.261
  440.250    2.055  206.656   94.530    0.412    0.236
  440.500    2.221  206.004   88.192    0.399    0.207
  440.750    2.373  206.196   88.808    0.416    0.191
  441.000    2.455  206.061   87.033    0.428    0.213
  441.250    2.493  204.885   77.012    0.427    0.244
  441.500    2.664  200.456   71.739    0.418    0.254
  441.750    2.917  193.667   67.339    0.405    0.248
  442.000    3.134  192.794   67.384    0.385    0.216
  442.250    3.387  194.120   67.497    0.369    0.153
  442.500    3.498  197.010   70.484    0.352    0.112
  442.750    3.465  201.459   83.096    0.346    0.096
  443.000    3.357  205.392   94.526    0.390    0.136
  443.250    3.221  207.760  100.516    0.411    0.172
  443.500    3.114  209.631  103.505    0.426    0.183
  443.750    2.948  210.760  105.616    0.435    0.183
  444.000    2.802  211.329  107.404    0.436    0.177
  444.250    2.735  212.468  108.890    0.380    0.173
  444.500    2.684  213.050  111.874    0.385    0.174
  444.750    2.580  214.371  119.241    0.407    0.177
  445.000    2.518  214.451  123.474    0.424    0.190
  445.250    2.505  212.220   98.685    0.382    0.206
  445.500    2.515  208.152   82.532    0.365    0.217
  445.750    2.529  205.820   75.317    0.355    0.232
  446.000    2.568  204.732   78.493    0.349    0.238
  446.250    2.622  203.978   82.479    0.340    0.236
  446.500    2.693  203.444   82.590    0.332    0.231
  446.750    2.776  204.050   87.509    0.329    0.225
  447.000    2.829  204.308   99.882    0.336    0.217
  447.250    2.950  204.902  107.115    0.353    0.203
  447.500    3.024  207.176  116.105    0.378    0.170
  447.750    3.117  210.575  121.219    0.405    0.173
  448.000    3.183  211.275  114.760    0.396    0.184
  448.250    3.219  208.025  110.237    0.383    0.198
  448.500    3.269  206.005  105.277    0.393    0.213
  448.750    3.344  205.245   98.192    0.389    0.221
  449.000    3.409  204.802   99.611    0.376    0.228
  449.250    3.352  205.826  106.853    0.374    0.223
  449.500    3.180  206.936  111.590    0.391    0.207
  449.750    2.803  208.685  106.632    0.397    0.199
  450.000    2.317  211.158   90.910    0.368    0.205
  450.250    1.912  213.101   64.873    0.335    0.223
  450.500    1.650  206.094   53.595    0.319    0.258
  450.750    1.463  202.618   45.575    0.332    0.273
  451.000    1.390  202.291   41.798    0.321    0.284
  451.250    1.407  203.087   46.472    0.298    0.277
  451.500    1.466  203.468   56.025    0.326    0.264
  451.750    1.603  204.277   59.136    0.341    0.259
  452.000    1.778  206.568   52.987    0.342    0.283
  452.250    1.966  206.832   60.414    0.318    0.297
  452.500    2.152  208.897   91.112    0.310    0.214
  452.750    2.379  210.203  102.417    0.343    0.172
  453.000    2.605  211.956  113.908    0.377    0.155
  453.250    2.690  214.425  120.522    0.389    0.146
  453.500    2.768  216.580  129.203    0.395    0.162
  453.750    2.864  217.393  127.554    0.416    0.177
  454.000    2.881  215.894  120.844    0.413    0.156
  454.250    2.849  211.913  116.143    0.405    0.131
  454.500    2.833  209.268  112.864    0.397    0.150
  454.750    2.698  206.752  102.402    0.356    0.187
  455.000    2.410  205.573   86.370    0.343    0.200
  455.250    2.011  204.603   68.776    0.341    0.221
  455.500    1.656  203.529   54.371    0.336    0.265
  455.750    1.374  202.983   49.726    0.324    0.285
  456.000    1.282  202.538   46.455    0.332    0.290
  456.250    1.280  202.718   42.182    0.341    0.303
  456.500    1.319  203.209   37.725    0.332    0.316
  456.750    1.372  204.331   32.393    0.332    0.322
  457.000    1.425  204.824   33.936    0.346    0.323
  457.250    1.431  205.198   34.734    0.348    0.318
  457.500    1.402  205.069   33.219    0.330    0.312
  457.750    1.355  205.247   36.823    0.319    0.310
  458.000    1.363  203.866   49.003    0.314    0.303
  458.250    1.427  201.643   60.374    0.321    0.298
  458.500    1.625  199.226   71.804    0.328    0.295
  458.750    1.821  197.522   80.544    0.327    0.259
  459.000    1.990  195.722   90.473    0.341    0.230
  459.250    2.203  194.652   95.582    0.361    0.204
  459.500    2.399  195.656   99.634    0.374    0.197
  459.750    2.617  196.986   98.987    0.360    0.196
  460.000    2.833  198.527  101.791    0.353    0.197
  460.250    3.102  201.311  107.963    0.353    0.190
  460.500    3.359  205.243  113.514    0.364    0.179
  460.750    3.650  208.857  116.874    0.375    0.163
  461.000    3.827  211.540  115.170    0.374    0.170
  461.250    3.556  212.554  112.083    0.357    0.168
  461.500    3.087  212.941  113.882    0.338    0.168
  461.750    2.645  214.374  116.614    0.352    0.181
  462.000    2.403  215.916  120.724    0.427    0.200
  462.250    2.179  218.278  127.652    0.469    0.215
  462.500    2.079  219.291  133.639    0.460    0.230
  462.750    2.079  218.223  132.999    0.444    0.231
  463.000    2.135  216.209  113.839    0.423    0.222
  463.250    2.205  211.492   87.422    0.407    0.228
  463.500    2.339  206.871   69.706    0.404    0.248
  463.750    2.470  202.153   59.300    0.394    0.234
  464.000    2.685  199.204   56.405    0.374    0.219
  464.250    3.053  199.189   60.331    0.355    0.219
  464.500    3.413  200.611   60.756    0.337    0.204
  464.750    3.695  202.242   59.176    0.304    0.176
  465.000    3.572  203.360   62.034    0.277    0.133
  465.250    3.227  204.172   67.328    0.298    0.167
  465.500    2.926  204.767   74.383    0.349    0.229
  465.750    2.663  205.161   82.684    0.371    0.238
  466.000    2.512  206.266   90.109    0.409    0.210
  466.250    2.517  209.057  101.352    0.435    0.190
  466.500    2.674  213.092  111.344    0.451    0.199
  466.750    2.777  218.062  110.635    0.454    0.213
  467.000    2.836  217.409   99.361    0.415    0.222
  467.250    2.747  205.604   90.583    0.394    0.231
  467.500    2.661  198.064   86.318    0.385    0.240
  467.750    2.587  193.251   84.419    0.372    0.252
  468.000    2.530  191.449   81.595    0.354    0.260
  468.250    2.506  190.261   84.767    0.354    0.257
  468.500    2.526  189.835   87.497    0.368    0.256
  468.750    2.609  189.581   87.418    0.382    0.259
  469.000    2.750  189.863   84.903    0.389    0.264
  469.250    2.950  190.877   82.696    0.386    0.264
  469.500    3.104  193.676   81.431    0.392    0.245
  469.750    3.367  196.557   80.775    0.406    0.239
  470.000    3.694  200.080   79.695    0.387    0.232
  470.250    3.881  202.750   77.675    0.364    0.201
  470.500    3.918  204.501   79.855    0.341    0.194
  470.750    3.731  203.425   83.152    0.368    0.232
  471.000    3.434  197.873   83.253    0.388    0.253
  471.250    3.246  194.710   81.736    0.405    0.256
