~VERSION INFORMATION
 VERS.                 2.0:   CWLS LOG ASCII STANDARD -VERSION 2.0
 WRAP.                  NO:   ONE LINE PER DEPTH STEP
~WELL INFORMATION BLOCK
#MNEM.UNIT           DATA                    DESCRIPTION OF MNEMONIC
#---------    -------------------            -------------------------------
# Generated from Intellog Unique Number	CS_69_70/WELL/768
WELL.         GULF OIL CANADA                : Well_name    - WELL
LOC .         00/06-08-069-15W4/0            : Location     - LOCATION
UWI .         00/06-08-069-15W4/0            : Uwi          - UNIQUE WELL ID
ENTR.         SP                             : Entered      - ENTERED BY
SRVC.         SCHLUMBERGER                   : Scn          - SERVICE COMPANY
STRT.M        259.080                        : top_depth    - START DEPTH
STOP.M        456.830                        : bot_depth    - STOP DEPTH
STEP.M        0.25                           : increment    - STEP LENGTH
 NULL. -999.2500:NULL Value
~CURVE INFORMATION BLOCK
#MNEM UNIT       ERCB CURVE CODE    CURVE DESCRIPTION
#-----------   ------------------   ----------------------------------
DEPT.M        00 001 00 00         : DEPTH        - DEPTH
GR  .API      00 310 00 00         : GR           - GAMMA RAY
DPHI.V/V      00 890 00 00         : PHID         - DENSITY POROSITY (SANDSTONE)
NPHI.V/V      00 330 00 00         : PHIN         - NEUTRON POROSITY (SANDSTONE)
ILD .OHMM     00 120 00 00         : RESD         - DEEP RESISTIVITY (DIL)
~PARAMETER INFORMATION
#MNEM.UNIT           DATA             DESCRIPTION OF MNEMONIC
#---------         -----------     ------------------------------
GL  .M        545.866              : gl           - GROUND LEVEL ELEVATION
EREF.M        549.524              : kb           - ELEVATION OF DEPTH REFERENCE
DATM.M        545.866              : datum        - DATUM ELEVATION
TDD .M        460.553              : tdd          - TOTAL DEPTH DRILLER
RUN .         ONE                  : Run          - RUN NUMBER
ENG .         BILL                 : Engineer     - RECORDING ENGINEER
WIT .         JIM                  : Witness      - WITNESSED BY
MUD .         GEL                  : Mud_type     - MUD TYPE
MATR.         SANDSTONE            : Logunit      - NEUTRON MATRIX
TMAX.C        14.4444              : BHT          - MAXIMUM RECORDED TEMPERATURE
BHTD.M        460.553              : BHTDEP       - MAXIMUM RECORDED TEMPERATURE
MATR.         1                    : LOGUNIT      - NEUTRON MATRIX
RMT .C        25                   : MDTP         - TEMPERATURE OF MUD
NEUT.         1                    : NEUTRON      - NEUTRON TYPE
RESI.         0                    : RESIST       - RESISTIVITY TYPE
RMC .OHMM     0.25                 : RMC          - RESISTIVITY OF MUD CAKE
RMF .OHMM     0.25                 : RMF          - RESISTIVITY OF MUD FILTRATE
SUFT.C        15                   : SUFT         - SURFACE TEMPERATURE
~A  DEPTH       GR     PHID     PHIN     RESD
  259.080   95.361    0.189    0.548    2.189
  259.330   94.489    0.140    0.528    2.252
  259.580   95.137    0.100    0.495    2.293
  259.830   96.271    0.147    0.476    2.320
  260.080   93.612    0.218    0.475    2.347
  260.330   92.716    0.278    0.505    2.370
  260.580   96.717    0.320    0.526    2.408
  260.830   98.574    0.321    0.531    2.452
  261.080  101.428    0.262    0.510    2.503
  261.330  103.220    0.280    0.500    2.577
  261.580   98.053    0.290    0.521    2.666
  261.830   96.952    0.271    0.534    2.736
  262.080   98.076    0.249    0.542    2.812
  262.330   98.278    0.218    0.519    2.932
  262.580   99.409    0.179    0.495    3.029
  262.830   97.425    0.149    0.470    3.108
  263.080   92.619    0.185    0.447    3.183
  263.330   91.566    0.217    0.443    3.176
  263.580   94.956    0.252    0.459    3.090
  263.830  100.305    0.232    0.467    2.970
  264.080  102.861    0.221    0.475    2.879
  264.330  103.851    0.226    0.461    2.777
  264.580  104.056    0.248    0.472    2.708
  264.830  102.195    0.239    0.491    2.666
  265.080  101.234    0.226    0.481    2.633
  265.330  103.834    0.216    0.482    2.610
  265.580  105.628    0.220    0.491    2.609
  265.830  106.323    0.229    0.502    2.579
  266.080  107.054    0.225    0.511    2.551
  266.330  104.875    0.231    0.506    2.538
  266.580  102.845    0.245    0.488    2.540
  266.830  100.654    0.247    0.473    2.585
  267.080  100.690    0.257    0.468    2.655
  267.330  100.855    0.274    0.475    2.688
  267.580   99.933    0.267    0.487    2.671
  267.830   99.241    0.276    0.503    2.612
  268.080   98.395    0.246    0.486    2.541
  268.330   97.815    0.244    0.469    2.501
  268.580   97.890    0.259    0.460    2.493
  268.830   97.695    0.241    0.491    2.559
  269.080   94.231    0.257    0.523    2.679
  269.330   90.716    0.268    0.500    2.814
  269.580   86.261    0.222    0.410    2.941
  269.830   82.245    0.185    0.375    3.040
  270.080   79.171    0.186    0.381    2.993
  270.330   82.632    0.235    0.404    2.935
  270.580   88.208    0.268    0.418    2.898
  270.830   92.151    0.269    0.410    2.874
  271.080   96.075    0.276    0.408    2.891
  271.330   98.227    0.267    0.404    2.998
  271.580  100.481    0.247    0.397    3.159
  271.830  102.732    0.232    0.395    3.393
  272.080  104.453    0.231    0.404    3.624
  272.330  107.058    0.226    0.411    3.750
  272.580  108.455    0.211    0.393    3.790
  272.830  103.586    0.215    0.406    3.624
  273.080   96.708    0.221    0.403    3.440
  273.330   88.005    0.269    0.376    3.251
  273.580   80.344    0.298    0.361    3.079
  273.830   74.240    0.327    0.378    2.873
  274.080   69.125    0.312    0.400    2.753
  274.330   72.461    0.303    0.416    2.780
  274.580   76.017    0.297    0.401    2.972
  274.830   80.008    0.286    0.385    3.495
  275.080   87.126    0.276    0.370    4.078
  275.330   93.142    0.269    0.364    4.599
  275.580   96.563    0.260    0.381    5.172
  275.830   94.101    0.262    0.374    5.579
  276.080   84.079    0.276    0.359    5.816
  276.330   70.468    0.286    0.358    5.347
  276.580   65.507    0.276    0.378    4.858
  276.830   73.037    0.259    0.368    4.301
  277.080   81.081    0.231    0.363    3.841
  277.330   86.139    0.212    0.366    3.465
  277.580   90.089    0.216    0.375    3.204
  277.830   89.669    0.228    0.376    3.040
  278.080   84.775    0.236    0.384    3.094
  278.330   80.385    0.244    0.384    3.316
  278.580   79.445    0.235    0.396    3.677
  278.830   83.742    0.220    0.434    3.999
  279.080   86.308    0.233    0.469    4.349
  279.330   80.422    0.246    0.498    4.701
  279.580   75.895    0.250    0.519    5.152
  279.830   73.550    0.303    0.482    5.378
  280.080   74.320    0.312    0.445    5.431
  280.330   73.504    0.281    0.421    5.382
  280.580   72.299    0.284    0.424    5.317
  280.830   70.849    0.281    0.420    5.172
  281.080   70.906    0.273    0.426    4.950
  281.330   70.373    0.267    0.432    4.733
  281.580   68.490    0.262    0.423    4.447
  281.830   67.147    0.262    0.418    4.188
  282.080   67.493    0.258    0.419    3.935
  282.330   68.179    0.263    0.434    3.751
  282.580   68.070    0.245    0.459    4.003
  282.830   66.372    0.246    0.474    4.275
  283.080   63.600    0.263    0.477    4.555
  283.330   61.194    0.270    0.463    4.535
  283.580   59.636    0.282    0.453    4.107
  283.830   60.350    0.298    0.442    3.653
  284.080   62.258    0.299    0.434    3.269
  284.330   62.983    0.297    0.429    2.788
  284.580   63.220    0.297    0.425    2.463
  284.830   65.763    0.299    0.426    2.224
  285.080   71.636    0.300    0.439    2.281
  285.330   75.381    0.294    0.455    2.480
  285.580   77.706    0.277    0.466    2.770
  285.830   79.314    0.264    0.457    3.035
  286.080   80.135    0.249    0.440    3.365
  286.330   78.510    0.263    0.427    3.728
  286.580   76.269    0.274    0.420    4.047
  286.830   73.707    0.285    0.439    4.352
  287.080   72.683    0.294    0.447    4.585
  287.330   73.172    0.290    0.445    4.744
  287.580   74.891    0.284    0.434    4.678
  287.830   76.470    0.289    0.422    4.365
  288.080   77.663    0.276    0.412    4.105
  288.330   79.762    0.272    0.410    3.772
  288.580   85.939    0.262    0.423    3.515
  288.830   93.384    0.237    0.429    3.351
  289.080   98.368    0.194    0.433    3.234
  289.330  102.070    0.230    0.423    3.282
  289.580  104.877    0.234    0.418    3.401
  289.830  104.279    0.209    0.427    3.485
  290.080   99.891    0.212    0.426    3.469
  290.330   98.136    0.201    0.458    3.374
  290.580  100.536    0.183    0.478    3.264
  290.830  106.750    0.192    0.497    3.161
  291.080  110.098    0.212    0.498    3.116
  291.330  111.996    0.199    0.494    3.159
  291.580  113.702    0.206    0.471    3.273
  291.830  119.040    0.213    0.448    3.397
  292.080  123.086    0.226    0.428    3.518
  292.330  126.245    0.238    0.412    3.671
  292.580  123.346    0.199    0.415    3.834
  292.830  119.454    0.220    0.407    3.962
  293.080  115.771    0.232    0.398    4.093
  293.330  114.561    0.206    0.391    4.181
  293.580  113.251    0.216    0.385    4.278
  293.830  112.166    0.205    0.379    4.334
  294.080  111.534    0.217    0.376    4.353
  294.330  112.606    0.212    0.385    4.321
  294.580  111.775    0.213    0.403    4.217
  294.830  111.458    0.221    0.399    4.054
  295.080  112.739    0.224    0.394    3.861
  295.330  115.567    0.228    0.394    3.702
  295.580  117.673    0.223    0.409    3.618
  295.830  117.769    0.222    0.438    3.634
  296.080  115.871    0.234    0.443    3.680
  296.330  113.480    0.236    0.449    3.717
  296.580  111.324    0.239    0.454    3.753
  296.830  110.069    0.249    0.445    3.783
  297.080  112.069    0.232    0.425    3.827
  297.330  116.081    0.193    0.411    3.882
  297.580  118.775    0.169    0.404    3.943
  297.830  120.615    0.176    0.411    4.041
  298.080  121.843    0.187    0.398    4.093
  298.330  122.102    0.188    0.391    4.093
  298.580  121.894    0.190    0.394    3.906
  298.830  121.951    0.185    0.416    3.616
  299.080  122.952    0.195    0.442    3.327
  299.330  124.645    0.180    0.458    3.131
  299.580  123.775    0.204    0.485    3.022
  299.830  119.905    0.230    0.497    3.054
  300.080  116.173    0.241    0.471    3.181
  300.330  112.839    0.239    0.451    3.326
  300.580  111.416    0.229    0.432    3.411
  300.830  111.010    0.208    0.428    3.417
  301.080  109.422    0.192    0.446    3.346
  301.330  106.475    0.199    0.468    3.238
  301.580  102.551    0.231    0.471    3.148
  301.830  100.388    0.241    0.465    3.052
  302.080  103.930    0.234    0.465    2.962
  302.330  103.934    0.241    0.447    2.878
