~VERSION INFORMATION
 VERS.                 2.0:   CWLS LOG ASCII STANDARD -VERSION 2.0
 WRAP.                  NO:   ONE LINE PER DEPTH STEP
~WELL INFORMATION BLOCK
#MNEM.UNIT           DATA                    DESCRIPTION OF MNEMONIC
#---------    -------------------            -------------------------------
# Generated from Intellog Unique Number	CS_73_76/WELL/800
WELL.         SULPETRO LIMITED               : Well_name    - WELL
LOC .         00/09-32-073-10W4/0            : Location     - LOCATION
UWI .         00/09-32-073-10W4/0            : Uwi          - UNIQUE WELL ID
ENTR.         SP                             : Entered      - ENTERED BY
SRVC.         SCHLUMBERGER                   : Scn          - SERVICE COMPANY
STRT.M        295                            : top_depth    - START DEPTH
STOP.M        515                            : bot_depth    - STOP DEPTH
STEP.M        0.25                           : increment    - STEP LENGTH
 NULL. -999.2500:NULL Value
~CURVE INFORMATION BLOCK
#MNEM UNIT       ERCB CURVE CODE    CURVE DESCRIPTION
#-----------   ------------------   ----------------------------------
DEPT.M        00 001 00 00         : DEPTH        - DEPTH
ILD .OHMM     00 120 00 00         : RESD         - DEEP RESISTIVITY (DIL)
DPHI.V/V      00 890 00 00         : PHID         - DENSITY POROSITY (LIMESTONE)
NPHI.V/V      00 330 00 00         : PHIN         - NEUTRON POROSITY (LIMESTONE)
GR  .API      00 310 00 00         : GR           - GAMMA RAY
~PARAMETER INFORMATION
#MNEM.UNIT           DATA             DESCRIPTION OF MNEMONIC
#---------         -----------     ------------------------------
GL  .M        659.06               : gl           - GROUND LEVEL ELEVATION
EREF.M        662.2                : kb           - ELEVATION OF DEPTH REFERENCE
DATM.M        659.06               : datum        - DATUM ELEVATION
TDD .M        526                  : tdd          - TOTAL DEPTH DRILLER
RUN .         ONE                  : Run          - RUN NUMBER
ENG .         BILL                 : Engineer     - RECORDING ENGINEER
WIT .         JIM                  : Witness      - WITNESSED BY
MUD .         GEL                  : Mud_type     - MUD TYPE
MATR.         LIMESTONE            : Logunit      - NEUTRON MATRIX
TMAX.C        24                   : BHT          - MAXIMUM RECORDED TEMPERATURE
BHTD.M        526                  : BHTDEP       - MAXIMUM RECORDED TEMPERATURE
MATR.         1                    : LOGUNIT      - NEUTRON MATRIX
RMT .C        25                   : MDTP         - TEMPERATURE OF MUD
NEUT.         1                    : NEUTRON      - NEUTRON TYPE
RESI.         0                    : RESIST       - RESISTIVITY TYPE
RMC .OHMM     0.25                 : RMC          - RESISTIVITY OF MUD CAKE
RMF .OHMM     0.25                 : RMF          - RESISTIVITY OF MUD FILTRATE
SUFT.C        15                   : SUFT         - SURFACE TEMPERATURE
~A  DEPTH     RESD     PHID     PHIN       GR
# ...
  338.500   10.463    0.204    0.412  105.676
  338.750   10.463    0.199    0.417  106.287
  339.000   10.663    0.208    0.442  108.122
  339.250   10.663    0.218    0.446  109.346
  339.500   10.664    0.223    0.425  106.283
  339.750   10.664    0.234    0.435  105.669
  340.000   10.868    0.234    0.459  105.055
  340.250   11.501    0.224    0.464  105.054
  340.500   12.172    0.218    0.429  106.277
  340.750   13.127    0.213    0.413  106.888
  341.000   13.378    0.199    0.394  106.887
  341.250   13.633    0.192    0.379  105.661
  341.500   13.379    0.185    0.282  101.374
  341.750   11.947    0.209    0.246   96.474
  342.000   10.871    0.224    0.234   94.024
  342.250    9.893    0.239    0.276  100.145
  342.500    9.527    0.233    0.310  106.878
  342.750    9.709    0.218    0.329  110.550
  343.000   10.083    0.207    0.341  112.998
  343.250   10.874    0.207    0.335  109.935
  343.500   11.293    0.209    0.342  107.485
  343.750   11.508    0.213    0.376  104.423
  344.000   11.951    0.219    0.385  100.747
  344.250   12.180    0.218    0.390   99.522
  344.500   12.180    0.218    0.395   98.296
  344.750   12.181    0.223    0.437   97.682
  345.000   12.181    0.220    0.447   97.069
  345.250   12.182    0.213    0.420   98.291
  345.500   11.954    0.213    0.413   98.290
  345.750   11.512    0.234    0.403   98.289
  346.000   11.086    0.250    0.418   98.900
  346.250   10.676    0.243    0.418  100.123
  346.500   10.089    0.230    0.395  100.734
  346.750    9.356    0.224    0.379  104.406
  347.000    9.010    0.225    0.389  107.466
  347.250    9.010    0.217    0.410  106.240
  347.500    8.842    0.209    0.440  104.402
  347.750    9.011    0.204    0.473  105.013
  348.000    9.011    0.219    0.457  107.460
  348.250    9.358    0.234    0.419  102.560
  348.500    9.904    0.249    0.398  100.110
  348.750   10.285    0.234    0.395   98.272
  349.000   10.885    0.225    0.400   95.210
  349.250   10.885    0.222    0.383   92.759
  349.500   10.682    0.216    0.361   94.595
  349.750   10.483    0.209    0.338   95.817
  350.000   10.287    0.208    0.324   95.204
  350.250    9.721    0.208    0.351   93.366
  350.500    9.362    0.206    0.366   92.140
  350.750    9.187    0.206    0.356   92.751
  351.000    9.015    0.205    0.355   93.362
  351.250    8.682    0.200    0.367   94.585
  351.500    8.682    0.190    0.370   97.032
  351.750    8.520    0.180    0.341   98.256
  352.000    8.362    0.175    0.323  100.091
  352.250    8.362    0.185    0.338  101.314
  352.500    8.206    0.196    0.357   98.863
  352.750    8.363    0.197    0.377   97.638
  353.000    8.363    0.195    0.344   96.412
  353.250    8.523    0.198    0.322   98.860
  353.500    8.686    0.201    0.340  100.082
  353.750    8.851    0.202    0.356   98.856
  354.000    9.020    0.202    0.366   97.630
  354.250    9.192    0.202    0.339   96.405
  354.500    9.368    0.201    0.325   97.016
  354.750    9.547    0.200    0.327   97.626
  355.000    9.915    0.200    0.332   97.625
  355.250   10.104    0.200    0.356   97.011
  355.500   10.104    0.212    0.354   96.398
  355.750   10.105    0.221    0.343   95.784
  356.000   10.105    0.226    0.340   94.558
  356.250   10.106    0.223    0.410   93.332
  356.500    9.917    0.215    0.375   92.719
  356.750    9.732    0.206    0.343   92.718
  357.000    9.551    0.197    0.322   92.104
  357.250    9.372    0.203    0.338   93.327
  357.500    9.198    0.201    0.361   95.163
  357.750    9.026    0.208    0.375   98.835
  358.000    9.026    0.226    0.371   98.833
  358.250    9.027    0.237    0.383   95.770
  358.500    9.199    0.242    0.382   94.545
  358.750    9.375    0.232    0.386   96.380
  359.000    9.554    0.218    0.397   95.766
  359.250    9.554    0.213    0.401   94.540
  359.500    9.737    0.216    0.388   92.090
  359.750    9.737    0.226    0.372   90.864
  360.000    9.923    0.233    0.362   88.414
  360.250   10.113    0.222    0.358   89.637
  360.500   10.113    0.217    0.366   90.860
  360.750   10.306    0.217    0.370   89.022
  361.000   10.307    0.226    0.344   89.020
  361.250   10.307    0.222    0.333   91.468
  361.500   10.115    0.212    0.324   93.304
  361.750    9.926    0.205    0.339   92.077
  362.000    9.559    0.206    0.329   92.076
  362.250    9.205    0.208    0.330   93.299
  362.500    8.699    0.210    0.343   94.523
  362.750    8.066    0.200    0.354   95.745
  363.000    7.623    0.196    0.343   96.969
  363.250    8.378    0.200    0.343   97.580
  363.500    9.382    0.218    0.358   97.578
  363.750   10.508    0.243    0.393   96.964
  364.000   11.548    0.262    0.424   95.739
  364.250   12.222    0.270    0.445   90.839
  364.500   12.455    0.275    0.403   82.879
  364.750   12.455    0.274    0.372   75.530
  365.000   11.770    0.275    0.354   73.080
  365.250   11.551    0.279    0.344   73.079
  365.500   11.335    0.280    0.351   74.301
  365.750   11.124    0.280    0.367   74.300
  366.000   11.125    0.284    0.384   74.298
  366.250   11.125    0.284    0.406   73.685
  366.500   11.125    0.284    0.419   73.072
  366.750   11.126    0.285    0.411   71.233
  367.000   11.126    0.286    0.396   70.008
  367.250   11.127    0.280    0.385   68.782
  367.500    9.389    0.274    0.371   68.168
  367.750    8.872    0.275    0.372   68.779
  368.000    8.384    0.271    0.365   70.615
  368.250   10.921    0.260    0.372   78.572
  368.500   12.230    0.244    0.379   87.754
  368.750   14.496    0.248    0.395   90.814
  369.000   15.340    0.275    0.416   86.527
  369.250   16.544    0.300    0.440   80.403
  369.500   17.181    0.307    0.445   76.116
  369.750   17.510    0.301    0.432   74.890
  370.000   17.511    0.289    0.409   73.664
  370.250   17.511    0.278    0.385   73.663
  370.500   17.185    0.268    0.403   71.212
  370.750   17.185    0.264    0.418   68.150
  371.000   16.865    0.264    0.400   63.251
  371.250   16.550    0.269    0.386   60.800
  371.500   16.550    0.276    0.407   62.636
  371.750   16.551    0.281    0.400   63.247
  372.000   18.537    0.290    0.387   62.633
  372.250   23.249    0.295    0.408   61.407
  372.500   26.534    0.284    0.465   58.344
  372.750   29.162    0.275    0.508   56.506
  373.000   29.718    0.222    0.284   52.219
  373.250   26.041    0.082    0.121   48.544
  373.500   22.820    0.000    0.079   46.094
  373.750   19.622    0.000    0.081   43.031
  374.000   16.873    0.000    0.115   50.989
  374.250   14.509    0.116    0.384   55.885
  374.500   13.711    0.259    0.432   57.721
  374.750   13.204    0.297    0.459   58.944
  375.000   12.957    0.315    0.477   60.779
  375.250   12.958    0.314    0.399   61.390
  375.500   12.959    0.307    0.386   63.225
  375.750   12.959    0.306    0.395   64.448
  376.000   13.206    0.300    0.389   65.672
  376.250   13.207    0.295    0.387   67.507
  376.500   13.459    0.294    0.399   68.118
  376.750   13.208    0.298    0.415   69.341
  377.000   13.209    0.296    0.428   69.339
  377.250   13.209    0.290    0.448   68.726
  377.500   13.210    0.279    0.438   65.663
  377.750   13.211    0.264    0.417   64.438
  378.000   13.211    0.269    0.399   66.273
  378.250   12.965    0.285    0.416   66.884
  378.500   12.965    0.298    0.405   66.270
  378.750   12.966    0.306    0.424   65.657
  379.000   12.966    0.298    0.443   66.267
  379.250   12.967    0.291    0.415   68.103
  379.500   12.968    0.285    0.436   69.938
  379.750   13.215    0.298    0.443   72.998
  380.000   13.216    0.307    0.452   75.445
  380.250   13.468    0.298    0.423   76.669
  380.500   13.469    0.295    0.402   76.668
  380.750   13.726    0.301    0.397   75.441
  381.000   13.988    0.295    0.388   76.664
  381.250   13.989    0.288    0.381   77.888
  381.500   14.255    0.282    0.395   78.499
  381.750   14.528    0.278    0.433   77.272
