~VERSION INFORMATION
 VERS.                 2.0:   CWLS LOG ASCII STANDARD -VERSION 2.0
 WRAP.                  NO:   ONE LINE PER DEPTH STEP
~WELL INFORMATION BLOCK
#MNEM.UNIT           DATA                    DESCRIPTION OF MNEMONIC
#---------    -------------------            -------------------------------
# Generated from Intellog Unique Number	CN_94_101/WELL/2749
WELL.         COLUMBIA GAS DEVELOPMENT LTD.  : Well_name    - WELL
LOC .         00/07-06-094-20W4/0            : Location     - LOCATION
UWI .         00/07-06-094-20W4/0            : Uwi          - UNIQUE WELL ID
ENTR.         JOETTE                         : Entered      - ENTERED BY
SRVC.         COMPUTALOG                     : Scn          - SERVICE COMPANY
DATE.         07\03\92                       : Date         - LOG DATE
STRT.M        180                            : top_depth    - START DEPTH
STOP.M        353                            : bot_depth    - STOP DEPTH
STEP.M        0.25                           : increment    - STEP LENGTH
 NULL. -999.2500:NULL Value
~CURVE INFORMATION BLOCK
#MNEM UNIT       ERCB CURVE CODE    CURVE DESCRIPTION
#-----------   ------------------   ----------------------------------
DEPT.M        00 001 00 00         : DEPTH        - DEPTH
CALI.MM       00 280 01 00         : CAL          - CALIPER
NPHI.V/V      00 330 00 00         : PHIN         - NEUTRON POROSITY (SANDSTONE)
GR  .API      00 310 00 00         : GR           - GAMMA RAY
DPHI.V/V      00 890 00 00         : PHID         - DENSITY POROSITY (SANDSTONE)
ILD .OHMM     00 120 00 00         : RESD         - DEEP RESISTIVITY (DIL)
~PARAMETER INFORMATION
#MNEM.UNIT           DATA             DESCRIPTION OF MNEMONIC
#---------         -----------     ------------------------------
GL  .M        661.36               : gl           - GROUND LEVEL ELEVATION
EREF.M        664.86               : kb           - ELEVATION OF DEPTH REFERENCE
DATM.M        664.86               : datum        - DATUM ELEVATION
TDD .M        354.7                : tdd          - TOTAL DEPTH DRILLER
RUN .         ONE                  : Run          - RUN NUMBER
ENG .         JO                   : Engineer     - RECORDING ENGINEER
WIT .         TIM                  : Witness      - WITNESSED BY
MUD .         GEL                  : Mud_type     - MUD TYPE
MATR.         SANDSTONE            : Logunit      - NEUTRON MATRIX
TMAX.C        22                   : BHT          - MAXIMUM RECORDED TEMPERATURE
BHTD.M        354.7                : BHTDEP       - MAXIMUM RECORDED TEMPERATURE
RMT .C        12.2                 : MDTP         - TEMPERATURE OF MUD
MUDD.KG/M     1150                 : MWT          - MUD DENSITY
NEUT.         1                    : NEUTRON      - NEUTRON TYPE
RESI.         0                    : RESIST       - RESISTIVITY TYPE
RM  .OHMM     3.3                  : RM           - RESISTIVITY OF MUD
RMC .OHMM     3.3                  : RMC          - RESISTIVITY OF MUD CAKE
RMF .OHMM     2.2                  : RMF          - RESISTIVITY OF MUD FILTRATE
SUFT.C        4                    : SUFT         - SURFACE TEMPERATURE
~A  DEPTH      CAL     PHIN       GR     PHID     RESD
# ...
  326.000  163.979    0.407  106.619    0.193    9.850
  326.250  163.016    0.395   99.472    0.188   10.220
  326.500  163.052    0.381   94.715    0.184   10.999
  326.750  162.079    0.371   89.376    0.178   11.411
  327.000  161.107    0.361   89.407    0.176   12.058
  327.250  159.124    0.351   93.022    0.188   12.511
  327.500  157.151    0.344   96.638    0.210   12.977
  327.750  157.169    0.336  100.253    0.214   13.217
  328.000  157.224    0.331   97.894    0.214   13.460
  328.250  157.242    0.324   96.132    0.211   13.457
  328.500  159.317    0.321   97.963    0.186   12.966
  328.750  159.344    0.321  100.376    0.174   12.264
  329.000  162.419    0.350  105.194    0.203   12.037
  329.250  162.447    0.354  107.024    0.207   11.815
  329.500  163.502    0.355  109.445    0.203   11.595
  329.750  164.549    0.364  112.463    0.198   11.595
  330.000  163.576    0.377  111.896    0.196   12.025
  330.250  161.593    0.372  110.724    0.196   14.198
  330.500  158.601    0.367  108.962    0.196   13.936
  330.750  158.629    0.363  108.395    0.199   13.182
  331.000  157.656    0.363  104.841    0.204   12.241
  331.250  157.693    0.366  101.884    0.202   11.794
  331.500  157.738    0.371  103.707    0.197   11.364
  331.750  157.766    0.380  109.712    0.188   11.154
  332.000  157.803    0.388  114.523    0.182   11.151
  332.250  158.858    0.394  107.981    0.181   11.356
  332.500  158.886    0.394  102.635    0.178   11.565
  332.750  158.923    0.385   99.081    0.172   11.778
  333.000  159.969    0.360   94.929    0.159   12.679
  333.250  161.015    0.342   91.980    0.109   12.912
  333.500  162.089    0.339   94.998    0.058    8.287
  333.750  162.117    0.367   96.813    0.184    6.398
  334.000  163.154    0.398  102.229    0.219    4.939
  334.250  163.191    0.427  107.636    0.214    4.587
  334.500  163.237    0.453  114.239    0.213    4.671
  334.750  163.274    0.481  118.460    0.196    5.314
  335.000  162.301    0.472  111.910    0.186    5.936
  335.250  162.328    0.451  103.576    0.178    8.123
  335.500  161.355    0.408   95.848    0.195    8.427
  335.750  160.382    0.359   89.896    0.195    8.742
  336.000  160.419    0.326   86.939    0.184    9.764
  336.250  160.465    0.355   89.957    0.162   11.109
  336.500  160.493    0.377   93.580    0.144   11.739
  336.750  160.529    0.401   97.793    0.182   11.955
  337.000  160.566    0.414  100.803    0.184   11.101
  337.250  162.631    0.410  104.419    0.180   10.120
  337.500  164.687    0.411  105.660    0.174    9.933
  337.750  166.753    0.409  107.490    0.180    9.931
  338.000  167.808    0.402  108.111    0.187   10.113
  338.250  168.845    0.391  105.744    0.187    9.927
  338.500  168.873    0.380   99.800    0.185    8.721
  338.750  167.900    0.361   95.648    0.181    9.216
  339.000  163.898    0.314   95.089    0.176   10.485
  339.250  160.915    0.306   96.912    0.159   12.609
  339.500  158.923    0.301   99.325    0.084   15.164
  339.750  156.941    0.318  103.545    0.074   17.574
  340.000  154.958    0.324  106.555    0.057   19.628
  340.250  152.985    0.318  108.378    0.114   18.911
  340.500  154.040    0.320  107.214    0.153   17.238
  340.750  154.059    0.328  106.647    0.183   16.612
  341.000  155.105    0.337  110.278    0.184   14.866
  341.250  156.161    0.333  114.491    0.182   13.304
  341.500  157.216    0.330  116.904    0.167   12.583
  341.750  159.282    0.333  119.324    0.165   12.350
  342.000  159.300    0.341  116.965    0.165   12.812
  342.250  159.355    0.359  111.021    0.161   14.049
  342.500  159.383    0.363  106.279    0.145   14.573
  342.750  159.410    0.364  103.323    0.130   14.572
  343.000  159.447    0.358  102.748    0.175   14.568
  343.250  159.484    0.341  104.571    0.196   14.565
  343.500  159.539    0.336  107.597    0.197   14.561
  343.750  159.566    0.350  108.822    0.191   14.829
  344.000  160.604    0.355  108.263    0.184   14.826
  344.250  153.573    0.353  106.486    0.182   15.100
  344.500  154.628    0.350  103.537    0.182   16.253
  344.750  155.675    0.345  101.178    0.182   17.175
  345.000  156.712    0.341  100.006    0.182   17.172
  345.250  156.767    0.338   97.654    0.185   16.855
  345.500  156.795    0.333   97.079    0.188   16.542
  345.750  156.840    0.329   95.923    0.199   16.538
  346.000  156.868    0.318   95.356    0.227   16.535
  346.250  156.905    0.311   92.997    0.238   16.839
  346.500  157.951    0.306   88.845    0.238   17.149
  346.750  158.998    0.305   87.681    0.229   17.146
  347.000  159.044    0.301   89.511    0.213   17.140
  347.250  160.108    0.305   92.529    0.149   17.137
  347.500  160.117    0.314   96.734    0.165   16.820
  347.750  161.164    0.320   99.163    0.184   15.911
  348.000  161.201    0.334   97.991    0.200   11.408
  348.250  161.237    0.352   96.229    0.212   10.594
  348.500  161.274    0.367   94.475    0.208   10.207
  348.750  161.329    0.378   94.505    0.194    9.835
  349.000  161.366    0.384   96.328    0.167    9.476
  349.250  161.403    0.383   99.338    0.095    9.301
  349.500  161.439    0.383   98.772    0.115    9.129
  349.750  162.486    0.386   97.017    0.140    9.126
  350.000  166.561    0.391   97.048    0.172    9.124
  350.250  167.608    0.409   97.676    0.181    8.955
  350.500  165.625    0.418   99.507    0.190    8.953
  350.750  164.652    0.420  101.330    0.190    8.952
  351.000  164.680    0.418  101.360    0.190    8.786
  351.250  165.735    0.418  101.399    0.187    8.784
  351.500  166.782    0.419  100.817    0.182    8.782
  351.750  167.828    0.421  100.847    0.176    8.780
  352.000  165.845    0.423  100.288    0.152    8.778
  352.250  163.863    0.424   99.721    0.115    8.939
  352.500  162.890    0.425   94.367    0.168    8.938
  352.750  163.946    0.424   89.618    0.167    8.936
  353.000  163.982    0.416   86.064    0.125    9.100
