~VERSION INFORMATION
 VERS.                 2.0:   CWLS LOG ASCII STANDARD -VERSION 2.0
 WRAP.                  NO:   ONE LINE PER DEPTH STEP
~WELL INFORMATION BLOCK
#MNEM.UNIT           DATA                    DESCRIPTION OF MNEMONIC
#---------    -------------------            -------------------------------
# Generated from Intellog Unique Number	CW_76_78/WELL/468
WELL.         PCP MARTIN HILLS 06-05         : Well_name    - WELL
LOC .         00/06-05-076-04W5/0            : Location     - LOCATION
UWI .         00/06-05-076-04W5/0            : Uwi          - UNIQUE WELL ID
ENTR.         JAYE                           : Entered      - ENTERED BY
SRVC.         SCHLUMBERGER                   : Scn          - SERVICE COMPANY
DATE.         8 MAR 74                       : Date         - LOG DATE
STRT.M        682.752                        : top_depth    - START DEPTH
STOP.M        905.252                        : bot_depth    - STOP DEPTH
STEP.M        0.25                           : increment    - STEP LENGTH
 NULL. -999.2500:NULL Value
~CURVE INFORMATION BLOCK
#MNEM UNIT       ERCB CURVE CODE    CURVE DESCRIPTION
#-----------   ------------------   ----------------------------------
DEPT.M        00 001 00 00         : DEPTH        - DEPTH
ILD .OHMM     00 120 00 00         : RESD         - DEEP RESISTIVITY (DIL)
NPHI.V/V      00 330 00 00         : PHIN         - NEUTRON POROSITY (SANDSTONE)
DPHI.V/V      00 890 00 00         : PHID         - DENSITY POROSITY (SANDSTONE)
GR  .API      00 310 00 00         : GR           - GAMMA RAY
CALI.MM       00 280 01 00         : CAL          - CALIPER
~PARAMETER INFORMATION
#MNEM.UNIT           DATA             DESCRIPTION OF MNEMONIC
#---------         -----------     ------------------------------
GL  .M        955.243              : gl           - GROUND LEVEL ELEVATION
EREF.M        958.596              : kb           - ELEVATION OF DEPTH REFERENCE
DATM.M        955.243              : datum        - DATUM ELEVATION
TDD .M        920.496              : tdd          - TOTAL DEPTH DRILLER
RUN .         ONE                  : Run          - RUN NUMBER
BASE.         EDM                  : Branch       - HOME BASE OF LOGGING UNIT
MATR.         SANDSTONE            : Logunit      - NEUTRON MATRIX
TMAX.C        33.3333              : BHT          - MAXIMUM RECORDED TEMPERATURE
BHTD.M        825.094              : BHTDEP       - MAXIMUM RECORDED TEMPERATURE
RMT .C        2.22222              : MDTP         - TEMPERATURE OF MUD
MUDD.KG/M     0                    : MWT          - MUD DENSITY
NEUT.         1                    : NEUTRON      - NEUTRON TYPE
RESI.         0                    : RESIST       - RESISTIVITY TYPE
RM  .OHMM     2.5                  : RM           - RESISTIVITY OF MUD
RMC .OHMM     0                    : RMC          - RESISTIVITY OF MUD CAKE
RMF .OHMM     4.8                  : RMF          - RESISTIVITY OF MUD FILTRATE
SUFT.C        -17.7778             : SUFT         - SURFACE TEMPERATURE
~A  DEPTH     RESD     PHIN     PHID       GR      CAL
# ...
  828.752    2.450    0.445    0.214   86.921  207.007
  829.002    2.520    0.439    0.224   87.340  207.533
  829.252    2.602    0.431    0.224   87.392  207.099
  829.502    2.762    0.453    0.217   86.854  205.260
  829.752    2.937    0.471    0.218   86.192  201.877
  830.002    3.176    0.458    0.231   85.701  199.330
  830.252    3.390    0.450    0.242   85.216  198.400
  830.502    3.481    0.440    0.248   83.408  198.096
  830.752    3.588    0.420    0.243   81.044  197.791
  831.002    3.558    0.405    0.247   77.784  197.701
  831.252    3.515    0.416    0.257   71.685  197.788
  831.502    3.603    0.434    0.250   71.680  198.079
  831.752    3.811    0.422    0.248   73.561  198.286
  832.002    4.097    0.411    0.260   73.370  198.397
  832.252    4.302    0.412    0.278   70.902  198.399
  832.502    4.516    0.405    0.288   69.746  198.170
  832.752    4.715    0.394    0.292   68.836  198.175
  833.002    5.014    0.382    0.284   68.479  198.398
  833.252    5.655    0.371    0.275   67.876  198.780
  833.502    7.267    0.328    0.252   67.085  199.188
  833.752    9.443    0.254    0.200   64.732  200.105
  834.002   11.110    0.195    0.175   60.441  201.739
  834.252    9.634    0.165    0.040   57.299  203.585
  834.502    7.093    0.190    0.100   58.865  204.091
  834.752    5.349    0.300    0.122   62.611  202.553
  835.002    4.537    0.370    0.200   66.532  198.869
  835.252    3.751    0.411    0.250   72.022  193.553
  835.502    3.386    0.406    0.264   76.550  192.314
  835.752    3.231    0.407    0.262   76.313  191.205
  836.002    3.163    0.425    0.274   74.795  190.696
  836.252    3.178    0.442    0.294   73.588  190.491
  836.502    3.209    0.453    0.293   73.828  190.890
  836.752    3.242    0.462    0.290   73.287  191.096
  837.002    3.281    0.453    0.290   72.980  191.280
  837.252    3.326    0.440    0.283   73.344  192.402
  837.502    3.428    0.440    0.279   73.654  193.637
  837.752    3.520    0.432    0.291   74.062  195.264
  838.002    3.655    0.418    0.293   79.313  197.407
  838.252    3.795    0.410    0.288   79.858  198.633
  838.502    3.897    0.407    0.288   76.291  198.535
  838.752    4.046    0.414    0.272   75.454  198.627
  839.002    4.125    0.406    0.260   77.738  198.751
  839.252    4.174    0.392    0.260   78.826  198.322
  839.502    4.216    0.404    0.251   77.800  198.115
  839.752    4.274    0.419    0.242   78.461  198.110
  840.002    4.302    0.434    0.223   79.915  198.224
  840.252    4.298    0.423    0.222   81.851  198.309
  840.502    4.293    0.410    0.225   82.621  198.221
  840.752    4.289    0.418    0.233   82.140  198.512
  841.002    4.214    0.404    0.237   79.358  198.823
  841.252    4.058    0.419    0.216   81.653  199.115
  841.502    3.907    0.431    0.211   84.613  200.345
  841.752    3.777    0.424    0.210   87.146  201.678
  842.002    3.643    0.415    0.210   89.144  202.580
  842.252    3.613    0.407    0.213   89.372  203.317
  842.502    3.670    0.415    0.206   85.385  203.711
  842.752    3.775    0.442    0.204   87.323  204.107
  843.002    3.920    0.464    0.208   90.156  204.318
  843.252    4.017    0.459    0.215   91.058  204.330
  843.502    4.096    0.449    0.210   89.071  203.590
  843.752    4.153    0.431    0.206   88.221  201.337
  844.002    4.141    0.416    0.213   87.497  199.913
  844.252    3.915    0.396    0.210   87.308  200.426
  844.502    3.640    0.389    0.222   87.429  201.126
  844.752    3.772    0.408    0.223   88.513  201.639
  845.002    4.086    0.435    0.217   90.023  203.369
  845.252    4.451    0.442    0.207   93.340  205.419
  845.502    4.892    0.413    0.201   92.434  206.338
  845.752    5.061    0.375    0.203   90.747  203.161
  846.002    4.750    0.371    0.208   89.295  202.039
  846.252    4.336    0.367    0.225   87.782  202.654
  846.502    3.973    0.387    0.210   88.631  204.072
  846.752    3.826    0.411    0.190   87.777  206.422
  847.002    4.099    0.411    0.207   84.999  208.567
  847.252    5.021    0.409    0.215   81.556  207.854
  847.502    6.597    0.404    0.237   80.708  204.893
  847.752    7.978    0.392    0.251   81.012  201.717
  848.002    8.949    0.392    0.275   81.916  200.710
  848.252    9.326    0.411    0.285   81.612  200.383
  848.502    8.720    0.399    0.275   80.644  200.181
  848.752    7.409    0.395    0.275   77.924  199.769
  849.002    6.485    0.399    0.287   72.978  199.552
  849.252    5.675    0.421    0.291   69.047  199.557
  849.502    5.069    0.442    0.296   63.192  199.953
  849.752    4.801    0.451    0.305   64.639  200.673
  850.002    4.813    0.446    0.305   68.985  201.587
  850.252    4.970    0.447    0.297   71.516  201.789
  850.502    5.534    0.462    0.284   69.585  198.827
  850.752    6.049    0.440    0.303   64.208  197.591
  851.002    6.362    0.411    0.310   64.085  198.423
  851.252    6.570    0.413    0.304   65.172  199.128
  851.502    5.900    0.402    0.305   62.333  199.643
  851.752    5.406    0.387    0.302   62.271  199.740
  852.002    5.120    0.398    0.296   62.875  199.521
  852.252    4.976    0.404    0.294   63.295  199.545
  852.502    4.880    0.405    0.293   63.837  199.530
  852.752    4.875    0.397    0.289   64.620  199.427
  853.002    4.978    0.393    0.285   67.337  199.427
  853.252    5.198    0.409    0.281   69.808  199.205
  853.502    5.799    0.422    0.280   67.275  199.433
  853.752    6.625    0.439    0.276   69.507  199.620
  854.002    7.924    0.434    0.276   68.899  199.926
  854.252   10.017    0.402    0.280   68.113  200.335
  854.502   13.628    0.352    0.235   67.268  201.349
  854.752   19.699    0.190    0.097   62.620  202.052
  855.002   23.825    0.214    0.064   55.791  202.667
  855.252   23.497    0.243    0.085   54.100  203.384
  855.502   21.177    0.276    0.130   55.308  203.783
  855.752   17.896    0.271    0.159   58.567  204.298
  856.002   14.445    0.244    0.133   60.500  205.018
  856.252   10.813    0.214    0.099   61.344  205.623
  856.502    8.825    0.253    0.116   62.248  206.131
  856.752    7.295    0.310    0.160   63.941  205.720
  857.002    6.279    0.333    0.189   66.109  203.362
  857.252    5.597    0.404    0.223   70.392  200.505
  857.502    5.082    0.429    0.263   69.909  199.060
  857.752    4.734    0.426    0.289   70.217  196.923
  858.002    4.686    0.415    0.287   71.594  196.003
  858.252    4.647    0.415    0.281   71.596  196.424
  858.502    4.525    0.403    0.283   70.868  196.817
  858.752    4.389    0.389    0.277   73.043  198.238
  859.002    4.180    0.387    0.254   73.647  200.692
  859.252    4.010    0.391    0.225   76.117  203.545
  859.502    3.876    0.399    0.216   80.279  206.000
  859.752    3.816    0.403    0.217   82.211  206.810
  860.002    3.763    0.398    0.223   82.029  207.325
  860.252    3.738    0.383    0.214   82.877  207.835
  860.502    3.735    0.379    0.216   84.867  208.351
  860.752    3.758    0.391    0.220   85.708  208.744
  861.002    3.755    0.406    0.211   81.600  209.367
  861.252    3.757    0.417    0.192   82.685  209.778
  861.502    3.740    0.424    0.199   84.440  210.186
  861.752    3.736    0.415    0.212   86.670  210.283
  862.002    3.725    0.397    0.217   88.599  210.090
  862.252    3.736    0.391    0.213   89.139  209.766
  862.502    3.753    0.391    0.196   89.202  209.454
  862.752    3.769    0.406    0.204   88.357  208.946
  863.002    3.806    0.408    0.210   87.022  208.536
  863.252    3.838    0.413    0.207   85.574  208.322
  863.502    3.883    0.430    0.215   84.061  208.339
  863.752    3.909    0.414    0.213   84.665  208.540
  864.002    3.964    0.406    0.196   86.718  208.853
  864.252    4.055    0.398    0.205   86.834  208.919
  864.502    4.134    0.391    0.221   82.547  208.933
  864.752    4.152    0.387    0.217   81.949  209.011
  865.002    4.125    0.382    0.205   83.509  209.015
