~VERSION INFORMATION
 VERS.                 2.0:   CWLS LOG ASCII STANDARD -VERSION 2.0
 WRAP.                  NO:   ONE LINE PER DEPTH STEP
~WELL INFORMATION BLOCK
#MNEM.UNIT           DATA                    DESCRIPTION OF MNEMONIC
#---------    -------------------            -------------------------------
# Generated from Intellog Unique Number	CW_70_72/WELL/928
NULL.         -999.25                        : NULL_VALUE
WELL.         SUNDANCE MCMORAN SMITH 07-30   : Well_name    - WELL              
LOC .         07-30-072-24W4                 : Location     - LOCATION          
UWI .         00/07-30-072-24W4/0            : Uwi          - UNIQUE WELL ID    
ENTR.         JAYE                           : Entered      - ENTERED BY        
SRVC.         SCHLUMBERGER                   : Scn          - SERVICE COMPANY   
DATE.         17 JAN 75                      : Date         - LOG DATE          
STRT.M        411.48                         : top_depth    - START DEPTH       
STOP.M        624.73                         : bot_depth    - STOP DEPTH        
STEP.M        0.25                           : increment    - STEP LENGTH       
~CURVE INFORMATION BLOCK
#MNEM UNIT       ERCB CURVE CODE    CURVE DESCRIPTION
#-----------   ------------------   ----------------------------------
DEPT.M        00 001 00 00         : DEPTH        - DEPTH                       
DPHI.V/V      00 890 00 00         : PHID         - DENSITY POROSITY (SANDSTONE)
NPHI.V/V      00 330 00 00         : PHIN         - NEUTRON POROSITY (SANDSTONE)
GR  .API      00 310 00 00         : GR           - GAMMA RAY                   
CALI.MM       00 280 01 00         : CAL          - CALIPER                     
ILD .OHMM     00 120 00 00         : RESD         - DEEP RESISTIVITY (DIL)      
~PARAMETER INFORMATION       
#MNEM.UNIT           DATA             DESCRIPTION OF MNEMONIC
#---------         -----------     ------------------------------
GL  .M        633.984              : gl           - GROUND LEVEL ELEVATION      
EREF.M        642.518              : kb           - ELEVATION OF DEPTH REFERENCE
DATM.M        633.984              : datum        - DATUM ELEVATION             
TDD .M        624.84               : tdd          - TOTAL DEPTH DRILLER         
RUN .         ONE                  : Run          - RUN NUMBER                  
ENG .         JENSEN               : Engineer     - RECORDING ENGINEER          
WIT .         COPLAND/RUDD         : Witness      - WITNESSED BY                
BASE.         EDM                  : Branch       - HOME BASE OF LOGGING UNIT   
MUD .         GEL CHEM             : Mud_type     - MUD TYPE                    
MATR.         SANDSTONE            : Logunit      - NEUTRON MATRIX              
TMAX.C        25.5556              : BHT          - MAXIMUM RECORDED TEMPERATURE
BHTD.M        624.84               : BHTDEP       - MAXIMUM RECORDED TEMPERATURE
RMT .C        15.5556              : MDTP         - TEMPERATURE OF MUD          
MUDD.KG/M     1104                 : MWT          - MUD DENSITY                 
NEUT.         1                    : NEUTRON      - NEUTRON TYPE                
RESI.         0                    : RESIST       - RESISTIVITY TYPE            
RM  .OHMM     7.26                 : RM           - RESISTIVITY OF MUD          
RMC .OHMM     0                    : RMC          - RESISTIVITY OF MUD CAKE     
RMF .OHMM     8.24                 : RMF          - RESISTIVITY OF MUD FILTRATE 
SUFT.C        0                    : SUFT         - SURFACE TEMPERATURE         
~A  DEPTH     PHID     PHIN       GR      CAL     RESD
# ...
  520.980    0.203    0.373   88.273  186.719    6.928
  521.230    0.178    0.376   89.721  187.081    6.981
  521.480    0.175    0.385   90.799  187.013    7.298
  521.730    0.191    0.394   91.626  187.270    7.643
  521.980    0.208    0.404   92.269  187.416    7.916
  522.230    0.192    0.403   93.281  187.251    8.430
  522.480    0.182    0.382   89.843  186.977    8.845
  522.730    0.169    0.371   92.095  186.598    9.111
  522.980    0.171    0.368   91.562  186.744    9.197
  523.230    0.179    0.384   89.112  186.782    9.181
  523.480    0.185    0.377   82.705  186.410    9.268
  523.730    0.180    0.363   80.817  186.238    9.252
  523.980    0.171    0.359   83.497  185.969    9.253
  524.230    0.166    0.373   87.355  185.697    9.221
  524.480    0.175    0.386   91.648  185.525    9.087
  524.730    0.170    0.403   90.868  185.569    9.021
  524.980    0.166    0.406   88.295  185.404    8.858
  525.230    0.168    0.402   88.011  185.133    8.729
  525.480    0.177    0.384   89.212  184.961    8.571
  525.730    0.186    0.375   91.647  184.998    8.541
  525.980    0.179    0.375   94.887  185.040    8.542
  526.230    0.171    0.375   95.656  185.292    8.512
  526.480    0.174    0.370   92.278  185.124    8.358
  526.730    0.177    0.362   88.220  184.854    8.086
  526.980    0.176    0.351   91.397  184.687    7.652
  527.230    0.175    0.348   86.971  184.413    7.514
  527.480    0.175    0.357   84.831  184.454    7.654
  527.730    0.165    0.366   86.586  184.079    8.551
  527.980    0.151    0.376   92.055  183.801   10.341
  528.230    0.158    0.372   93.006  183.843   12.903
  528.480    0.155    0.354   91.112  183.884   16.159
  528.730    0.130    0.349   80.809  184.660   21.706
  528.980    0.045    0.263   70.134  184.914   33.543
  529.230    0.015    0.235   57.788  185.064   41.932
  529.480   -0.002    0.204   56.764  184.580   28.845
  529.730   -0.010    0.202   60.128  184.314   20.779
  529.980   -0.010    0.221   64.234  184.138   16.750
  530.230    0.025    0.247   70.196  184.079   13.183
  530.480    0.056    0.268   75.230  184.230   10.471
  530.730    0.105    0.298   83.356  184.175    8.519
  530.980    0.118    0.324   87.895  183.892    7.475
  531.230    0.161    0.352   87.301  183.934    6.868
  531.480    0.159    0.374   86.835  183.868    6.620
  531.730    0.138    0.379   87.600  183.711    6.683
  531.980    0.126    0.372   89.911  183.752    7.025
  532.230    0.134    0.368   92.845  183.781    7.578
  532.480    0.145    0.368   93.054  183.619    7.849
  532.730    0.142    0.371   89.489  183.550    7.707
  532.980    0.131    0.354   82.651  183.589    7.539
  533.230    0.106    0.330   79.954  182.896    7.403
  533.480    0.109    0.353   84.928  182.414    7.458
  533.730    0.136    0.372   90.517  182.143    7.655
  533.980    0.139    0.384   92.521  182.602    7.958
  534.230    0.144    0.378   90.938  183.380    8.381
  534.480    0.155    0.367   92.630  184.156    8.908
  534.730    0.141    0.363   95.439  184.403    9.363
  534.980    0.113    0.373   95.588  184.557    9.734
  535.230    0.125    0.361   95.178  184.488    9.826
  535.480    0.136    0.347   94.896  184.843    9.648
  535.730    0.129    0.340   94.303  185.097    9.080
  535.980    0.125    0.344   94.638  185.138    8.593
  536.230    0.138    0.349   95.587  185.178    8.237
  536.480    0.151    0.357   97.097  184.489    8.028
  536.730    0.154    0.366   98.975  184.112    8.030
  536.980    0.154    0.372   95.724  184.255    8.135
  537.230    0.164    0.366   91.973  184.304    8.395
  537.480    0.177    0.355   87.050  184.343    8.890
  537.730    0.180    0.349   82.810  184.169    9.625
  537.980    0.174    0.353   85.987  184.110   10.892
  538.230    0.157    0.366   84.465  183.942   13.148
  538.480    0.131    0.376   80.717  183.784   17.021
  538.730    0.100    0.360   76.168  183.608   20.584
  538.980    0.062    0.300   70.254  183.338   23.422
  539.230    0.035    0.264   61.309  183.267   21.284
  539.480    0.025    0.201   54.348  183.413   16.844
  539.730    0.058    0.212   54.744  183.665   14.617
  539.980    0.079    0.230   58.414  184.446   12.158
  540.230    0.110    0.268   65.180  185.118   10.454
  540.480    0.144    0.331   73.554  185.788    9.535
  540.730    0.179    0.358   79.082  185.928    9.786
  540.980    0.200    0.374   81.148  186.079    9.679
  541.230    0.193    0.362   81.667  186.014    9.770
  541.480    0.177    0.357   81.323  185.964    9.862
  541.730    0.154    0.381   80.666  185.786    9.846
  541.980    0.125    0.389   79.145  185.518    9.703
  542.230    0.143    0.364   78.860  185.354    9.545
  542.480    0.164    0.349   77.897  185.070    9.217
  542.730    0.152    0.367   77.548  185.114    8.869
  542.980    0.106    0.372   76.955  185.155    8.628
  543.230    0.139    0.374   77.662  184.886    8.363
  543.480    0.170    0.375   79.848  184.721    8.136
  543.730    0.193    0.371   83.030  184.656    7.886
  543.980    0.179    0.367   85.092  184.695    7.701
  544.230    0.161    0.370   88.333  184.836    7.547
  544.480    0.151    0.379   90.276  184.773    7.493
  544.730    0.156    0.388   90.673  184.929    7.371
  544.980    0.139    0.401   90.263  184.962    7.345
  545.230    0.142    0.383   90.042  185.107    7.387
  545.480    0.151    0.365   89.510  185.471    7.442
  545.730    0.169    0.359   88.236  185.717    7.568
  545.980    0.172    0.377   85.907  186.178    7.753
  546.230    0.154    0.367   85.314  186.327    7.942
  546.480    0.124    0.366   88.000  186.470    8.226
  546.730    0.099    0.375   90.126  186.515    8.568
  546.980    0.155    0.369   93.120  186.451    8.809
  547.230    0.183    0.359   92.216  186.393    9.142
  547.480    0.167    0.350   84.698  186.008    9.843
  547.730    0.163    0.348   82.431  185.632   10.695
  547.980    0.177    0.351   85.918  185.049   12.148
  548.230    0.173    0.353   83.471  184.983   14.691
  548.480    0.178    0.358   79.413  184.605   17.896
  548.730    0.190    0.345   73.070  184.339   24.397
  548.980    0.095    0.323   66.785  184.684   27.659
  549.230    0.041    0.273   61.921  184.730   21.097
  549.480    0.019    0.244   57.617  184.768   16.032
  549.730    0.036    0.252   62.899  184.182   12.641
  549.980    0.095    0.301   70.160  184.018    9.641
  550.230    0.139    0.338   80.390  183.846    8.305
  550.480    0.154    0.349   86.663  183.895    7.831
  550.730    0.162    0.353   91.264  183.930    7.521
  550.980    0.161    0.356   94.874  184.075    7.522
  551.230    0.156    0.362   92.115  183.905    7.635
  551.480    0.143    0.374   89.172  183.740    7.879
  551.730    0.129    0.373   89.196  183.582    8.131
  551.980    0.133    0.365   91.385  183.406    8.253
  552.230    0.145    0.358   94.625  183.239    8.439
  552.480    0.148    0.357   92.423  183.076    8.581
  552.730    0.129    0.364   88.120  183.108    8.598
  552.980    0.125    0.373   89.504  183.367    8.536
  553.230    0.135    0.384   92.499  183.725    8.444
  553.480    0.127    0.375   93.945  184.187    8.367
  553.730    0.101    0.351   89.763  184.438    8.369
  553.980    0.085    0.349   92.323  184.678    8.479
  554.230    0.103    0.359   96.245  184.827    9.028
  554.480    0.135    0.365   97.697  184.765    9.883
  554.730    0.161    0.357   99.139  184.611   11.021
  554.980    0.160    0.359  103.555  184.547   12.357
  555.230    0.145    0.328  102.713  184.271   14.778
  555.480    0.141    0.322   97.542  184.411   17.740
  555.730    0.156    0.334   93.052  184.346   21.100
  555.980    0.164    0.328   85.345  184.386   23.746
  556.230    0.113    0.286   74.362  184.431   24.778
  556.480    0.086    0.244   65.294  184.372   24.554
  556.730    0.025    0.205   58.825  183.895   23.365
  556.980    0.024    0.238   68.870  183.820   21.627
  557.230    0.175    0.284   78.850  183.659   19.401
