~VERSION INFORMATION
 VERS.                 2.0:   CWLS LOG ASCII STANDARD -VERSION 2.0
 WRAP.                  NO:   ONE LINE PER DEPTH STEP
~WELL INFORMATION BLOCK
#MNEM.UNIT           DATA                    DESCRIPTION OF MNEMONIC
#---------    -------------------            -------------------------------
# Generated from Intellog Unique Number	CX_WELLS/WELL/3038
WELL.         ASHLAND HOUSE R                : Well_name    - WELL
LOC .         00/06-06-082-13W4/0            : Location     - LOCATION
UWI .         00/06-06-082-13W4/0            : Uwi          - UNIQUE WELL ID
ENTR.         T                              : Entered      - ENTERED BY
SRVC.         SCHLUMBERGER                   : Scn          - SERVICE COMPANY
STRT.F        500                            : top_depth    - START DEPTH
STOP.F        1260.33                        : bot_depth    - STOP DEPTH
STEP.F        0.82                           : increment    - STEP LENGTH
 NULL. -999.2500:NULL Value
~CURVE INFORMATION BLOCK
#MNEM UNIT       ERCB CURVE CODE    CURVE DESCRIPTION
#-----------   ------------------   ----------------------------------
DEPT.F        00 001 00 00         : DEPTH        - DEPTH
GR  .API      00 310 00 00         : GR           - GAMMA RAY
NPHI.V/V      00 330 00 00         : PHIN         - NEUTRON POROSITY (SANDSTONE)
ILD .OHMM     00 120 00 00         : RESD         - DEEP RESISTIVITY (OTHER)
~PARAMETER INFORMATION
#MNEM.UNIT           DATA             DESCRIPTION OF MNEMONIC
#---------         -----------     ------------------------------
GL  .F        1960                 : gl           - GROUND LEVEL ELEVATION
EREF.F        1974                 : kb           - ELEVATION OF DEPTH REFERENCE
DATM.F        1974                 : datum        - DATUM ELEVATION
TDD .F        1268                 : tdd          - TOTAL DEPTH DRILLER
RUN .         ONE                  : Run          - RUN NUMBER
ENG .         BILL                 : Engineer     - RECORDING ENGINEER
WIT .         JIM                  : Witness      - WITNESSED BY
MUD .         GEL                  : Mud_type     - MUD TYPE
MATR.         SANDSTONE            : Logunit      - NEUTRON MATRIX
TMAX.F        68                   : BHT          - MAXIMUM RECORDED TEMPERATURE
BHTD.F        1668                 : BHTDEP       - MAXIMUM RECORDED TEMPERATURE
MATR.         1                    : LOGUNIT      - NEUTRON MATRIX
RMT .F        68                   : MDTP         - TEMPERATURE OF MUD
NEUT.         1                    : NEUTRON      - NEUTRON TYPE
RESI.         1.88                 : RESIST       - RESISTIVITY TYPE
RMC .OHMM     3.4                  : RMC          - RESISTIVITY OF MUD CAKE
RMF .OHMM     1.88                 : RMF          - RESISTIVITY OF MUD FILTRATE
SUFT.F        37.4                 : SUFT         - SURFACE TEMPERATURE
~A  DEPTH       GR     PHIN     RESD
# ...
  677.986  100.013    0.499    8.991
  678.806  104.835    0.495    8.666
  679.626  109.059    0.495    8.051
  680.446  112.074    0.499    7.479
  681.266  118.105    0.504    7.078
  682.087  119.917    0.506    6.822
  682.907  121.140    0.502    6.337
  683.727  121.747    0.501    6.222
  684.547  121.756    0.502    6.222
  685.367  122.371    0.507    6.222
  686.188  122.383    0.512    6.338
  687.008  119.391    0.513    6.456
  687.828  116.997    0.514    6.576
  688.648  113.999    0.514    6.823
  689.469  109.804    0.513    7.079
  690.289  108.012    0.507    7.345
  691.109  106.821    0.502    7.762
  691.929  108.035    0.497    8.356
  692.749  112.258    0.496    8.511
  693.570  111.064    0.494    9.162
  694.390  107.468    0.492    9.333
  695.210  102.669    0.486    9.863
  696.030   94.863    0.484   10.233
  696.850   91.868    0.481   10.234
  697.671   96.095    0.491   10.618
  698.491   97.910    0.520   11.016
  699.311   96.118    0.550   11.642
  700.131   92.519    0.543   12.304
  700.951   87.722    0.510   13.003
  701.772   82.921    0.486   13.245
  702.592   63.089    0.480   13.998
  703.412   57.087    0.485   14.259
  704.232   55.905    0.488   14.794
  705.052   55.910    0.487   15.349
  705.873   55.922    0.487   15.926
  706.693   55.332    0.491   16.222
  707.513   55.349    0.492   16.524
  708.333   55.358    0.489   17.144
  709.154   55.375    0.488   17.463
  709.974   55.384    0.489   17.788
  710.794   55.398    0.489   18.119
  711.614   55.404    0.489   18.457
  712.434   55.416    0.488   18.800
  713.255   55.427    0.486   18.800
  714.075   55.441    0.487   19.150
  714.895   55.453    0.488   19.506
  715.715   56.069    0.484   19.507
  716.535   56.077    0.482   19.507
  717.356   56.693    0.483   19.508
  718.176   56.702    0.484   19.508
  718.996   57.317    0.481   19.509
  719.816   57.933    0.476   19.509
  720.636   57.942    0.478   19.509
  721.457   57.956    0.483   19.510
  722.277   57.363    0.491   19.510
  723.097   56.776    0.502   19.511
  723.917   56.184    0.499   19.511
  724.738   56.198    0.494   19.512
  725.558   55.614    0.492   19.512
  726.378   55.022    0.501   19.512
  727.198   55.030    0.510   19.513
  728.018   54.446    0.512   19.157
  728.839   54.455    0.512   19.157
  729.659   53.868    0.502   19.158
  730.479   53.882    0.492   18.809
  731.299   53.888    0.501   18.809
  732.119   54.504    0.525   18.466
  732.940   55.114    0.538   18.467
  733.760   56.935    0.536   18.130
  734.580   58.756    0.527   18.130
  735.400   59.363    0.513   17.800
  736.220   59.374    0.502   17.800
  737.041   59.389    0.498   17.476
  737.861   59.395    0.508   17.476
  738.681   58.203    0.517   17.477
  739.501   55.813    0.509   17.477
  740.322   55.827    0.502   17.477
  741.142   55.237    0.499   17.478
  741.962   54.648    0.499   17.803
  742.782   54.055    0.503   17.803
  743.602   52.864    0.528   18.135
  744.423   54.081    0.532   18.135
  745.243   56.497    0.527   18.472
  746.063   57.110    0.520   18.473
  746.883   57.127    0.515   18.473
  747.703   57.133    0.510   18.474
  748.524   57.148    0.507   18.474
  749.344   57.156    0.507   18.474
  750.164   57.772    0.507   18.475
  750.984   55.980    0.507   18.138
  751.804   52.386    0.512   17.808
  752.625   49.391    0.513   17.808
  753.445   47.000    0.517   17.808
  754.265   48.816    0.520   17.484
  755.085   50.625    0.525   17.484
  755.906   53.051    0.529   17.484
  756.726   52.455    0.537   17.485
  757.546   51.868    0.561   17.485
  758.366   51.877    0.562   17.486
  759.186   51.888    0.543   17.167
  760.007   51.301    0.543   17.167
  760.827   50.110    0.542   16.854
  761.647   50.122    0.541   16.855
  762.467   50.737    0.539   16.547
  763.287   51.347    0.529   16.548
  764.108   51.963    0.525   16.548
  764.928   52.573    0.529   16.247
  765.748   51.989    0.533   16.247
  766.568   51.998    0.531   16.247
  767.388   52.009    0.525   15.951
  768.209   51.425    0.524   15.951
  769.029   52.035    0.528   15.661
  769.849   52.645    0.525   15.661
  770.669   53.862    0.524   15.376
  771.490   55.079    0.521   15.376
  772.310   56.296    0.514   15.376
  773.130   56.305    0.505   15.377
  773.950   56.316    0.516   15.377
  774.770   55.726    0.527   15.377
  775.591   56.339    0.523   15.377
  776.411   57.556    0.503   15.378
  777.231   58.166    0.420   15.955
  778.051   58.181    0.390   16.554
  778.871   56.986    0.361   17.495
  779.692   55.194    0.391   18.489
  780.512   54.003    0.455   19.903
  781.332   54.017    0.471   20.650
  782.152   55.836    0.493   20.274
  782.972   57.047    0.522   18.153
  783.793   58.261    0.535   17.822
  784.613   59.475    0.530   16.557
  785.433   60.689    0.523   16.255
  786.253   61.909    0.517   15.959
  787.073   62.519    0.518   15.668
  787.894   63.739    0.522   15.383
  788.714   63.745    0.519   15.383
  789.534   64.962    0.517   15.383
  790.354   64.971    0.514   15.383
  791.175   64.988    0.513   15.384
  791.995   64.398    0.524   15.103
  792.815   63.207    0.543   15.104
  793.635   63.218    0.554   15.104
  794.455   65.635    0.552   15.104
  795.276   66.849    0.543   14.829
  796.096   66.861    0.536   14.829
  796.916   65.672    0.530   14.829
  797.736   64.481    0.523   14.830
  798.556   64.493    0.519   14.830
  799.377   65.710    0.517   14.831
  800.197   65.716    0.514   14.831
  801.017   66.334    0.510   14.560
  801.837   66.343    0.509   14.561
  802.657   66.360    0.515   14.561
  803.478   66.369    0.530   14.561
  804.298   66.380    0.537   14.562
  805.118   66.395    0.534   14.562
  805.938   67.005    0.528   14.562
  806.759   67.620    0.526   14.562
  807.579   68.834    0.525   14.563
  808.399   69.447    0.523   14.563
  809.219   69.456    0.532   14.564
  810.039   70.676    0.534   14.298
  810.860   71.286    0.526   13.283
  811.680   72.503    0.521   12.340
  812.500   73.113    0.518   11.894
  813.320   73.725    0.522   11.255
  814.140   73.743    0.516   10.848
  814.961   73.751    0.504   10.650
  815.781   73.760    0.509   10.456
  816.601   73.777    0.518   10.456
  817.421   73.786    0.526   10.849
  818.241   73.196    0.524   10.651
  819.062   72.609    0.517   10.266
  819.882   70.817    0.513    9.715
  820.702   69.626    0.509    9.193
  821.522   69.637    0.512    8.860
  822.343   69.654    0.512    8.699
  823.163   69.059    0.509    8.861
  823.983   67.868    0.505    9.193
  824.803   66.075    0.502    9.896
  825.623   64.289    0.501   10.268
  826.444   63.095    0.499   10.459
  827.264   61.904    0.499   10.852
  828.084   61.314    0.498   11.468
  828.904   63.129    0.499   11.682
  829.724   64.945    0.505   11.682
  830.545   67.966    0.532   10.853
  831.365   69.784    0.541   10.269
  832.185   71.602    0.549    9.366
  833.005   72.209    0.552    8.701
  833.825   74.028    0.535    8.387
  834.646   74.638    0.519    7.791
  835.466   75.852    0.525    7.649
  836.286   76.464    0.533    7.510
  837.106   77.080    0.530    7.373
  837.927   77.094    0.533    7.373
  838.747   77.106    0.536    7.792
  839.567   73.507    0.539    8.235
  840.387   68.106    0.544    8.544
  841.207   68.118    0.544    9.197
  842.028   69.338    0.542    9.720
  842.848   69.951    0.539   10.463
  843.668   69.962    0.537   10.856
  844.488   69.974    0.535   11.264
  845.308   69.982    0.533   11.687
  846.129   70.598    0.529   11.687
  846.949   71.812    0.523   11.905
  847.769   72.425    0.551   11.905
  848.589   71.838    0.558   11.688
  849.409   69.442    0.553   11.475
  850.230   67.048    0.546   11.265
  851.050   65.857    0.533   10.858
  851.870   65.868    0.539   10.660
  852.690   67.686    0.547   10.275
  853.510   70.710    0.550    9.546
  854.331   71.919    0.559    9.033
  855.151   73.737    0.571    7.110
