~VERSION INFORMATION
 VERS.                 2.0:   CWLS LOG ASCII STANDARD -VERSION 2.0
 WRAP.                  NO:   ONE LINE PER DEPTH STEP
~WELL INFORMATION BLOCK
#MNEM.UNIT           DATA                    DESCRIPTION OF MNEMONIC
#---------    -------------------            -------------------------------
# Generated from Intellog Unique Number	CS_71_72/WELL/662
WELL.         BOW VALLEY EXPLORATION         : Well_name    - WELL
LOC .         00/05-13-071-10W4/0            : Location     - LOCATION
UWI .         00/05-13-071-10W4/0            : Uwi          - UNIQUE WELL ID
ENTR.         SP                             : Entered      - ENTERED BY
SRVC.         SCHLUMBERGER                   : Scn          - SERVICE COMPANY
STRT.M        325                            : top_depth    - START DEPTH
STOP.M        535                            : bot_depth    - STOP DEPTH
STEP.M        0.25                           : increment    - STEP LENGTH
 NULL. -999.2500:NULL Value
~CURVE INFORMATION BLOCK
#MNEM UNIT       ERCB CURVE CODE    CURVE DESCRIPTION
#-----------   ------------------   ----------------------------------
DEPT.M        00 001 00 00         : DEPTH        - DEPTH
ILD .OHMM     00 120 00 00         : RESD         - DEEP RESISTIVITY (DIL)
DPHI.V/V      00 890 00 00         : PHID         - DENSITY POROSITY (LIMESTONE)
NPHI.V/V      00 330 00 00         : PHIN         - NEUTRON POROSITY (LIMESTONE)
GR  .API      00 310 00 00         : GR           - GAMMA RAY
~PARAMETER INFORMATION
#MNEM.UNIT           DATA             DESCRIPTION OF MNEMONIC
#---------         -----------     ------------------------------
GL  .M        679.68               : gl           - GROUND LEVEL ELEVATION
EREF.M        684.3                : kb           - ELEVATION OF DEPTH REFERENCE
DATM.M        679.68               : datum        - DATUM ELEVATION
TDD .M        535                  : tdd          - TOTAL DEPTH DRILLER
RUN .         ONE                  : Run          - RUN NUMBER
ENG .         BILL                 : Engineer     - RECORDING ENGINEER
WIT .         JIM                  : Witness      - WITNESSED BY
MUD .         GEL                  : Mud_type     - MUD TYPE
MATR.         LIMESTONE            : Logunit      - NEUTRON MATRIX
TMAX.C        21                   : BHT          - MAXIMUM RECORDED TEMPERATURE
BHTD.M        535                  : BHTDEP       - MAXIMUM RECORDED TEMPERATURE
MATR.         1                    : LOGUNIT      - NEUTRON MATRIX
RMT .C        25                   : MDTP         - TEMPERATURE OF MUD
NEUT.         1                    : NEUTRON      - NEUTRON TYPE
RESI.         0                    : RESIST       - RESISTIVITY TYPE
RMC .OHMM     0.25                 : RMC          - RESISTIVITY OF MUD CAKE
RMF .OHMM     0.25                 : RMF          - RESISTIVITY OF MUD FILTRATE
SUFT.C        15                   : SUFT         - SURFACE TEMPERATURE
~A  DEPTH     RESD     PHID     PHIN       GR
  325.000    1.934    0.252    0.504   88.074
  325.250    1.688    0.242    0.513   90.635
  325.500    2.546    0.232    0.522   95.329
  325.750    2.513    0.226    0.519   99.047
  326.000    2.508    0.242    0.531  100.084
  326.250    2.522    0.267    0.544   99.353
  326.500    2.546    0.258    0.545   95.209
  326.750    2.574    0.241    0.546   90.577
  327.000    2.604    0.231    0.548   87.957
  327.250    2.643    0.225    0.530   93.077
  327.500    2.673    0.233    0.522   91.128
  327.750    2.688    0.237    0.534   90.580
  328.000    2.729    0.239    0.503   94.908
  328.250    2.770    0.239    0.513   96.676
  328.500    2.844    0.239    0.523   95.153
  328.750    2.904    0.243    0.520   93.690
  329.000    2.920    0.246    0.531   93.325
  329.250    2.903    0.240    0.538   95.093
  329.500    2.871    0.232    0.535   95.764
  329.750    2.844    0.235    0.521   96.009
  330.000    2.843    0.240    0.507   98.265
  330.250    2.859    0.230    0.496  100.825
  330.500    2.886    0.221    0.489  101.009
  330.750    2.936    0.213    0.499   97.474
  331.000    3.008    0.209    0.523   95.280
  331.250    3.112    0.212    0.537   97.963
  331.500    3.165    0.217    0.539   95.099
  331.750    3.183    0.220    0.555   93.697
  332.000    3.165    0.222    0.572   95.953
  332.250    3.177    0.230    0.544   98.270
  332.500    3.261    0.231    0.532   98.453
  332.750    3.330    0.224    0.515   99.002
  333.000    3.412    0.211    0.504   99.917
  333.250    3.523    0.218    0.503   97.967
  333.500    3.624    0.185    0.495   94.372
  333.750    3.777    0.164    0.471   91.142
  334.000    3.885    0.184    0.452   89.924
  334.250    3.981    0.201    0.439   95.105
  334.500    3.959    0.213    0.455   94.984
  334.750    3.777    0.204    0.477   92.729
  335.000    3.596    0.202    0.500   90.901
  335.250    3.450    0.206    0.519   95.778
  335.500    3.372    0.217    0.495   99.679
  335.750    3.347    0.226    0.498  101.691
  336.000    3.417    0.230    0.494   98.461
  336.250    3.482    0.215    0.476   94.500
  336.500    3.521    0.205    0.463   99.499
  336.750    3.488    0.200    0.464  103.095
  337.000    3.384    0.208    0.464   98.829
  337.250    3.247    0.213    0.480   92.308
  337.500    3.296    0.221    0.499   89.566
  337.750    4.397    0.222    0.501   86.885
  338.000    5.681    0.227    0.463   80.059
  338.250    7.622    0.165    0.396   71.770
  338.500    8.879    0.192    0.331   62.811
  338.750   10.801    0.237    0.323   62.385
  339.000   11.957    0.275    0.341   70.126
  339.250   12.393    0.262    0.353   74.576
  339.500   11.800    0.239    0.355   76.710
  339.750   11.067    0.223    0.355   76.832
  340.000   10.758    0.213    0.357   73.725
  340.250   10.900    0.226    0.383   70.190
  340.500   10.962    0.253    0.415   68.362
  340.750   10.797    0.275    0.414   73.848
  341.000   10.716    0.286    0.412   80.127
  341.250   10.635    0.259    0.412   85.918
  341.500   10.088    0.233    0.412   91.221
  341.750    9.303    0.214    0.412   95.793
  342.000    8.841    0.207    0.418   98.475
  342.250    8.386    0.199    0.422   98.415
  342.500    8.152    0.193    0.416   97.379
  342.750    8.045    0.185    0.414   99.513
  343.000    8.060    0.194    0.422   98.051
  343.250    8.197    0.215    0.398   95.614
  343.500    8.322    0.221    0.387   93.603
  343.750    8.496    0.206    0.390   93.969
  344.000    8.772    0.218    0.392   93.969
  344.250    9.126    0.227    0.381   92.873
  344.500    9.602    0.217    0.377   90.801
  344.750   10.198    0.212    0.367   87.145
  345.000   11.375    0.216    0.348   78.125
  345.250   13.325    0.235    0.333   61.242
  345.500   15.464    0.265    0.310   50.027
  345.750   17.810    0.295    0.279   39.544
  346.000   21.181    0.315    0.223   33.755
  346.250   24.812    0.328    0.201   34.974
  346.500   30.182    0.344    0.182   36.559
  346.750   34.436    0.359    0.157   33.695
  347.000   37.061    0.377    0.139   29.734
  347.250   34.239    0.386    0.145   25.834
  347.500   31.693    0.375    0.234   27.907
  347.750   28.734    0.350    0.282   29.553
  348.000   26.297    0.322    0.343   26.079
  348.250   24.526    0.309    0.359   21.813
  348.500   22.873    0.320    0.367   20.107
  348.750   21.453    0.324    0.363   20.900
  349.000   20.620    0.321    0.355   22.912
  349.250   20.158    0.319    0.351   24.680
  349.500   19.931    0.319    0.350   25.291
  349.750   19.967    0.324    0.351   23.219
  350.000   20.042    0.334    0.356   23.890
  350.250   20.117    0.332    0.366   26.450
  350.500   20.154    0.324    0.370   25.963
  350.750   19.814    0.322    0.357   24.623
  351.000   19.153    0.328    0.361   25.477
  351.250   17.930    0.334    0.366   29.195
  351.500   16.534    0.331    0.355   35.840
  351.750   15.362    0.320    0.351   39.863
  352.000   14.246    0.310    0.376   41.814
  352.250   15.245    0.323    0.412   34.196
  352.500   17.069    0.342    0.400   25.480
  352.750   18.164    0.339    0.383   24.628
  353.000   19.111    0.332    0.376   24.080
  353.250   19.807    0.327    0.373   21.947
  353.500   20.259    0.330    0.376   20.363
  353.750   20.489    0.332    0.380   20.485
  354.000   20.643    0.319    0.373   23.533
  354.250   20.720    0.304    0.364   25.180
  354.500   20.758    0.294    0.354   25.119
  354.750   20.757    0.292    0.350   22.499
  355.000   20.757    0.305    0.345   21.402
  355.250   20.756    0.318    0.342   21.830
  355.500   20.834    0.311    0.344   23.354
  355.750   20.872    0.307    0.355   24.208
  356.000   20.753    0.309    0.361   24.330
  356.250   20.714    0.315    0.365   24.880
  356.500   20.713    0.312    0.365   24.149
  356.750   20.869    0.310    0.360   22.686
  357.000   20.986    0.313    0.352   23.053
  357.250   21.144    0.312    0.349   23.968
  357.500   21.183    0.308    0.349   24.639
  357.750   21.063    0.309    0.346   25.492
  358.000   20.943    0.313    0.347   26.407
  358.250   20.943    0.322    0.351   25.738
  358.500   20.903    0.329    0.350   23.970
  358.750   20.941    0.330    0.343   22.996
  359.000   20.901    0.316    0.340   22.082
  359.250   20.861    0.309    0.342   21.778
  359.500   20.665    0.311    0.352   21.413
  359.750   20.509    0.311    0.352   21.413
  360.000   20.392    0.307    0.354   22.450
  360.250   20.391    0.316    0.355   21.963
  360.500   20.468    0.323    0.336   21.415
  360.750   20.505    0.315    0.351   24.768
  361.000   20.621    0.312    0.360   25.927
  361.250   20.737    0.314    0.351   25.501
  361.500   20.775    0.320    0.366   24.221
  361.750   20.657    0.328    0.382   22.942
  362.000   20.385    0.334    0.386   21.662
  362.250   20.385    0.328    0.384   27.819
  362.500   20.461    0.315    0.387   30.258
  362.750   20.577    0.307    0.392   27.272
  363.000   20.615    0.313    0.371   23.737
  363.250   20.614    0.320    0.354   20.142
  363.500   20.613    0.322    0.345   18.009
  363.750   20.457    0.322    0.344   21.605
  364.000   20.227    0.315    0.354   22.764
  364.250   19.923    0.310    0.364   23.191
  364.500   19.551    0.310    0.368   22.704
  364.750   19.367    0.312    0.364   21.608
  365.000   19.221    0.315    0.378   24.290
  365.250   18.968    0.329    0.401   27.399
  365.500   18.789    0.339    0.421   29.472
  365.750   18.753    0.346    0.415   29.656
  366.000   18.717    0.355    0.420   29.108
  366.250   18.716    0.349    0.426   27.645
  366.500   18.716    0.334    0.389   26.854
  366.750   18.470    0.332    0.377   27.281
  367.000   17.853    0.332    0.392   28.744
  367.250   15.914    0.303    0.394   35.754
  367.500   14.053    0.277    0.377   52.334
  367.750   11.166    0.266    0.389   63.671
  368.000    8.691    0.282    0.441   77.142
  368.250    8.806    0.297    0.444   83.298
