~VERSION INFORMATION
 VERS.                 2.0:   CWLS LOG ASCII STANDARD -VERSION 2.0
 WRAP.                  NO:   ONE LINE PER DEPTH STEP
~WELL INFORMATION BLOCK
#MNEM.UNIT           DATA                    DESCRIPTION OF MNEMONIC
#---------    -------------------            -------------------------------
# Generated from Intellog Unique Number	CS_73_76/WELL/2809
WELL.         ESSO WINEFRED LAKR             : Well_name    - WELL
LOC .         00/03-31-075-03W4/0            : Location     - LOCATION
UWI .         00/03-31-075-03W4/0            : Uwi          - UNIQUE WELL ID
ENTR.         TIM                            : Entered      - ENTERED BY
SRVC.         SCHLUMBERGER                   : Scn          - SERVICE COMPANY
STRT.M        250                            : top_depth    - START DEPTH
STOP.M        495                            : bot_depth    - STOP DEPTH
STEP.M        0.25                           : increment    - STEP LENGTH
 NULL. -999.2500:NULL Value
~CURVE INFORMATION BLOCK
#MNEM UNIT       ERCB CURVE CODE    CURVE DESCRIPTION
#-----------   ------------------   ----------------------------------
DEPT.M        00 001 00 00         : DEPTH        - DEPTH
ILD .OHMM     00 120 00 00         : RESD         - DEEP RESISTIVITY (DIL)
DPHI.V/V      00 890 00 00         : PHID         - DENSITY POROSITY (SANDSTONE)
NPHI.V/V      00 330 00 00         : PHIN         - NEUTRON POROSITY (SANDSTONE)
GR  .API      00 310 00 00         : GR           - GAMMA RAY
~PARAMETER INFORMATION
#MNEM.UNIT           DATA             DESCRIPTION OF MNEMONIC
#---------         -----------     ------------------------------
GL  .M        623.9                : gl           - GROUND LEVEL ELEVATION
EREF.M        627.65               : kb           - ELEVATION OF DEPTH REFERENCE
DATM.M        627.65               : datum        - DATUM ELEVATION
TDD .M        505                  : tdd          - TOTAL DEPTH DRILLER
RUN .         ONE                  : Run          - RUN NUMBER
ENG .         BILL                 : Engineer     - RECORDING ENGINEER
WIT .         JIM                  : Witness      - WITNESSED BY
MUD .         GEL                  : Mud_type     - MUD TYPE
MATR.         SANDSTONE            : Logunit      - NEUTRON MATRIX
TMAX.C        32                   : BHT          - MAXIMUM RECORDED TEMPERATURE
BHTD.M        505                  : BHTDEP       - MAXIMUM RECORDED TEMPERATURE
RMT .C        20                   : MDTP         - TEMPERATURE OF MUD
MUDD.KG/M     1160                 : MWT          - MUD DENSITY
NEUT.         1                    : NEUTRON      - NEUTRON TYPE
RESI.         0                    : RESIST       - RESISTIVITY TYPE
RM  .OHMM     1.5                  : RM           - RESISTIVITY OF MUD
RMC .OHMM     2.2                  : RMC          - RESISTIVITY OF MUD CAKE
RMF .OHMM     3.1                  : RMF          - RESISTIVITY OF MUD FILTRATE
SUFT.C        4                    : SUFT         - SURFACE TEMPERATURE
~A  DEPTH     RESD     PHID     PHIN       GR
# ...
  424.000   14.451    0.227    0.334   68.770
  424.250   14.470    0.224    0.334   67.532
  424.500   14.484    0.219    0.335   66.915
  424.750   14.507    0.217    0.333   66.297
  425.000   14.521    0.217    0.329   65.682
  425.250   14.544    0.222    0.322   66.318
  425.500   14.840    0.233    0.317   62.576
  425.750   15.137    0.241    0.308   57.583
  426.000   15.435    0.234    0.304   60.100
  426.250   16.343    0.229    0.306   63.864
  426.500   16.665    0.242    0.310   66.379
  426.750   17.646    0.259    0.316   65.759
  427.000   18.342    0.268    0.322   61.394
  427.250   18.697    0.262    0.333   58.900
  427.500   19.805    0.261    0.341   56.408
  427.750   20.188    0.258    0.356   55.793
  428.000   20.984    0.258    0.359   54.553
  428.250   21.811    0.276    0.359   49.559
  428.500   22.241    0.266    0.354   43.943
  428.750   22.686    0.258    0.348   48.955
  429.000   23.573    0.259    0.347   49.594
  429.250   24.953    0.290    0.346   43.347
  429.500   26.422    0.290    0.345   35.852
  429.750   27.455    0.291    0.342   31.486
  430.000   29.606    0.293    0.337   30.243
  430.250   30.753    0.293    0.334   28.378
  430.500   32.554    0.289    0.332   30.267
  430.750   35.138    0.287    0.332   32.154
  431.000   35.818    0.287    0.332   34.669
  431.250   36.546    0.286    0.331   35.303
  431.500   35.273    0.284    0.329   34.693
  431.750   34.022    0.278    0.336   34.698
  432.000   32.826    0.277    0.343   34.709
  432.250   32.868    0.278    0.349   35.970
  432.500   32.899    0.272    0.360   40.359
  432.750   30.597    0.257    0.360   47.250
  433.000   29.512    0.230    0.354   57.894
  433.250   25.477    0.215    0.343   65.413
  433.500   23.252    0.214    0.330   67.302
  433.750   20.073    0.221    0.332   66.062
  434.000   18.320    0.235    0.338   63.568
  434.250   17.038    0.260    0.341   59.200
  434.500   16.746    0.297    0.338   52.330
  434.750   18.064    0.306    0.336   44.835
  435.000   18.758    0.315    0.334   40.467
  435.250   20.992    0.318    0.336   34.851
  435.500   24.378    0.316    0.337   30.481
  435.750   31.652    0.316    0.337   29.243
  436.000   41.083    0.319    0.338   28.628
  436.250   69.144    0.328    0.342   27.385
  436.500   83.359    0.337    0.344   26.773
  436.750   81.906    0.340    0.348   26.780
  437.000   76.175    0.340    0.350   26.168
  437.250   72.147    0.339    0.350   25.551
  437.500   70.890    0.337    0.346   24.936
  437.750   70.981    0.333    0.341   23.698
  438.000   72.401    0.326    0.334   23.708
  438.250   76.664    0.321    0.333   23.722
  438.500   78.198    0.321    0.338   24.358
  438.750   79.738    0.323    0.343   24.994
  439.000   79.866    0.332    0.349   26.255
  439.250   80.019    0.335    0.358   26.891
  439.500   80.070    0.336    0.358   28.150
  439.750   80.173    0.333    0.358   30.040
  440.000   80.276    0.328    0.358   31.927
  440.250   81.882    0.321    0.356   32.563
  440.500   83.521    0.319    0.352   30.694
  440.750   86.814    0.315    0.342   25.701
  441.000   90.209    0.307    0.341   21.961
  441.250   93.705    0.305    0.342   21.969
  441.500   99.254    0.311    0.348   24.484
  441.750  101.176    0.327    0.359   26.999
  442.000  101.338    0.336    0.362   28.886
  442.250  101.468    0.346    0.359   29.522
  442.500  101.598    0.345    0.354   30.161
  442.750  107.545    0.318    0.347   30.166
  443.000  111.750    0.307    0.337   30.179
  443.250  114.023    0.297    0.326   30.187
  443.500  110.014    0.297    0.317   29.575
  443.750  102.250    0.300    0.320   28.957
  444.000   78.980    0.303    0.331   28.348
  444.250   63.310    0.322    0.336   28.353
  444.500   51.682    0.307    0.336   27.741
  444.750   47.168    0.292    0.331   26.503
  445.000   55.820    0.291    0.327   25.891
  445.250   64.826    0.288    0.324   25.270
  445.500   76.693    0.273    0.309   24.663
  445.750   89.094    0.263    0.302   24.669
  446.000   97.903    0.278    0.314   24.679
  446.250   97.966    0.291    0.320   24.690
  446.500   96.320    0.297    0.314   24.700
  446.750   94.672    0.300    0.314   24.711
  447.000   93.112    0.301    0.327   24.721
  447.250   89.781    0.313    0.344   25.355
  447.500   85.034    0.325    0.350   25.365
  447.750   72.060    0.321    0.345   25.378
  448.000   53.618    0.303    0.338   25.389
  448.250   39.909    0.298    0.330   24.149
  448.500   32.589    0.302    0.331   24.167
  448.750   29.743    0.304    0.332   24.172
  449.000   30.915    0.304    0.330   24.186
  449.250   32.124    0.299    0.323   24.193
  449.500   34.652    0.292    0.314   24.207
  449.750   35.983    0.281    0.308   24.215
  450.000   38.827    0.279    0.302   24.222
  450.250   38.151    0.279    0.297   24.233
  450.500   35.470    0.279    0.297   24.869
  450.750   32.977    0.279    0.297   25.505
  451.000   28.469    0.279    0.297   28.643
  451.250   23.682    0.275    0.300   35.534
  451.500   20.069    0.274    0.309   42.425
  451.750   17.320    0.269    0.316   49.318
  452.000   14.143    0.295    0.324   46.201
  452.250   11.549    0.318    0.333   42.459
  452.500    9.258    0.289    0.347   51.226
  452.750    7.421    0.263    0.359   58.117
  453.000    6.289    0.255    0.365   61.255
  453.250    5.740    0.301    0.368   55.011
  453.500    5.336    0.339    0.364   47.516
  453.750    4.781    0.353    0.354   41.899
  454.000    4.445    0.347    0.346   36.906
  454.250    4.132    0.342    0.346   35.038
  454.500    3.771    0.342    0.345   35.673
  454.750    3.639    0.337    0.342   36.935
  455.000    3.578    0.329    0.339   36.946
  455.250    3.582    0.324    0.342   35.708
  455.500    3.586    0.329    0.348   33.847
  455.750    3.658    0.337    0.351   32.602
  456.000    3.731    0.343    0.352   31.361
  456.250    3.736    0.349    0.352   31.372
  456.500    3.606    0.349    0.353   31.382
  456.750    3.543    0.346    0.354   32.021
  457.000    3.420    0.343    0.359   33.282
  457.250    3.422    0.354    0.371   33.916
  457.500    3.430    0.366    0.384   35.180
  457.750    3.431    0.366    0.387   35.193
  458.000    3.436    0.356    0.385   35.824
  458.250    3.441    0.352    0.378   36.465
  458.500    3.444    0.348    0.370   36.470
  458.750    3.449    0.344    0.359   35.855
  459.000    3.520    0.343    0.352   30.867
  459.250    3.523    0.330    0.350   27.750
  459.500    3.528    0.321    0.350   26.510
  459.750    3.535    0.321    0.350   26.521
  460.000    3.537    0.324    0.347   26.534
  460.250    3.541    0.297    0.339   26.539
  460.500    3.546    0.293    0.316   27.178
  460.750    3.686    0.288    0.302   27.186
  461.000    3.829    0.287    0.296   27.196
  461.250    4.054    0.287    0.293   27.212
  461.500    4.135    0.290    0.294   26.595
  461.750    4.141    0.293    0.298   26.605
  462.000    4.068    0.280    0.298   30.991
  462.250    3.925    0.275    0.300   40.384
  462.500    3.790    0.276    0.309   53.532
  462.750    3.725    0.283    0.315   58.549
  463.000    3.661    0.296    0.334   55.432
  463.250    3.665    0.299    0.333   52.313
  463.500    3.671    0.311    0.333   46.069
  463.750    3.675    0.334    0.332   41.701
  464.000    3.612    0.350    0.330   37.338
  464.250    3.617    0.356    0.329   36.718
  464.500    3.621    0.345    0.328   36.108
  464.750    3.628    0.320    0.327   35.491
  465.000    3.631    0.300    0.326   34.873
  465.250    3.634    0.301    0.323   33.641
  465.500    3.641    0.317    0.321   33.023
  465.750    3.645    0.328    0.318   33.029
  466.000    3.650    0.338    0.316   32.416
  466.250    3.724    0.336    0.315   31.176
  466.500    3.727    0.336    0.317   31.189
  466.750    3.732    0.337    0.321   30.571
  467.000    3.737    0.337    0.322   29.956
  467.250    3.742    0.334    0.323   29.344
