~VERSION INFORMATION
 VERS.                 2.0:   CWLS LOG ASCII STANDARD -VERSION 2.0
 WRAP.                  NO:   ONE LINE PER DEPTH STEP
~WELL INFORMATION BLOCK
#MNEM.UNIT           DATA                    DESCRIPTION OF MNEMONIC
#---------    -------------------            -------------------------------
# Generated from Intellog Unique Number	CS_77_79/WELL/880
WELL.         CWWE HARDY                     : Well_name    - WELL
LOC .         00/06-22-078-04W4/0            : Location     - LOCATION
UWI .         00/06-22-078-04W4/0            : Uwi          - UNIQUE WELL ID
ENTR.         JHS                            : Entered      - ENTERED BY
SRVC.         SCHLUMBERGER                   : Scn          - SERVICE COMPANY
STRT.M        140                            : top_depth    - START DEPTH
STOP.M        400                            : bot_depth    - STOP DEPTH
STEP.M        0.25                           : increment    - STEP LENGTH
 NULL. -999.2500:NULL Value
~CURVE INFORMATION BLOCK
#MNEM UNIT       ERCB CURVE CODE    CURVE DESCRIPTION
#-----------   ------------------   ----------------------------------
DEPT.M        00 001 00 00         : DEPTH        - DEPTH
DPHI.V/V      00 890 00 00         : PHID         - DENSITY POROSITY (LIMESTONE)
NPHI.V/V      00 330 00 00         : PHIN         - NEUTRON POROSITY (LIMESTONE)
GR  .API      00 310 00 00         : GR           - GAMMA RAY
ILD .OHMM     00 120 00 00         : RESD         - DEEP RESISTIVITY (DIL)
RHOB.KG/M3    00 350 00 00         : DENS         - BULK DENSITY
~PARAMETER INFORMATION
#MNEM.UNIT           DATA             DESCRIPTION OF MNEMONIC
#---------         -----------     ------------------------------
GL  .M        554.5                : gl           - GROUND LEVEL ELEVATION
EREF.M        558.4                : kb           - ELEVATION OF DEPTH REFERENCE
DATM.M        558.4                : datum        - DATUM ELEVATION
TDD .M        410                  : tdd          - TOTAL DEPTH DRILLER
RUN .         ONE                  : Run          - RUN NUMBER
ENG .         BILL                 : Engineer     - RECORDING ENGINEER
WIT .         JIM                  : Witness      - WITNESSED BY
MUD .         GEL                  : Mud_type     - MUD TYPE
MATR.         LIMESTONE            : Logunit      - NEUTRON MATRIX
TMAX.C        26                   : BHT          - MAXIMUM RECORDED TEMPERATURE
BHTD.M        410                  : BHTDEP       - MAXIMUM RECORDED TEMPERATURE
MATR.         1                    : LOGUNIT      - NEUTRON MATRIX
RMT .C        25                   : MDTP         - TEMPERATURE OF MUD
NEUT.         1                    : NEUTRON      - NEUTRON TYPE
RESI.         0                    : RESIST       - RESISTIVITY TYPE
RMC .OHMM     0.25                 : RMC          - RESISTIVITY OF MUD CAKE
RMF .OHMM     0.25                 : RMF          - RESISTIVITY OF MUD FILTRATE
SUFT.C        15                   : SUFT         - SURFACE TEMPERATURE
~A  DEPTH     PHID     PHIN       GR     RESD     DENS
# ...
  359.000    0.310    0.342   39.815    1.854 2180.510
  359.250    0.305    0.342   39.803    1.853 2188.920
  359.500    0.311    0.347   39.162    1.923 2178.290
  359.750    0.327    0.353   37.899    1.959 2150.750
  360.000    0.341    0.362   36.635    1.996 2127.430
  360.250    0.349    0.373   41.621    1.995 2112.580
  360.500    0.315    0.368   52.856    1.994 2171.760
  360.750    0.299    0.353   60.341    2.031 2199.200
  361.000    0.310    0.341   52.829    2.069 2180.120
  361.250    0.285    0.314   57.187    2.189 2222.390
  361.500    0.201    0.296   70.924    2.404 2366.190
  361.750    0.166    0.290   80.909    2.691 2425.370
  362.000    0.155    0.295   84.645    3.438 2444.360
  362.250    0.153    0.303   86.502    4.230 2448.540
  362.500    0.154    0.310   84.614    5.204 2446.380
  362.750    0.169    0.316   81.478    5.825 2420.950
  363.000    0.217    0.324   74.589    6.279 2338.400
  363.250    0.249    0.329   64.577    5.931 2283.350
  363.500    0.271    0.331   52.064    5.098 2247.350
  363.750    0.287    0.336   48.925    4.381 2219.780
  364.000    0.289    0.340   58.911    3.911 2215.520
  364.250    0.222    0.337   74.520    3.425 2329.700
  364.500    0.191    0.328   85.130    3.057 2382.540
  364.750    0.167    0.319   90.742    3.114 2424.800
  365.000    0.166    0.320   84.475    3.620 2426.870
  365.250    0.213    0.343   73.839    4.129 2346.430
  365.500    0.237    0.341   61.327    4.452 2304.080
  365.750    0.268    0.338   45.688    4.367 2251.150
  366.000    0.312    0.348   36.300    3.753 2177.070
  366.250    0.320    0.341   29.411    3.414 2162.210
  366.500    0.309    0.335   33.147    2.934 2181.190
  366.750    0.303    0.329   35.632    2.669 2191.730
  367.000    0.298    0.327   36.240    2.474 2200.140
  367.250    0.298    0.324   35.605    2.337 2200.080
  367.500    0.299    0.324   34.965    2.292 2197.940
  367.750    0.308    0.327   34.323    2.248 2183.080
  368.000    0.319    0.333   34.307    2.290 2164.000
  368.250    0.322    0.340   35.548    2.289 2159.720
  368.500    0.286    0.338   44.283    2.288 2221.010
  368.750    0.264    0.323   61.769    2.330 2259.050
  369.000    0.234    0.318   66.127    2.419 2309.760
  369.250    0.249    0.322   59.866    2.511 2284.330
  369.500    0.270    0.307   63.602    2.707 2248.320
  369.750    0.162    0.289   86.711    3.030 2432.320
  370.000    0.129    0.279   94.823    3.457 2489.380
  370.250    0.117    0.282   99.806    3.797 2510.490
  370.500    0.167    0.307   92.294    4.171 2423.710
  370.750    0.257    0.337   69.781    4.330 2271.360
  371.000    0.292    0.373   58.517    3.938 2209.970
  371.250    0.321    0.391   52.880    3.651 2161.260
  371.500    0.333    0.385   50.366    3.137 2140.060
  371.750    0.325    0.379   56.600    2.646 2154.810
  372.000    0.314    0.387   58.459    2.407 2173.810
  372.250    0.306    0.394   59.071    2.361 2186.450
  372.500    0.306    0.390   63.434    2.316 2186.410
  372.750    0.296    0.378   68.419    2.359 2203.280
  373.000    0.283    0.362   67.156    2.449 2226.510
  373.250    0.269    0.353   57.767    2.639 2249.730
  373.500    0.267    0.342   55.253    2.740 2253.900
  373.750    0.259    0.336   60.861    2.844 2266.550
  374.000    0.252    0.335   60.224    2.790 2279.200
  374.250    0.251    0.337   52.710    2.685 2281.270
  374.500    0.263    0.342   42.072    2.634 2260.070
  374.750    0.290    0.347   32.684    2.584 2213.480
  375.000    0.297    0.347   31.417    2.395 2202.850
  375.250    0.292    0.336   32.657    2.262 2211.270
  375.500    0.293    0.329   34.518    2.177 2209.100
  375.750    0.300    0.331   31.378    2.136 2196.360
  376.000    0.314    0.339   27.615    2.095 2173.050
  376.250    0.304    0.340   35.101    2.174 2189.930
  376.500    0.277    0.335   44.461    2.215 2236.420
  376.750    0.276    0.340   36.947    2.214 2238.490
  377.000    0.315    0.351   25.684    2.131 2170.750
  377.250    0.328    0.346   26.919    2.090 2149.550
  377.500    0.309    0.331   33.781    2.129 2181.230
  377.750    0.288    0.324   40.017    2.128 2217.150
  378.000    0.293    0.323   30.003    2.127 2208.640
  378.250    0.311    0.343   24.358    2.087 2178.970
  378.500    0.325    0.361   23.724    2.009 2153.540
  378.750    0.329    0.353   25.586    1.933 2147.130
  379.000    0.332    0.345   25.567    1.897 2142.870
  379.250    0.338    0.348   25.557    1.860 2132.240
  379.500    0.328    0.340   31.169    1.968 2149.110
  379.750    0.297    0.332   63.652    2.162 2201.960
  380.000    0.227    0.323   71.762    2.330 2322.480
  380.250    0.228    0.349   61.749    2.374 2320.330
  380.500    0.290    0.371   37.987    2.328 2214.510
  380.750    0.331    0.375   26.723    2.327 2144.650
  381.000    0.312    0.354   34.834    2.240 2176.330
  381.250    0.299    0.342   42.944    2.156 2199.560
  381.500    0.292    0.334   42.930    2.075 2210.080
  381.750    0.313    0.336   29.166    2.036 2174.080
  382.000    0.330    0.346   22.902    2.035 2146.530
  382.250    0.328    0.348   24.765    2.073 2148.600
  382.500    0.306    0.360   38.500    2.111 2186.620
  382.750    0.292    0.362   45.360    2.151 2209.850
  383.000    0.276    0.357   40.344    2.150 2237.300
  383.250    0.278    0.349   32.833    2.109 2235.140
  383.500    0.298    0.337   27.195    2.108 2201.240
  383.750    0.307    0.333   28.430    2.067 2184.280
  384.000    0.319    0.337   27.164    1.990 2165.190
  384.250    0.332    0.353   24.028    1.916 2141.870
  384.500    0.334    0.361   24.014    1.915 2139.720
  384.750    0.324    0.362   28.999    1.878 2156.590
  385.000    0.313    0.361   31.484    1.913 2175.580
  385.250    0.327    0.366   28.968    1.912 2150.150
  385.500    0.348    0.366   28.332    1.911 2114.140
  385.750    0.321    0.357   40.192    2.022 2160.620
  386.000    0.303    0.358   65.802    2.221 2192.310
  386.250    0.294    0.403   82.037    2.440 2207.070
  386.500    0.454    0.491   79.523    2.837 1934.140
  386.750    0.524    0.602   80.133    3.175 1813.520
  387.000    0.560    0.621  105.744    3.554 1752.120
  387.250    0.470    0.622  128.854    3.904 1906.500
  387.500    0.329    0.622  136.340    4.130 2147.610
  387.750    0.302    0.622  136.323    4.051 2194.090
  388.000    0.308    0.621  130.061    3.685 2183.470
  388.250    0.335    0.618  120.673    3.481 2136.890
  388.500    0.309    0.611  120.035    3.546 2181.260
  388.750    0.173    0.482  126.893    3.680 2413.910
  389.000    0.155    0.435  131.254    3.820 2445.590
  389.250    0.146    0.418  131.242    4.276 2460.340
  389.500    0.149    0.405  133.728    4.439 2456.060
  389.750    0.163    0.392  119.964    4.696 2430.620
  390.000    0.173    0.382   93.702    4.783 2413.660
  390.250    0.188    0.355   74.314    4.604 2388.240
  390.500    0.240    0.340   34.303    4.348 2299.340
  390.750    0.291    0.349   24.288    3.809 2212.570
  391.000    0.322    0.354   19.898    3.036 2159.630
  391.250    0.335    0.350   16.760    2.466 2136.310
  391.500    0.343    0.345   16.743    2.243 2123.580
  391.750    0.364    0.358   17.980    2.079 2087.570
  392.000    0.389    0.384   22.341    2.039 2045.210
  392.250    0.499    0.478   29.205    2.508 1856.900
  392.500    0.610    0.595   41.690    3.144 1666.460
  392.750    0.609    0.620   64.800    3.796 1668.530
  393.000    0.593    0.571  128.531    4.583 1695.980
  393.250    0.266    0.474  124.767    5.532    0.000
  393.500    0.174    0.378  101.631    6.192    0.000
  393.750    0.132    0.338   90.992    6.074    0.000
  394.000    0.112    0.309   85.352    6.071    0.000
  394.250    0.083    0.276   82.840    6.545    0.000
  394.500    0.067    0.288   76.576    7.056    0.000
  394.750    0.119    0.325   45.939    7.464    0.000
  395.000    0.153    0.337   29.050    7.894    0.000
  395.250    0.134    0.303   23.410    9.006    0.000
