~VERSION INFORMATION
 VERS.                 2.0:   CWLS LOG ASCII STANDARD -VERSION 2.0
 WRAP.                  NO:   ONE LINE PER DEPTH STEP
~WELL INFORMATION BLOCK
#MNEM.UNIT           DATA                    DESCRIPTION OF MNEMONIC
#---------    -------------------            -------------------------------
# Generated from Intellog Unique Number	CW_76_78/WELL/637
WELL.         GULF POC DROWNED 07-23         : Well_name    - WELL
LOC .         00/07-23-076-22W4/0            : Location     - LOCATION
UWI .         00/07-23-076-22W4/0            : Uwi          - UNIQUE WELL ID
ENTR.         JAYE                           : Entered      - ENTERED BY
SRVC.         WESTERN ATLAS                  : Scn          - SERVICE COMPANY
DATE.         5 JAN 77                       : Date         - LOG DATE
STRT.M        435.864                        : top_depth    - START DEPTH
STOP.M        649.114                        : bot_depth    - STOP DEPTH
STEP.M        0.25                           : increment    - STEP LENGTH
 NULL. -999.2500:NULL Value
~CURVE INFORMATION BLOCK
#MNEM UNIT       ERCB CURVE CODE    CURVE DESCRIPTION
#-----------   ------------------   ----------------------------------
DEPT.M        00 001 00 00         : DEPTH        - DEPTH
ILD .OHMM     00 120 00 00         : RESD         - DEEP RESISTIVITY (DIL)
NPHI.V/V      00 330 00 00         : PHIN         - NEUTRON POROSITY (SANDSTONE)
DPHI.V/V      00 890 00 00         : PHID         - DENSITY POROSITY (SANDSTONE)
GR  .API      00 310 00 00         : GR           - GAMMA RAY
CALI.MM       00 280 01 00         : CAL          - CALIPER
~PARAMETER INFORMATION
#MNEM.UNIT           DATA             DESCRIPTION OF MNEMONIC
#---------         -----------     ------------------------------
GL  .M        749.198              : gl           - GROUND LEVEL ELEVATION
EREF.M        752.551              : kb           - ELEVATION OF DEPTH REFERENCE
DATM.M        749.198              : datum        - DATUM ELEVATION
TDD .M        647.7                : tdd          - TOTAL DEPTH DRILLER
RUN .         ONE                  : Run          - RUN NUMBER
ENG .         CROCKFORD            : Engineer     - RECORDING ENGINEER
WIT .         HUGHES               : Witness      - WITNESSED BY
BASE.         EDM                  : Branch       - HOME BASE OF LOGGING UNIT
MATR.         SANDSTONE            : Logunit      - NEUTRON MATRIX
TMAX.C        30.5556              : BHT          - MAXIMUM RECORDED TEMPERATURE
BHTD.M        648.31               : BHTDEP       - MAXIMUM RECORDED TEMPERATURE
RMT .C        14.4444              : MDTP         - TEMPERATURE OF MUD
MUDD.KG/M     1080                 : MWT          - MUD DENSITY
NEUT.         1                    : NEUTRON      - NEUTRON TYPE
RESI.         0                    : RESIST       - RESISTIVITY TYPE
RM  .OHMM     3.89                 : RM           - RESISTIVITY OF MUD
RMC .OHMM     0                    : RMC          - RESISTIVITY OF MUD CAKE
RMF .OHMM     5.84                 : RMF          - RESISTIVITY OF MUD FILTRATE
SUFT.C        -17.7778             : SUFT         - SURFACE TEMPERATURE
~A  DEPTH     RESD     PHIN     PHID       GR      CAL
# ...
  472.364    5.905    0.439    0.303   93.770  166.161
  472.614    5.641    0.440    0.297   97.860  166.394
  472.864    5.292    0.431    0.281  104.203  166.620
  473.114    5.101    0.413    0.263  110.787  167.159
  473.364    4.874    0.399    0.252  121.268  169.142
  473.614    4.532    0.416    0.245  124.263  173.491
  473.864    4.176    0.426    0.258  119.895  178.873
  474.114    4.062    0.433    0.272  110.599  179.718
  474.364    4.023    0.455    0.253  105.198  170.471
  474.614    4.282    0.469    0.259  103.446  178.533
  474.864    4.598    0.483    0.260   99.810  184.117
  475.114    4.851    0.486    0.263   95.017  183.320
  475.364    5.401    0.447    0.288   86.755  181.690
  475.614    6.014    0.421    0.313   81.415  175.224
  475.864    6.119    0.426    0.326   76.013  166.697
  476.114    6.006    0.416    0.318   75.663  166.616
  476.364    5.947    0.397    0.323   73.120  167.980
  476.614    5.837    0.393    0.341   69.969  168.829
  476.864    5.782    0.432    0.351   70.228  168.436
  477.114    5.675    0.447    0.344   72.918  167.325
  477.364    5.671    0.442    0.345   71.228  166.421
  477.614    5.616    0.413    0.329   72.094  165.622
  477.864    5.612    0.407    0.335   73.142  165.541
  478.114    5.609    0.418    0.325   72.365  165.875
  478.364    5.605    0.427    0.313   68.180  166.005
  478.614    5.601    0.429    0.316   66.916  166.129
  478.864    5.648    0.424    0.323   68.512  166.360
  479.114    5.644    0.420    0.328   71.203  166.379
  479.364    5.589    0.419    0.325   71.581  166.714
  479.614    5.535    0.419    0.327   72.204  166.942
  479.864    5.482    0.411    0.315   72.400  169.130
  480.114    5.430    0.398    0.324   72.049  169.770
  480.364    5.426    0.405    0.330   71.820  169.179
  480.614    5.373    0.416    0.327   73.599  168.373
  480.864    5.370    0.421    0.310   75.741  167.784
  481.114    5.415    0.419    0.306   75.451  167.597
  481.364    5.412    0.426    0.312   75.343  167.000
  481.614    5.407    0.403    0.298   75.722  166.515
  481.864    5.404    0.411    0.314   76.891  165.919
  482.114    5.401    0.419    0.320   78.974  165.532
  482.364    5.349    0.424    0.326   74.667  165.349
  482.614    5.297    0.437    0.312   76.933  165.579
  482.864    5.246    0.431    0.313   76.216  166.018
  483.114    5.242    0.429    0.315   74.222  166.446
  483.364    5.287    0.424    0.320   72.533  166.473
  483.614    5.477    0.399    0.308   68.773  166.492
  483.864    6.043    0.372    0.258   67.205  166.514
  484.114    6.913    0.320    0.194   68.740  166.744
  484.364    8.052    0.254    0.143   68.571  167.283
  484.614    9.810    0.159    0.060   63.596  168.438
  484.864   11.425    0.138    0.042   59.108  176.600
  485.114   11.015    0.139    0.063   54.253  176.522
  485.364   10.428    0.209    0.023   52.076  174.487
  485.614    9.437    0.251    0.083   52.942  173.994
  485.864    8.239    0.297    0.179   57.702  174.429
  486.114    7.001    0.330    0.196   63.375  172.805
  486.364    6.057    0.382    0.220   68.865  168.394
  486.614    5.633    0.412    0.321   72.042  166.050
  486.864    5.381    0.406    0.341   70.717  165.351
  487.114    5.233    0.402    0.332   71.097  164.557
  487.364    5.183    0.392    0.316   69.041  164.374
  487.614    5.179    0.403    0.306   70.272  164.810
  487.864    5.176    0.409    0.320   72.416  165.447
  488.114    5.172    0.400    0.308   73.099  166.095
  488.364    5.170    0.402    0.323   74.390  166.420
  488.614    5.212    0.422    0.315   72.457  166.757
  488.864    5.209    0.444    0.316   75.331  166.983
  489.114    5.158    0.435    0.321   75.101  166.697
  489.364    5.155    0.414    0.327   76.271  166.410
  489.614    5.152    0.410    0.320   77.745  166.331
  489.864    5.148    0.414    0.313   78.915  165.837
  490.114    5.145    0.410    0.316   79.111  164.831
  490.364    5.188    0.414    0.307   78.881  164.133
  490.614    5.185    0.422    0.311   78.164  164.155
  490.864    5.228    0.432    0.317   77.327  164.797
  491.114    5.224    0.442    0.323   76.488  165.439
  491.364    5.268    0.443    0.309   77.050  166.396
  491.614    5.264    0.440    0.311   78.706  166.827
  491.864    5.261    0.430    0.311   79.572  167.060
  492.114    5.258    0.419    0.306   78.977  166.877
  492.364    5.254    0.411    0.295   78.139  166.589
  492.614    5.203    0.404    0.289   78.823  166.715
  492.864    5.200    0.423    0.321   80.418  166.942
  493.114    5.243    0.437    0.322   78.972  167.170
  493.364    5.288    0.432    0.323   75.153  167.922
  493.614    5.284    0.422    0.327   71.697  168.048
  493.864    5.281    0.419    0.306   73.841  167.868
  494.114    5.324    0.413    0.289   77.566  167.677
  494.364    5.516    0.407    0.308   79.527  167.499
  494.614    5.819    0.403    0.321   75.707  168.134
  494.864    6.082    0.407    0.304   74.687  168.580
  495.114    5.969    0.417    0.277   80.907  168.704
  495.364    5.860    0.412    0.246   84.937  168.210
  495.614    5.597    0.362    0.217   80.935  168.022
  495.864    5.396    0.416    0.277   77.116  168.356
  496.114    5.155    0.459    0.313   75.243  167.865
  496.364    5.014    0.454    0.333   73.127  166.752
  496.614    4.965    0.451    0.336   71.985  165.852
  496.864    4.962    0.458    0.335   70.843  165.669
  497.114    4.959    0.453    0.347   69.822  165.896
  497.364    4.911    0.452    0.342   68.801  166.331
  497.614    4.777    0.471    0.336   69.180  166.871
  497.864    4.646    0.483    0.338   71.751  167.201
  498.114    4.479    0.482    0.333   76.266  167.640
  498.364    4.091    0.462    0.321   82.364  168.286
  498.614    3.669    0.453    0.301   89.071  168.407
  498.864    3.232    0.474    0.293   95.961  168.947
  499.114    2.952    0.492    0.294  101.329  170.205
  499.364    3.142    0.508    0.287  100.918  173.112
  499.614    3.467    0.524    0.308  101.235  178.183
  499.864    3.825    0.490    0.324  102.710  179.858
  500.114    4.297    0.511    0.306  106.802  183.074
  500.364    4.700    0.506    0.331  113.507  187.217
  500.614    5.376    0.453    0.279  114.250  188.478
  500.864    5.932    0.443    0.245  109.031  176.137
  501.114    5.981    0.436    0.255  109.410  176.675
  501.364    5.871    0.412    0.292  108.085  176.286
  501.614    5.659    0.379    0.332  100.676  171.776
  501.864    5.504    0.374    0.359   90.772  167.680
  502.114    5.354    0.386    0.345   84.518  166.570
  502.364    5.208    0.402    0.324   77.778  165.668
  502.614    5.065    0.417    0.313   75.358  165.175
  502.864    4.927    0.427    0.319   73.729  165.195
  503.114    4.750    0.420    0.324   72.526  165.329
  503.364    4.747    0.421    0.331   72.844  165.558
  503.614    4.747    0.429    0.336   71.945  165.781
  503.864    4.697    0.439    0.343   71.837  165.710
  504.114    4.737    0.423    0.340   73.190  165.113
  504.364    4.907    0.408    0.330   76.489  164.511
  504.614    5.130    0.413    0.329   79.423  163.919
  504.864    5.362    0.418    0.314   77.794  164.046
  505.114    5.657    0.394    0.314   76.469  164.375
  505.364    6.299    0.362    0.294   76.727  165.019
  505.614    7.605    0.320    0.216   75.706  166.998
  505.864    9.267    0.191    0.143   71.947  169.288
  506.114   11.088    0.144    0.068   69.344  172.299
  506.364   12.913    0.162    0.032   71.731  176.445
  506.614   14.380    0.160    0.038   76.734  178.014
  506.864   16.597    0.143    0.034   77.600  177.625
  507.114   18.150    0.132    0.006   75.059  178.060
  507.364   19.670    0.132    0.010   71.847  178.910
  507.614   21.123    0.129    0.010   68.636  179.450
  507.864   22.082    0.123    0.004   65.486  178.748
  508.114   21.098    0.119   -0.006   65.561  177.638
  508.364   19.441    0.113   -0.008   63.688  177.868
  508.614   16.520    0.116   -0.013   60.538  178.614
