~VERSION INFORMATION
 VERS.                 2.0:   CWLS LOG ASCII STANDARD -VERSION 2.0
 WRAP.                  NO:   ONE LINE PER DEPTH STEP
~WELL INFORMATION BLOCK
#MNEM.UNIT           DATA                    DESCRIPTION OF MNEMONIC
#---------    -------------------            -------------------------------
# Generated from Intellog Unique Number	CS_77_79/WELL/888
WELL.         CDN-SUP THORNBURY              : Well_name    - WELL
LOC .         00/06-34-078-13W4/0            : Location     - LOCATION
UWI .         00/06-34-078-13W4/0            : Uwi          - UNIQUE WELL ID
ENTR.         JHS                            : Entered      - ENTERED BY
SRVC.         SCHLUMBERGER                   : Scn          - SERVICE COMPANY
STRT.M        250                            : top_depth    - START DEPTH
STOP.M        475                            : bot_depth    - STOP DEPTH
STEP.M        0.25                           : increment    - STEP LENGTH
 NULL. -999.2500:NULL Value
~CURVE INFORMATION BLOCK
#MNEM UNIT       ERCB CURVE CODE    CURVE DESCRIPTION
#-----------   ------------------   ----------------------------------
DEPT.M        00 001 00 00         : DEPTH        - DEPTH
DPHI.V/V      00 890 00 00         : PHID         - DENSITY POROSITY (LIMESTONE)
NPHI.V/V      00 330 00 00         : PHIN         - NEUTRON POROSITY (LIMESTONE)
GR  .API      00 310 00 00         : GR           - GAMMA RAY
ILD .OHMM     00 120 00 00         : RESD         - DEEP RESISTIVITY (DIL)
~PARAMETER INFORMATION
#MNEM.UNIT           DATA             DESCRIPTION OF MNEMONIC
#---------         -----------     ------------------------------
GL  .M        662.5                : gl           - GROUND LEVEL ELEVATION
EREF.M        668                  : kb           - ELEVATION OF DEPTH REFERENCE
DATM.M        668                  : datum        - DATUM ELEVATION
TDD .M        473                  : tdd          - TOTAL DEPTH DRILLER
RUN .         ONE                  : Run          - RUN NUMBER
ENG .         BILL                 : Engineer     - RECORDING ENGINEER
WIT .         JIM                  : Witness      - WITNESSED BY
MUD .         GEL                  : Mud_type     - MUD TYPE
MATR.         LIMESTONE            : Logunit      - NEUTRON MATRIX
TMAX.C        23                   : BHT          - MAXIMUM RECORDED TEMPERATURE
BHTD.M        473                  : BHTDEP       - MAXIMUM RECORDED TEMPERATURE
MATR.         1                    : LOGUNIT      - NEUTRON MATRIX
RMT .C        25                   : MDTP         - TEMPERATURE OF MUD
NEUT.         1                    : NEUTRON      - NEUTRON TYPE
RESI.         0                    : RESIST       - RESISTIVITY TYPE
RMC .OHMM     0.25                 : RMC          - RESISTIVITY OF MUD CAKE
RMF .OHMM     0.25                 : RMF          - RESISTIVITY OF MUD FILTRATE
SUFT.C        15                   : SUFT         - SURFACE TEMPERATURE
~A  DEPTH     PHID     PHIN       GR     RESD
# ...
  380.500    0.236    0.494   84.067    6.938
  380.750    0.238    0.481   84.658    6.941
  381.000    0.244    0.475   85.244    7.076
  381.250    0.248    0.476   85.218    7.078
  381.500    0.242    0.482   86.419    7.082
  381.750    0.232    0.466   89.447    6.953
  382.000    0.241    0.455   93.694    6.828
  382.250    0.263    0.471   91.843    6.706
  382.500    0.256    0.459   86.331    6.708
  382.750    0.262    0.468   83.870    6.711
  383.000    0.281    0.468   83.847    6.714
  383.250    0.266    0.452   81.996    6.593
  383.500    0.262    0.454   80.144    6.354
  383.750    0.251    0.475   80.123    6.124
  384.000    0.243    0.482   82.541    5.580
  384.250    0.235    0.491   87.394    4.808
  384.500    0.233    0.503   89.203    4.301
  384.750    0.245    0.521   90.397    4.069
  385.000    0.235    0.532   92.203    3.922
  385.250    0.238    0.538   92.792    3.923
  385.500    0.243    0.506   92.160    3.998
  385.750    0.244    0.493   90.306    4.311
  386.000    0.250    0.490   89.674    4.477
  386.250    0.232    0.493   90.264    4.649
  386.500    0.244    0.479   89.024    4.919
  386.750    0.265    0.472   87.173    5.403
  387.000    0.256    0.461   87.149    5.935
  387.250    0.247    0.449   88.959    6.163
  387.500    0.221    0.444   93.811    6.282
  387.750    0.224    0.477   94.398    6.169
  388.000    0.217    0.481   93.158    5.836
  388.250    0.207    0.487   90.089    5.520
  388.500    0.211    0.503   89.452    5.319
  388.750    0.225    0.513   90.042    5.224
  389.000    0.241    0.485   92.460    5.325
  389.250    0.245    0.475   93.045    5.634
  389.500    0.250    0.474   90.584    5.962
  389.750    0.248    0.471   90.555    6.308
  390.000    0.255    0.461   91.147    6.675
  390.250    0.263    0.447   89.908    6.803
  390.500    0.275    0.464   86.230    6.935
  390.750    0.247    0.470   87.426    7.068
  391.000    0.234    0.467   93.496    7.342
  391.250    0.225    0.460   95.918    7.483
  391.500    0.236    0.451   94.064    7.486
  391.750    0.245    0.450   93.429    7.489
  392.000    0.248    0.441   93.412    7.633
  392.250    0.248    0.443   91.559    7.497
  392.500    0.239    0.425   92.147    7.360
  392.750    0.248    0.430   92.123    7.094
  393.000    0.237    0.442   89.662    6.967
  393.250    0.243    0.452   86.593    6.970
  393.500    0.258    0.420   82.910    6.843
  393.750    0.266    0.425   82.891    6.976
  394.000    0.272    0.444   84.694    6.978
  394.250    0.287    0.462   86.506    7.114
  394.500    0.297    0.482   89.524    7.251
  394.750    0.303    0.489   85.237    7.391
  395.000    0.301    0.473   79.122    7.676
  395.250    0.289    0.465   72.395    7.972
  395.500    0.282    0.486   78.466    8.279
  395.750    0.276    0.500   80.882    8.282
  396.000    0.276    0.497   81.469    8.286
  396.250    0.294    0.483   80.841    8.136
  396.500    0.307    0.471   78.990    8.140
  396.750    0.317    0.477   75.918    7.995
  397.000    0.307    0.476   76.503    7.998
  397.250    0.306    0.469   75.873    7.854
  397.500    0.313    0.465   72.801    7.856
  397.750    0.315    0.470   70.950    7.714
  398.000    0.318    0.481   71.535    7.718
  398.250    0.323    0.496   72.127    7.302
  398.500    0.328    0.495   71.488    7.304
  398.750    0.319    0.501   71.471    7.040
  399.000    0.294    0.513   70.225    6.913
  399.250    0.261    0.521   70.205    6.915
  399.500    0.148    0.486   70.184    6.791
  399.750    0.006    0.369   67.117    7.186
  400.000    0.011    0.171   57.948    7.746
  400.250    0.018    0.172   53.049    9.167
  400.500    0.024    0.178   51.810   10.849
  400.750    0.031    0.187   53.614   20.862
  401.000    0.017    0.196   55.421   32.068
  401.250    0.000    0.179   56.010   33.932
  401.500    0.000    0.155   52.330   33.945
  401.750    0.000    0.165   50.478   32.721
  402.000    0.026    0.184   51.064   31.534
  402.250    0.074    0.216   56.526   28.205
  402.500    0.165    0.278   58.330   21.325
  402.750    0.262    0.331   58.313   16.737
  403.000    0.306    0.396   60.120   12.420
  403.250    0.321    0.445   65.584    8.554
  403.500    0.321    0.461   72.876    6.590
  403.750    0.319    0.468   73.466    6.352
  404.000    0.319    0.471   70.386    6.355
  404.250    0.324    0.468   69.151    6.356
  404.500    0.332    0.455   70.956    6.480
  404.750    0.331    0.462   70.328    6.606
  405.000    0.332    0.471   69.690    6.608
  405.250    0.337    0.469   70.283    6.864
  405.500    0.340    0.465   70.865    6.995
  405.750    0.331    0.472   70.848    6.998
  406.000    0.315    0.481   70.208    7.133
  406.250    0.305    0.488   70.188    7.137
  406.500    0.311    0.479   69.557    7.139
  406.750    0.330    0.475   68.931    7.144
  407.000    0.322    0.471   68.290    7.013
  407.250    0.318    0.462   67.666    6.888
  407.500    0.303    0.453   68.864    6.890
  407.750    0.296    0.443   72.489    6.642
  408.000    0.316    0.446   74.302    6.646
  408.250    0.319    0.461   76.109    6.648
  408.500    0.308    0.476   74.259    6.651
  408.750    0.304    0.481   72.410    6.653
  409.000    0.314    0.487   71.777    6.534
  409.250    0.311    0.486   70.536    6.536
  409.500    0.297    0.481   67.464    6.299
  409.750    0.286    0.473   66.225    6.187
  410.000    0.259    0.461   68.639    6.074
  410.250    0.267    0.460   71.663    6.078
  410.500    0.305    0.481   78.349    6.080
  410.750    0.318    0.497   78.322    5.969
  411.000    0.313    0.498   75.867    5.974
  411.250    0.317    0.487   73.407    5.865
  411.500    0.327    0.474   71.551    5.759
  411.750    0.339    0.470   70.922    5.656
  412.000    0.333    0.484   72.119    5.554
  412.250    0.327    0.497   75.147    5.454
  412.500    0.332    0.482   75.120    5.456
  412.750    0.334    0.470   73.270    5.459
  413.000    0.326    0.470   72.025    5.461
  413.250    0.320    0.489   70.787    5.463
  413.500    0.311    0.500   70.761    5.465
  413.750    0.298    0.496   71.356    5.468
  414.000    0.288    0.480   76.816    5.469
  414.250    0.271    0.473   81.058    5.576
  414.500    0.264    0.478   84.699    5.578
  414.750    0.266    0.485   86.503    5.581
  415.000    0.272    0.466   85.870    5.583
  415.250    0.268    0.463   85.241    5.586
  415.500    0.258    0.481   86.439    5.284
  415.750    0.247    0.492   89.462    4.998
  416.000    0.241    0.495   93.100    4.908
  416.250    0.235    0.494   97.954    5.003
  416.500    0.262    0.473   94.880    5.294
  416.750    0.281    0.475   91.200    5.707
  417.000    0.286    0.478   89.349    5.927
  417.250    0.281    0.469   88.111    6.042
  417.500    0.274    0.470   84.431    5.932
  417.750    0.278    0.480   80.139    5.826
  418.000    0.275    0.464   77.675    5.827
  418.250    0.262    0.469   77.045    5.617
  418.500    0.253    0.476   77.020    5.619
  418.750    0.201    0.463   77.614    5.622
  419.000    0.158    0.465   80.025    5.730
  419.250    0.108    0.460   80.006    6.177
  419.500    0.083    0.419   76.938    6.535
  419.750    0.153    0.292   69.598    7.314
  420.000    0.221    0.316   70.188    7.739
  420.250    0.227    0.369   84.187    7.743
  420.500    0.234    0.459   89.035    7.055
  420.750    0.234    0.461   90.239    6.311
  421.000    0.223    0.448   88.990    6.084
  421.250    0.213    0.458   90.191    6.201
  421.500    0.210    0.468   90.778    6.320
  421.750    0.218    0.463   88.313    6.441
  422.000    0.214    0.457   87.078    6.567
  422.250    0.212    0.452   87.053    6.692
  422.500    0.208    0.454   87.033    6.823
  422.750    0.206    0.449   85.181    6.954
  423.000    0.209    0.434   85.771    7.222
  423.250    0.211    0.423   93.062    7.360
  423.500    0.203    0.418   97.917    7.644
  423.750    0.203    0.428   97.895    7.649
