~VERSION INFORMATION
 VERS.                 2.0:   CWLS LOG ASCII STANDARD -VERSION 2.0
 WRAP.                  NO:   ONE LINE PER DEPTH STEP
~WELL INFORMATION BLOCK
#MNEM.UNIT           DATA                    DESCRIPTION OF MNEMONIC
#---------    -------------------            -------------------------------
# Generated from Intellog Unique Number	CW_70_72/WELL/3017
NULL.         -999.25                        : NULL_VALUE
WELL.         MESA SULPETRO CALL 07-30       : Well_name    - WELL              
LOC .         07-30-070-22W4                 : Location     - LOCATION          
UWI .         00/07-30-070-22W4/0            : Uwi          - UNIQUE WELL ID    
ENTR.         jj                             : Entered      - ENTERED BY        
SRVC.         SCHLUMBERGER                   : Scn          - SERVICE COMPANY   
DATE.         14 JAN 78                      : Date         - LOG DATE          
STRT.M        411.48                         : top_depth    - START DEPTH       
STOP.M        636.98                         : bot_depth    - STOP DEPTH        
STEP.M        0.25                           : increment    - STEP LENGTH       
~CURVE INFORMATION BLOCK
#MNEM UNIT       ERCB CURVE CODE    CURVE DESCRIPTION
#-----------   ------------------   ----------------------------------
DEPT.M        00 001 00 00         : DEPTH        - DEPTH                       
ILD .OHMM     00 120 00 00         : RESD         - DEEP RESISTIVITY (DIL)      
CALI.MM       00 280 01 00         : CAL          - CALIPER                     
GR  .API      00 310 00 00         : GR           - GAMMA RAY                   
NPHI.V/V      00 330 00 00         : PHIN         - NEUTRON POROSITY (SANDSTONE)
DPHI.V/V      00 890 00 00         : PHID         - DENSITY POROSITY (SANDSTONE)
~PARAMETER INFORMATION       
#MNEM.UNIT           DATA             DESCRIPTION OF MNEMONIC
#---------         -----------     ------------------------------
GL  .M        659.282              : gl           - GROUND LEVEL ELEVATION      
EREF.M        662.33               : kb           - ELEVATION OF DEPTH REFERENCE
DATM.M        659.282              : datum        - DATUM ELEVATION             
TDD .M        652.882              : tdd          - TOTAL DEPTH DRILLER         
RUN .         ONE                  : Run          - RUN NUMBER                  
ENG .         RUMSEY               : Engineer     - RECORDING ENGINEER          
WIT .         STRANDBERG           : Witness      - WITNESSED BY                
BASE.         EDM                  : Branch       - HOME BASE OF LOGGING UNIT   
MUD .         GEL CHEM             : Mud_type     - MUD TYPE                    
MATR.         SANDSTONE            : Logunit      - NEUTRON MATRIX              
TMAX.C        25                   : BHT          - MAXIMUM RECORDED TEMPERATURE
BHTD.M        652.882              : BHTDEP       - MAXIMUM RECORDED TEMPERATURE
RMT .C        15.5556              : MDTP         - TEMPERATURE OF MUD          
MUDD.KG/M     1008                 : MWT          - MUD DENSITY                 
NEUT.         1                    : NEUTRON      - NEUTRON TYPE                
RESI.         0                    : RESIST       - RESISTIVITY TYPE            
RM  .OHMM     2.88                 : RM           - RESISTIVITY OF MUD          
RMC .OHMM     2.5                  : RMC          - RESISTIVITY OF MUD CAKE     
RMF .OHMM     3.34                 : RMF          - RESISTIVITY OF MUD FILTRATE 
SUFT.C        -17.7778             : SUFT         - SURFACE TEMPERATURE         
~A  DEPTH     RESD      CAL       GR     PHIN     PHID
# ...
  484.480    2.006  156.827   55.114    0.447    0.322
  484.730    2.000  154.624   52.433    0.437    0.322
  484.980    1.991  151.786   50.190    0.434    0.332
  485.230    1.993  150.214   48.765    0.434    0.343
  485.480    1.998  149.175   48.905    0.433    0.348
  485.730    1.996  149.103   50.052    0.434    0.339
  485.980    1.983  149.870   51.761    0.452    0.327
  486.230    1.974  150.424   52.715    0.467    0.341
  486.480    1.965  150.765   52.732    0.457    0.341
  486.730    1.967  151.862   52.120    0.438    0.332
  486.980    1.987  153.153   52.763    0.433    0.317
  487.230    2.038  157.110   54.342    0.443    0.335
  487.480    2.327  160.427   54.171    0.452    0.348
  487.730    2.853  162.154   52.618    0.465    0.340
  487.980    3.220  161.867   50.816    0.477    0.327
  488.230    3.070  161.355   51.018    0.480    0.330
  488.480    2.861  158.833   52.353    0.453    0.305
  488.730    2.573  156.522   51.614    0.425    0.297
  488.980    2.384  155.382   52.195    0.425    0.326
  489.230    2.230  155.725   53.212    0.481    0.325
  489.480    2.134  160.848   54.669    0.476    0.313
  489.730    2.136  156.733   56.757    0.463    0.314
  489.980    2.187  157.503   58.338    0.450    0.316
  490.230    2.243  161.885   60.298    0.453    0.310
  490.480    2.305  161.804   60.816    0.461    0.319
  490.730    2.355  159.918   58.887    0.458    0.323
  490.980    2.393  163.344   59.465    0.453    0.320
  491.230    2.373  163.795   61.049    0.444    0.306
  491.480    2.279  160.320   60.878    0.456    0.295
  491.730    2.197  158.431   58.009    0.469    0.300
  491.980    2.110  157.605   55.577    0.465    0.296
  492.230    2.030  160.075   53.523    0.457    0.293
  492.480    1.979  162.330   52.099    0.450    0.300
  492.730    1.951  160.343   51.799    0.445    0.310
  492.980    1.942  157.290   54.698    0.441    0.296
  493.230    1.933  155.296   58.538    0.440    0.320
  493.480    1.935  156.387   60.185    0.439    0.318
  493.730    1.937  157.261   57.253    0.428    0.313
  493.980    1.949  155.588   55.387    0.422    0.319
  494.230    1.973  152.214   55.778    0.420    0.327
  494.480    1.994  152.671   57.676    0.428    0.333
  494.730    2.011  154.391   57.693    0.441    0.331
  494.980    2.020  157.394   57.081    0.456    0.323
  495.230    2.038  159.645   56.219    0.476    0.316
  495.480    2.051  160.626   55.293    0.488    0.307
  495.730    2.060  156.621   54.992    0.457    0.324
  495.980    2.074  153.783   54.945    0.448    0.331
  496.230    2.084  153.170   55.026    0.447    0.311
  496.480    2.090  153.621   54.913    0.449    0.288
  496.730    2.107  155.663   53.993    0.451    0.292
  496.980    2.117  158.234   53.063    0.452    0.323
  497.230    2.127  162.299   51.888    0.454    0.315
  497.480    2.141  163.493   50.586    0.458    0.306
  497.730    2.143  163.200   50.354    0.464    0.305
  497.980    2.145  161.845   50.743    0.457    0.308
  498.230    2.143  160.490   52.450    0.438    0.312
  498.480    2.161  158.819   54.098    0.443    0.313
  498.730    2.233  156.720   55.178    0.465    0.297
  498.980    2.374  155.048   55.194    0.464    0.311
  499.230    2.481  154.646   54.268    0.452    0.308
  499.480    2.618  153.082   56.040    0.444    0.299
  499.730    2.680  150.877   53.922    0.438    0.286
  499.980    2.598  153.454   51.997    0.438    0.276
  500.230    2.481  152.626   51.884    0.442    0.263
  500.480    2.423  147.239   53.280    0.452    0.227
  500.730    2.412  150.028   54.990    0.471    0.204
  500.980    2.465  152.607   56.383    0.477    0.263
  501.230    2.518  153.368   57.026    0.465    0.289
  501.480    2.608  153.296   56.791    0.459    0.284
  501.730    2.695  153.528   56.241    0.452    0.280
  501.980    2.759  153.769   58.077    0.449    0.274
  502.230    2.741  153.897   60.285    0.447    0.265
  502.480    2.682  154.030   62.309    0.445    0.256
  502.730    2.491  153.950   63.390    0.442    0.246
  502.980    2.360  154.091   64.221    0.443    0.266
  503.230    2.262  154.215   64.612    0.447    0.269
  503.480    2.141  153.819   64.313    0.471    0.250
  503.730    2.087  153.955   63.012    0.473    0.290
  503.980    2.054  154.401   60.645    0.438    0.323
  504.230    2.040  155.596   58.842    0.420    0.300
  504.480    2.027  156.048   57.541    0.431    0.308
  504.730    2.018  156.292   56.114    0.426    0.322
  504.980    2.019  156.211   54.685    0.421    0.328
  505.230    2.036  156.130   54.513    0.421    0.334
  505.480    2.077  155.833   55.469    0.430    0.338
  505.730    2.138  155.645   57.052    0.441    0.337
  505.980    2.303  155.352   57.571    0.458    0.332
  506.230    2.513  155.059   56.899    0.467    0.321
  506.480    2.875  154.555   56.659    0.469    0.307
  506.730    3.210  153.837   56.675    0.455    0.292
  506.980    3.328  155.141   56.376    0.420    0.273
  507.230    3.233  156.336   52.190    0.241    0.126
  507.480    3.024  156.574   53.083    0.263    0.134
  507.730    2.850  155.855   56.740    0.355    0.199
  507.980    2.743  154.928   59.261    0.436    0.268
  508.230    2.689  154.316   63.416    0.473    0.298
  508.480    2.707  153.172   64.308    0.494    0.301
  508.730    2.761  151.820   61.501    0.500    0.274
  508.980    2.811  151.207   60.201    0.465    0.279
  509.230    2.867  153.994   63.666    0.441    0.282
  509.480    2.924  155.932   67.004    0.436    0.272
  509.730    3.051  155.533   69.215    0.442    0.277
  509.980    3.140  153.755   70.298    0.466    0.289
  510.230    3.370  151.125   71.504    0.484    0.276
  510.480    3.547  150.620   73.838    0.471    0.228
  510.730    3.722  151.814   76.740    0.461    0.209
  510.980    3.876  154.607   79.137    0.469    0.196
  511.230    3.945  155.689   81.412    0.482    0.189
  511.480    4.017  156.671   83.685    0.448    0.192
  511.730    4.066  157.438   86.084    0.446    0.195
  511.980    4.077  157.893   87.792    0.474    0.190
  512.230    4.066  158.342   89.751    0.470    0.178
  512.480    4.008  159.117   93.404    0.474    0.175
  512.730    3.822  159.567   95.615    0.484    0.175
  512.980    3.732  159.912   95.629    0.477    0.181
  513.230    3.660  160.361   93.951    0.463    0.192
  513.480    3.670  160.386   91.332    0.445    0.176
  513.730    3.750  160.939   86.771    0.434    0.204
  513.980    3.868  162.564   87.601    0.432    0.185
  514.230    3.960  163.010   91.631    0.443    0.166
  514.480    4.054  163.574   92.147    0.452    0.174
  514.730    4.135  164.021   89.846    0.467    0.187
  514.980    4.201  163.937   88.039    0.481    0.183
  515.230    4.244  163.119   85.486    0.485    0.160
  515.480    4.281  162.715   82.991    0.455    0.150
  515.730    4.301  161.894   80.433    0.445    0.150
  515.980    4.337  158.841   82.206    0.440    0.169
  516.230    4.374  155.468   85.482    0.447    0.181
  516.480    4.378  153.368   88.570    0.447    0.174
  516.730    4.268  154.246   91.345    0.453    0.165
  516.980    3.972  159.155   88.789    0.472    0.160
  517.230    3.886  163.008   81.594    0.491    0.172
  517.480    3.788  163.564   74.962    0.480    0.221
  517.730    3.735  159.875   70.774    0.452    0.266
  517.980    3.753  156.286   68.469    0.440    0.276
  518.230    3.799  153.769   67.795    0.430    0.285
  518.480    3.860  152.941   68.626    0.423    0.272
  518.730    3.937  152.229   73.469    0.422    0.245
  518.980    3.985  152.254   79.631    0.447    0.231
  519.230    4.065  153.128   80.213    0.460    0.217
  519.480    4.098  154.961   80.163    0.447    0.204
  519.730    4.172  156.479   83.942    0.439    0.206
  519.980    4.313  156.709   83.645    0.425    0.223
  520.230    4.397  156.097   83.221    0.419    0.223
  520.480    4.510  155.274   82.423    0.410    0.212
  520.730    4.558  154.136   81.310    0.411    0.198
