~VERSION INFORMATION
 VERS.                 2.0:   CWLS LOG ASCII STANDARD -VERSION 2.0
 WRAP.                  NO:   ONE LINE PER DEPTH STEP
~WELL INFORMATION BLOCK
#MNEM.UNIT           DATA                    DESCRIPTION OF MNEMONIC
#---------    -------------------            -------------------------------
# Generated from Intellog Unique Number	CN_91_93/WELL/3225
WELL.         AMOCO CANADA PETROLEUM CO.LTD. : Well_name    - WELL
LOC .         00/06-35-092-19W4/0            : Location     - LOCATION
UWI .         00/06-35-092-19W4/0            : Uwi          - UNIQUE WELL ID
ENTR.         JOETTE                         : Entered      - ENTERED BY
SRVC.         SCHLUMBERGER                   : Scn          - SERVICE COMPANY
DATE.         04/14/92                       : Date         - LOG DATE
STRT.F        300                            : top_depth    - START DEPTH
STOP.F        879.888                        : bot_depth    - STOP DEPTH
STEP.F        0.82                           : increment    - STEP LENGTH
 NULL. -999.2500:NULL Value
~CURVE INFORMATION BLOCK
#MNEM UNIT       ERCB CURVE CODE    CURVE DESCRIPTION
#-----------   ------------------   ----------------------------------
DEPT.F        00 001 00 00         : DEPTH        - DEPTH
CALI.IN       00 280 01 00         : CAL          - CALIPER
GR  .API      00 310 00 00         : GR           - GAMMA RAY
NPHI.V/V      00 330 00 00         : PHIN         - NEUTRON POROSITY (SANDSTONE)
DPHI.V/V      00 890 00 00         : PHID         - DENSITY POROSITY (SANDSTONE)
ILD .OHMM     00 120 00 00         : RESD         - DEEP RESISTIVITY (DIL)
~PARAMETER INFORMATION
#MNEM.UNIT           DATA             DESCRIPTION OF MNEMONIC
#---------         -----------     ------------------------------
GL  .F        1707                 : gl           - GROUND LEVEL ELEVATION
EREF.F        1718                 : kb           - ELEVATION OF DEPTH REFERENCE
DATM.F        1718                 : datum        - DATUM ELEVATION
TDD .F        1331                 : tdd          - TOTAL DEPTH DRILLER
RUN .         ONE                  : Run          - RUN NUMBER
ENG .         JO                   : Engineer     - RECORDING ENGINEER
WIT .         TIM                  : Witness      - WITNESSED BY
MUD .         GEL                  : Mud_type     - MUD TYPE
MATR.         SANDSTONE            : Logunit      - NEUTRON MATRIX
TMAX.F        70                   : BHT          - MAXIMUM RECORDED TEMPERATURE
BHTD.F        331                  : BHTDEP       - MAXIMUM RECORDED TEMPERATURE
RMT .F        54                   : MDTP         - TEMPERATURE OF MUD
MUDD.LB/G     9.1                  : MWT          - MUD DENSITY
NEUT.         1                    : NEUTRON      - NEUTRON TYPE
RESI.         0                    : RESIST       - RESISTIVITY TYPE
RM  .OHMM     2.54                 : RM           - RESISTIVITY OF MUD
RMC .OHMM     2.54                 : RMC          - RESISTIVITY OF MUD CAKE
RMF .OHMM     2.54                 : RMF          - RESISTIVITY OF MUD FILTRATE
SUFT.F        39.2                 : SUFT         - SURFACE TEMPERATURE
~A  DEPTH      CAL       GR     PHIN     PHID     RESD
# ...
  419.751    8.744   92.124    0.647    0.235    7.594
  420.571    8.744   92.121    0.659    0.228    8.186
  421.391    8.785   92.120    0.642    0.230    7.736
  422.211    8.785   92.118    0.626    0.239    7.450
  423.031    8.785   91.496    0.597    0.256    7.174
  423.852    8.826   87.774    0.576    0.263   11.051
  424.672    8.867   87.152    0.602    0.274   12.139
  425.492    8.950   76.609    0.596    0.291   13.085
  426.312    8.991   69.785    0.566    0.312   12.600
  427.133    9.032   66.064    0.547    0.339   10.638
  427.953    9.032   63.581    0.545    0.327    8.981
  428.773    9.032   66.060    0.537    0.298    7.726
  429.593    9.032   69.779    0.538    0.265    7.165
  430.413    9.032   74.738    0.553    0.244    7.724
  431.234    9.032   85.897    0.580    0.250    8.484
  432.054    9.031   90.856    0.594    0.276    9.675
  432.874    9.031   87.134    0.588    0.288    9.858
  433.694    8.990   82.791    0.592    0.293    9.492
  434.514    8.990   77.208    0.596    0.298    9.314
  435.335    8.990   75.966    0.588    0.303    9.313
  436.155    8.989   79.685    0.573    0.298    8.476
  436.975    8.989   83.404    0.557    0.256    8.162
  437.795    8.989   88.983    0.560    0.235    7.290
  438.615    8.989   93.941    0.573    0.215    5.499
  439.436    8.989   96.420    0.597    0.193    5.196
  440.256    8.989   96.418    0.625    0.155    5.395
  441.076    8.989   95.176    0.643    0.178    6.152
  441.896    8.989   95.795    0.641    0.211    5.706
  442.717    8.989  100.753    0.671    0.222    5.292
  443.537    8.988  105.092    0.685    0.236    4.639
  444.357    8.988  108.811    0.696    0.248    4.726
  445.177    8.988  108.809    0.675    0.242    4.726
  445.997    8.988  106.327    0.667    0.221    4.725
  446.818    8.988   97.023    0.662    0.234    5.190
  447.638    8.988   96.401    0.666    0.248    5.594
  448.458    8.988   96.400    0.673    0.263    5.594
  449.278    8.988   96.398    0.665    0.256    5.187
  450.098    8.987   96.397    0.655    0.236    5.285
  450.919    8.987   96.394    0.649    0.231    5.697
  451.739    9.028   96.393    0.654    0.234    5.284
  452.559    9.028   97.631    0.644    0.235    4.632
  453.379    9.070   98.249    0.646    0.234    5.282
  454.199    9.069   99.488    0.636    0.238   11.630
  455.020    9.111   98.245    0.620    0.235   12.774
  455.840    9.111   93.283    0.606    0.235   14.568
  456.660    9.152   87.080    0.572    0.223   16.001
  457.480    9.152   82.738    0.503    0.209   14.840
  458.301    9.152   77.155    0.513    0.216   15.406
  459.121    9.151   80.254    0.539    0.240   14.836
  459.941    9.151   81.492    0.516    0.273   11.402
  460.761    9.151   77.769    0.539    0.251    9.995
  461.581    9.151   75.907    0.547    0.230   10.183
  462.402    9.151   75.285    0.547    0.172   15.688
  463.222    9.192   74.043    0.458    0.100   26.055
  464.042    9.192   72.802    0.408    0.035   20.790
  464.862    9.233   70.320    0.362    0.058   15.978
  465.682    9.233   86.440    0.489    0.094    7.821
  466.503    9.233   96.359    0.615    0.132    6.986
  467.323    9.233  106.899    0.591    0.194    8.118
  468.143    9.233  105.037    0.589    0.198    7.966
  468.963    9.026  101.314    0.585    0.171    7.671
  469.783    9.026  103.173    0.592    0.166    6.852
  470.604    9.026  106.271    0.598    0.188    6.236
  471.424    9.026  105.649    0.625    0.194    5.676
  472.244    9.025  103.168    0.618    0.172    3.753
  473.064    9.025  103.166    0.614    0.192    3.683
  473.885    9.025  105.024    0.637    0.216    3.824
  474.705    9.066  106.882    0.665    0.241    3.546
  475.525    9.066  103.780    0.659    0.263    3.480
  476.345    9.108  101.918    0.711    0.266    3.227
  477.165    9.107   98.195    0.729    0.253    3.288
  477.986    9.107   96.954    0.717    0.253    3.350
  478.806    9.107   93.232    0.696    0.258    3.413
  479.626    9.066   97.570    0.668    0.262    3.966
  480.446    9.066  101.289    0.659    0.265    5.667
  481.266    9.065  103.147    0.620    0.259    6.225
  482.087    9.065  104.386    0.612    0.254    6.224
  482.907    9.065  100.043    0.598    0.247    6.836
  483.727    9.065   98.802    0.588    0.228    8.405
  484.547    9.065   97.559    0.595    0.221   11.567
  485.367    9.065   88.256    0.579    0.213   12.236
  486.188    9.065   81.433    0.540    0.218   13.441
  487.008    9.065   77.711    0.510    0.236   16.525
  487.828    9.064   74.609    0.495    0.231   18.495
  488.648    9.064   73.367    0.480    0.200   21.092
  489.469    9.064   72.745    0.452    0.163   19.934
  490.289    9.105   73.983    0.415    0.113   13.181
  491.109    9.105   75.842    0.447    0.165   11.554
  491.929    9.105   80.800    0.482    0.205    9.220
  492.749    9.105   85.139    0.499    0.200    9.572
  493.570    9.146   88.237    0.509    0.211   11.768
  494.390    9.146   84.515    0.481    0.213   12.926
  495.210    9.105   83.273    0.454    0.217   10.710
  496.030    9.063   85.751    0.517    0.223    7.082
  496.850    9.063   88.231    0.509    0.219    7.633
  497.671    9.063   91.329    0.509    0.235    8.706
  498.491    9.146   95.047    0.554    0.225    9.384
  499.311    9.145   90.705    0.566    0.237   11.323
  500.131    9.021   82.022    0.527    0.264   13.921
  500.951    8.897   74.579    0.521    0.272   13.156
  501.772    8.814   70.857    0.491    0.253   13.658
  502.592    8.814   68.995    0.464    0.206   17.766
  503.412    8.814   68.373    0.446    0.147   18.444
  504.232    8.855   67.751    0.420    0.103   14.717
  505.052    8.897   68.989    0.498    0.206   16.473
  505.873    9.020   72.088    0.482    0.257   22.670
  506.693    9.103   76.427    0.441    0.211    8.530
  507.513    9.144   82.006    0.431    0.190    6.433
  508.333    9.185   86.964    0.414    0.161    5.133
  509.154    9.185   88.823    0.496    0.195    5.639
  509.974    9.144   90.681    0.571    0.227    7.907
  510.794    9.144   90.679    0.625    0.247    8.364
  511.614    9.144   91.297    0.647    0.243    9.016
  512.434    9.143   92.535    0.613    0.230    9.719
  513.255    9.185   92.534    0.587    0.214   10.282
  514.075    9.185   92.532    0.568    0.205    9.536
  514.895    9.267   93.150    0.511    0.212    8.843
  515.715    9.308   93.148    0.472    0.206    9.898
  516.535    9.350   93.147    0.474    0.171   10.275
  517.356    9.349   93.145    0.487    0.149    9.007
  518.176    9.308   91.902    0.511    0.147    8.354
  518.996    9.184   86.320    0.536    0.118   13.875
  519.816    9.142   76.397    0.474    0.072   21.780
  520.636    9.142   67.094    0.350    0.056   20.200
  521.457    9.101   66.472    0.371    0.112   42.833
  522.277    9.101   67.090    0.352    0.115   20.577
  523.097    9.101   68.329    0.333    0.148   14.127
  523.917    9.059   78.248    0.399    0.222   13.604
  524.738    9.018   81.967    0.455    0.253   16.415
  525.558    8.976   83.205    0.470    0.254   18.030
  526.378    8.976   82.584    0.520    0.246   11.058
  527.198    8.934   83.202    0.543    0.217   12.146
  528.018    8.934   86.920    0.532    0.185   18.022
  528.839    8.976   87.538    0.533    0.177   19.426
  529.659    9.017   86.917    0.514    0.176   22.575
  530.479    9.017   85.055    0.481    0.159   34.778
  531.299    9.017   81.332    0.426    0.111   39.662
  532.119    8.975   75.749    0.342    0.090   19.053
  532.940    8.934   78.847    0.466    0.142   14.643
  533.760    8.934   80.086    0.513    0.235   14.100
  534.580    8.933   81.945    0.502    0.230   15.199
  535.400    8.933   82.563    0.473    0.222   14.637
  536.220    8.933   81.321    0.485    0.194   10.834
  537.041    8.850   84.419    0.482    0.199   11.247
  537.861    8.809   86.898    0.461    0.224   11.245
  538.681    8.767   86.896    0.499    0.236   10.429
