~VERSION INFORMATION
 VERS.                 2.0:   CWLS LOG ASCII STANDARD -VERSION 2.0
 WRAP.                  NO:   ONE LINE PER DEPTH STEP
~WELL INFORMATION BLOCK
#MNEM.UNIT           DATA                    DESCRIPTION OF MNEMONIC
#---------    -------------------            -------------------------------
# Generated from Intellog Unique Number	CN_94_101/WELL/2765
WELL.         PARAMOUNT LTD.                 : Well_name    - WELL
LOC .         00/07-15-094-21W4/0            : Location     - LOCATION
UWI .         00/07-15-094-21W4/0            : Uwi          - UNIQUE WELL ID
ENTR.         JOETTE                         : Entered      - ENTERED BY
SRVC.         COMPUTALOG                     : Scn          - SERVICE COMPANY
DATE.         07\03\92                       : Date         - LOG DATE
STRT.M        210                            : top_depth    - START DEPTH
STOP.M        380                            : bot_depth    - STOP DEPTH
STEP.M        0.25                           : increment    - STEP LENGTH
 NULL. -999.2500:NULL Value
~CURVE INFORMATION BLOCK
#MNEM UNIT       ERCB CURVE CODE    CURVE DESCRIPTION
#-----------   ------------------   ----------------------------------
DEPT.M        00 001 00 00         : DEPTH        - DEPTH
CALI.MM       00 280 01 00         : CAL          - CALIPER
GR  .API      00 310 00 00         : GR           - GAMMA RAY
NPHI.V/V      00 330 00 00         : PHIN         - NEUTRON POROSITY (SANDSTONE)
DPHI.V/V      00 890 00 00         : PHID         - DENSITY POROSITY (SANDSTONE)
ILD .OHMM     00 120 00 00         : RESD         - DEEP RESISTIVITY (DIL)
~PARAMETER INFORMATION
#MNEM.UNIT           DATA             DESCRIPTION OF MNEMONIC
#---------         -----------     ------------------------------
GL  .M        690.4                : gl           - GROUND LEVEL ELEVATION
EREF.M        693.5                : kb           - ELEVATION OF DEPTH REFERENCE
DATM.M        693.5                : datum        - DATUM ELEVATION
TDD .M        383.5                : tdd          - TOTAL DEPTH DRILLER
RUN .         ONE                  : Run          - RUN NUMBER
ENG .         JO                   : Engineer     - RECORDING ENGINEER
WIT .         TIM                  : Witness      - WITNESSED BY
MUD .         GEL                  : Mud_type     - MUD TYPE
MATR.         SANDSTONE            : Logunit      - NEUTRON MATRIX
TMAX.C        35                   : BHT          - MAXIMUM RECORDED TEMPERATURE
BHTD.M        383.5                : BHTDEP       - MAXIMUM RECORDED TEMPERATURE
RMT .C        13                   : MDTP         - TEMPERATURE OF MUD
MUDD.KG/M     1070                 : MWT          - MUD DENSITY
NEUT.         1                    : NEUTRON      - NEUTRON TYPE
RESI.         0                    : RESIST       - RESISTIVITY TYPE
RM  .OHMM     2.6                  : RM           - RESISTIVITY OF MUD
RMC .OHMM     2.6                  : RMC          - RESISTIVITY OF MUD CAKE
RMF .OHMM     3.7                  : RMF          - RESISTIVITY OF MUD FILTRATE
SUFT.C        4                    : SUFT         - SURFACE TEMPERATURE
~A  DEPTH      CAL       GR     PHIN     PHID     RESD
# ...
  319.500  153.398   89.389    0.411    0.260   11.041
  319.750  152.458   87.620    0.398    0.262   11.258
  320.000  152.513   87.045    0.392    0.264   11.694
  320.250  152.604   87.099    0.419    0.259   11.922
  320.500  152.659   87.143    0.411    0.252   11.706
  320.750  152.750   90.237    0.397    0.242   10.869
  321.000  153.873   81.749    0.385    0.228   12.169
  321.250  153.928   81.185    0.379    0.251   12.641
  321.500  153.982   86.103    0.382    0.257   12.184
  321.750  155.087   81.283    0.377    0.249   10.897
  322.000  156.155   81.935    0.370    0.226    9.389
  322.250  157.241   92.921    0.387    0.186    7.792
  322.500  158.345  110.615    0.431    0.219    6.713
  322.750  159.450  114.903    0.465    0.224    5.677
  323.000  161.512  116.793    0.484    0.221    5.077
  323.250  164.625  113.775    0.484    0.214    5.475
  323.500  163.685  106.524    0.477    0.212    6.245
  323.750  158.692   99.881    0.467    0.211    6.487
  324.000  155.744  102.965    0.443    0.212    6.252
  324.250  157.861  110.303    0.434    0.233    5.697
  324.500  160.937  113.386    0.447    0.227    5.193
  324.750  170.147  111.606    0.469    0.224    5.100
  325.000  169.225  115.916    0.471    0.225    5.199
  325.250  164.251  115.341    0.464    0.230    5.821
  325.500  161.266  108.090    0.454    0.236    6.394
  325.750  159.294   99.016    0.433    0.242    7.157
  326.000  157.359   90.549    0.424    0.249    8.474
  326.250  156.419   85.730    0.423    0.257    9.848
  326.500  156.492   79.706    0.431    0.264   11.024
  326.750  155.552   76.699    0.431    0.264   12.116
  327.000  155.625   74.930    0.425    0.243   11.462
  327.250  156.711   79.826    0.420    0.228   10.060
  327.500  156.766   92.028    0.425    0.215    6.671
  327.750  157.870   96.327    0.458    0.263    6.078
  328.000  159.951  102.461    0.463    0.264    5.044
  328.250  161.038  107.986    0.468    0.258    4.266
  328.500  163.155  104.991    0.475    0.252    4.269
  328.750  164.223  100.779    0.474    0.244    4.691
  329.000  164.296   97.773    0.460    0.237    4.872
  329.250  164.387   96.004    0.431    0.230    5.352
  329.500  162.434   97.263    0.438    0.195    5.882
  329.750  159.522   97.307    0.430    0.182    6.709
  330.000  157.533   96.124    0.415    0.211    6.967
  330.250  156.574   94.952    0.408    0.218    7.513
  330.500  154.621   94.996    0.411    0.220    8.256
  330.750  153.681  100.522    0.413    0.221    8.261
  331.000  155.798   98.742    0.413    0.221    8.265
  331.250  156.866   93.912    0.421    0.218    8.118
  331.500  158.965   90.916    0.422    0.213    8.755
  331.750  160.052   95.215    0.417    0.206    9.091
  332.000  160.143   97.691    0.413    0.195   10.371
  332.250  161.247   98.950    0.413    0.181   11.396
  332.500  161.284   98.397    0.414    0.197   10.781
  332.750  161.393   97.247    0.420    0.208    9.289
  333.000  161.430   97.877    0.426    0.208    8.463
  333.250  161.521   99.766    0.426    0.199    7.569
  333.500  162.589  100.396    0.418    0.202    8.473
  333.750  162.717  102.871    0.401    0.217    9.847
  334.000  161.758   98.671    0.388    0.248   11.659
  334.250  160.818   91.409    0.379    0.259   13.298
  334.500  158.847   80.500    0.368    0.125   12.820
  334.750  154.867   70.210    0.377    0.106   12.128
  335.000  151.919   73.901    0.403    0.129   13.327
  335.250  150.979   81.869    0.410    0.250   14.368
  335.500  150.039   83.128    0.404    0.262   15.494
  335.750  150.112   79.514    0.393    0.260   16.097
  336.000  151.179   73.479    0.365    0.249   16.406
  336.250  151.252   68.041    0.356    0.208   15.520
  336.500  151.344   63.840    0.347    0.136   13.624
  336.750  152.430   69.355    0.299    0.136   12.185
  337.000  152.503   81.557    0.298    0.205    8.388
  337.250  152.558   85.856    0.329    0.221    7.363
  337.500  152.649   95.637    0.379    0.241    5.361
  337.750  152.704   98.720    0.398    0.245    4.706
  338.000  152.795  101.195    0.420    0.243    4.054
  338.250  152.850  101.847    0.438    0.241    4.211
  338.500  152.923   98.851    0.473    0.240    5.081
  338.750  152.996   86.140    0.469    0.236    6.606
  339.000  153.105   83.731    0.422    0.238    9.609
  339.250  153.160   77.696    0.358    0.248   10.172
  339.500  155.277   72.887    0.320    0.246   11.385
  339.750  157.395   71.704    0.300    0.186   13.994
  340.000  158.445   68.709    0.282    0.138   18.537
  340.250  159.549   63.889    0.275    0.115   22.363
  340.500  159.604   59.678    0.309    0.083   24.570
  340.750  156.656   59.114    0.341    0.060   21.975
  341.000  154.702   62.197    0.349    0.082   13.776
  341.250  153.762   71.370    0.361    0.173   10.413
  341.500  151.809   78.101    0.379    0.165    6.529
  341.750  151.864   86.655    0.400    0.214    5.949
  342.000  150.942   98.282    0.428    0.241    5.843
  342.250  150.942   98.303    0.433    0.238    6.665
  342.500  149.098   97.132    0.418    0.233    7.322
  342.750  148.121   90.489    0.413    0.227    9.882
  343.000  148.194   86.266    0.418    0.220   10.655
  343.250  148.267   80.839    0.411    0.214   15.215
  343.500  147.327   74.196    0.375    0.142   15.509
  343.750  147.382   65.729    0.340    0.118   16.110
  344.000  148.505   71.244    0.347    0.100   16.427
  344.250  148.559   77.975    0.374    0.073   16.439
  344.500  148.651   90.209    0.379    0.106   15.843
  344.750  149.755   92.077    0.387    0.185   14.985
  345.000  149.792   91.491    0.387    0.200   13.656
  345.250  150.896   85.456    0.339    0.223   14.185
  345.500  151.982   75.165    0.302    0.031   15.296
  345.750  152.037   70.965    0.314    0.015   16.494
  346.000  155.149   77.684    0.341    0.023   16.816
  346.250  158.262   92.925    0.371    0.087   15.324
  346.500  160.361  103.922    0.389    0.164   13.452
  346.750  162.479  107.005    0.403    0.197   11.590
  347.000  162.533  101.578    0.410    0.210    9.800
  347.250  162.643   97.986    0.402    0.205    8.443
  347.500  162.734  101.058    0.387    0.200    7.553
  347.750  162.789  106.584    0.392    0.198    7.014
  348.000  161.849  110.894    0.403    0.196    6.634
  348.250  160.890  110.330    0.411    0.199    6.891
  348.500  159.950  106.704    0.401    0.203    7.292
  348.750  159.010  101.277    0.398    0.197    8.319
  349.000  158.088  100.713    0.400    0.191    8.640
  349.250  158.143  101.972    0.406    0.193    8.809
  349.500  157.221  104.448    0.408    0.193    9.151
  349.750  156.281  106.945    0.405    0.187    9.507
  350.000  156.336  106.381    0.395    0.179    9.692
  350.250  156.409  107.641    0.386    0.173   10.068
  350.500  156.500  111.321    0.378    0.165   10.262
  350.750  157.568  113.796    0.380    0.170   10.660
  351.000  158.672  114.448    0.382    0.175   11.716
  351.250  158.727  113.276    0.382    0.183   12.168
  351.500  159.850  111.496    0.381    0.189   12.637
  351.750  160.899  109.108    0.376    0.194   12.884
  352.000  162.040  106.731    0.374    0.197   13.385
  352.250  162.095  107.383    0.371    0.207   13.644
  352.500  162.150  106.808    0.371    0.215   13.910
  352.750  161.246  104.442    0.376    0.205   14.451
  353.000  160.288  101.436    0.389    0.208   14.733
  353.250  160.342   99.048    0.398    0.217   15.304
  353.500  158.407   96.649    0.373    0.205   15.897
  353.750  157.486   91.222    0.334    0.135   17.145
  354.000  157.540   82.147    0.318    0.110   18.491
  354.250  157.595   80.368    0.327    0.049   19.204
  354.500  157.686   85.882    0.346    0.061   20.325
  354.750  158.772  101.123    0.379    0.088   20.337
  355.000  159.859  112.120    0.400    0.092   18.883
  355.250  160.945  115.203    0.416    0.109   14.006
  355.500  162.049  114.031    0.408    0.206   12.295
  355.750  162.086  111.644    0.396    0.198   10.592
