~VERSION INFORMATION
 VERS.                 2.0:   CWLS LOG ASCII STANDARD -VERSION 2.0
 WRAP.                  NO:   ONE LINE PER DEPTH STEP
~WELL INFORMATION BLOCK
#MNEM.UNIT           DATA                    DESCRIPTION OF MNEMONIC
#---------    -------------------            -------------------------------
# Generated from Intellog Unique Number	CS_73_76/WELL/3217
WELL.         07-36-076-11W4                 : Well_name    - WELL
LOC .         00/07-36-076-11W4/0            : Location     - LOCATION
UWI .         00/07-36-076-11W4/0            : Uwi          - UNIQUE WELL ID
ENTR.         SP                             : Entered      - ENTERED BY
SRVC.         SCHLUMBERGER                   : Scn          - SERVICE COMPANY
STRT.M        256.032                        : top_depth    - START DEPTH
STOP.M        502.782                        : bot_depth    - STOP DEPTH
STEP.M        0.25                           : increment    - STEP LENGTH
 NULL. -999.2500:NULL Value
~CURVE INFORMATION BLOCK
#MNEM UNIT       ERCB CURVE CODE    CURVE DESCRIPTION
#-----------   ------------------   ----------------------------------
DEPT.M        00 001 00 00         : DEPTH        - DEPTH
GR  .API      00 310 00 00         : GR           - GAMMA RAY
DPHI.V/V      00 890 00 00         : PHID         - DENSITY POROSITY (SANDSTONE)
NPHI.V/V      00 330 00 00         : PHIN         - NEUTRON POROSITY (SANDSTONE)
ILD .OHMM     00 120 00 00         : RESD         - DEEP RESISTIVITY (DIL)
~PARAMETER INFORMATION
#MNEM.UNIT           DATA             DESCRIPTION OF MNEMONIC
#---------         -----------     ------------------------------
GL  .M        673.303              : gl           - GROUND LEVEL ELEVATION
EREF.M        677.509              : kb           - ELEVATION OF DEPTH REFERENCE
DATM.M        673.303              : datum        - DATUM ELEVATION
TDD .M        505.968              : tdd          - TOTAL DEPTH DRILLER
RUN .         ONE                  : Run          - RUN NUMBER
ENG .         BILL                 : Engineer     - RECORDING ENGINEER
WIT .         JIM                  : Witness      - WITNESSED BY
MUD .         GEL                  : Mud_type     - MUD TYPE
MATR.         SANDSTONE            : Logunit      - NEUTRON MATRIX
TMAX.C        27.7778              : BHT          - MAXIMUM RECORDED TEMPERATURE
BHTD.M        505.968              : BHTDEP       - MAXIMUM RECORDED TEMPERATURE
MATR.         1                    : LOGUNIT      - NEUTRON MATRIX
RMT .C        25                   : MDTP         - TEMPERATURE OF MUD
NEUT.         1                    : NEUTRON      - NEUTRON TYPE
RESI.         0                    : RESIST       - RESISTIVITY TYPE
RMC .OHMM     0.25                 : RMC          - RESISTIVITY OF MUD CAKE
RMF .OHMM     0.25                 : RMF          - RESISTIVITY OF MUD FILTRATE
SUFT.C        15                   : SUFT         - SURFACE TEMPERATURE
~A  DEPTH       GR     PHID     PHIN     RESD
# ...
  386.532   67.158    0.338    0.482    6.383
  386.782   69.618    0.342    0.476    6.394
  387.032   70.529    0.333    0.469    6.330
  387.282   68.558    0.335    0.476    6.280
  387.532   68.544    0.347    0.489    6.287
  387.782   70.248    0.353    0.497    6.150
  388.032   69.684    0.344    0.495    6.155
  388.282   67.723    0.352    0.488    6.046
  388.532   66.275    0.340    0.494    6.051
  388.782   67.402    0.352    0.498    6.052
  389.032   66.985    0.350    0.485    6.052
  389.282   67.078    0.346    0.487    6.050
  389.532   69.132    0.340    0.490    6.055
  389.782   69.429    0.349    0.473    5.933
  390.032   69.130    0.349    0.461    5.941
  390.282   70.254    0.352    0.451    5.943
  390.532   70.336    0.347    0.460    5.953
  390.782   70.377    0.344    0.467    5.826
  391.032   69.865    0.329    0.478    5.833
  391.282   69.954    0.332    0.490    5.788
  391.532   70.928    0.337    0.476    5.729
  391.782   70.657    0.330    0.486    5.727
  392.032   72.628    0.325    0.493    5.728
  392.282   73.335    0.319    0.492    5.728
  392.532   69.738    0.319    0.492    5.727
  392.782   69.860    0.334    0.490    5.721
  393.032   69.195    0.320    0.485    5.828
  393.282   67.447    0.305    0.463    5.820
  393.532   68.187    0.315    0.471    5.951
  393.782   71.761    0.326    0.477    5.941
  394.032   71.328    0.325    0.488    5.942
  394.282   69.104    0.340    0.460    5.942
  394.532   69.239    0.348    0.467    5.942
  394.782   66.681    0.347    0.478    5.943
  395.032   65.474    0.340    0.493    5.943
  395.282   65.873    0.353    0.494    5.866
  395.532   66.906    0.357    0.490    5.847
  395.782   67.280    0.358    0.499    5.728
  396.032   65.382    0.354    0.504    5.846
  396.282   66.304    0.346    0.500    5.846
  396.532   67.717    0.337    0.488    6.149
  396.782   69.787    0.338    0.496    6.208
  397.032   70.254    0.351    0.499    6.402
  397.282   69.448    0.355    0.507    6.394
  397.532   66.581    0.355    0.504    6.392
  397.782   68.486    0.335    0.492    6.387
  398.032   68.468    0.320    0.489    6.281
  398.282   67.561    0.323    0.498    6.121
  398.532   67.231    0.338    0.509    5.941
  398.782   67.225    0.346    0.504    5.625
  399.032   67.224    0.343    0.496    5.399
  399.282   67.212    0.344    0.497    5.229
  399.532   66.872    0.339    0.488    5.275
  399.782   66.672    0.345    0.482    5.439
  400.032   65.576    0.344    0.480    5.685
  400.282   64.468    0.339    0.475    6.163
  400.532   64.172    0.328    0.430    6.681
  400.782   62.670    0.278    0.353    7.559
  401.032   60.474    0.225    0.247    9.956
  401.282   58.159    0.097    0.205   12.487
  401.532   58.312    0.054    0.197   14.913
  401.782   56.755    0.062    0.202   15.962
  402.032   58.715    0.078    0.242   16.044
  402.282   62.856    0.112    0.292   13.702
  402.532   63.539    0.150    0.363   10.563
  402.782   63.043    0.213    0.397    9.444
  403.032   62.334    0.269    0.400    9.183
  403.282   62.453    0.299    0.337    8.518
  403.532   65.473    0.279    0.360    7.794
  403.782   69.239    0.289    0.414    7.145
  404.032   71.398    0.318    0.456    6.731
  404.282   70.809    0.336    0.485    6.420
  404.532   71.555    0.332    0.477    6.225
  404.782   72.520    0.342    0.477    6.163
  405.032   70.741    0.333    0.478    6.048
  405.282   71.337    0.344    0.474    6.091
  405.532   71.910    0.331    0.464    6.054
  405.782   71.302    0.344    0.459    6.180
  406.032   70.624    0.349    0.459    6.183
  406.282   71.201    0.342    0.473    6.377
  406.532   71.913    0.341    0.478    6.502
  406.782   71.774    0.326    0.476    6.791
  407.032   67.660    0.320    0.465    7.424
  407.282   64.248    0.325    0.452    8.529
  407.532   61.565    0.314    0.413   11.886
  407.782   57.967    0.222    0.214   15.699
  408.032   55.171    0.100    0.143   18.937
  408.282   54.453    0.028    0.135   21.888
  408.532   56.648    0.028    0.152   22.675
  408.782   59.233    0.053    0.262   20.304
  409.032   63.831    0.081    0.359   15.892
  409.282   67.266    0.209    0.444   13.237
  409.532   68.088    0.306    0.472   11.254
  409.782   68.496    0.336    0.494    8.879
  410.032   71.908    0.333    0.502    7.944
  410.282   73.750    0.321    0.509    7.112
  410.532   73.796    0.338    0.484    6.698
  410.782   72.399    0.355    0.474    6.339
  411.032   69.996    0.345    0.484    6.161
  411.282   67.670    0.342    0.488    6.054
  411.532   64.964    0.326    0.499    5.898
  411.782   63.993    0.320    0.505    5.836
  412.032   65.297    0.336    0.508    5.715
  412.282   66.117    0.327    0.512    5.706
  412.532   66.945    0.324    0.505    5.621
  412.782   68.320    0.334    0.496    5.633
  413.032   69.101    0.339    0.490    5.514
  413.282   72.130    0.354    0.496    5.523
  413.532   73.007    0.348    0.500    5.530
  413.782   70.463    0.350    0.497    5.417
  414.032   68.320    0.346    0.480    5.422
  414.282   66.496    0.338    0.472    5.419
  414.532   65.167    0.330    0.463    5.421
  414.782   65.161    0.322    0.461    5.314
  415.032   66.307    0.321    0.468    5.320
  415.282   69.829    0.314    0.482    5.326
  415.532   71.575    0.322    0.514    5.213
  415.782   71.767    0.338    0.531    5.209
  416.032   70.830    0.348    0.542    5.127
  416.282   68.483    0.343    0.520    5.129
  416.532   70.058    0.327    0.500    5.130
  416.782   70.168    0.332    0.490    5.121
  417.032   68.378    0.340    0.484    5.235
  417.282   68.115    0.337    0.464    5.225
  417.532   68.630    0.324    0.465    5.224
  417.782   69.672    0.332    0.487    5.218
  418.032   73.485    0.326    0.496    5.319
  418.282   73.875    0.333    0.498    5.309
  418.532   71.986    0.331    0.490    5.428
  418.782   70.554    0.324    0.496    5.426
  419.032   69.578    0.326    0.487    5.312
  419.282   68.605    0.340    0.476    5.322
  419.532   67.149    0.339    0.480    5.314
  419.782   65.430    0.336    0.479    5.431
  420.032   67.582    0.337    0.483    5.421
  420.282   68.081    0.341    0.493    5.420
  420.532   68.147    0.336    0.498    5.420
  420.782   70.460    0.345    0.500    5.421
  421.032   72.771    0.340    0.506    5.488
  421.282   75.772    0.332    0.509    5.520
  421.532   78.197    0.326    0.518    5.517
  421.782   78.038    0.320    0.519    5.636
  422.032   81.238    0.315    0.500    5.642
  422.282   83.186    0.300    0.496    5.731
  422.532   80.072    0.294    0.503    5.729
  422.782   81.572    0.292    0.511    5.728
  423.032   84.532    0.280    0.518    5.718
  423.282   85.670    0.290    0.510    5.846
  423.532   84.842    0.298    0.504    5.835
  423.782   85.794    0.301    0.507    5.766
  424.032   86.487    0.291    0.507    5.584
  424.282   85.989    0.288    0.499    5.521
  424.532   86.900    0.279    0.491    5.521
  424.782   88.575    0.270    0.492    5.526
  425.032   90.050    0.257    0.498    5.429
  425.282   92.322    0.252    0.501    5.434
  425.532   94.496    0.255    0.515    5.318
  425.782   95.891    0.253    0.523    5.241
  426.032   97.197    0.242    0.523    5.228
  426.282   97.543    0.250    0.518    5.225
  426.532  101.176    0.270    0.512    5.228
  426.782  103.264    0.253    0.503    5.260
  427.032  104.574    0.238    0.499    5.322
  427.282  106.802    0.250    0.473    5.499
  427.532  107.428    0.254    0.469    5.540
  427.782  106.984    0.245    0.478    5.721
  428.032  105.883    0.240    0.490    5.908
  428.282  107.815    0.241    0.488    5.960
  428.532  106.539    0.256    0.459    6.056
  428.782  107.957    0.232    0.451    6.062
  429.032  107.943    0.220    0.468    5.927
  429.282  108.672    0.227    0.478    5.681
  429.532  105.562    0.235    0.462    5.192
  429.782  100.698    0.224    0.469    4.842
