~VERSION INFORMATION
 VERS.                 2.0:   CWLS LOG ASCII STANDARD -VERSION 2.0
 WRAP.                  NO:   ONE LINE PER DEPTH STEP
~WELL INFORMATION BLOCK
#MNEM.UNIT           DATA                    DESCRIPTION OF MNEMONIC
#---------    -------------------            -------------------------------
# Generated from Intellog Unique Number	CW_82_90/WELL/620
WELL.         ANDEX WABASCA 07-27            : Well_name    - WELL
LOC .         00/07-27-082-21W4/0            : Location     - LOCATION
UWI .         00/07-27-082-21W4/0            : Uwi          - UNIQUE WELL ID
ENTR.         JAYE                           : Entered      - ENTERED BY
SRVC.         SCHLUMBERGER                   : Scn          - SERVICE COMPANY
DATE.         13 FEB 74                      : Date         - LOG DATE
STRT.M        228.6                          : top_depth    - START DEPTH
STOP.M        460.35                         : bot_depth    - STOP DEPTH
STEP.M        0.25                           : increment    - STEP LENGTH
 NULL. -999.2500:NULL Value
~CURVE INFORMATION BLOCK
#MNEM UNIT       ERCB CURVE CODE    CURVE DESCRIPTION
#-----------   ------------------   ----------------------------------
DEPT.M        00 001 00 00         : DEPTH        - DEPTH
CALI.MM       00 280 01 00         : CAL          - CALIPER
GR  .API      00 310 00 00         : GR           - GAMMA RAY
NPHI.V/V      00 330 00 00         : PHIN         - NEUTRON POROSITY (SANDSTONE)
DPHI.V/V      00 890 00 00         : PHID         - DENSITY POROSITY (SANDSTONE)
ILD .OHMM     00 120 00 00         : RESD         - DEEP RESISTIVITY (DIL)
~PARAMETER INFORMATION
#MNEM.UNIT           DATA             DESCRIPTION OF MNEMONIC
#---------         -----------     ------------------------------
GL  .M        623.621              : gl           - GROUND LEVEL ELEVATION
EREF.M        627.278              : kb           - ELEVATION OF DEPTH REFERENCE
DATM.M        623.621              : datum        - DATUM ELEVATION
TDD .M        467.868              : tdd          - TOTAL DEPTH DRILLER
RUN .         ONE                  : Run          - RUN NUMBER
ENG .         WOON                 : Engineer     - RECORDING ENGINEER
WIT .         McARTHUR             : Witness      - WITNESSED BY
BASE.         EDMONTON             : Branch       - HOME BASE OF LOGGING UNIT
MUD .         GEL                  : Mud_type     - MUD TYPE
MATR.         SANDSTONE            : Logunit      - NEUTRON MATRIX
TMAX.C        30.5556              : BHT          - MAXIMUM RECORDED TEMPERATURE
BHTD.M        467.868              : BHTDEP       - MAXIMUM RECORDED TEMPERATURE
RMT .C        15.5556              : MDTP         - TEMPERATURE OF MUD
MUDD.KG/M     9500                 : MWT          - MUD DENSITY
NEUT.         1                    : NEUTRON      - NEUTRON TYPE
RESI.         0                    : RESIST       - RESISTIVITY TYPE
RM  .OHMM     0.25                 : RM           - RESISTIVITY OF MUD
RMC .OHMM     0.25                 : RMC          - RESISTIVITY OF MUD CAKE
RMF .OHMM     2.23                 : RMF          - RESISTIVITY OF MUD FILTRATE
SUFT.C        4                    : SUFT         - SURFACE TEMPERATURE
~A  DEPTH      CAL       GR     PHIN     PHID     RESD
  228.600  178.008   88.663    0.537    0.234    3.140
  228.850  177.812   86.052    0.545    0.249    3.145
  229.100  177.616   83.746    0.558    0.258    3.162
  229.350  177.832   80.771    0.584    0.239    3.203
  229.600  176.400   75.482    0.543    0.223    3.305
  229.850  173.422   60.214    0.479    0.214    3.527
  230.100  167.559   50.910    0.410    0.225    4.326
  230.350  160.254   49.456    0.428    0.236    6.272
  230.600  156.453   50.497    0.449    0.285    8.977
  230.850  154.814   51.903    0.473    0.306   17.915
  231.100  155.545   52.396    0.481    0.326   41.717
  231.350  154.731   52.158    0.476    0.326   42.810
  231.600  155.465   52.225    0.472    0.330   42.723
  231.850  155.578   53.024    0.470    0.328   42.165
  232.100  156.618   53.334    0.477    0.334   41.000
  232.350  156.319   53.463    0.488    0.346   39.718
  232.600  156.952   53.406    0.489    0.340   39.492
  232.850  157.062   53.169    0.475    0.330   40.003
  233.100  157.071   53.236    0.482    0.338   41.511
  233.350  156.053   53.790    0.481    0.354   44.375
  233.600  156.372   54.465    0.490    0.341   46.477
  233.850  156.896   55.384    0.513    0.344   47.785
  234.100  157.835   53.443    0.526    0.346   47.512
  234.350  158.360   53.632    0.529    0.348   47.416
  234.600  158.168   53.516    0.521    0.364   46.709
  234.850  157.765   54.740    0.531    0.376   45.418
  235.100  157.464   56.267    0.520    0.372   44.000
  235.350  157.371   57.004    0.492    0.359   41.995
  235.600  157.486   56.583    0.502    0.352   40.382
  235.850  157.704   55.068    0.519    0.347   38.400
  236.100  157.199   53.857    0.514    0.352   36.584
  236.350  156.487   53.255    0.507    0.353   34.275
  236.600  155.261   51.740    0.514    0.363   32.232
  236.850  155.579   49.981    0.508    0.355   30.994
  237.100  154.559   49.197    0.484    0.347   30.874
  237.350  152.612   50.237    0.491    0.318   32.882
  237.600  152.211   50.426    0.489    0.320   36.145
  237.850  152.633   50.006    0.491    0.338   39.510
  238.100  153.573   49.829    0.501    0.350   44.162
  238.350  154.405   49.836    0.501    0.347   46.688
  238.600  155.035   49.416    0.481    0.337   48.717
  238.850  154.941   47.048    0.483    0.332   49.532
  239.100  154.952   46.812    0.492    0.335   49.339
  239.350  155.582   47.791    0.494    0.344   48.877
  239.600  155.901   48.346    0.493    0.339   48.868
  239.850  155.705   48.473    0.488    0.339   48.051
  240.100  154.478   49.210    0.479    0.330   48.491
  240.350  153.664   51.407    0.491    0.320   49.119
  240.600  153.675   51.900    0.500    0.330   50.877
  240.850  153.066   51.479    0.493    0.337   52.892
  241.100  153.903   49.478    0.487    0.344   54.077
  241.350  155.252   48.876    0.493    0.340   54.981
  241.600  155.262   48.334    0.505    0.346   55.485
  241.850  155.479   48.098    0.497    0.350   54.658
  242.100  154.871   47.677    0.486    0.333   53.148
  242.350  154.263   46.710    0.488    0.321   48.156
  242.600  154.172   46.472    0.505    0.294   44.122
  242.850  153.768   47.879    0.498    0.321   38.022
  243.100  153.779   48.371    0.497    0.333   29.091
  243.350  153.893   48.012    0.472    0.329   31.505
  243.600  154.008   47.592    0.471    0.328   38.004
  243.850  153.915   47.050    0.477    0.343   41.852
  244.100  153.925   46.570    0.487    0.335   44.991
  244.350  153.831   46.089    0.489    0.333   45.998
  244.600  153.224   45.427    0.473    0.334   43.904
  244.850  153.543   45.128    0.466    0.342   39.266
  245.100  153.657   44.586    0.473    0.334   33.091
  245.350  154.183   45.202    0.482    0.330   27.476
  245.600  155.017   45.633    0.471    0.333   23.458
  245.850  154.513   43.509    0.461    0.322   20.747
  246.100  153.906   43.272    0.477    0.301   20.212
  246.350  153.708   44.069    0.487    0.292   20.435
  246.600  153.412   45.354    0.484    0.313   20.394
  246.850  153.627   45.664    0.471    0.320   21.360
  247.100  153.946   45.670    0.458    0.312   21.120
  247.350  154.369   45.615    0.453    0.319   20.922
  247.600  154.690   45.621    0.455    0.334   20.610
  247.850  154.803   46.419    0.466    0.344   20.115
  248.100  155.430   48.737    0.474    0.350   19.925
  248.350  156.575   53.611    0.480    0.331   19.483
  248.600  157.615   60.798    0.487    0.324   18.561
  248.850  158.244   66.951    0.498    0.282   13.863
  249.100  158.461   64.462    0.537    0.288   10.412
  249.350  158.678   65.746    0.522    0.319    4.978
  249.600  158.481   65.692    0.492    0.281    4.452
  249.850  157.771   64.176    0.507    0.271    5.272
  250.100  156.544   60.836    0.511    0.269    4.985
  250.350  154.497   60.598    0.493    0.278    5.460
  250.600  154.298   63.160    0.460    0.276    6.734
  250.850  154.412   66.149    0.456    0.288    8.525
  251.100  155.248   68.528    0.467    0.293   11.222
  251.350  155.773   72.002    0.467    0.282   13.536
  251.600  156.813   80.771    0.464    0.280   13.138
  251.850  160.329   86.133    0.467    0.246   10.747
  252.100  164.460   90.034    0.479    0.228    8.162
  252.350  171.992   93.630    0.487    0.213    6.434
  252.600  169.634   93.453    0.483    0.224    5.722
  252.850  165.935   91.026    0.461    0.231    5.401
  253.100  167.902   90.118    0.464    0.217    5.636
  253.350  170.798   89.638    0.453    0.227    6.081
  253.600  174.826   88.610    0.446    0.215    6.660
  253.850  172.262   86.730    0.457    0.212    7.266
  254.100  169.592   84.242    0.471    0.217    7.869
  254.350  165.583   80.535    0.469    0.248    8.730
  254.600  161.163   77.377    0.422    0.252    9.264
  254.850  157.979   75.618    0.415    0.240   10.452
  255.100  157.268   75.867    0.415    0.218   11.575
  255.350  158.104   76.969    0.411    0.223   12.443
  255.600  160.999   81.114    0.409    0.232   12.768
  255.850  164.203   84.162    0.417    0.243   12.743
  256.100  164.628   88.246    0.425    0.252   12.231
  256.350  163.915   91.416    0.435    0.258   11.544
  256.600  163.205   95.925    0.445    0.250   10.776
  256.850  162.289  100.861    0.459    0.247    9.460
  257.100  162.298  107.135    0.481    0.237    7.958
  257.350  162.103  105.741    0.570    0.216    6.191
  257.600  162.526  104.652    0.555    0.198    5.065
  257.850  168.821  103.564    0.567    0.173    4.389
  258.100  177.281  102.900    0.574    0.193    4.051
  258.350  174.612  102.053    0.555    0.225    4.173
  258.600  166.277  102.060    0.519    0.233    4.362
  258.850  161.341  103.039    0.513    0.207    4.493
  259.100  158.672  105.784    0.550    0.179    4.534
  259.350  160.022  102.200    0.545    0.198    4.475
  259.600  163.639   95.270    0.565    0.218    4.177
  259.850  166.019   89.190    0.581    0.221    3.906
  260.100  161.702   78.121    0.576    0.281    3.742
  260.350  157.489   67.964    0.537    0.326    4.334
  260.600  155.952   69.492    0.495    0.321    5.189
  260.850  155.962   68.829    0.469    0.329    6.364
  261.100  155.355   63.419    0.463    0.332    7.953
  261.350  155.572   63.304    0.471    0.309    9.346
  261.600  155.170   62.336    0.485    0.299   10.623
  261.850  154.460   58.447    0.496    0.322   10.602
  262.100  154.368   54.985    0.502    0.334   12.506
  262.350  154.377   50.184    0.494    0.323   13.197
  262.600  154.284   45.627    0.477    0.331   17.307
  262.850  153.882   43.868    0.481    0.335   20.606
  263.100  153.171   44.241    0.494    0.325   22.862
  263.350  152.771   45.341    0.493    0.332   24.945
  263.600  152.577   46.929    0.464    0.341   27.116
  263.850  151.970   48.701    0.457    0.347   27.826
  264.100  151.976   49.680    0.457    0.350   27.873
  264.350  152.092   49.808    0.468    0.352   27.407
  264.600  153.852   50.424    0.483    0.360   26.354
  264.850  155.100   49.394    0.489    0.362   25.578
