~VERSION INFORMATION
 VERS.                 2.0:   CWLS LOG ASCII STANDARD -VERSION 2.0
 WRAP.                  NO:   ONE LINE PER DEPTH STEP
~WELL INFORMATION BLOCK
#MNEM.UNIT           DATA                    DESCRIPTION OF MNEMONIC
#---------    -------------------            -------------------------------
# Generated from Intellog Unique Number	CS_73_76/WELL/769
WELL.         BOW VALLEY INDUSTRIES          : Well_name    - WELL
LOC .         00/07-13-073-15W4/0            : Location     - LOCATION
UWI .         00/07-13-073-15W4/0            : Uwi          - UNIQUE WELL ID
ENTR.         SP                             : Entered      - ENTERED BY
SRVC.         SCHLUMBERGER                   : Scn          - SERVICE COMPANY
STRT.M        350                            : top_depth    - START DEPTH
STOP.M        517                            : bot_depth    - STOP DEPTH
STEP.M        0.25                           : increment    - STEP LENGTH
 NULL. -999.2500:NULL Value
~CURVE INFORMATION BLOCK
#MNEM UNIT       ERCB CURVE CODE    CURVE DESCRIPTION
#-----------   ------------------   ----------------------------------
DEPT.M        00 001 00 00         : DEPTH        - DEPTH
ILD .OHMM     00 120 00 00         : RESD         - DEEP RESISTIVITY (DIL)
DPHI.V/V      00 890 00 00         : PHID         - DENSITY POROSITY (LIMESTONE)
NPHI.V/V      00 330 00 00         : PHIN         - NEUTRON POROSITY (LIMESTONE)
GR  .API      00 310 00 00         : GR           - GAMMA RAY
~PARAMETER INFORMATION
#MNEM.UNIT           DATA             DESCRIPTION OF MNEMONIC
#---------         -----------     ------------------------------
GL  .M        644.71               : gl           - GROUND LEVEL ELEVATION
EREF.M        648                  : kb           - ELEVATION OF DEPTH REFERENCE
DATM.M        644.71               : datum        - DATUM ELEVATION
TDD .M        525                  : tdd          - TOTAL DEPTH DRILLER
RUN .         ONE                  : Run          - RUN NUMBER
ENG .         BILL                 : Engineer     - RECORDING ENGINEER
WIT .         JIM                  : Witness      - WITNESSED BY
MUD .         GEL                  : Mud_type     - MUD TYPE
MATR.         LIMESTONE            : Logunit      - NEUTRON MATRIX
TMAX.C        23                   : BHT          - MAXIMUM RECORDED TEMPERATURE
BHTD.M        525                  : BHTDEP       - MAXIMUM RECORDED TEMPERATURE
MATR.         1                    : LOGUNIT      - NEUTRON MATRIX
RMT .C        25                   : MDTP         - TEMPERATURE OF MUD
NEUT.         1                    : NEUTRON      - NEUTRON TYPE
RESI.         0                    : RESIST       - RESISTIVITY TYPE
RMC .OHMM     0.25                 : RMC          - RESISTIVITY OF MUD CAKE
RMF .OHMM     0.25                 : RMF          - RESISTIVITY OF MUD FILTRATE
SUFT.C        15                   : SUFT         - SURFACE TEMPERATURE
~A  DEPTH     RESD     PHID     PHIN       GR
# ...
  437.000    5.283    0.324    0.494   65.325
  437.250    5.187    0.331    0.490   66.526
  437.500    5.093    0.335    0.482   66.525
  437.750    5.094    0.341    0.486   67.124
  438.000    5.095    0.334    0.478   64.110
  438.250    5.289    0.312    0.472   64.106
  438.500    5.289    0.296    0.476   65.309
  438.750    5.389    0.299    0.463   64.102
  439.000    5.492    0.309    0.456   64.098
  439.250    5.493    0.330    0.464   64.697
  439.500    5.494    0.312    0.458   65.298
  439.750    5.495    0.313    0.456   65.898
  440.000    5.496    0.329    0.449   74.931
  440.250    5.497    0.316    0.458   82.157
  440.500    5.297    0.295    0.469   87.576
  440.750    5.105    0.242    0.476   91.790
  441.000    5.013    0.252    0.484   91.787
  441.250    5.203    0.248    0.481   92.387
  441.500    5.302    0.235    0.472   95.396
  441.750    5.504    0.240    0.462   97.201
  442.000    5.713    0.248    0.469   89.367
  442.250    5.821    0.251    0.490   89.364
  442.500    5.931    0.257    0.502   90.566
  442.750    5.932    0.248    0.507   91.166
  443.000    5.824    0.242    0.515   88.754
  443.250    5.718    0.237    0.515   88.149
  443.500    5.511    0.235    0.507   87.544
  443.750    5.311    0.252    0.503   86.336
  444.000    5.214    0.268    0.515   89.345
  444.250    5.026    0.269    0.526   93.559
  444.500    5.026    0.259    0.513   91.748
  444.750    4.935    0.258    0.501   91.747
  445.000    4.936    0.257    0.489   92.949
  445.250    5.029    0.254    0.481   95.355
  445.500    5.124    0.250    0.481   95.955
  445.750    5.319    0.263    0.489   97.157
  446.000    5.320    0.266    0.493   96.553
  446.250    5.224    0.248    0.496   94.742
  446.500    5.128    0.244    0.496   92.932
  446.750    4.852    0.241    0.496   92.328
  447.000    4.763    0.233    0.508   92.927
  447.250    4.764    0.224    0.519   94.732
  447.500    4.677    0.222    0.514   98.946
  447.750    4.766    0.245    0.510  103.160
  448.000    4.767    0.229    0.530  107.977
  448.250    4.594    0.225    0.520  110.384
  448.500    4.595    0.235    0.513  102.549
  448.750    4.511    0.248    0.520   98.330
  449.000    4.512    0.223    0.509   95.316
  449.250    4.771    0.210    0.509   95.915
  449.500    5.435    0.233    0.513   89.286
  449.750    6.306    0.261    0.516   84.464
  450.000    6.921    0.222    0.510   84.462
  450.250    7.596    0.216    0.492   89.880
  450.500    7.740    0.234    0.497   93.492
  450.750    7.599    0.257    0.492   95.898
  451.000    6.927    0.262    0.481   96.498
  451.250    6.433    0.255    0.472   95.291
  451.500    6.199    0.246    0.465   88.662
  451.750    5.974    0.261    0.477   81.431
  452.000    5.975    0.223    0.465   78.416
  452.250    6.558    0.211    0.427   80.823
  452.500    6.807    0.275    0.449   84.434
  452.750    7.066    0.288    0.478   85.636
  453.000    7.200    0.296    0.494   85.634
  453.250    6.442    0.304    0.506   84.427
  453.500    5.982    0.293    0.509   84.423
  453.750    5.765    0.287    0.509   85.022
  454.000    5.354    0.278    0.502   85.020
  454.250    5.256    0.269    0.497   85.018
  454.500    4.972    0.261    0.488   87.424
  454.750    4.973    0.263    0.483   89.831
  455.000    4.974    0.294    0.503   89.227
  455.250    4.975    0.261    0.508   85.609
  455.500    4.976    0.214    0.512   84.402
  455.750    5.262    0.144    0.497   82.592
  456.000    5.362    0.028    0.466   78.373
  456.250    5.884    0.005    0.380   70.538
  456.500    6.828    0.034    0.287   66.319
  456.750   10.087    0.086    0.264   60.293
  457.000   11.070    0.125    0.314   68.723
  457.250   11.707    0.163    0.373   83.179
  457.500   11.929    0.187    0.400   92.212
  457.750   10.284    0.210    0.430   96.426
  458.000    7.931    0.233    0.453   97.628
  458.250    6.712    0.224    0.478   99.432
  458.500    5.786    0.218    0.497  101.237
  458.750    5.274    0.204    0.489  101.234
  459.000    5.083    0.174    0.479  101.834
  459.250    5.277    0.177    0.472  104.843
  459.500    5.376    0.180    0.462  108.455
  459.750    5.478    0.171    0.449  111.464
  460.000    5.582    0.185    0.442  112.063
  460.250    5.794    0.206    0.461  110.254
  460.500    5.904    0.209    0.471  109.047
  460.750    6.016    0.199    0.459  107.236
  461.000    6.130    0.190    0.449  106.029
  461.250    6.246    0.206    0.454  109.038
  461.500    6.247    0.202    0.456  108.433
  461.750    6.365    0.193    0.450  103.610
  462.000    6.367    0.181    0.456  100.596
  462.250    6.368    0.210    0.449   97.582
  462.500    6.369    0.203    0.443   93.965
  462.750    6.138    0.174    0.430   90.951
  463.000    5.915    0.151    0.441   96.971
  463.250    5.493    0.171    0.458  100.583
  463.500    5.197    0.186    0.478  102.990
  463.750    5.102    0.192    0.484  103.589
  464.000    4.826    0.204    0.484  103.587
  464.250    4.566    0.227    0.499  101.175
  464.500    4.161    0.248    0.537   98.763
  464.750    3.209    0.237    0.561   95.747
  465.000    2.666    0.255    0.569   96.950
  465.250    2.342    0.250    0.574  102.368
  465.500    2.215    0.231    0.575  104.776
  465.750    2.135    0.227    0.578  109.591
  466.000    2.096    0.233    0.570  108.987
  466.250    2.020    0.231    0.568  104.767
  466.500    2.136    0.228    0.571  102.958
  466.750    2.177    0.222    0.558   99.341
  467.000    2.302    0.191    0.540   95.121
  467.250    2.434    0.179    0.489   91.504
  467.500    2.824    0.176    0.455   93.309
  467.750    3.158    0.190    0.459   95.112
  468.000    4.096    0.198    0.455   96.315
  468.250    4.666    0.208    0.453   96.915
  468.500    5.120    0.211    0.465   91.490
  468.750    5.942    0.195    0.464   87.271
  469.000    6.054    0.180    0.456   92.087
  469.250    6.169    0.204    0.459   96.302
  469.500    5.623    0.208    0.467   90.876
  469.750    5.222    0.205    0.467   88.465
  470.000    5.223    0.088    0.444   83.643
  470.250    5.626    0.077    0.390   81.833
  470.500    6.291    0.102    0.400   85.444
  470.750    6.652    0.112    0.430   89.659
  471.000    7.035    0.160    0.453   96.885
  471.250    6.780    0.189    0.472  100.496
  471.500    5.845    0.191    0.477  102.903
  471.750    5.428    0.204    0.471  103.503
  472.000    4.947    0.193    0.472  104.103
  472.250    4.345    0.191    0.484  104.703
  472.500    4.110    0.187    0.494  100.484
  472.750    3.961    0.179    0.504  102.890
  473.000    3.817    0.199    0.473  106.502
  473.250    3.748    0.207    0.475  109.511
  473.500    3.680    0.203    0.495  108.303
  473.750    3.613    0.190    0.515  107.699
  474.000    3.613    0.177    0.535  107.094
  474.250    3.419    0.179    0.547  101.670
  474.500    3.356    0.163    0.541  100.462
  474.750    3.295    0.137    0.502  102.267
  475.000    3.235    0.174    0.509  105.877
  475.250    3.297    0.183    0.528  107.080
  475.500    3.297    0.173    0.545  108.282
  475.750    3.177    0.169    0.548  109.484
  476.000    2.896    0.183    0.536  108.277
  476.250    2.791    0.177    0.530  105.865
  476.500    2.740    0.162    0.527  104.054
  476.750    2.741    0.148    0.522  104.052
  477.000    2.793    0.127    0.523  104.049
  477.250    2.846    0.165    0.517  104.046
  477.500    3.009    0.178    0.503  104.646
  477.750    3.066    0.187    0.497  106.450
  478.000    3.183    0.198    0.492  107.652
  478.250    3.243    0.203    0.524  104.638
  478.500    3.694    0.189    0.532   97.407
  478.750    4.449    0.157    0.447   90.778
  479.000    6.451    0.133    0.419   81.739
  479.250    9.708    0.130    0.398   76.917
  479.500   13.564    0.145    0.392   66.674
  479.750   16.335    0.252    0.396   64.262
  480.000   18.955    0.261    0.411   60.645
  480.250   21.591    0.259    0.427   59.437
