~VERSION INFORMATION
 VERS.                 2.0:   CWLS LOG ASCII STANDARD -VERSION 2.0
 WRAP.                  NO:   ONE LINE PER DEPTH STEP
~WELL INFORMATION BLOCK
#MNEM.UNIT           DATA                    DESCRIPTION OF MNEMONIC
#---------    -------------------            -------------------------------
# Generated from Intellog Unique Number	CS_77_79/WELL/923
WELL.         ANDERSON EXPLORATION LTD.      : Well_name    - WELL
LOC .         00/09-11-077-11W4/0            : Location     - LOCATION
UWI .         00/09-11-077-11W4/0            : Uwi          - UNIQUE WELL ID
ENTR.         SP                             : Entered      - ENTERED BY
SRVC.         SCHLUMBERGER                   : Scn          - SERVICE COMPANY
STRT.M        270                            : top_depth    - START DEPTH
STOP.M        515                            : bot_depth    - STOP DEPTH
STEP.M        0.25                           : increment    - STEP LENGTH
 NULL. -999.2500:NULL Value
~CURVE INFORMATION BLOCK
#MNEM UNIT       ERCB CURVE CODE    CURVE DESCRIPTION
#-----------   ------------------   ----------------------------------
DEPT.M        00 001 00 00         : DEPTH        - DEPTH
ILD .OHMM     00 120 00 00         : RESD         - DEEP RESISTIVITY (DIL)
DPHI.V/V      00 890 00 00         : PHID         - DENSITY POROSITY (LIMESTONE)
NPHI.V/V      00 330 00 00         : PHIN         - NEUTRON POROSITY (LIMESTONE)
GR  .API      00 310 00 00         : GR           - GAMMA RAY
~PARAMETER INFORMATION
#MNEM.UNIT           DATA             DESCRIPTION OF MNEMONIC
#---------         -----------     ------------------------------
GL  .M        678.1                : gl           - GROUND LEVEL ELEVATION
EREF.M        681.6                : kb           - ELEVATION OF DEPTH REFERENCE
DATM.M        678.1                : datum        - DATUM ELEVATION
TDD .M        515                  : tdd          - TOTAL DEPTH DRILLER
RUN .         ONE                  : Run          - RUN NUMBER
ENG .         BILL                 : Engineer     - RECORDING ENGINEER
WIT .         JIM                  : Witness      - WITNESSED BY
MUD .         GEL                  : Mud_type     - MUD TYPE
MATR.         LIMESTONE            : Logunit      - NEUTRON MATRIX
TMAX.C        25                   : BHT          - MAXIMUM RECORDED TEMPERATURE
BHTD.M        515                  : BHTDEP       - MAXIMUM RECORDED TEMPERATURE
MATR.         1                    : LOGUNIT      - NEUTRON MATRIX
RMT .C        25                   : MDTP         - TEMPERATURE OF MUD
NEUT.         1                    : NEUTRON      - NEUTRON TYPE
RESI.         0                    : RESIST       - RESISTIVITY TYPE
RMC .OHMM     0.25                 : RMC          - RESISTIVITY OF MUD CAKE
RMF .OHMM     0.25                 : RMF          - RESISTIVITY OF MUD FILTRATE
SUFT.C        15                   : SUFT         - SURFACE TEMPERATURE
~A  DEPTH     RESD     PHID     PHIN       GR
# ...
  400.500    5.955    0.374    0.438   60.785
  400.750    6.071    0.372    0.436   63.204
  401.000    6.077    0.362    0.426   63.816
  401.250    6.195    0.360    0.424   60.814
  401.500    6.201    0.368    0.431   59.621
  401.750    6.097    0.367    0.425   60.237
  402.000    6.100    0.356    0.429   61.447
  402.250    6.106    0.348    0.437   62.664
  402.500    6.112    0.349    0.441   62.674
  402.750    6.005    0.357    0.442   60.272
  403.000    5.905    0.363    0.441   61.490
  403.250    5.803    0.358    0.428   63.908
  403.500    5.596    0.352    0.421   65.726
  403.750    5.705    0.350    0.419   68.750
  404.000    5.708    0.354    0.432   70.567
  404.250    5.609    0.341    0.448   70.576
  404.500    5.615    0.328    0.449   70.587
  404.750    5.518    0.334    0.436   70.596
  405.000    5.522    0.347    0.422   70.010
  405.250    5.527    0.345    0.416   69.413
  405.500    5.636    0.345    0.414   63.400
  405.750    5.857    0.363    0.414   61.601
  406.000    5.970    0.369    0.431   62.213
  406.250    6.201    0.362    0.448   64.035
  406.500    6.441    0.357    0.449   65.245
  406.750    6.448    0.356    0.446   67.666
  407.000    6.453    0.358    0.437   64.666
  407.250    6.459    0.355    0.428   62.264
  407.500    6.466    0.354    0.443   62.277
  407.750    6.238    0.354    0.447   64.092
  408.000    6.131    0.354    0.440   64.708
  408.250    6.022    0.352    0.428   63.520
  408.500    5.917    0.351    0.427   62.925
  408.750    5.925    0.350    0.441   61.125
  409.000    6.040    0.351    0.453   59.927
  409.250    6.046    0.366    0.447   58.735
  409.500    6.050    0.369    0.440   60.551
  409.750    6.173    0.360    0.430   62.368
  410.000    6.177    0.352    0.436   64.185
  410.250    6.300    0.365    0.439   62.387
  410.500    6.303    0.392    0.444   62.398
  410.750    6.671    0.411    0.444   65.420
  411.000    6.802    0.424    0.458   67.237
  411.250    6.686    0.418    0.462   63.634
  411.500    6.691    0.353    0.456   60.029
  411.750    6.576    0.354    0.443   60.041
  412.000    6.579    0.358    0.451   63.666
  412.250    6.231    0.360    0.454   64.277
  412.500    6.124    0.354    0.463   60.070
  412.750    6.129    0.348    0.475   58.877
  413.000    6.134    0.348    0.433   61.296
  413.250    6.254    0.352    0.425   63.717
  413.500    6.262    0.354    0.449   61.320
  413.750    6.151    0.355    0.441   60.123
  414.000    6.159    0.362    0.431   59.530
  414.250    6.050    0.364    0.425   60.150
  414.500    5.944    0.360    0.440   60.157
  414.750    5.631    0.362    0.463   62.572
  415.000    5.636    0.356    0.475   65.596
  415.250    5.537    0.351    0.467   65.007
  415.500    5.544    0.348    0.458   65.013
  415.750    5.548    0.351    0.490   65.022
  416.000    5.453    0.363    0.503   62.024
  416.250    5.456    0.375    0.489   60.826
  416.500    5.564    0.362    0.468   59.633
  416.750    5.570    0.351    0.452   59.039
  417.000    5.679    0.352    0.442   61.460
  417.250    5.790    0.360    0.438   61.470
  417.500    5.904    0.365    0.443   60.280
  417.750    5.910    0.367    0.436   60.287
  418.000    6.026    0.354    0.421   61.503
  418.250    6.032    0.338    0.407   61.510
  418.500    6.153    0.335    0.412   60.319
  418.750    6.158    0.338    0.413   60.930
  419.000    6.163    0.346    0.402   63.953
  419.250    6.168    0.350    0.398   63.962
  419.500    6.294    0.344    0.396   61.564
  419.750    6.298    0.339    0.404   63.984
  420.000    6.304    0.337    0.411   62.788
  420.250    6.308    0.346    0.420   60.389
  420.500    6.086    0.341    0.419   63.416
  420.750    5.869    0.328    0.428   64.626
  421.000    5.770    0.326    0.446   67.649
  421.250    5.775    0.327    0.468   66.456
  421.500    5.886    0.344    0.455   63.455
  421.750    5.893    0.347    0.454   61.054
  422.000    5.898    0.346    0.453   64.077
  422.250    5.903    0.347    0.444   68.302
  422.500    5.909    0.340    0.431   68.313
  422.750    5.914    0.334    0.441   66.515
  423.000    5.920    0.346    0.450   64.718
  423.250    5.929    0.352    0.445   62.320
  423.500    5.932    0.353    0.434   65.945
  423.750    6.051    0.353    0.423   68.365
  424.000    6.054    0.348    0.412   64.761
  424.250    6.063    0.342    0.411   62.362
  424.500    5.956    0.336    0.423   62.373
  424.750    5.852    0.346    0.425   64.191
  425.000    5.749    0.343    0.440   67.214
  425.250    5.756    0.324    0.467   71.443
  425.500    5.869    0.287    0.469   72.652
  425.750    5.874    0.281    0.464   75.678
  426.000    6.220    0.287    0.463   76.895
  426.250    6.340    0.295    0.450   79.313
  426.500    6.344    0.305    0.440   80.526
  426.750    6.470    0.289    0.458   81.740
  427.000    6.357    0.289    0.474   83.561
  427.250    6.247    0.292    0.468   82.365
  427.500    6.028    0.295    0.455   80.567
  427.750    6.031    0.300    0.451   81.782
  428.000    6.036    0.300    0.472   82.996
  428.250    6.045    0.303    0.490   76.984
  428.500    6.050    0.320    0.490   70.969
  428.750    6.055    0.335    0.467   73.389
  429.000    6.060    0.313    0.461   73.401
  429.250    6.067    0.267    0.437   70.999
  429.500    6.072    0.228    0.432   70.410
  429.750    6.191    0.213    0.441   70.418
  430.000    6.434    0.219    0.449   72.236
  430.250    6.438    0.264    0.447   75.862
  430.500    6.446    0.297    0.460   78.280
  430.750    6.332    0.309    0.461   80.700
  431.000    6.224    0.313    0.462   81.315
  431.250    6.113    0.308    0.466   82.528
  431.500    5.898    0.290    0.466   83.744
  431.750    5.902    0.281    0.458   83.753
  432.000    6.020    0.276    0.447   84.969
  432.250    6.025    0.272    0.443   87.388
  432.500    6.029    0.256    0.443   96.436
  432.750    5.925    0.245    0.442  100.060
  433.000    5.824    0.278    0.455   94.648
  433.250    5.827    0.314    0.454   94.058
  433.500    6.056    0.340    0.416   95.875
  433.750    6.289    0.386    0.413   95.281
  434.000    6.295    0.409    0.421   95.901
  434.250    6.184    0.380    0.426   95.304
  434.500    5.966    0.362    0.461   89.891
  434.750    5.649    0.404    0.479   86.288
  435.000    5.250    0.461    0.504   86.900
  435.250    4.704    0.487    0.510   88.117
  435.500    4.537    0.504    0.499   89.330
  435.750    4.457    0.353    0.479   89.942
  436.000    4.379    0.321    0.464   87.544
  436.250    4.148    0.310    0.466   85.145
  436.500    3.927    0.350    0.503   82.746
  436.750    3.452    0.365    0.580   82.153
  437.000    2.925    0.334    0.584   83.971
  437.250    2.524    0.323    0.579   83.378
  437.500    2.304    0.346    0.572   80.983
  437.750    2.182    0.356    0.558   80.388
  438.000    2.104    0.362    0.551   79.195
  438.250    2.067    0.359    0.579   79.200
  438.500    2.070    0.353    0.585   80.417
  438.750    2.071    0.330    0.567   82.837
  439.000    2.112    0.311    0.563   88.870
  439.250    2.153    0.300    0.551   97.318
  439.500    2.196    0.293    0.545   99.737
  439.750    2.324    0.282    0.555   92.517
  440.000    2.459    0.308    0.552   87.709
  440.250    2.701    0.324    0.512   86.512
  440.500    3.078    0.267    0.497   90.743
  440.750    3.379    0.249    0.489   92.558
  441.000    3.711    0.265    0.487   91.367
  441.250    4.151    0.254    0.483   87.156
  441.500    4.642    0.231    0.457   84.156
  441.750    5.290    0.232    0.412   84.164
  442.000    5.703    0.238    0.437   90.199
  442.250    5.924    0.255    0.463   95.632
  442.500    5.716    0.261    0.476   94.436
  442.750    5.214    0.260    0.486   93.241
  443.000    4.669    0.234    0.490   95.060
  443.250    4.261    0.214    0.498   96.275
  443.500    4.110    0.226    0.501   96.887
  443.750    3.967    0.243    0.501   99.911
