~VERSION INFORMATION
 VERS.                 2.0:   CWLS LOG ASCII STANDARD -VERSION 2.0
 WRAP.                  NO:   ONE LINE PER DEPTH STEP
~WELL INFORMATION BLOCK
#MNEM.UNIT           DATA                    DESCRIPTION OF MNEMONIC
#---------    -------------------            -------------------------------
# Generated from Intellog Unique Number	CS_77_79/WELL/911
WELL.         HOME LEISMER                   : Well_name    - WELL
LOC .         00/07-29-078-07W4/0            : Location     - LOCATION
UWI .         00/07-29-078-07W4/0            : Uwi          - UNIQUE WELL ID
ENTR.         JHS                            : Entered      - ENTERED BY
SRVC.         SCHLUMBERGER                   : Scn          - SERVICE COMPANY
STRT.M        129.845                        : top_depth    - START DEPTH
STOP.M        344.095                        : bot_depth    - STOP DEPTH
STEP.M        0.25                           : increment    - STEP LENGTH
 NULL. -999.2500:NULL Value
~CURVE INFORMATION BLOCK
#MNEM UNIT       ERCB CURVE CODE    CURVE DESCRIPTION
#-----------   ------------------   ----------------------------------
DEPT.M        00 001 00 00         : DEPTH        - DEPTH
RHOB.KG/M3    00 350 00 00         : DENS         - BULK DENSITY
GR  .API      00 310 00 00         : GR           - GAMMA RAY
DPHI.V/V      00 890 00 00         : PHID         - DENSITY POROSITY (SANDSTONE)
NPHI.V/V      00 330 00 00         : PHIN         - NEUTRON POROSITY (SANDSTONE)
ILD .OHMM     00 120 00 00         : RESD         - DEEP RESISTIVITY (DIL)
~PARAMETER INFORMATION
#MNEM.UNIT           DATA             DESCRIPTION OF MNEMONIC
#---------         -----------     ------------------------------
GL  .M        545.592              : gl           - GROUND LEVEL ELEVATION
EREF.M        549.432              : kb           - ELEVATION OF DEPTH REFERENCE
DATM.M        549.432              : datum        - DATUM ELEVATION
TDD .M        446.227              : tdd          - TOTAL DEPTH DRILLER
RUN .         ONE                  : Run          - RUN NUMBER
ENG .         BILL                 : Engineer     - RECORDING ENGINEER
WIT .         JIM                  : Witness      - WITNESSED BY
MUD .         GEL                  : Mud_type     - MUD TYPE
MATR.         SANDSTONE            : Logunit      - NEUTRON MATRIX
TMAX.C        21.6667              : BHT          - MAXIMUM RECORDED TEMPERATURE
BHTD.M        446.227              : BHTDEP       - MAXIMUM RECORDED TEMPERATURE
MATR.         1                    : LOGUNIT      - NEUTRON MATRIX
RMT .C        25                   : MDTP         - TEMPERATURE OF MUD
NEUT.         1                    : NEUTRON      - NEUTRON TYPE
RESI.         0                    : RESIST       - RESISTIVITY TYPE
RMC .OHMM     0.25                 : RMC          - RESISTIVITY OF MUD CAKE
RMF .OHMM     0.25                 : RMF          - RESISTIVITY OF MUD FILTRATE
SUFT.C        15                   : SUFT         - SURFACE TEMPERATURE
~A  DEPTH     DENS       GR     PHID     PHIN     RESD
# ...
  312.345 2163.970   56.048    0.319    0.450   21.951
  312.595 2156.770   63.093    0.324    0.459   18.915
  312.845 2177.380   63.515    0.311    0.458   16.365
  313.095 2217.460   64.916    0.288    0.447   14.831
  313.345 2249.470   69.747    0.269    0.438   13.385
  313.595 2292.450   75.348    0.244    0.422   12.764
  313.845 2326.390   77.995    0.224    0.407   12.509
  314.095 2360.080   74.804    0.205    0.399   12.927
  314.345 2276.620   68.045    0.253    0.423   14.797
  314.595 2267.470   65.006    0.259    0.414   16.344
  314.845 2225.200   62.501    0.284    0.439   16.611
  315.095 2211.120   64.492    0.292    0.453   15.275
  315.345 2204.370   69.818    0.296    0.459   13.016
  315.595 2263.260   77.134    0.261    0.456   10.890
  315.845 2279.200   80.176    0.252    0.441    8.686
  316.095 2287.000   80.757    0.247    0.415    8.170
  316.345 2252.370   81.321    0.268    0.410    7.885
  316.595 2271.410   82.225    0.256    0.421    7.941
  316.845 2276.150   87.525    0.254    0.414    8.216
  317.095 2293.600   94.300    0.244    0.408    8.325
  317.345 2337.580  100.260    0.218    0.414    8.389
  317.595 2359.010  101.590    0.205    0.435    8.255
  317.845 2365.500  102.619    0.201    0.465    8.017
  318.095 2359.050  104.320    0.205    0.481    7.805
  318.345 2376.080  106.968    0.195    0.479    7.691
  318.595 2383.220  107.602    0.191    0.478    7.698
  318.845 2373.120  105.823    0.197    0.491    7.538
  319.095 2364.470  104.920    0.202    0.493    7.541
  319.345 2348.550  102.992    0.211    0.494    7.710
  319.595 2349.820  100.327    0.211    0.504    7.865
  319.845 2345.120   93.449    0.213    0.516    8.113
  320.095 2312.980   87.711    0.232    0.484    8.364
  320.345 2303.520   85.843    0.238    0.466    8.809
  320.595 2312.500   87.221    0.232    0.472    8.819
  320.845 2305.610   84.921    0.236    0.489    8.834
  321.095 2323.020   78.255    0.226    0.500    8.842
  321.345 2294.120   75.579    0.243    0.497    8.852
  321.595 2270.000   78.708    0.257    0.465    8.862
  321.845 2298.610   84.343    0.241    0.438    8.877
  322.095 2318.590   86.729    0.229    0.427    8.952
  322.345 2315.240   85.789    0.231    0.437    9.051
  322.595 2305.960   82.099    0.236    0.442    9.202
  322.845 2299.970   78.955    0.240    0.430    9.288
  323.095 2310.500   76.868    0.234    0.427    9.611
  323.345 2271.750   75.603    0.256    0.438    9.717
  323.595 2282.380   79.679    0.250    0.424    9.997
  323.845 2287.630   85.872    0.247    0.409   10.185
  324.095 2287.170   86.813    0.247    0.406   10.202
  324.345 2289.890   83.999    0.246    0.416   10.216
  324.595 2294.490   84.608    0.243    0.435   10.224
  324.845 2314.320   88.624    0.231    0.446   10.146
  325.095 2325.950   91.086    0.225    0.454   10.062
  325.345 2317.080   90.523    0.230    0.465   10.056
  325.595 2272.460   91.893    0.256    0.450   10.368
  325.845 2286.380   95.318    0.248    0.434   10.476
  326.095 2295.900   91.641    0.242    0.440   10.966
  326.345 2295.980   82.010    0.242    0.456   11.783
  326.595 2240.380   73.529    0.275    0.471   13.591
  326.845 2288.760   66.191    0.246    0.483   18.007
  327.095 2248.910   61.363    0.270    0.475   20.639
  327.345 2200.630   60.658    0.298    0.470   22.583
  327.595 2138.160   63.343    0.334    0.477   24.020
  327.845 2141.830   68.894    0.332    0.469   25.534
  328.095 2181.620   67.756    0.309    0.457   25.271
  328.345 2189.170   65.658    0.305    0.458   22.147
  328.595 2168.190   65.223    0.317    0.467   19.446
  328.845 2160.880   69.802    0.321    0.469   17.718
  329.095 2196.600   66.888    0.300    0.469   16.854
  329.345 2237.070   58.886    0.277    0.467   17.273
  329.595 2241.070   55.577    0.274    0.468   20.473
  329.845 2204.920   53.069    0.295    0.477   23.548
  330.095 2171.390   48.750    0.315    0.501   23.399
  330.345 2151.970   45.068    0.326    0.518   21.867
  330.595 2143.160   50.446    0.331    0.515   19.509
  330.845 2177.550   56.981    0.311    0.472   17.860
  331.095 2220.950   57.232    0.286    0.462   16.649
  331.345 2264.430   51.878    0.261    0.449   19.840
  331.595 2217.570   48.960    0.288    0.444   23.134
  331.845 2167.370   45.923    0.317    0.458   26.154
  332.095 2150.480   41.208    0.327    0.477   28.936
  332.345 2098.000   38.722    0.358    0.487   27.849
  332.595 2074.840   40.315    0.371    0.483   23.642
  332.845 2072.990   40.213    0.373    0.458   20.380
  333.095 2083.090   40.556    0.367    0.464   18.288
  333.345 2094.570   40.352    0.360    0.476   16.447
  333.595 2110.020   37.229    0.351    0.498   16.017
  333.845 2120.790   38.468    0.345    0.489   16.583
  334.095 2124.080   40.476    0.343    0.458   20.880
  334.345 2136.330   43.063    0.335    0.460   23.187
  334.595 2138.030   43.926    0.334    0.466   22.266
  334.845 2119.360   45.436    0.345    0.481   19.281
  335.095 2146.830   48.859    0.329    0.491   17.929
  335.345 2184.070   55.461    0.308    0.488   17.347
  335.595 2211.250   58.689    0.292    0.470   17.739
  335.845 2239.840   61.395    0.275    0.449   18.204
  336.095 2263.320   61.000    0.261    0.440   20.265
  336.345 2235.450   52.867    0.278    0.453   22.175
  336.595 2214.910   48.442    0.290    0.469   24.093
  336.845 2161.360   46.592    0.321    0.476   25.579
  337.095 2198.540   43.642    0.299    0.470   25.552
  337.345 2180.830   40.400    0.310    0.458   23.213
  337.595 2210.790   38.002    0.295    0.437   20.020
  337.845 2168.350   37.215    0.285    0.435   17.886
  338.095 1308.600   33.306    0.274    0.436   18.137
  338.345   22.227   26.246    0.189    0.371   19.792
  338.595  -10.053   24.510    0.072    0.312   27.660
  338.845   -1.236   27.586    0.032    0.251   36.595
  339.095    0.007   35.001    0.008    0.191   40.136
  339.345    0.018   42.274    0.005    0.179   34.398
  339.595    0.002   51.996   -0.000    0.182   24.411
  339.845   -0.000   59.088    0.003    0.229   16.486
  340.095   -0.000   67.135    0.003    0.250   12.556
  340.345   -0.000   73.690    0.010    0.301   10.338
  340.595    0.000   82.402    0.058    0.350    9.604
  340.845    0.000   85.541    0.082    0.377    9.684
  341.095    0.000   81.170    0.074    0.385   10.025
  341.345   -0.000   72.995    0.074    0.376   21.592
  341.595   -0.000   63.855    0.054    0.358   25.232
  341.845   -0.000   45.190    0.045    0.285   33.509
  342.095    0.000   32.609    0.029    0.217   87.928
  342.345    0.000   22.567    0.011    0.109  135.410
  342.595   -0.000   20.613   -0.000    0.111  114.449
  342.845   -0.000   24.238   -0.000    0.117   78.810
  343.095   -0.000   31.632   -0.000    0.140   61.721
  343.345    0.000   39.721   -0.000    0.159   39.693
  343.595    0.000   44.503   -0.000    0.181   33.421
  343.845    0.000   48.428    0.002    0.202   32.702
  344.095   -0.000   49.001    0.008    0.215   32.311
