~VERSION INFORMATION
 VERS.                 2.0:   CWLS LOG ASCII STANDARD -VERSION 2.0
 WRAP.                  NO:   ONE LINE PER DEPTH STEP
~WELL INFORMATION BLOCK
#MNEM.UNIT           DATA                    DESCRIPTION OF MNEMONIC
#---------    -------------------            -------------------------------
# Generated from Intellog Unique Number	CS_73_76/WELL/800
WELL.         SULPETRO LIMITED               : Well_name    - WELL
LOC .         00/09-32-073-10W4/0            : Location     - LOCATION
UWI .         00/09-32-073-10W4/0            : Uwi          - UNIQUE WELL ID
ENTR.         SP                             : Entered      - ENTERED BY
SRVC.         SCHLUMBERGER                   : Scn          - SERVICE COMPANY
STRT.M        295                            : top_depth    - START DEPTH
STOP.M        515                            : bot_depth    - STOP DEPTH
STEP.M        0.25                           : increment    - STEP LENGTH
 NULL. -999.2500:NULL Value
~CURVE INFORMATION BLOCK
#MNEM UNIT       ERCB CURVE CODE    CURVE DESCRIPTION
#-----------   ------------------   ----------------------------------
DEPT.M        00 001 00 00         : DEPTH        - DEPTH
ILD .OHMM     00 120 00 00         : RESD         - DEEP RESISTIVITY (DIL)
DPHI.V/V      00 890 00 00         : PHID         - DENSITY POROSITY (LIMESTONE)
NPHI.V/V      00 330 00 00         : PHIN         - NEUTRON POROSITY (LIMESTONE)
GR  .API      00 310 00 00         : GR           - GAMMA RAY
~PARAMETER INFORMATION
#MNEM.UNIT           DATA             DESCRIPTION OF MNEMONIC
#---------         -----------     ------------------------------
GL  .M        659.06               : gl           - GROUND LEVEL ELEVATION
EREF.M        662.2                : kb           - ELEVATION OF DEPTH REFERENCE
DATM.M        659.06               : datum        - DATUM ELEVATION
TDD .M        526                  : tdd          - TOTAL DEPTH DRILLER
RUN .         ONE                  : Run          - RUN NUMBER
ENG .         BILL                 : Engineer     - RECORDING ENGINEER
WIT .         JIM                  : Witness      - WITNESSED BY
MUD .         GEL                  : Mud_type     - MUD TYPE
MATR.         LIMESTONE            : Logunit      - NEUTRON MATRIX
TMAX.C        24                   : BHT          - MAXIMUM RECORDED TEMPERATURE
BHTD.M        526                  : BHTDEP       - MAXIMUM RECORDED TEMPERATURE
MATR.         1                    : LOGUNIT      - NEUTRON MATRIX
RMT .C        25                   : MDTP         - TEMPERATURE OF MUD
NEUT.         1                    : NEUTRON      - NEUTRON TYPE
RESI.         0                    : RESIST       - RESISTIVITY TYPE
RMC .OHMM     0.25                 : RMC          - RESISTIVITY OF MUD CAKE
RMF .OHMM     0.25                 : RMF          - RESISTIVITY OF MUD FILTRATE
SUFT.C        15                   : SUFT         - SURFACE TEMPERATURE
~A  DEPTH     RESD     PHID     PHIN       GR
  295.000    2.988    0.163    0.363  100.408
  295.250    2.988    0.103    0.347   97.346
  295.500    2.988    0.085    0.393   95.507
  295.750    3.046    0.176    0.466  102.853
  296.000    2.989    0.208    0.458  110.199
  296.250    2.989    0.207    0.440  113.870
  296.500    2.989    0.208    0.462  113.257
  296.750    3.163    0.212    0.484  113.868
  297.000    3.224    0.213    0.455  112.029
  297.250    3.164    0.212    0.418  109.579
  297.500    3.164    0.209    0.397  107.741
  297.750    3.105    0.203    0.409  107.740
  298.000    2.990    0.200    0.463  110.187
  298.250    2.990    0.201    0.439  110.798
  298.500    2.934    0.202    0.424  111.409
  298.750    2.990    0.205    0.434  111.407
  299.000    3.047    0.203    0.424  113.855
  299.250    3.225    0.206    0.439  117.527
  299.500    3.225    0.208    0.445  118.138
  299.750    3.349    0.207    0.474  117.524
  300.000    3.478    0.202    0.482  115.074
  300.250    3.612    0.190    0.458  112.624
  300.500    3.751    0.170    0.430  110.173
  300.750    3.896    0.163    0.410  108.947
  301.000    4.046    0.196    0.387  110.171
  301.250    4.123    0.210    0.373  112.618
  301.500    3.970    0.218    0.364  112.617
  301.750    3.752    0.201    0.357  112.615
  302.000    3.546    0.202    0.362  113.226
  302.250    3.415    0.205    0.397  113.837
  302.500    3.351    0.208    0.431  112.611
  302.750    3.288    0.210    0.452  112.610
  303.000    3.415    0.200    0.446  113.833
  303.250    3.614    0.192    0.462  114.444
  303.500    3.753    0.186    0.435  112.606
  303.750    3.825    0.192    0.422  109.543
  304.000    3.898    0.196    0.409  107.705
  304.250    3.825    0.194    0.417  105.866
  304.500    3.684    0.185    0.425  106.478
  304.750    3.481    0.179    0.435  108.313
  305.000    3.352    0.184    0.455  108.924
  305.250    3.416    0.194    0.479  105.861
  305.500    3.615    0.197    0.403  102.798
  305.750    4.285    0.174    0.375   99.124
  306.000    4.709    0.147    0.349   97.286
  306.250    5.079    0.137    0.324   96.672
  306.500    5.375    0.163    0.312  101.568
  306.750    5.797    0.184    0.369  106.465
  307.000    6.135    0.185    0.454  107.688
  307.250    6.492    0.192    0.423  103.401
  307.500    7.271    0.199    0.397  100.951
  307.750    7.551    0.204    0.380   99.725
  308.000    7.842    0.211    0.374   97.275
  308.250    8.144    0.215    0.376   89.314
  308.500    9.472    0.220    0.404   84.415
  308.750   10.810    0.231    0.416   77.066
  309.000   11.440    0.241    0.411   72.779
  309.250   12.572    0.249    0.404   68.492
  309.500   13.817    0.260    0.427   64.205
  309.750   14.901    0.269    0.418   62.979
  310.000   15.770    0.265    0.412   62.978
  310.250   14.082    0.270    0.419   66.037
  310.500   13.820    0.273    0.444   67.261
  310.750   15.188    0.286    0.438   66.647
  311.000   17.010    0.276    0.445   63.584
  311.250   18.694    0.281    0.434   60.521
  311.500   21.335    0.280    0.420   59.296
  311.750   23.009    0.283    0.416   59.294
  312.000   23.449    0.287    0.427   59.905
  312.250   24.352    0.294    0.418   59.292
  312.500   25.290    0.303    0.409   58.678
  312.750   25.773    0.308    0.397   57.452
  313.000   26.265    0.316    0.382   56.226
  313.250   24.820    0.317    0.359   55.613
  313.500   23.902    0.315    0.339   56.835
  313.750   24.358    0.313    0.350   58.671
  314.000   25.297    0.322    0.366   59.282
  314.250   25.779    0.322    0.363   58.668
  314.500   27.282    0.310    0.354   58.055
  314.750   27.803    0.296    0.358   57.441
  315.000   28.334    0.289    0.403   58.051
  315.250   28.335    0.286    0.411   58.662
  315.500   26.276    0.290    0.386   59.273
  315.750   25.304    0.299    0.379   59.272
  316.000   23.912    0.302    0.370   59.270
  316.250   20.562    0.306    0.363   59.882
  316.500   18.018    0.296    0.371   60.492
  316.750   15.204    0.289    0.382   62.327
  317.000   12.589    0.281    0.369   62.939
  317.250   11.456    0.268    0.363   65.386
  317.500    9.851    0.246    0.373   68.446
  317.750    9.309    0.232    0.363   72.118
  318.000    8.471    0.224    0.373   87.423
  318.250    8.158    0.222    0.384   91.707
  318.500    8.313    0.222    0.396   93.543
  318.750    8.966    0.222    0.389   94.766
  319.000    9.311    0.220    0.381   95.376
  319.250   10.428    0.216    0.407   93.538
  319.500   12.128    0.216    0.419   90.476
  319.750   13.329    0.226    0.381   87.413
  320.000   14.375    0.231    0.384   82.514
  320.250   16.718    0.243    0.406   79.451
  320.500   19.081    0.248    0.392   75.164
  320.750   22.191    0.262    0.423   73.326
  321.000   26.802    0.275    0.442   70.263
  321.250   27.834    0.284    0.488   67.813
  321.500   25.811    0.279    0.269   64.750
  321.750   22.618    0.275    0.253   62.300
  322.000   19.085    0.275    0.286   61.074
  322.250   16.724    0.283    0.322   62.297
  322.500   15.509    0.282    0.344   66.581
  322.750   15.220    0.277    0.363   67.805
  323.000   16.727    0.272    0.389   69.640
  323.250   17.370    0.275    0.410   70.863
  323.500   18.383    0.280    0.415   70.862
  323.750   18.734    0.286    0.407   69.636
  324.000   18.735    0.280    0.412   67.798
  324.250   18.386    0.274    0.427   64.735
  324.500   18.386    0.272    0.433   62.285
  324.750   18.043    0.279    0.429   65.345
  325.000   17.707    0.270    0.411   65.956
  325.250   17.707    0.266    0.380   63.505
  325.500   18.046    0.266    0.384   59.218
  325.750   18.390    0.283    0.390   57.380
  326.000   18.741    0.298    0.369   52.480
  326.250   18.048    0.311    0.357   50.642
  326.500   14.665    0.311    0.347   48.192
  326.750   11.916    0.305    0.341   45.742
  327.000    9.150    0.288    0.333   74.516
  327.250    7.435    0.247    0.338   92.269
  327.500    6.639    0.221    0.365  110.023
  327.750    5.928    0.193    0.397  124.104
  328.000    5.294    0.168    0.412  129.612
  328.250    5.098    0.156    0.427  133.284
  328.500    5.003    0.133    0.422  136.344
  328.750    5.098    0.120    0.427  140.016
  329.000    5.396    0.135    0.413  145.525
  329.250    6.767    0.151    0.385  146.136
  329.500    8.488    0.163    0.372  146.747
  329.750    9.328    0.173    0.384  146.133
  330.000   11.267    0.189    0.380  143.683
  330.250   12.151    0.199    0.352  137.558
  330.500   13.354    0.210    0.358  133.884
  330.750   14.132    0.215    0.388  128.985
  331.000   14.402    0.221    0.432  121.024
  331.250   13.869    0.239    0.432  113.063
  331.500   12.861    0.258    0.406  106.940
  331.750   11.927    0.279    0.380  102.040
  332.000   11.485    0.253    0.373  105.712
  332.250   11.271    0.224    0.375  111.221
  332.500   12.155    0.213    0.378  116.118
  332.750   13.613    0.218    0.398  115.504
  333.000   14.681    0.218    0.402  106.319
  333.250   15.537    0.225    0.362   97.134
  333.500   16.136    0.257    0.331   80.602
  333.750   16.444    0.273    0.324   63.458
  334.000   16.445    0.284    0.327   51.211
  334.250   16.138    0.281    0.351   47.537
  334.500   15.540    0.263    0.348   53.657
  334.750   14.142    0.257    0.341   56.718
  335.000   12.392    0.253    0.329   64.675
  335.250   11.492    0.258    0.306   67.735
  335.500   11.277    0.244    0.297   72.632
  335.750   11.067    0.228    0.284   83.651
  336.000   11.067    0.213    0.310  105.078
  336.250   10.861    0.199    0.319  117.934
  336.500   10.861    0.208    0.320  115.483
  336.750   10.862    0.213    0.357  111.808
  337.000   10.659    0.205    0.377  108.134
  337.250   10.659    0.214    0.400  104.459
  337.500   10.660    0.218    0.384  105.070
  337.750   10.461    0.221    0.375  106.904
  338.000   10.462    0.225    0.384  106.904
  338.250   10.462    0.213    0.404  106.290
