~VERSION INFORMATION
 VERS.                 2.0:   CWLS LOG ASCII STANDARD -VERSION 2.0
 WRAP.                  NO:   ONE LINE PER DEPTH STEP
~WELL INFORMATION BLOCK
#MNEM.UNIT           DATA                    DESCRIPTION OF MNEMONIC
#---------    -------------------            -------------------------------
# Generated from Intellog Unique Number	CS_69_70/WELL/737
NULL.         -999.25                        : NULL_VALUE
WELL.         HB CS PITLOCHRIE               : Well_name    - WELL              
LOC .         00/06-07-070-11W4/0            : Location     - LOCATION          
UWI .         00/06-07-070-11W4/0            : Uwi          - UNIQUE WELL ID    
ENTR.         SP                             : Entered      - ENTERED BY        
SRVC.         SCHLUMBERGER                   : Scn          - SERVICE COMPANY   
STRT.M        274.32                         : top_depth    - START DEPTH       
STOP.M        457.32                         : bot_depth    - STOP DEPTH        
STEP.M        0.25                           : increment    - STEP LENGTH       
~CURVE INFORMATION BLOCK
#MNEM UNIT       ERCB CURVE CODE    CURVE DESCRIPTION
#-----------   ------------------   ----------------------------------
DEPT.M        00 001 00 00         : DEPTH        - DEPTH                       
GR  .API      00 310 00 00         : GR           - GAMMA RAY                   
DPHI.V/V      00 890 00 00         : PHID         - DENSITY POROSITY (SANDSTONE)
NPHI.V/V      00 330 00 00         : PHIN         - NEUTRON POROSITY (SANDSTONE)
ILD .OHMM     00 120 00 00         : RESD         - DEEP RESISTIVITY (DIL)      
~PARAMETER INFORMATION       
#MNEM.UNIT           DATA             DESCRIPTION OF MNEMONIC
#---------         -----------     ------------------------------
GL  .M        600.669              : gl           - GROUND LEVEL ELEVATION      
EREF.M        603.717              : kb           - ELEVATION OF DEPTH REFERENCE
DATM.M        600.669              : datum        - DATUM ELEVATION             
TDD .M        478.536              : tdd          - TOTAL DEPTH DRILLER         
RUN .         ONE                  : Run          - RUN NUMBER                  
ENG .         BILL                 : Engineer     - RECORDING ENGINEER          
WIT .         JIM                  : Witness      - WITNESSED BY                
MUD .         GEL                  : Mud_type     - MUD TYPE                    
MATR.         SANDSTONE            : Logunit      - NEUTRON MATRIX              
TMAX.C        26.1111              : BHT          - MAXIMUM RECORDED TEMPERATURE
BHTD.M        478.536              : BHTDEP       - MAXIMUM RECORDED TEMPERATURE
MATR.         1                    : LOGUNIT      - NEUTRON MATRIX              
RMT .C        25                   : MDTP         - TEMPERATURE OF MUD          
NEUT.         1                    : NEUTRON      - NEUTRON TYPE                
RESI.         0                    : RESIST       - RESISTIVITY TYPE            
RMC .OHMM     0.25                 : RMC          - RESISTIVITY OF MUD CAKE     
RMF .OHMM     0.25                 : RMF          - RESISTIVITY OF MUD FILTRATE 
SUFT.C        15                   : SUFT         - SURFACE TEMPERATURE         
~A  DEPTH       GR     PHID     PHIN     RESD
# ...
  404.820   91.760    0.291    0.571    2.980
  405.070   91.777    0.301    0.563    2.728
  405.320   91.834    0.312    0.590    2.482
  405.570   93.074    0.320    0.597    2.328
  405.820   94.151    0.331    0.609    2.309
  406.070   93.616    0.352    0.632    2.415
  406.320   92.055    0.378    0.646    2.574
  406.570   91.231    0.381    0.615    2.808
  406.820   91.074    0.327    0.585    3.117
  407.070   89.856    0.298    0.581    3.292
  407.320   87.129    0.301    0.582    3.532
  407.570   84.771    0.308    0.564    3.649
  407.820   85.913    0.306    0.535    3.768
  408.070   86.857    0.287    0.522    4.064
  408.320   86.269    0.277    0.523    4.583
  408.570   82.122    0.252    0.520    4.978
  408.820   79.957    0.176    0.440    5.449
  409.070   77.056    0.104    0.364    5.928
  409.320   76.276    0.052    0.291    6.170
  409.570   74.571    0.071    0.270    5.988
  409.820   74.670    0.125    0.299    5.674
  410.070   78.202    0.161    0.410    5.341
  410.320   83.554    0.201    0.477    5.056
  410.570   86.693    0.211    0.458    4.809
  410.820   81.791    0.200    0.426    4.601
  411.070   80.553    0.189    0.415    4.500
  411.320   84.051    0.199    0.456    4.439
  411.570   86.882    0.236    0.485    4.521
  411.820   89.549    0.235    0.485    4.457
  412.070   90.316    0.221    0.468    4.548
  412.320   89.852    0.214    0.459    4.640
  412.570   89.274    0.224    0.460    4.722
  412.820   88.769    0.232    0.470    4.830
  413.070   89.682    0.244    0.476    4.856
  413.320   91.138    0.232    0.474    4.883
  413.570   92.937    0.233    0.483    4.909
  413.820   94.417    0.236    0.491    4.915
  414.070   95.325    0.236    0.485    4.904
  414.320   95.403    0.235    0.483    4.890
  414.570   94.059    0.234    0.486    4.863
  414.820   93.085    0.234    0.481    4.821
  415.070   93.627    0.240    0.465    4.747
  415.320   95.714    0.242    0.456    4.664
  415.570   96.806    0.225    0.459    4.582
  415.820   96.708    0.223    0.469    4.470
  416.070   96.287    0.229    0.476    4.367
  416.320   96.247    0.237    0.482    4.296
  416.570   96.836    0.239    0.488    4.271
  416.820   97.595    0.236    0.495    4.285
  417.070   98.502    0.234    0.503    4.414
  417.320   99.245    0.233    0.502    4.538
  417.570   97.775    0.217    0.482    4.679
  417.820   93.510    0.197    0.463    4.821
  418.070   90.835    0.180    0.458    4.829
  418.320   89.491    0.173    0.486    4.760
  418.570   89.342    0.215    0.503    4.727
  418.820   89.577    0.216    0.510    4.710
  419.070   90.748    0.220    0.517    4.758
  419.320   93.404    0.232    0.524    4.864
  419.570   95.458    0.269    0.523    4.973
  419.820   95.672    0.277    0.472    5.087
  420.070   95.618    0.262    0.449    5.199
  420.320   95.258    0.246    0.452    5.244
  420.570   95.113    0.231    0.457    5.270
  420.820   94.417    0.237    0.457    5.205
  421.070   92.832    0.229    0.459    5.015
  421.320   91.252    0.232    0.468    4.348
  421.570   89.374    0.219    0.470    3.475
  421.820   87.742    0.209    0.476    2.893
  422.070   86.797    0.214    0.508    2.489
  422.320   86.440    0.264    0.541    2.231
  422.570   85.518    0.331    0.560    2.058
  422.820   83.204    0.347    0.579    1.996
  423.070   80.574    0.339    0.598    2.046
  423.320   78.860    0.337    0.613    2.261
  423.570   80.918    0.344    0.624    2.494
  423.820   82.558    0.372    0.633    2.738
  424.070   84.703    0.411    0.633    3.077
  424.320   85.802    0.263    0.618    3.366
  424.570   85.051    0.248    0.510    3.539
  424.820   84.825    0.240    0.481    3.618
  425.070   84.987    0.242    0.484    3.643
  425.320   84.118    0.232    0.491    3.568
  425.570   84.203    0.246    0.496    3.443
  425.820   85.425    0.253    0.505    3.433
  426.070   86.601    0.249    0.514    3.473
  426.320   84.550    0.250    0.523    3.735
  426.570   82.563    0.249    0.520    3.945
  426.820   83.249    0.248    0.502    4.206
  427.070   83.399    0.225    0.496    4.486
  427.320   83.071    0.209    0.482    4.668
  427.570   83.824    0.214    0.460    4.704
  427.820   85.840    0.202    0.450    4.633
  428.070   88.919    0.216    0.451    4.437
  428.320   89.740    0.243    0.459    4.194
  428.570   90.124    0.293    0.465    4.043
  428.820   90.075    0.268    0.487    4.050
  429.070   89.989    0.304    0.500    4.144
  429.320   89.558    0.335    0.508    4.218
  429.570   89.481    0.368    0.518    4.148
  429.820   89.460    0.329    0.509    3.928
  430.070   88.839    0.341    0.508    3.597
  430.320   88.601    0.372    0.527    3.354
  430.570   88.761    0.405    0.542    3.134
  430.820   89.177    0.394    0.569    2.875
  431.070   89.974    0.402    0.597    2.724
  431.320   91.307    0.411    0.617    2.670
  431.570   93.564    0.397    0.634    2.656
  431.820   96.802    0.378    0.646    2.684
  432.070   95.914    0.356    0.642    2.738
  432.320   93.960    0.371    0.627    2.806
  432.570   97.462    0.354    0.613    2.918
  432.820  100.198    0.333    0.591    2.944
  433.070  103.005    0.318    0.575    2.901
  433.320  104.890    0.277    0.577    2.770
  433.570  105.615    0.281    0.597    2.625
  433.820  107.233    0.296    0.612    2.574
  434.070  107.276    0.316    0.623    2.754
  434.320  105.113    0.342    0.613    3.148
  434.570   97.976    0.353    0.483    3.600
  434.820   92.195    0.360    0.478    4.145
  435.070   88.292    0.293    0.484    4.755
  435.320   86.150    0.253    0.484    5.253
  435.570   82.707    0.261    0.472    5.905
  435.820   78.663    0.255    0.454    6.358
  436.070   74.233    0.226    0.442    6.514
  436.320   69.144    0.188    0.430    6.436
  436.570   68.206    0.171    0.422    5.860
  436.820   74.136    0.258    0.457    5.351
  437.070   75.510    0.274    0.481    4.983
  437.320   75.290    0.298    0.507    4.900
  437.570   73.106    0.323    0.520    5.358
  437.820   68.092    0.348    0.451    5.632
  438.070   65.495    0.314    0.423    6.122
  438.320   62.811    0.271    0.410    6.830
  438.570   60.360    0.272    0.430    7.426
  438.820   58.929    0.273    0.442    8.405
  439.070   57.745    0.267    0.451    9.372
  439.320   59.266    0.254    0.430   10.161
  439.570   60.675    0.229    0.345   10.951
  439.820   59.199    0.114    0.294   11.722
  440.070   56.441    0.067    0.295   11.581
  440.320   53.807    0.053    0.337    9.868
  440.570   53.880    0.076    0.370    8.121
  440.820   60.926    0.086    0.352    7.158
  441.070   69.212    0.119    0.372    6.457
  441.320   74.626    0.163    0.413    6.039
  441.570   77.727    0.233    0.443    5.848
  441.820   79.413    0.287    0.476    5.901
  442.070   75.303    0.330    0.498    6.182
  442.320   70.890    0.342    0.461    6.358
  442.570   72.016    0.310    0.446    6.778
  442.820   75.108    0.300    0.451    7.154
  443.070   78.577    0.292    0.450    7.516
  443.320   82.516    0.284    0.445    7.659
  443.570   84.009    0.279    0.439    7.596
  443.820   86.455    0.266    0.431    7.021
  444.070   87.706    0.250    0.421    6.515
  444.320   89.226    0.279    0.418    6.042
  444.570   91.085    0.269    0.412    5.590
  444.820   93.856    0.263    0.426    5.423
  445.070   95.987    0.251    0.432    5.245
  445.320   98.187    0.239    0.444    5.197
  445.570   98.706    0.260    0.446    5.203
  445.820   99.048    0.288    0.431    5.256
  446.070  102.143    0.273    0.427    5.304
  446.320  105.477    0.252    0.441    5.400
  446.570  106.401    0.234    0.457    5.425
  446.820  104.777    0.220    0.473    5.485
  447.070  101.368    0.228    0.464    5.511
  447.320   99.790    0.208    0.457    5.486
  447.570   97.447    0.236    0.434    5.370
  447.820   90.106    0.272    0.443    5.148
  448.070   87.065    0.294    0.418    4.876
