~VERSION INFORMATION
 VERS.                 2.0:   CWLS LOG ASCII STANDARD -VERSION 2.0
 WRAP.                  NO:   ONE LINE PER DEPTH STEP
~WELL INFORMATION BLOCK
#MNEM.UNIT           DATA                    DESCRIPTION OF MNEMONIC
#---------    -------------------            -------------------------------
# Generated from Intellog Unique Number	CW_76_78/WELL/502
LOC .         00/06-07-076-25W4/0            : Location     - LOCATION
UWI .         00/06-07-076-25W4/0            : Uwi          - UNIQUE WELL ID
ENTR.         JAYE                           : Entered      - ENTERED BY
SRVC.         SCHLUMBERGER                   : Scn          - SERVICE COMPANY
DATE.         17 JAN 75                      : Date         - LOG DATE
STRT.M        472.44                         : top_depth    - START DEPTH
STOP.M        658.44                         : bot_depth    - STOP DEPTH
STEP.M        0.25                           : increment    - STEP LENGTH
 NULL. -999.2500:NULL Value
~CURVE INFORMATION BLOCK
#MNEM UNIT       ERCB CURVE CODE    CURVE DESCRIPTION
#-----------   ------------------   ----------------------------------
DEPT.M        00 001 00 00         : DEPTH        - DEPTH
ILD .OHMM     00 120 00 00         : RESD         - DEEP RESISTIVITY (DIL)
NPHI.V/V      00 330 00 00         : PHIN         - NEUTRON POROSITY (SANDSTONE)
DPHI.V/V      00 890 00 00         : PHID         - DENSITY POROSITY (SANDSTONE)
GR  .API      00 310 00 00         : GR           - GAMMA RAY
CALI.MM       00 280 01 00         : CAL          - CALIPER
~PARAMETER INFORMATION
#MNEM.UNIT           DATA             DESCRIPTION OF MNEMONIC
#---------         -----------     ------------------------------
GL  .M        767.182              : gl           - GROUND LEVEL ELEVATION
EREF.M        771.235              : kb           - ELEVATION OF DEPTH REFERENCE
DATM.M        767.182              : datum        - DATUM ELEVATION
TDD .M        663.55               : tdd          - TOTAL DEPTH DRILLER
RUN .         ONE                  : Run          - RUN NUMBER
ENG .         LLOYD                : Engineer     - RECORDING ENGINEER
WIT .         MUCULAK              : Witness      - WITNESSED BY
BASE.         EDM                  : Branch       - HOME BASE OF LOGGING UNIT
MUD .         GEL                  : Mud_type     - MUD TYPE
MATR.         SANDSTONE            : Logunit      - NEUTRON MATRIX
TMAX.C        30                   : BHT          - MAXIMUM RECORDED TEMPERATURE
BHTD.M        663.55               : BHTDEP       - MAXIMUM RECORDED TEMPERATURE
RMT .C        12.2222              : MDTP         - TEMPERATURE OF MUD
MUDD.KG/M     1140                 : MWT          - MUD DENSITY
NEUT.         1                    : NEUTRON      - NEUTRON TYPE
RESI.         0                    : RESIST       - RESISTIVITY TYPE
RM  .OHMM     2.73                 : RM           - RESISTIVITY OF MUD
RMC .OHMM     0                    : RMC          - RESISTIVITY OF MUD CAKE
RMF .OHMM     0                    : RMF          - RESISTIVITY OF MUD FILTRATE
SUFT.C        -17.7778             : SUFT         - SURFACE TEMPERATURE
~A  DEPTH     RESD     PHIN     PHID       GR      CAL
# ...
  581.940    5.931    0.455    0.173   92.075  219.028
  582.190    5.781    0.454    0.184   93.403  218.391
  582.440    5.512    0.450    0.161   94.487  222.700
  582.690    5.285    0.439    0.194   98.067  229.585
  582.940    5.170    0.430    0.188   98.540  233.998
  583.190    5.180    0.421    0.177   97.802  236.761
  583.440    5.238    0.435    0.185   96.753  238.701
  583.690    5.286    0.461    0.181   95.772  239.505
  583.940    5.384    0.465    0.173   91.927  237.013
  584.190    5.484    0.423    0.171   89.542  232.772
  584.440    5.566    0.405    0.164   86.184  224.922
  584.690    5.576    0.399    0.180   87.330  222.328
  584.940    5.700    0.403    0.201   88.292  219.526
  585.190    5.785    0.394    0.190   87.429  223.115
  585.440    5.925    0.399    0.144   86.201  228.659
  585.690    6.057    0.431    0.150   85.034  226.477
  585.940    6.068    0.448    0.188   83.867  225.119
  586.190    6.102    0.420    0.185   83.856  226.851
  586.440    6.125    0.426    0.191   86.523  225.080
  586.690    6.170    0.429    0.215   87.243  223.313
  586.940    6.227    0.418    0.184   82.666  221.232
  587.190    6.472    0.395    0.180   80.161  220.491
  587.440    6.977    0.375    0.177   79.481  220.062
  587.690    7.399    0.376    0.164   82.087  220.353
  587.940    7.536    0.369    0.158   78.363  222.086
  588.190    7.578    0.348    0.116   77.926  224.438
  588.440    7.441    0.381    0.156   79.985  225.759
  588.690    7.030    0.386    0.180   81.739  225.636
  588.940    6.510    0.388    0.176   81.789  223.661
  589.190    6.265    0.404    0.208   84.029  219.830
  589.440    6.346    0.398    0.201   87.913  217.440
  589.690    6.816    0.403    0.184   93.014  221.027
  589.940    7.553    0.420    0.241   88.865  224.411
  590.190    8.714    0.446    0.208   84.411  226.144
  590.440   10.296    0.420    0.201   80.445  223.961
  590.690   11.966    0.392    0.191   78.670  214.669
  590.940   11.967    0.363    0.181   75.858  211.250
  591.190   11.142    0.404    0.239   71.710  211.128
  591.440    9.694    0.384    0.204   66.466  211.418
  591.690    8.404    0.405    0.159   69.437  212.016
  591.940    7.392    0.431    0.175   72.285  212.408
  592.190    6.908    0.432    0.223   71.484  212.702
  592.440    7.140    0.398    0.217   70.864  214.124
  592.690    7.812    0.386    0.168   73.957  216.167
  592.940    8.208    0.413    0.209   78.814  218.622
  593.190    8.239    0.407    0.223   83.306  221.487
  593.440    8.254    0.374    0.172   87.737  223.737
  593.690    8.532    0.411    0.239   90.587  225.266
  593.940    9.131    0.427    0.277   77.674  226.688
  594.190   10.026    0.383    0.239   71.457  227.288
  594.440   10.632    0.324    0.167   66.092  228.198
  594.690   11.069    0.310    0.107   63.706  225.500
  594.940   11.296    0.320    0.077   65.947  223.111
  595.190   11.296    0.403    0.163   72.691  220.617
  595.440   11.633    0.405    0.222   73.714  219.982
  595.690   12.633    0.353    0.185   68.105  220.480
  595.940   14.629    0.301    0.110   62.679  222.729
  596.190   18.160    0.295    0.077   59.868  226.005
  596.440   20.309    0.290    0.069   61.256  228.255
  596.690   20.876    0.280    0.076   62.585  229.884
  596.940   20.916    0.267    0.058   61.783  230.383
  597.190   19.016    0.271    0.038   60.920  229.642
  597.440   17.448    0.292    0.075   63.465  228.079
  597.690   15.632    0.334    0.172   67.105  225.381
  597.940   13.626    0.358    0.223   72.632  222.889
  598.190   11.099    0.379    0.206   77.975  221.118
  598.440    9.835    0.405    0.247   80.338  220.686
  598.690   10.165    0.416    0.250   76.859  221.802
  598.940   11.100    0.403    0.249   73.499  223.020
  599.190   13.139    0.356    0.233   69.533  224.650
  599.440   12.996    0.310    0.211   63.255  226.177
  599.690   12.691    0.288    0.138   58.620  227.293
  599.940   12.553    0.295    0.089   57.025  227.995
  600.190   13.046    0.366    0.153   56.346  227.667
  600.440   13.435    0.376    0.239   56.336  226.618
  600.690   12.694    0.340    0.176   58.333  224.023
  600.940   11.928    0.282    0.115   63.555  221.428
  601.190   11.249    0.308    0.113   73.463  220.070
  601.440   10.228    0.394    0.163   83.127  219.539
  601.690    8.915    0.407    0.214   88.958  221.991
  601.940    7.616    0.393    0.202   84.688  225.991
  602.190    7.039    0.392    0.206   86.866  229.272
  602.440    7.222    0.421    0.198   86.917  226.676
  602.690    7.659    0.420    0.186   85.810  219.137
  602.940    8.048    0.416    0.184   84.705  213.347
  603.190    8.472    0.409    0.170   83.232  217.863
  603.440    8.504    0.375    0.146   80.970  221.451
  603.690    8.489    0.339    0.125   76.882  221.844
  603.940    8.489    0.379    0.067   77.237  222.547
  604.190    8.381    0.437    0.150   83.128  223.144
  604.440    8.215    0.415    0.170   85.855  223.952
  604.690    8.110    0.381    0.154   84.262  226.201
  604.940    7.905    0.373    0.138   79.262  231.231
  605.190    7.805    0.388    0.122   80.711  223.381
  605.440    7.664    0.390    0.134   83.865  222.125
  605.690    7.594    0.383    0.132   85.618  226.435
  605.940    7.637    0.380    0.152   89.380  231.261
  606.190    7.893    0.379    0.156   93.081  231.859
  606.440    8.054    0.386    0.150   89.541  231.223
  606.690    7.923    0.402    0.130   87.338  230.690
  606.940    7.709    0.413    0.113   86.353  230.153
  607.190    7.500    0.403    0.147   84.640  229.620
  607.440    7.419    0.379    0.134   84.933  229.599
  607.690    7.392    0.397    0.149   89.059  229.170
  607.940    7.365    0.396    0.162   91.362  229.151
  608.190    7.325    0.405    0.153   93.114  229.238
  608.440    7.312    0.400    0.152   93.591  229.835
  608.690    7.299    0.384    0.172   91.816  230.129
  608.940    7.286    0.385    0.172   89.735  230.625
  609.190    7.381    0.384    0.157   87.716  231.224
  609.440    7.518    0.407    0.136   85.697  231.101
  609.690    7.713    0.416    0.159   84.409  230.877
  609.940    7.958    0.423    0.184   85.067  228.077
  610.190    8.225    0.420    0.184   86.395  223.113
  610.440    8.548    0.380    0.170   89.243  218.046
  610.690    8.771    0.359    0.141   92.458  217.615
  610.940    8.901    0.387    0.080   96.098  219.243
  611.190    8.456    0.374    0.188   94.748  220.460
  611.440    8.550    0.355    0.180   89.990  221.059
  611.690    9.134    0.364    0.167   85.964  221.662
  611.940    9.372    0.377    0.164   87.109  222.673
  612.190    9.355    0.351    0.170   91.115  222.964
  612.440    9.036    0.328    0.159   85.140  224.079
  612.690    8.459    0.361    0.133   82.513  226.430
  612.940    7.733    0.383    0.131   89.621  228.680
  613.190    7.135    0.398    0.204   97.886  232.164
  613.440    6.582    0.424    0.181  101.708  233.589
  613.690    6.334    0.432    0.167  100.298  233.775
  613.940    6.300    0.424    0.159   97.487  234.066
  614.190    6.429    0.411    0.179   94.374  235.386
  614.440    7.085    0.389    0.187   90.224  235.883
  614.690    8.025    0.403    0.154   85.284  234.010
  614.940    9.107    0.408    0.115   81.379  230.900
  615.190   10.449    0.334    0.093   76.621  226.966
  615.440   12.011    0.317    0.051   73.508  225.609
  615.690   12.415    0.344    0.094   79.156  226.412
  615.940   12.302    0.367    0.124   84.500  227.835
  616.190   12.508    0.356    0.124   88.504  229.160
  616.440   13.435    0.365    0.108   91.050  230.687
  616.690   14.195    0.397    0.126   91.282  228.298
  616.940   14.196    0.397    0.225   86.282  225.910
  617.190   13.536    0.379    0.210   79.638  224.756
  617.440   12.860    0.367    0.201   77.558  224.015
  617.690   12.084    0.376    0.184   81.685  223.689
  617.940   11.501    0.351    0.166   83.439  223.772
  618.190   10.867    0.344    0.146   79.227  223.961
