~VERSION INFORMATION
 VERS.                 2.0:   CWLS LOG ASCII STANDARD -VERSION 2.0
 WRAP.                  NO:   ONE LINE PER DEPTH STEP
~WELL INFORMATION BLOCK
#MNEM.UNIT           DATA                    DESCRIPTION OF MNEMONIC
#---------    -------------------            -------------------------------
# Generated from Intellog Unique Number	CS_73_76/WELL/768
WELL.         MAYNARD EXPLORATION            : Well_name    - WELL
LOC .         00/07-11-073-12W4/0            : Location     - LOCATION
UWI .         00/07-11-073-12W4/0            : Uwi          - UNIQUE WELL ID
ENTR.         SP                             : Entered      - ENTERED BY
SRVC.         SCHLUMBERGER                   : Scn          - SERVICE COMPANY
STRT.M        300                            : top_depth    - START DEPTH
STOP.M        545                            : bot_depth    - STOP DEPTH
STEP.M        0.25                           : increment    - STEP LENGTH
 NULL. -999.2500:NULL Value
~CURVE INFORMATION BLOCK
#MNEM UNIT       ERCB CURVE CODE    CURVE DESCRIPTION
#-----------   ------------------   ----------------------------------
DEPT.M        00 001 00 00         : DEPTH        - DEPTH
ILD .OHMM     00 120 00 00         : RESD         - DEEP RESISTIVITY (DIL)
DPHI.V/V      00 890 00 00         : PHID         - DENSITY POROSITY (LIMESTONE)
NPHI.V/V      00 330 00 00         : PHIN         - NEUTRON POROSITY (LIMESTONE)
GR  .API      00 310 00 00         : GR           - GAMMA RAY
~PARAMETER INFORMATION
#MNEM.UNIT           DATA             DESCRIPTION OF MNEMONIC
#---------         -----------     ------------------------------
GL  .M        661.5                : gl           - GROUND LEVEL ELEVATION
EREF.M        665                  : kb           - ELEVATION OF DEPTH REFERENCE
DATM.M        661.5                : datum        - DATUM ELEVATION
TDD .M        562                  : tdd          - TOTAL DEPTH DRILLER
RUN .         ONE                  : Run          - RUN NUMBER
ENG .         BILL                 : Engineer     - RECORDING ENGINEER
WIT .         JIM                  : Witness      - WITNESSED BY
MUD .         GEL                  : Mud_type     - MUD TYPE
MATR.         LIMESTONE            : Logunit      - NEUTRON MATRIX
TMAX.C        21                   : BHT          - MAXIMUM RECORDED TEMPERATURE
BHTD.M        562                  : BHTDEP       - MAXIMUM RECORDED TEMPERATURE
MATR.         1                    : LOGUNIT      - NEUTRON MATRIX
RMT .C        25                   : MDTP         - TEMPERATURE OF MUD
NEUT.         1                    : NEUTRON      - NEUTRON TYPE
RESI.         0                    : RESIST       - RESISTIVITY TYPE
RMC .OHMM     0.25                 : RMC          - RESISTIVITY OF MUD CAKE
RMF .OHMM     0.25                 : RMF          - RESISTIVITY OF MUD FILTRATE
SUFT.C        15                   : SUFT         - SURFACE TEMPERATURE
~A  DEPTH     RESD     PHID     PHIN       GR
# ...
  343.500   10.010    0.326    0.337   30.396
  343.750   10.010    0.331    0.342   29.809
  344.000    9.931    0.341    0.346   29.229
  344.250    9.931    0.359    0.351   28.649
  344.500    9.930    0.366    0.352   28.069
  344.750    9.852    0.364    0.351   28.075
  345.000    9.852    0.368    0.343   28.683
  345.250    9.851    0.360    0.340   29.289
  345.500    9.851    0.359    0.343   29.890
  345.750    9.850    0.354    0.345   31.087
  346.000    9.850    0.347    0.347   31.688
  346.250    9.849    0.340    0.348   32.292
  346.500    9.849    0.352    0.355   31.713
  346.750    9.849    0.361    0.359   29.944
  347.000    9.848    0.368    0.342   29.361
  347.250    9.848    0.362    0.337   28.189
  347.500    9.848    0.359    0.333   27.604
  347.750    9.847    0.360    0.340   27.616
  348.000    9.847    0.360    0.347   27.632
  348.250    9.847    0.368    0.342   27.642
  348.500    9.846    0.367    0.329   28.246
  348.750    9.846    0.356    0.318   28.255
  349.000    9.845    0.353    0.314   28.862
  349.250    9.845    0.348    0.314   29.462
  349.500    9.766    0.349    0.322   30.664
  349.750    9.688    0.360    0.323   30.671
  350.000    9.688    0.358    0.321   31.279
  350.250    9.609    0.349    0.321   31.287
  350.500    9.609    0.342    0.323   31.890
  350.750    9.608    0.329    0.331   31.899
  351.000    9.608    0.311    0.358   34.874
  351.250    9.529    0.293    0.385   43.778
  351.500    9.529    0.269    0.429   59.205
  351.750    9.450    0.246    0.467   69.294
  352.000    9.216    0.241    0.484   85.906
  352.250    8.903    0.254    0.487   92.441
  352.500    8.590    0.265    0.471   90.675
  352.750    8.277    0.271    0.459   88.905
  353.000    8.042    0.271    0.457   91.879
  353.250    8.042    0.255    0.476   96.638
  353.500    7.729    0.240    0.484   98.424
  353.750    7.416    0.252    0.475  100.809
  354.000    7.103    0.275    0.453  100.225
  354.250    6.634    0.288    0.444  100.235
  354.500    6.165    0.301    0.439   97.878
  354.750    6.008    0.288    0.440   95.517
  355.000    6.398    0.277    0.444   93.747
  355.250    6.711    0.261    0.447   97.912
  355.500    6.945    0.255    0.451  100.293
  355.750    6.866    0.246    0.458  101.488
  356.000    6.709    0.253    0.464  100.316
  356.250    6.475    0.246    0.471   97.363
  356.500    6.240    0.245    0.483   95.000
  356.750    6.240    0.274    0.500   93.826
  357.000    6.239    0.269    0.517   94.434
  357.250    6.239    0.265    0.536   94.444
  357.500    6.316    0.257    0.530   95.046
  357.750    6.316    0.252    0.512   97.428
  358.000    6.238    0.263    0.498   99.216
  358.250    6.081    0.275    0.488   98.044
  358.500    6.080    0.292    0.484   95.684
  358.750    6.314    0.297    0.487   93.322
  359.000    6.548    0.282    0.492   94.517
  359.250    6.783    0.263    0.501   95.715
  359.500    7.173    0.254    0.510   96.320
  359.750    7.250    0.244    0.507   96.923
  360.000    6.781    0.251    0.501   97.527
  360.250    6.468    0.263    0.499   99.909
  360.500    6.155    0.264    0.495   99.328
  360.750    5.999    0.269    0.500   95.782
  361.000    6.233    0.278    0.500   91.643
  361.250    6.545    0.284    0.495   87.504
  361.500    7.091    0.285    0.482   86.329
  361.750    7.325    0.285    0.463   85.747
  362.000    7.481    0.286    0.456   83.389
  362.250    7.793    0.303    0.446   79.251
  362.500    8.184    0.321    0.437   76.889
  362.750    8.418    0.338    0.435   75.119
  363.000    8.730    0.347    0.433   72.170
  363.250    8.807    0.341    0.431   71.585
  363.500    8.651    0.336    0.433   72.780
  363.750    8.572    0.325    0.438   75.756
  364.000    8.494    0.317    0.442   79.925
  364.250    8.415    0.305    0.457   81.711
  364.500    8.337    0.296    0.476   83.497
  364.750    8.336    0.289    0.487   87.066
  365.000    8.336    0.293    0.474   89.449
  365.250    8.414    0.311    0.464   83.538
  365.500    8.570    0.325    0.456   82.357
  365.750    8.803    0.332    0.444   79.404
  366.000    8.881    0.325    0.431   78.228
  366.250    8.959    0.307    0.420   79.426
  366.500    9.037    0.292    0.412   79.436
  366.750    8.880    0.268    0.411   80.039
  367.000    8.880    0.251    0.424   83.609
  367.250    8.801    0.238    0.430   88.959
  367.500    8.723    0.231    0.435   91.931
  367.750    8.566    0.245    0.445   96.685
  368.000    8.488    0.260    0.439   94.324
  368.250    8.565    0.280    0.449   89.596
  368.500    8.799    0.299    0.451   87.232
  368.750    9.033    0.317    0.453   84.871
  369.000    9.502    0.328    0.443   81.921
  369.250    9.736    0.335    0.430   78.966
  369.500    9.892    0.321    0.425   74.827
  369.750    8.953    0.306    0.433   72.465
  370.000    8.406    0.294    0.446   78.410
  370.250    7.625    0.287    0.455   81.975
  370.500    7.156    0.282    0.463   86.729
  370.750    7.155    0.305    0.470   87.927
  371.000    7.467    0.306    0.455   86.158
  371.250    8.170    0.306    0.444   80.245
  371.500    9.107    0.343    0.435   76.693
  371.750    9.888    0.350    0.428   69.591
  372.000   10.591    0.362    0.422   71.379
  372.250   11.215    0.375    0.420   72.578
  372.500   11.684    0.372    0.418   71.995
  372.750   11.918    0.367    0.416   70.228
  373.000   12.152    0.361    0.422   67.276
  373.250   12.307    0.356    0.429   65.510
  373.500   12.307    0.353    0.432   64.335
  373.750   12.229    0.349    0.427   63.752
  374.000   12.228    0.343    0.426   63.171
  374.250   12.228    0.337    0.422   64.368
  374.500   12.149    0.338    0.426   64.971
  374.750   12.071    0.335    0.431   66.759
  375.000   11.992    0.342    0.436   66.177
  375.250   12.382    0.348    0.430   65.005
  375.500   12.851    0.338    0.418   65.015
  375.750   13.319    0.315    0.400   66.212
  376.000   14.178    0.299    0.316   68.000
  376.250   15.428    0.269    0.298   64.458
  376.500   15.584    0.249    0.302   63.282
  376.750   14.880    0.285    0.315   62.698
  377.000   14.099    0.315    0.378   62.708
  377.250   12.457    0.340    0.417   63.313
  377.500   11.676    0.362    0.432   63.917
  377.750   11.050    0.362    0.439   63.337
  378.000   10.972    0.365    0.448   62.162
  378.250   10.893    0.358    0.450   62.767
  378.500   10.815    0.353    0.452   63.962
  378.750   10.190    0.338    0.452   65.751
  379.000    9.564    0.327    0.452   64.577
  379.250    9.095    0.316    0.451   65.180
  379.500    8.782    0.301    0.449   67.564
  379.750    8.547    0.290    0.432   69.948
  380.000    8.781    0.294    0.414   72.921
  380.250    9.250    0.298    0.392   77.675
  380.500    9.796    0.318    0.385   74.130
  380.750   10.421    0.333    0.385   67.620
  381.000   10.655    0.346    0.399   61.109
  381.250   10.811    0.355    0.410   59.343
  381.500   10.810    0.357    0.418   58.760
  381.750   10.341    0.365    0.432   57.584
  382.000   10.106    0.361    0.445   55.817
  382.250    9.872    0.365    0.447   54.051
  382.500    9.715    0.361    0.439   52.877
  382.750    9.636    0.353    0.431   53.480
  383.000    9.480    0.339    0.424   55.270
  383.250    9.167    0.328    0.419   54.691
  383.500    8.854    0.323    0.426   54.108
  383.750    8.619    0.345    0.438   54.709
  384.000    8.306    0.355    0.427   57.091
  384.250    8.228    0.353    0.426   60.069
  384.500    8.149    0.344    0.423   61.857
  384.750    8.227    0.336    0.428   62.460
  385.000    8.305    0.337    0.433   61.880
  385.250    8.304    0.343    0.432   60.113
  385.500    8.226    0.343    0.426   59.529
  385.750    8.304    0.340    0.417   59.540
  386.000    8.616    0.336    0.417   60.737
  386.250    8.850    0.336    0.419   58.380
  386.500    9.006    0.338    0.423   58.389
  386.750    9.240    0.327    0.443   58.992
