~VERSION INFORMATION
 VERS.                 2.0:   CWLS LOG ASCII STANDARD -VERSION 2.0
 WRAP.                  NO:   ONE LINE PER DEPTH STEP
~WELL INFORMATION BLOCK
#MNEM.UNIT           DATA                    DESCRIPTION OF MNEMONIC
#---------    -------------------            -------------------------------
# Generated from Intellog Unique Number	CW_82_90/WELL/3070
WELL.         CHEVRON WABASCA 08-34          : Well_name    - WELL
LOC .         00/08-34-085-25W4/0            : Location     - LOCATION
UWI .         00/08-34-085-25W4/0            : Uwi          - UNIQUE WELL ID
ENTR.         JAYE                           : Entered      - ENTERED BY
SRVC.         SCHLUMBERGER                   : Scn          - SERVICE COMPANY
DATE.         01 FEB 1974                    : Date         - LOG DATE
STRT.M        182.88                         : top_depth    - START DEPTH
STOP.M        384.13                         : bot_depth    - STOP DEPTH
STEP.M        0.25                           : increment    - STEP LENGTH
 NULL. -999.2500:NULL Value
~CURVE INFORMATION BLOCK
#MNEM UNIT       ERCB CURVE CODE    CURVE DESCRIPTION
#-----------   ------------------   ----------------------------------
DEPT.M        00 001 00 00         : DEPTH        - DEPTH
GR  .API      00 310 00 00         : GR           - GAMMA RAY
CALI.MM       00 280 01 00         : CAL          - CALIPER
DPHI.V/V      00 890 00 00         : PHID         - DENSITY POROSITY (SANDSTONE)
NPHI.V/V      00 330 00 00         : PHIN         - NEUTRON POROSITY (SANDSTONE)
ILD .OHMM     00 120 00 00         : RESD         - DEEP RESISTIVITY (DIL)
~PARAMETER INFORMATION
#MNEM.UNIT           DATA             DESCRIPTION OF MNEMONIC
#---------         -----------     ------------------------------
GL  .M        564.185              : gl           - GROUND LEVEL ELEVATION
EREF.M        567.538              : kb           - ELEVATION OF DEPTH REFERENCE
DATM.M        564.185              : datum        - DATUM ELEVATION
TDD .M        382.524              : tdd          - TOTAL DEPTH DRILLER
RUN .         ONE                  : Run          - RUN NUMBER
ENG .         ASWAD                : Engineer     - RECORDING ENGINEER
WIT .         WONG & LILLIES       : Witness      - WITNESSED BY
BASE.         EDMONTON             : Branch       - HOME BASE OF LOGGING UNIT
MUD .         FGM                  : Mud_type     - MUD TYPE
MATR.         SANDSTONE            : Logunit      - NEUTRON MATRIX
TMAX.C        30.5556              : BHT          - MAXIMUM RECORDED TEMPERATURE
BHTD.M        382.524              : BHTDEP       - MAXIMUM RECORDED TEMPERATURE
RMT .C        18.8889              : MDTP         - TEMPERATURE OF MUD
MUDD.KG/M     9600                 : MWT          - MUD DENSITY
NEUT.         1                    : NEUTRON      - NEUTRON TYPE
RESI.         0                    : RESIST       - RESISTIVITY TYPE
RM  .OHMM     0                    : RM           - RESISTIVITY OF MUD
RMC .OHMM     5.49                 : RMC          - RESISTIVITY OF MUD CAKE
RMF .OHMM     3.22                 : RMF          - RESISTIVITY OF MUD FILTRATE
SUFT.C        4                    : SUFT         - SURFACE TEMPERATURE
~A  DEPTH       GR      CAL     PHID     PHIN     RESD
# ...
  292.380   71.680  210.536    0.221    0.539    8.409
  292.630   69.436  211.114    0.211    0.513    8.543
  292.880   66.463  211.488    0.234    0.501    8.551
  293.130   66.235  211.565    0.254    0.505    8.768
  293.380   71.681  212.035    0.250    0.507    9.302
  293.630   74.811  213.984    0.229    0.493    9.704
  293.880   75.741  214.759    0.216    0.482    9.691
  294.130   85.403  214.515    0.214    0.532    9.429
  294.380   91.402  214.163    0.193    0.539    9.313
  294.630   93.126  214.656    0.173    0.469    9.337
  294.880   92.959  215.755    0.153    0.459    9.276
  295.130   92.302  218.502    0.187    0.462    9.110
  295.380   88.107  219.489    0.218    0.463    8.946
  295.630   89.769  219.456    0.219    0.465    8.803
  295.880   93.389  219.014    0.217    0.485    8.663
  296.130   95.661  219.592    0.205    0.493    8.637
  296.380   90.001  219.770    0.208    0.479    8.725
  296.630   88.366  220.145    0.226    0.497    9.100
  296.880   89.481  220.210    0.219    0.504    9.708
  297.130   92.855  220.900    0.220    0.526   10.259
  297.380   96.655  221.174    0.207    0.402   10.641
  297.630   97.341  220.728    0.182    0.527    9.971
  297.880   95.954  218.832    0.167    0.477   11.276
  298.130   95.118  213.331    0.144    0.434   11.650
  298.380   95.313  208.256    0.193    0.389   11.530
  298.630   89.896  206.980    0.225    0.422   11.472
  298.880   87.532  205.913    0.234    0.426   11.481
  299.130   86.876  205.870    0.237    0.424   11.576
  299.380   88.905  208.745    0.228    0.444   11.895
  299.630   93.684  210.776    0.217    0.444   12.131
  299.880   91.622  210.723    0.219    0.426   12.141
  300.130   86.940  210.165    0.242    0.414   11.945
  300.380   85.245  208.913    0.274    0.404   11.514
  300.630   83.488  208.262    0.286    0.383   11.035
  300.880   80.514  208.127    0.276    0.424   10.576
  301.130   79.799  207.761    0.236    0.453   10.252
  301.380   80.729  207.216    0.232    0.471   10.107
  301.630   88.131  208.309    0.234    0.487   10.019
  301.880   88.511  209.312    0.222    0.494   10.007
  302.130   87.550  209.683    0.210    0.500   10.128
  302.380   87.199  209.448    0.212    0.502   10.408
  302.630   88.192  208.695    0.234    0.477   10.613
  302.880   90.162  208.233    0.236    0.478   10.741
  303.130   91.277  207.072    0.231    0.484   10.510
  303.380   90.438  204.454    0.224    0.484    9.291
  303.630   88.193  205.964    0.207    0.450    8.724
  303.880   84.913  211.188    0.165    0.402    8.566
  304.130   81.083  219.305    0.196    0.468    8.367
  304.380   79.513  225.865    0.212    0.519    8.018
  304.630   79.954  225.313    0.217    0.517    7.598
  304.880   86.991  219.297    0.215    0.533    7.094
  305.130   94.211  218.761    0.216    0.519    6.610
  305.380   96.117  219.125    0.214    0.499    6.359
  305.630   95.585  214.657    0.223    0.500    6.233
  305.880   95.235  212.878    0.236    0.541    6.345
  306.130   94.761  210.579    0.243    0.579    6.693
  306.380   92.397  211.152    0.243    0.548    8.175
  306.630   91.495  211.940    0.219    0.508    9.616
  306.880   89.801  212.631    0.208    0.487    9.751
  307.130   84.873  213.528    0.165    0.462    8.428
  307.380   82.081  213.588    0.094    0.356    7.765
  307.630   80.874  214.283    0.090    0.354    7.276
  307.880   80.035  215.381    0.180    0.443    7.026
  308.130   73.091  216.266    0.213    0.520    6.940
  308.380   70.177  216.546    0.234    0.528    6.959
  308.630   72.939  217.020    0.229    0.512    7.030
  308.880   79.244  218.348    0.231    0.507    7.061
  309.130   83.901  218.825    0.227    0.535    7.093
  309.380   85.197  219.492    0.216    0.574    7.019
  309.630   85.333  220.715    0.207    0.572    7.117
  309.880   87.974  221.505    0.196    0.534    7.300
  310.130   88.968  222.395    0.200    0.530    7.430
  310.380   86.297  222.657    0.188    0.515    7.477
  310.630   84.789  222.720    0.174    0.529    7.525
  310.880   85.656  221.655    0.163    0.519    7.602
  311.130   86.525  218.322    0.157    0.509    7.637
  311.380   83.491  219.739    0.187    0.511    7.714
  311.630   83.752  219.801    0.202    0.508    7.837
  311.880   84.375  220.798    0.198    0.525    8.113
  312.130   87.933  220.047    0.191    0.541    9.278
  312.380   91.124  217.011    0.194    0.512   10.552
  312.630   92.544  213.678    0.210    0.510   11.977
  312.880   92.681  214.489    0.193    0.488   14.089
  313.130   93.368  215.568    0.184    0.471   16.920
  313.380   89.475  215.635    0.168    0.419   21.216
  313.630   82.899  213.747    0.143    0.376   23.458
  313.880   79.862  212.474    0.159    0.394   21.329
  314.130   78.475  214.398    0.111    0.381   21.265
  314.380   77.207  215.190    0.038    0.286   20.731
  314.630   70.568  210.003    0.053    0.286   20.320
  314.880   65.089  210.895    0.102    0.311   19.887
  315.130   62.358  211.589    0.124    0.330   19.787
  315.380   61.399  211.546    0.114    0.361   19.035
  315.630   65.257  210.991    0.140    0.344   17.670
  315.880   63.688  208.195    0.175    0.344   16.464
  316.130   61.506  209.067    0.141    0.337   14.748
  316.380   61.215  209.462    0.142    0.375   11.801
  316.630   62.697  211.372    0.148    0.385   10.812
  316.880   66.801  211.029    0.163    0.409   10.266
  317.130   73.472  211.510    0.223    0.487    9.802
  317.380   75.319  211.791    0.233    0.462    9.377
  317.630   82.659  211.848    0.229    0.475    9.314
  317.880   88.964  212.431    0.216    0.477    9.499
  318.130   92.032  214.356    0.199    0.493    9.759
  318.380   89.787  215.143    0.185    0.520   10.159
  318.630   85.224  215.006    0.175    0.508   10.322
  318.880   84.202  214.559    0.186    0.484   11.283
  319.130   84.645  215.245    0.188    0.463   16.536
  319.380   85.577  217.995    0.182    0.472   22.064
  319.630   83.336  216.835    0.150    0.474   22.206
  319.880   81.828  216.067    0.101    0.440   22.687
  320.130   81.476  215.651    0.023    0.268   24.616
  320.380   80.573  215.689    0.024    0.278   28.579
  320.630   63.434  214.932    0.055    0.306   28.278
  320.880   57.161  213.270    0.098    0.372   24.673
  321.130   58.765  214.454    0.072    0.281   21.729
  321.380   67.816  215.144    0.036    0.279   16.967
  321.630   68.992  215.108    0.055    0.342   13.377
  321.880   66.017  215.275    0.107    0.365   12.325
  322.130   67.435  215.864    0.102    0.372   11.788
  322.380   73.189  215.928    0.161    0.423   11.172
  322.630   75.707  214.459    0.200    0.480   11.076
  322.880   77.251  214.722    0.192    0.498   11.339
  323.130   79.829  217.166    0.186    0.502   11.802
  323.380   91.078  217.649    0.181    0.479   12.522
  323.630   93.474  217.819    0.174    0.487   13.356
  323.880   93.489  217.996    0.162    0.478   14.357
  324.130   89.537  218.156    0.134    0.461   14.476
  324.380   90.044  218.444    0.145    0.457   14.625
  324.630   91.646  218.913    0.137    0.463   14.718
  324.880   93.311  218.676    0.140    0.473   14.729
  325.130   90.026  216.677    0.152    0.460   14.741
  325.380   86.135  213.967    0.153    0.471   14.781
  325.630   89.082  216.304    0.155    0.437   14.960
  325.880   89.097  216.266    0.170    0.477   15.225
  326.130   85.450  215.204    0.173    0.494   15.383
  326.380   85.526  213.718    0.165    0.514   15.481
  326.630   85.114  210.899    0.156    0.511   15.819
  326.880   84.461  214.374    0.138    0.461   15.919
  327.130   85.147  216.089    0.133    0.451   15.840
  327.380   86.504  217.298    0.131    0.438   15.913
  327.630   85.605  217.473    0.133    0.435   15.926
  327.880   84.463  217.532    0.145    0.440   15.850
  328.130   83.683  217.315    0.149    0.431   15.770
  328.380   82.233  217.989    0.151    0.433   15.576
  328.630   85.302  218.772    0.145    0.459   15.501
