~VERSION INFORMATION
 VERS.                 2.0:   CWLS LOG ASCII STANDARD -VERSION 2.0
 WRAP.                  NO:   ONE LINE PER DEPTH STEP
~WELL INFORMATION BLOCK
#MNEM.UNIT           DATA                    DESCRIPTION OF MNEMONIC
#---------    -------------------            -------------------------------
# Generated from Intellog Unique Number	CW_79_81/WELL/619
WELL.         07-26-079-26W4                 : Well_name    - WELL
LOC .         00/07-26-079-26W4/0            : Location     - LOCATION
UWI .         00/07-26-079-26W4/0            : Uwi          - UNIQUE WELL ID
ENTR.         MAX                            : Entered      - ENTERED BY
SRVC.         SCHLUMBERGER                   : Scn          - SERVICE COMPANY
STRT.M        207.264                        : top_depth    - START DEPTH
STOP.M        487.764                        : bot_depth    - STOP DEPTH
STEP.M        0.25                           : increment    - STEP LENGTH
 NULL. -999.2500:NULL Value
~CURVE INFORMATION BLOCK
#MNEM UNIT       ERCB CURVE CODE    CURVE DESCRIPTION
#-----------   ------------------   ----------------------------------
DEPT.M        00 001 00 00         : DEPTH        - DEPTH
ILD .OHMM     00 120 00 00         : RESD         - DEEP RESISTIVITY (DIL)
NPHI.V/V      00 330 00 00         : PHIN         - NEUTRON POROSITY (SANDSTONE)
DPHI.V/V      00 890 00 00         : PHID         - DENSITY POROSITY (SANDSTONE)
CALI.MM       00 280 01 00         : CAL          - CALIPER
GR  .API      00 310 00 00         : GR           - GAMMA RAY
~PARAMETER INFORMATION
#MNEM.UNIT           DATA             DESCRIPTION OF MNEMONIC
#---------         -----------     ------------------------------
GL  .M        558.394              : gl           - GROUND LEVEL ELEVATION
EREF.M        562.051              : kb           - ELEVATION OF DEPTH REFERENCE
DATM.M        558.394              : datum        - DATUM ELEVATION
TDD .M        463.601              : tdd          - TOTAL DEPTH DRILLER
RUN .         ONE                  : Run          - RUN NUMBER
ENG .         BILL                 : Engineer     - RECORDING ENGINEER
WIT .         JIM                  : Witness      - WITNESSED BY
MUD .         GEL                  : Mud_type     - MUD TYPE
MATR.         SANDSTONE            : Logunit      - NEUTRON MATRIX
TMAX.C        22.2222              : BHT          - MAXIMUM RECORDED TEMPERATURE
BHTD.M        463.601              : BHTDEP       - MAXIMUM RECORDED TEMPERATURE
RMT .C        25.5556              : MDTP         - TEMPERATURE OF MUD
MUDD.KG/M     10200                : MWT          - MUD DENSITY
NEUT.         1                    : NEUTRON      - NEUTRON TYPE
RESI.         0                    : RESIST       - RESISTIVITY TYPE
RM  .OHMM     6.28                 : RM           - RESISTIVITY OF MUD
RMC .OHMM     0                    : RMC          - RESISTIVITY OF MUD CAKE
RMF .OHMM     0                    : RMF          - RESISTIVITY OF MUD FILTRATE
SUFT.C        -20.5556             : SUFT         - SURFACE TEMPERATURE
~A  DEPTH     RESD     PHIN     PHID      CAL       GR
  207.264    2.911    0.512    0.249  221.168  125.182
  207.514    3.374    0.496    0.234  221.239  115.113
  207.764    4.130    0.449    0.250  220.798   90.478
  208.014    6.354    0.346    0.245  219.368   58.407
  208.264    9.000    0.347    0.230  218.433   44.182
  208.514   17.878    0.364    0.217  216.994   39.462
  208.764   25.101    0.400    0.309  216.059   38.321
  209.014   23.582    0.414    0.306  215.123   40.444
  209.264   20.967    0.412    0.296  214.691   43.761
  209.514   16.861    0.394    0.317  214.259   46.175
  209.764   15.984    0.398    0.311  214.339   49.195
  210.014   15.576    0.411    0.306  214.411   50.729
  210.264   15.745    0.429    0.322  213.979   49.587
  210.514   15.620    0.435    0.330  214.050   46.349
  210.764   14.807    0.423    0.330  214.139   44.608
  211.014   13.286    0.425    0.314  214.184   45.541
  211.264   11.184    0.451    0.291  214.255   50.042
  211.514    9.947    0.459    0.278  210.812   56.332
  211.764    9.778    0.432    0.299  188.727   57.266
  212.014   10.065    0.402    0.327  202.388   46.012
  212.264   10.842    0.429    0.332  211.043   44.568
  212.514   12.679    0.430    0.337  212.103   44.615
  212.764   17.482    0.413    0.344  212.192   44.657
  213.014   19.351    0.404    0.347  212.264   44.705
  213.264   19.380    0.408    0.345  211.831   45.034
  213.514   12.866    0.416    0.339  211.885   48.053
  213.764    9.618    0.432    0.313  211.965   55.532
  214.014    7.878    0.471    0.269  212.036   64.789
  214.264    7.541    0.486    0.278  212.108   67.506
  214.514    7.975    0.476    0.295  212.188   58.928
  214.764    8.589    0.477    0.309  211.765   51.539
  215.014   10.136    0.480    0.321  210.811   50.981
  215.264   10.721    0.482    0.324  207.359   53.704
  215.514   10.939    0.480    0.317  185.787   57.912
  215.764   10.851    0.480    0.318  180.825   59.738
  216.014   10.475    0.477    0.324  176.861   61.261
  216.264    9.316    0.472    0.330  156.295   64.578
  216.514    8.440    0.461    0.332  149.320   67.593
  216.764    8.145    0.463    0.327  130.759   68.824
  217.014    7.793    0.471    0.310  129.823   71.244
  217.264    7.188    0.473    0.315  143.997   74.566
  217.514    6.815    0.460    0.305  155.645   76.386
  217.764    7.013    0.455    0.285  218.156   78.212
  218.014    7.023    0.450    0.288  219.737   80.632
  218.264    6.903    0.443    0.294  219.827   83.954
  218.514    6.604    0.431    0.294  219.889   87.266
  218.764    5.981    0.434    0.289  219.969   95.641
  219.014    5.368    0.439    0.265  220.022  103.104
  219.264    4.907    0.448    0.249  220.103   96.315
  219.514    4.568    0.455    0.238  220.174   89.223
  219.764    4.657    0.447    0.260  220.263   87.189
  220.014    4.838    0.441    0.266  220.334   85.146
  220.264    5.025    0.446    0.238  220.334   81.323
  220.514    5.171    0.443    0.241  220.459   81.068
  220.764    5.420    0.416    0.228  219.541   79.927
  221.014    5.681    0.399    0.207  218.606   77.294
  221.264    5.793    0.397    0.201  218.156   77.925
  221.514    5.697    0.399    0.207  218.156   81.252
  221.764    5.253    0.398    0.214  217.849   83.062
  222.014    4.586    0.400    0.220  218.396   86.677
  222.264    4.193    0.411    0.227  218.450   93.847
  222.514    3.867    0.447    0.231  218.018  101.326
  222.764    3.665    0.487    0.219  218.089  108.804
  223.014    3.475    0.504    0.219  218.169  107.360
  223.264    3.386    0.486    0.224  218.249  103.830
  223.514    3.300    0.485    0.234  218.815  104.180
  223.764    3.243    0.477    0.221  218.886  108.086
  224.014    3.104    0.493    0.240  218.966  111.987
  224.264    2.915    0.519    0.240  218.543  112.921
  224.514    2.546    0.528    0.234  218.615  112.374
  224.764    2.391    0.540    0.249  218.182  111.821
  225.014    2.287    0.527    0.257  218.254  112.160
  225.264    2.188    0.519    0.262  218.307  113.397
  225.514    2.151    0.526    0.265  218.891  115.812
  225.764    2.096    0.536    0.262  219.465  118.826
  226.014    2.024    0.541    0.257  220.049  123.332
  226.264    1.918    0.545    0.269  221.127  124.568
  226.514    1.852    0.547    0.272  222.213  122.525
  226.764    1.788    0.554    0.271  222.770  117.227
  227.014    1.742    0.559    0.267  223.866  116.966
  227.264    1.682    0.587    0.280  224.458  117.300
  227.514    1.609    0.596    0.278  224.458  117.050
  227.764    1.511    0.590    0.290  224.574  117.390
  228.014    1.446    0.586    0.289  225.661  116.535
  228.264    1.383    0.550    0.286  227.746  115.393
  228.514    1.335    0.544    0.280  228.815  114.846
  228.764    1.313    0.547    0.258  229.893  114.591
  229.014    1.315    0.543    0.243  229.982  112.255
  229.264    1.329    0.546    0.213  225.011  109.038
  229.514    1.355    0.532    0.225  221.055  110.253
  229.764    1.369    0.540    0.256  220.138  112.970
  230.014    1.383    0.548    0.257  220.191  117.774
  230.264    1.411    0.537    0.264  219.768  115.730
  230.514    1.426    0.536    0.263  219.830  115.193
  230.764    1.426    0.547    0.267  219.919  118.202
  231.014    1.430    0.548    0.248  219.919  121.514
  231.264    1.445    0.555    0.242  220.071  123.335
  231.514    1.473    0.567    0.254  219.612  123.976
  231.764    1.503    0.585    0.257  219.701  123.721
  232.014    1.561    0.593    0.266  219.763  123.169
  232.264    1.592    0.575    0.253  220.338  123.508
  232.514    1.609    0.566    0.228  220.409  124.442
  232.764    1.670    0.536    0.238  220.984  121.512
  233.014    1.800    0.515    0.229  221.055  117.392
  233.264    1.886    0.510    0.218  221.135  117.434
  233.514    1.906    0.529    0.234  221.260  116.595
  233.764    1.892    0.541    0.233  221.286  114.546
  234.014    1.892    0.540    0.230  221.349  112.507
  234.264    1.863    0.547    0.233  221.473  111.960
  234.514    1.831    0.561    0.242  221.491  112.597
  234.764    1.817    0.567    0.255  221.059  114.428
  235.014    1.803    0.561    0.260  221.148  116.545
  235.264    1.805    0.566    0.261  221.211  118.976
  235.514    1.808    0.558    0.259  221.282  118.418
  235.764    1.844    0.557    0.266  221.353  114.591
  236.014    1.968    0.553    0.275  221.937  111.066
  236.264    2.120    0.524    0.283  222.008  106.952
  236.514    2.347    0.509    0.282  221.576  100.152
  236.764    2.745    0.495    0.271  221.647   96.919
  237.014    2.877    0.502    0.268  221.206   92.216
  237.264    2.855    0.522    0.279  221.286   91.663
  237.514    2.732    0.525    0.285  221.357   91.403
  237.764    2.543    0.532    0.293  221.420   91.742
  238.014    2.477    0.545    0.320  221.509   90.006
  238.264    2.717    0.540    0.335  221.571   86.179
  238.514    3.994    0.480    0.330  221.642   80.271
  238.764    6.429    0.452    0.325  221.732   74.070
  239.014    9.534    0.454    0.319  221.785   64.898
  239.264   15.776    0.457    0.319  222.368   59.590
  239.514   20.777    0.464    0.331  223.437   58.740
  239.764   23.641    0.478    0.340  224.524   58.485
  240.014   26.414    0.473    0.342  226.106   58.829
  240.264   28.463    0.468    0.339  228.711   59.461
  240.514   30.655    0.465    0.339  229.780   60.103
  240.764   34.564    0.457    0.342  230.355   60.139
  241.014   40.060    0.446    0.347  231.433   60.181
  241.264   49.037    0.438    0.357  233.517   60.521
  241.514   62.859    0.440    0.363  236.105   61.168
  241.764   67.690    0.447    0.355  237.183   62.096
  242.014   77.741    0.453    0.346  236.760   63.035
  242.264   87.654    0.459    0.343  233.308   62.780
  242.514   98.832    0.461    0.345  231.860   63.709
  242.764  117.728    0.466    0.351  230.934   60.189
  243.014  128.002    0.470    0.346  233.018   59.929
  243.264  139.149    0.470    0.340  236.631   62.354
  243.514  136.837    0.459    0.342  239.731   64.482
