~VERSION INFORMATION
 VERS.                 2.0:   CWLS LOG ASCII STANDARD -VERSION 2.0
 WRAP.                  NO:   ONE LINE PER DEPTH STEP
~WELL INFORMATION BLOCK
#MNEM.UNIT           DATA                    DESCRIPTION OF MNEMONIC
#---------    -------------------            -------------------------------
# Generated from Intellog Unique Number	CW_76_78/WELL/642
WELL.         07-32-077-22W4                 : Well_name    - WELL
LOC .         00/07-32-077-22W4/0            : Location     - LOCATION
UWI .         00/07-32-077-22W4/0            : Uwi          - UNIQUE WELL ID
ENTR.         jj                             : Entered      - ENTERED BY
SRVC.         WESTERN ATLAS                  : Scn          - SERVICE COMPANY
DATE.         06 MAR 1983                    : Date         - LOG DATE
STRT.M        300                            : top_depth    - START DEPTH
STOP.M        537                            : bot_depth    - STOP DEPTH
STEP.M        0.25                           : increment    - STEP LENGTH
 NULL. -999.2500:NULL Value
~CURVE INFORMATION BLOCK
#MNEM UNIT       ERCB CURVE CODE    CURVE DESCRIPTION
#-----------   ------------------   ----------------------------------
DEPT.M        00 001 00 00         : DEPTH        - DEPTH
ILD .OHMM     00 120 00 00         : RESD         - DEEP RESISTIVITY (DIL)
DPHI.V/V      00 890 00 00         : PHID         - DENSITY POROSITY (SANDSTONE)
NPHI.V/V      00 330 00 00         : PHIN         - NEUTRON POROSITY (SANDSTONE)
GR  .API      00 310 00 00         : GR           - GAMMA RAY
CALI.MM       00 280 01 00         : CAL          - CALIPER
~PARAMETER INFORMATION
#MNEM.UNIT           DATA             DESCRIPTION OF MNEMONIC
#---------         -----------     ------------------------------
GL  .M        630.9                : gl           - GROUND LEVEL ELEVATION
EREF.M        635.4                : kb           - ELEVATION OF DEPTH REFERENCE
DATM.M        630.9                : datum        - DATUM ELEVATION
TDD .M        537                  : tdd          - TOTAL DEPTH DRILLER
RUN .         ONE                  : Run          - RUN NUMBER
ENG .         RUTHERFORD           : Engineer     - RECORDING ENGINEER
WIT .         RAGHER               : Witness      - WITNESSED BY
BASE.         RED DEER             : Branch       - HOME BASE OF LOGGING UNIT
MUD .         GEL CHEM             : Mud_type     - MUD TYPE
MATR.         SANDSTONE            : Logunit      - NEUTRON MATRIX
TMAX.C        27                   : BHT          - MAXIMUM RECORDED TEMPERATURE
BHTD.M        536                  : BHTDEP       - MAXIMUM RECORDED TEMPERATURE
RMT .C        17                   : MDTP         - TEMPERATURE OF MUD
MUDD.KG/M     1055                 : MWT          - MUD DENSITY
NEUT.         1                    : NEUTRON      - NEUTRON TYPE
RESI.         0                    : RESIST       - RESISTIVITY TYPE
RM  .OHMM     0.4                  : RM           - RESISTIVITY OF MUD
RMC .OHMM     0.44                 : RMC          - RESISTIVITY OF MUD CAKE
RMF .OHMM     0.34                 : RMF          - RESISTIVITY OF MUD FILTRATE
SUFT.C        4.5                  : SUFT         - SURFACE TEMPERATURE
~A  DEPTH     RESD     PHID     PHIN       GR      CAL
# ...
  373.000    5.980    0.281    0.359   72.670  162.821
  373.250    6.401    0.271    0.414   74.731  164.266
  373.500    6.800    0.263    0.423   78.985  165.295
  373.750    7.293    0.257    0.409   82.988  165.697
  374.000    7.661    0.259    0.401   86.239  165.680
  374.250    7.868    0.268    0.403   86.919  165.036
  374.500    7.899    0.285    0.413   82.582  163.139
  374.750    7.696    0.304    0.414   76.301  161.869
  375.000    6.696    0.312    0.382   70.835  161.328
  375.250    6.015    0.310    0.364   67.816  161.209
  375.500    5.938    0.308    0.357   64.232  161.087
  375.750    6.109    0.306    0.351   62.153  160.862
  376.000    6.227    0.304    0.361   61.077  160.009
  376.250    6.311    0.300    0.388   61.004  159.155
  376.500    6.277    0.296    0.375   64.129  158.827
  376.750    6.232    0.287    0.362   68.321  159.121
  377.000    6.364    0.275    0.356   68.625  159.211
  377.250    6.317    0.261    0.356   67.799  159.299
  377.500    6.189    0.248    0.361   69.733  159.178
  377.750    6.156    0.233    0.370   72.859  159.267
  378.000    6.382    0.238    0.374   75.796  159.459
  378.250    6.961    0.251    0.374   76.288  159.443
  378.500    7.752    0.273    0.377   76.404  159.426
  378.750    7.977    0.286    0.377   77.272  159.721
  379.000    7.612    0.300    0.364   74.189  160.125
  379.250    7.249    0.308    0.367   71.670  160.420
  379.500    6.930    0.305    0.371   71.284  160.404
  379.750    6.841    0.295    0.368   73.031  160.283
  380.000    6.986    0.257    0.344   75.529  160.163
  380.250    7.678    0.202    0.311   73.951  160.146
  380.500    8.879    0.161    0.304   71.622  160.336
  380.750   10.229    0.143    0.309   69.103  160.427
  381.000   11.457    0.139    0.313   67.651  160.514
  381.250   12.855    0.143    0.314   67.013  160.706
  381.500   13.378    0.165    0.331   67.882  160.795
  381.750   13.431    0.188    0.328   69.816  161.404
  382.000   12.158    0.185    0.326   71.813  162.122
  382.250   12.392    0.187    0.337   74.061  162.837
  382.500   12.750    0.197    0.349   77.625  163.656
  382.750   11.872    0.213    0.363   80.373  163.221
  383.000   10.022    0.223    0.381   80.676  162.055
  383.250    9.245    0.222    0.385   81.358  161.517
  383.500    8.888    0.219    0.377   82.476  161.394
  383.750    8.708    0.215    0.366   82.466  161.690
  384.000    8.612    0.225    0.349   81.265  161.989
  384.250    8.550    0.237    0.335   79.437  162.807
  384.500    8.503    0.233    0.325   78.172  163.733
  384.750    8.441    0.223    0.316   78.476  164.761
  385.000    8.333    0.213    0.331   80.160  165.895
  385.250    8.257    0.204    0.343   80.651  166.401
  385.500    8.166    0.196    0.340   80.390  166.801
  385.750    8.000    0.187    0.335   77.559  167.098
  386.000    7.823    0.184    0.341   76.922  166.768
  386.250    7.536    0.192    0.365   78.103  166.542
  386.500    7.300    0.226    0.376   82.671  165.690
  386.750    7.019    0.246    0.381   84.166  164.838
  387.000    6.799    0.257    0.387   81.083  163.881
  387.250    6.686    0.248    0.396   78.754  163.340
  387.500    6.764    0.236    0.404   80.498  163.324
  387.750    6.973    0.222    0.402   81.868  163.622
  388.000    7.000    0.220    0.390   81.169  164.023
  388.250    6.963    0.231    0.377   80.721  164.321
  388.500    6.873    0.224    0.381   80.836  164.930
  388.750    6.746    0.213    0.397   81.139  165.333
  389.000    6.572    0.204    0.405   81.193  165.944
  389.250    6.391    0.207    0.401   81.433  166.450
  389.500    6.144    0.213    0.391   81.988  166.747
  389.750    5.919    0.221    0.381   82.792  166.731
  390.000    5.820    0.231    0.385   83.535  166.505
  390.250    5.735    0.239    0.394   80.642  165.757
  390.500    5.747    0.242    0.399   76.869  164.591
  390.750    6.060    0.238    0.394   76.357  163.110
  391.000    6.647    0.209    0.367   73.274  162.362
  391.250    7.572    0.175    0.307   70.945  161.824
  391.500    8.658    0.153    0.284   66.796  161.807
  391.750    8.993    0.168    0.297   62.522  163.044
  392.000    8.978    0.214    0.330   67.716  163.029
  392.250    8.713    0.239    0.364   73.663  162.384
  392.500    8.175    0.254    0.361   75.661  162.160
  392.750    7.713    0.258    0.366   69.380  161.202
  393.000    7.429    0.266    0.372   66.423  159.199
  393.250    7.265    0.272    0.375   67.542  158.137
  393.500    7.239    0.272    0.391   67.532  157.913
  393.750    7.393    0.264    0.413   66.832  157.687
  394.000    7.635    0.260    0.401   66.822  157.983
  394.250    7.930    0.255    0.379   66.812  158.385
  394.500    8.191    0.256    0.366   65.674  158.891
  394.750    8.333    0.267    0.372   63.907  159.397
  395.000    8.477    0.279    0.382   62.769  160.008
  395.250    8.543    0.292    0.392   65.894  160.201
  395.500    8.626    0.296    0.385   69.271  160.290
  395.750    8.628    0.294    0.355   69.575  159.958
  396.000    8.598    0.293    0.346   66.743  159.730
  396.250    8.503    0.297    0.363   61.654  159.506
  396.500    8.253    0.302    0.366   61.205  159.386
  396.750    7.935    0.298    0.359   60.630  159.265
  397.000    7.643    0.290    0.362   60.746  159.668
  397.250    7.460    0.276    0.373   62.115  160.696
  397.500    7.267    0.269    0.375   63.422  161.098
  397.750    7.106    0.264    0.378   65.670  159.827
  398.000    6.884    0.253    0.397   68.482  157.720
  398.250    6.644    0.240    0.416   72.423  155.613
  398.500    6.375    0.240    0.448   76.928  155.597
  398.750    6.049    0.251    0.434   78.235  156.626
  399.000    5.871    0.278    0.408   72.017  158.072
  399.250    5.720    0.296    0.375   72.258  159.519
  399.500    5.614    0.293    0.364   72.248  161.382
  399.750    5.531    0.278    0.359   71.360  163.040
  400.000    5.450    0.261    0.354   70.723  165.635
  400.250    5.441    0.247    0.376   70.024  167.290
  400.500    5.857    0.236    0.388   69.763  168.216
  400.750    6.223    0.232    0.388   71.634  168.408
  401.000    6.319    0.230    0.384   74.258  167.974
  401.250    6.297    0.220    0.366   73.057  167.225
  401.500    6.310    0.196    0.341   71.165  166.895
  401.750    6.641    0.163    0.324   69.461  166.775
  402.000    7.029    0.142    0.303   67.948  166.757
  402.250    7.453    0.153    0.323   64.489  166.741
  402.500    7.963    0.175    0.359   68.743  165.575
  402.750    8.209    0.244    0.365   72.934  163.991
  403.000    8.073    0.258    0.358   76.750  161.989
  403.250    7.631    0.257    0.363   78.934  160.299
  403.500    6.973    0.253    0.380   77.356  159.759
  403.750    6.767    0.242    0.378   75.026  160.266
  404.000    6.655    0.231    0.355   74.014  161.190
  404.250    6.594    0.221    0.341   74.129  161.904
  404.500    6.633    0.225    0.347   74.871  162.411
  404.750    6.749    0.230    0.352   76.492  163.022
  405.000    6.853    0.227    0.359   77.925  163.528
  405.250    6.601    0.226    0.391   79.482  164.243
  405.500    6.455    0.227    0.386   81.354  164.435
  405.750    6.372    0.230    0.377   82.912  164.733
  406.000    6.349    0.226    0.385   83.026  165.031
  406.250    6.411    0.220    0.427   81.575  164.700
  406.500    6.547    0.213    0.414   79.683  165.729
  406.750    6.673    0.208    0.402   79.549  166.340
  407.000    6.763    0.204    0.397   79.977  166.428
  407.250    6.829    0.203    0.397   80.783  166.830
  407.500    6.856    0.200    0.389   82.654  168.067
  407.750    6.768    0.195    0.379   84.212  168.049
  408.000    6.631    0.184    0.382   82.948  166.362
  408.250    6.423    0.169    0.383   83.440  165.509
  408.500    6.293    0.154    0.371   81.047  164.341
  408.750    6.259    0.178    0.353   81.600  162.968
  409.000    6.249    0.198    0.339   83.410  160.756
  409.250    6.297    0.228    0.346   80.515  160.113
