~VERSION INFORMATION
 VERS.                 2.0:   CWLS LOG ASCII STANDARD -VERSION 2.0
 WRAP.                  NO:   ONE LINE PER DEPTH STEP
~WELL INFORMATION BLOCK
#MNEM.UNIT           DATA                    DESCRIPTION OF MNEMONIC
#---------    -------------------            -------------------------------
# Generated from Intellog Unique Number	CC_80_83/WELL/1181
NULL.         -999.25                        : NULL_VALUE
WELL.         CAN SUP PONY                   : Well_name    - WELL
LOC .         07-11-082-07W4                 : Location     - LOCATION          
UWI .         00/07-11-082-07W4/0            : Uwi          - UNIQUE WELL ID    
ENTR.         DW                             : Entered      - ENTERED BY        
SRVC.         SCHLUMBERGER                   : Scn          - SERVICE COMPANY   
DATE.         14 FEB 77                      : Date         - LOG DATE
STRT.M        228.6                          : top_depth    - START DEPTH       
STOP.M        478.542                        : bot_depth    - STOP DEPTH        
STEP.M        0.305                          : increment    - STEP LENGTH       
~CURVE INFORMATION BLOCK
#MNEM UNIT       ERCB CURVE CODE    CURVE DESCRIPTION
#-----------   ------------------   ----------------------------------
DEPT.M        00 001 00 00         : DEPTH        - DEPTH                       
DPHI.V/V      00 890 00 00         : PHID         - DENSITY POROSITY (LIMESTONE)
NPHI.V/V      00 330 00 00         : PHIN         - NEUTRON POROSITY (LIMESTONE)
GR  .API      00 310 00 00         : GR           - GAMMA RAY                   
ILD .OHMM     00 120 00 00         : RESD         - DEEP RESISTIVITY (DIL)      
~PARAMETER INFORMATION       
#MNEM.UNIT           DATA             DESCRIPTION OF MNEMONIC
#---------         -----------     ------------------------------
GL  .M        0                    : gl           - GROUND LEVEL ELEVATION      
EREF.M        0                    : kb           - ELEVATION OF DEPTH REFERENCE
DATM.M        0                    : datum        - DATUM ELEVATION             
TDD .M        487.68               : tdd          - TOTAL DEPTH DRILLER         
RUN .         ONE                  : Run          - RUN NUMBER                  
ENG .         BILL                 : Engineer     - RECORDING ENGINEER          
WIT .         JIM                  : Witness      - WITNESSED BY                
MUD .         GEL                  : Mud_type     - MUD TYPE                    
MATR.         LIMESTONE            : Logunit      - NEUTRON MATRIX              
TMAX.C        21.6667              : BHT          - MAXIMUM RECORDED TEMPERATURE
BHTD.M        487.68               : BHTDEP       - MAXIMUM RECORDED TEMPERATURE
MATR.         1                    : LOGUNIT      - NEUTRON MATRIX              
RMT .C        25                   : MDTP         - TEMPERATURE OF MUD          
NEUT.         1                    : NEUTRON      - NEUTRON TYPE                
RESI.         0                    : RESIST       - RESISTIVITY TYPE            
RMC .OHMM     0.25                 : RMC          - RESISTIVITY OF MUD CAKE     
RMF .OHMM     0.25                 : RMF          - RESISTIVITY OF MUD FILTRATE 
SUFT.C        4                    : SUFT         - SURFACE TEMPERATURE         
~A  DEPTH     PHID     PHIN       GR     RESD
# ...
  440.746    0.340    0.396   36.331 1317.080
  441.051    0.318    0.395   39.932 1072.170
  441.356    0.305    0.398   48.406  157.134
  441.661    0.292    0.408   61.754   32.208
  441.965    0.255    0.434   80.587   35.328
  442.270    0.260    0.504   42.755  159.748
  442.575    0.317    0.485   28.680 1494.190
  442.880    0.338    0.412   33.502 1608.390
  443.185    0.327    0.395   41.978 1285.410
  443.489    0.307    0.371   55.325   47.431
  443.794    0.309    0.363   75.988   28.655
  444.099    0.244    0.363   84.455   25.603
  444.404    0.251    0.364   83.186   22.881
  444.709    0.240    0.393   70.945   21.222
  445.013    0.250    0.402   58.085   21.206
  445.318    0.267    0.413   48.288   26.504
  445.623    0.304    0.433   36.049  141.725
  445.928    0.342    0.415   31.717 1375.950
  446.233    0.314    0.387   37.752  786.092
  446.537    0.305    0.379   43.800  365.826
  446.842    0.320    0.386   56.540  261.378
  447.147    0.341    0.411   52.216  286.741
  447.452    0.348    0.413   49.109  286.535
  447.757    0.340    0.408   49.660  242.117
  448.062    0.342    0.440   49.607  166.663
  448.366    0.335    0.440   45.293   82.025
  448.671    0.343    0.420   46.458   45.147
  448.976    0.309    0.377   51.272   38.864
  449.281    0.275    0.390   54.260   31.054
  449.586    0.280    0.410   56.649   23.027
  449.890    0.288    0.411   62.679   20.577
  450.195    0.266    0.415   72.373   19.086
  450.500    0.254    0.438   71.098   17.703
  450.805    0.265    0.422   63.121   17.690
  451.110    0.281    0.416   69.163   17.351
  451.414    0.279    0.432   71.535   16.396
  451.719    0.301    0.453   76.975   15.493
  452.024    0.301    0.466   81.175   15.481
  452.329    0.294    0.488   78.078   15.470
  452.634    0.312    0.468   71.924   14.894
  452.938    0.292    0.448   78.571   13.064
  453.243    0.275    0.446   82.179   11.245
  453.548    0.252    0.412   80.294    9.863
  453.853    0.259    0.413   74.743    8.651
  454.158    0.273    0.416   69.204    7.447
  454.463    0.299    0.431   64.894    6.907
  454.767    0.344    0.466   59.353    6.650
  455.072    0.343    0.452   58.685    6.523
  455.377    0.329    0.432   63.510    6.517
  455.682    0.316    0.410   70.142    6.635
  455.987    0.299    0.376   71.921    6.882
  456.291    0.279    0.380   71.264    7.138
  456.596    0.262    0.394   68.159    7.545
  456.901    0.252    0.424   67.489    7.825
  457.206    0.257    0.427   71.092    7.674
  457.511    0.247    0.387   88.096    7.670
  457.815    0.228    0.395   86.817    7.522
  458.120    0.225    0.426   83.719    7.517
  458.425    0.242    0.420   89.137    7.795
  458.730    0.235    0.408   89.693    7.937
  459.035    0.243    0.401   87.197    7.786
  459.339    0.227    0.393   80.446    7.636
  459.644    0.242    0.412   80.397    7.352
  459.949    0.262    0.408   72.413    7.076
  460.254    0.275    0.371   73.580    6.942
  460.559    0.254    0.376   85.094    7.067
  460.864    0.263    0.388   85.041    7.062
  461.168    0.279    0.388   73.415    7.058
  461.473    0.285    0.386   76.408    7.053
  461.778    0.276    0.433   84.879    6.790
  462.083    0.274    0.436   87.246    6.785
  462.388    0.268    0.417   87.185    7.037
  462.692    0.247    0.405   85.319    7.300
  462.997    0.243    0.416   80.366    7.431
  463.302    0.263    0.421   78.504    7.427
  463.607    0.268    0.415   74.785    7.285
  463.912    0.264    0.392   72.915    7.145
  464.216    0.270    0.379   67.375    6.878
  464.521    0.293    0.378   66.709    6.622
  464.826    0.299    0.382   69.699    6.496
  465.131    0.279    0.386   76.341    6.137
  465.436    0.279    0.400   75.065    5.909
  465.740    0.281    0.406   67.094    5.583
  466.045    0.280    0.415   53.635    5.477
  466.350    0.312    0.392   53.581    5.371
  466.655    0.313    0.367   62.051    5.368
  466.960    0.293    0.374   65.039    5.568
  467.265    0.301    0.404   63.155    5.775
  467.569    0.303    0.406   52.135    5.771
  467.874    0.315    0.375   50.243    5.767
  468.179    0.316    0.353   51.412    5.762
  468.484    0.287    0.360   57.444    5.652
  468.789    0.274    0.392   56.783    5.441
  469.093    0.288    0.382   43.935    5.239
  469.398    0.306    0.381   42.038    5.044
  469.703    0.304    0.383   41.985    5.040
  470.008    0.307    0.391   39.502    5.131
  470.313    0.308    0.397   39.449    5.422
  470.617    0.301    0.400   43.656    6.529
  470.922    0.246    0.366   38.119    8.469
  471.227    0.196    0.182   22.217   12.992
  471.532    0.019    0.134   19.726   55.557
  471.837    0.028    0.133   18.437  100.794
  472.141    0.025    0.122   19.003  102.586
  472.446    0.015    0.112   19.556   98.776
  472.751    0.004    0.113   18.288  116.751
  473.056    0.000    0.117   18.232  125.686
  473.361    0.000    0.114   18.777  121.007
  473.666    0.000    0.120   20.548  118.689
  473.970    0.000    0.127   22.936  130.181
  474.275    0.000    0.124   22.882  159.687
  474.580    0.006    0.116   22.826  178.465
  474.885    0.010    0.107   22.157  185.097
  475.190    0.009    0.111   23.931  174.918
  475.494    0.005    0.145   32.408  156.302
  475.799    0.003    0.142   31.739  142.285
  476.104    0.005    0.118   23.149  136.979
  476.409    0.014    0.118   21.267  134.362
  476.714    0.022    0.141   21.213  150.162
  477.018    0.024    0.131   21.161  191.188
  477.323    0.023    0.109   21.102  287.868
  477.628    0.007    0.099   22.258  373.453
  477.933    0.000    0.098   22.212  983.609
  478.238    0.000    0.091   22.154 1140.970
  478.542    0.000    0.074   23.314 1205.650
