~V
VERS. 2.00: Ver 2.00
WRAP. NO:
VEND. PRIZM:GeoGraphix
~W
STRT.M 43.8912:START DEPTH
STOP.M 295.6560:STOP DEPTH
STEP.M 0.3048:STEP
NULL. -999.2500:NULL VALUE
WELL. NUMAC SURMONT :WELL
COMP. :COMPANY
UWI. 00_06-35-082-06W4_0:UNIQUE WELL ID
FLD. :FIELD
CNTY. :COUNTY
STAT. :STATE
CTRY. :COUNTRY
PDAT. :PERMANENT DATUM
LMF. :LOG MEASURED FROM
DMF. :DRILLING MEASURED FROM
LOC1. 06-35-082-06W4:LOCATION LINE 1
LOC2. :LOCATION LINE 2
LOC3. :LOCATION LINE 3
SEC. :SECTION
TWP. :TOWNSHIP
RAN. :RANGE
SRVC. SCHLUMBERGER:Logging Company
BASE. :Logging Unit Location
ENG. BILL:Logging Engineer
WITN. JIM:Witnessed By
DATE. 21 - MAR - 1973:Date
RUN. ONE:Run No.
MUD_TYPE. GEL:Type Fluid in Hole
MUDS. :Source of Mud Sample
RMFS. :Source of Mud Filtrate
RMCS. :Source of Mud Cake
LOC. :LOCATION
~C
DEPT.M :DEPTH
PHID. :Density Pososity
NPHI. :PHIN         - NEUTRON POROSITY (LIMESTONE)
GR.API :GR           - GAMMA RAY
RHOB.KG/M3 :DENS         - BULK DENSITY
ILD.OHMM :RESD         - DEEP RESISTIVITY (DIL)
~P
EKB. 495.6000:ELEVATION OF KELLY BUSHING
EDF. -999.2500:ELEVATION OF DRILLING FLOOR
EGL. 493.7760:ELEVATION OF GROUND LEVEL
EPD. -999.2500:ELEVATION OF PERMANENT DATUM
APD. -999.2500:LMF DISTANCE ABOVE PERMANENT DATUM
LAT. 56.1488:LATITUDE OF WELL LOCATION
LONG. 110.8308:LONGITUDE OF WELL LOCATION
TDD. 296.8750:Total Depth Driller
TDL. -999.2500:Total Depth Logger
LCSG1. -999.2500:Depth of Casing from Logger
CSIZE. -999.2500:Casing Size
CWT. -999.2500:Casing Weight
BS. -999.2500:Bit Size
TLI. 43.8912:Top Logged Interval
BLI. 295.6560:Bottom Logged Interval
MRT. 17.2222:Maximum Recorded Temperature
WMUD. -999.2500:Drilling Mud Density
DFV. -999.2500:Drilling Mud Viscosity
PH. -999.2500:Drilling Mud pH
DFL. -999.2500:Drilling Mud Fluid Loss
RM. -999.2500:Resistivity of Drilling Fluid
RMT. -999.2500:Measured Temp. of Drilling Fluid
RMF. 0.2500:Resistivity of Drilling Fluid Filtrate
RMFT. -999.2500:Measured Temp. of Drilling Fluid Filtrate
RMC. 0.2500:Resistivity of Mud Cake
RMCT. -999.2500:Measured Temp. of Mud Cake
PHImax.V/V 0.3900:Maximum allowable Porosity
RwBnd.OHMM 0.1500:Bound Water Resistivity
RhoHy.KG/MT 1000.0000:Hydrocarbon Bulk density
SwCutoff.V/V 0.7000:Water Saturation Cutoff
PHINsh.V/V 0.4800:New Description
Rw.OHMM 1.0000:Formation Water Resistivity
Rshl.OHMM 5.0000:Resistivity shale
Trw.DEGC 25.0000:Rw measured at Lab conditions
ShaleCutoff.V/V 0.4000:New Description
GRcln.API 45.0000:Gamma Ray clean
RhoM.KG/MT 2650.0000:Bulk Density Matrix
GRshl.API 90.0000:Gamma Ray shale
m. 2.0000:Archie "m"
n. 2.0000:Archie "n"
GasTol.V/V 0.0500:Gas Tollerance
BHTemp.DEGC 25.0000:Bottom Hole Temperature
BHTDepth.M 1000.0000:Bottom Hole Depth
PHIDsh.US/MT 0.1800:New Description
a. 1.0000:Archie "a"
Gas Tol.V/V 0.0500:Gas Tollerance
RhoF.KG/MT 1000.0000:Bulk Density Fluid
RhoShl.KG/MT 2300.0000:Bulk Density Shale
TarCutoff.V/V 0.0300:New Description
SurfTemp.DEGC 10.0000:New Description
HIshl.V/V 0.4000:Neutron Hydrogen Index shale
MATR. 1.0000:
NEUT. 0.0000:
BHTD.M 296.8750:
DATM.M 495.6050:
NULL. -999.2500:
RESI. 0.0000:
SUFT.C 15.0000:
~A
   43.8912     0.2399     0.3980    92.6930  2254.1101     3.8340 
   44.1960     0.2399     0.4000    93.3170  2254.1899     3.9090 
   44.5008     0.2423     0.4040    93.9560  2250.1899     3.9110 
   44.8056     0.2460     0.4050    94.5820  2244.1399     3.8420 
   45.1104     0.2484     0.4090    94.6060  2240.1499     3.9900 
   45.4152     0.2483     0.4170    93.4000  2240.2300     4.1430 
   45.7200     0.2483     0.4210    90.9860  2240.2600     4.4680 
   46.0248     0.2495     0.4150    92.2290  2238.2900     4.4700 
   46.3296     0.2495     0.4070    92.8520  2238.3601     4.1510 
   46.6344     0.2457     0.4060    94.0940  2244.5300     4.0010 
   46.9392     0.2506     0.4000    93.5000  2236.4600     4.4780 
   47.2440     0.2629     0.3910    86.2060  2216.2000     5.6050 
   47.5488     0.2382     0.3780    85.0050  2256.9399     5.6080 
   47.8536     0.2333     0.3650    87.4670  2265.1201     3.9360 
   48.1584     0.2455     0.3760    90.5310  2244.8601     3.6550 
   48.4632     0.2406     0.3940    91.1620  2253.0601     3.5230 
   48.7680     0.2307     0.3840    86.9160  2269.3799     4.1700 
   49.0728     0.2380     0.3740    78.3990  2257.2600     6.4090 
   49.3776     0.2392     0.3570    73.5460  2255.2900     8.6450 
   49.6824     0.2293     0.3500    74.7790  2271.6101    10.0430 
   49.9872     0.2170     0.3390    83.9510  2292.0300     8.0320 
   50.2920     0.2145     0.3450    89.4610  2296.1399     7.8880 
   50.5968     0.2120     0.3330    89.4780  2300.2500     7.7460 
   50.9016     0.2193     0.3280    87.0620  2288.1201     6.8010 
   51.2064     0.2341     0.3320    90.7450  2263.8101     5.8620 
   51.5112     0.2426     0.3390    90.7570  2249.6299     6.2030 
   51.8160     0.2537     0.3490    87.7270  2231.3999     8.3660 
   52.1208     0.2660     0.3380    81.6540  2211.1399    12.1590 
   52.4256     0.2967     0.3320    79.2330  2160.3799    14.6620 
   52.7304     0.3090     0.3320    77.4240  2140.1201    19.7770 
   53.0352     0.3041     0.3240    76.2280  2148.3101    25.2220 
   53.3400     0.2868     0.3210    75.6370  2176.8501    22.5620 
   53.6448     0.2830     0.3270    73.2180  2183.0000    17.7130 
   53.9496     0.2818     0.3290    70.1870  2185.0901    14.7040 
   54.2544     0.2768     0.3220    62.8910  2193.2900    15.8530 
   54.5592     0.2644     0.3020    57.4210  2213.7000    21.7850 
   54.8640     0.2619     0.2910    50.1250  2217.8201    13.4170 
   55.1688     0.2656     0.2970    51.9750  2211.7800    13.1770 
   55.4736     0.2803     0.2940    48.9450  2187.4500    19.5120 
   55.7784     0.3000     0.2880    45.3080  2154.9900    22.2460 
   56.0832     0.2913     0.2850    48.3820  2169.3000    28.3730 
   56.3880     0.2765     0.2810    53.8930  2193.7500    34.2190 
   56.6928     0.2617     0.2780    58.1740  2218.2100    30.0410 
   56.9976     0.2493     0.2840    67.9540  2238.5901    18.1590 
   57.3024     0.2296     0.3030    73.4630  2271.1899    10.1870 
   57.6072     0.2197     0.3110    75.9280  2287.5100     9.8190 
   57.9120     0.2357     0.3050    77.1600  2261.1499    10.9890 
   58.2168     0.2467     0.3130    79.6220  2242.9199    10.7920 
   58.5216     0.2368     0.3140    82.7010  2259.2600     9.6540 
   58.8264     0.2331     0.2980    83.3180  2265.4099    10.2170 
   59.1312     0.2293     0.2920    83.9480  2271.5901    10.6110 
   59.4360     0.2194     0.2920    83.3590  2287.9099     9.6710 
   59.7408     0.2083     0.2900    80.3300  2306.2600    10.4260 
   60.0456     0.2107     0.2910    76.6990  2302.2700    11.2410 
   60.3504     0.2292     0.2970    74.8850  2271.8501    11.8960 
   60.6552     0.2489     0.3000    74.2980  2239.3701    21.2290 
   60.9600     0.2525     0.3000    76.7530  2233.3501    22.8860 
   61.2648     0.2254     0.3000    89.5800  2278.1201     9.0050 
   61.5696     0.2118     0.3030   100.5800  2300.5500     7.6170 
   61.8744     0.2167     0.3030   102.4300  2292.4900     7.2070 
   62.1792     0.2117     0.2950   100.0120  2300.6799     9.7200 
   62.4840     0.2055     0.2810    93.9300  2310.9099    14.6640 
   62.7888     0.2252     0.2740    82.3670  2278.4600    12.6370 
   63.0936     0.2288     0.2720    81.1670  2272.4199    10.6900 
   63.3984     0.2374     0.2780    84.2450  2258.2600    11.5250 
   63.7032     0.2509     0.2830    84.2550  2235.9600    11.3180 
   64.0080     0.2620     0.2940    84.8870  2217.7300     8.0930 
   64.3128     0.2693     0.3220    83.0790  2205.6001     6.7180 
   64.6176     0.2373     0.3240    78.8310  2258.5100    10.5210 
   64.9224     0.2483     0.2920    71.5320  2240.2800    18.7780 
   65.2272     0.2815     0.3000    61.1840  2185.4600    17.1150 
   65.5320     0.2852     0.3080    59.9920  2179.4199    14.7480 
   65.8368     0.2568     0.3120    64.2830  2226.2500    15.0360 
   66.1416     0.2358     0.3130    67.9600  2260.8701    20.2790 
   66.4464     0.2247     0.3110    70.4150  2279.2300    20.6780 
   66.7512     0.2271     0.3110    78.3640  2275.2300    19.9290 
   67.0560     0.2801     0.3030    86.3090  2187.8799    15.9370 
   67.3608     0.2702     0.2970    91.2070  2204.2100    11.8300 
   67.6656     0.2492     0.2950    91.2310  2238.8401    10.0060 
   67.9704     0.2368     0.2920    90.0340  2259.2200     8.3080 
   68.2752     0.2220     0.2930    91.8890  2283.6799     7.4310 
   68.5800     0.2146     0.2970    93.1210  2295.9399     7.2980 
   68.8848     0.2330     0.3030    94.9750  2265.5100     8.9660 
   69.1896     0.2699     0.3090    94.9970  2204.6001    12.5540 
   69.4944     0.2908     0.3170    95.0090  2170.1101    18.2440 
   69.7992     0.2957     0.3200    92.5930  2162.0601    16.6290 
   70.1040     0.2969     0.3240    89.5680  2160.0801    14.3320 
   70.4088     0.3018     0.3300    85.9280  2152.0200    14.0740 
   70.7136     0.3104     0.3290    82.9000  2137.8401    14.6170 
   71.0184     0.3165     0.3390    81.0900  2127.7400    16.6670 
   71.3232     0.3276     0.3450    79.2860  2109.5100    17.9690 
   71.6280     0.3362     0.3530    78.0830  2095.3501    16.3770 
   71.9328     0.3398     0.3860    76.2690  2089.3000    11.9310 
   72.2376     0.3903     0.3950    72.6330  2006.0200     5.8730 
   72.5424     0.3508     0.3490    71.4320  2071.1399     9.0280 
   72.8472     0.2781     0.3130    75.7200  2191.1399     7.7800 
   73.1520     0.2559     0.3010    75.1320  2227.8000    10.8930 
   73.4568     0.2792     0.2960    64.1810  2189.2400    12.1910 
   73.7616     0.2915     0.2900    62.9780  2168.9800    13.9000 
   74.0664     0.2767     0.2820    64.2160  2193.4500    16.1470 
   74.3712     0.2631     0.2870    70.9550  2215.8601    12.2110 
   74.6760     0.2471     0.2910    72.7960  2242.3501    10.7230 
   74.9808     0.2446     0.2960    75.2540  2246.4800    10.3360 
   75.2856     0.2568     0.2970    77.7190  2226.2200    10.3400 
   75.5904     0.2753     0.2860    79.5680  2195.8000    10.7410 
   75.8952     0.2604     0.2910    80.1970  2220.2800    10.7470 
   76.2000     0.2543     0.3080    80.8340  2230.4800    10.1670 
   76.5048     0.2480     0.3040    81.4560  2240.7200     9.2670 
   76.8096     0.2480     0.3010    80.8710  2240.7800     8.6060 
   77.1144     0.2529     0.2950    79.6700  2232.7100     8.4510 
   77.4192     0.2603     0.2930    78.4660  2220.5701     8.7780 
   77.7240     0.2614     0.2990    76.0550  2218.6201     9.6410 
   78.0288     0.2639     0.3090    73.6310  2214.6001    10.7890 
   78.3336     0.2725     0.3240    67.5540  2200.4399    13.2550 
   78.6384     0.2761     0.3290    65.7410  2194.4099    10.0240 
   78.9432     0.2675     0.3150    70.0310  2208.7000     8.1690 
   79.2480     0.2489     0.3150    71.8850  2239.2600     7.4460 
   79.5528     0.2514     0.3130    71.2960  2235.2500     7.1760 
   79.8576     0.2501     0.3100    69.4830  2237.3601     7.8820 
   80.1624     0.2525     0.3050    68.2820  2233.3501     9.8660 
