~VERSION INFORMATION
 VERS.                 2.0:   CWLS LOG ASCII STANDARD -VERSION 2.0
 WRAP.                  NO:   ONE LINE PER DEPTH STEP
~WELL INFORMATION BLOCK
#MNEM.UNIT           DATA                    DESCRIPTION OF MNEMONIC
#---------    -------------------            -------------------------------
# Generated from Intellog Unique Number	CW_73_75/WELL/877
WELL.         CDN SUP ER AL FRANCIS 07-35    : Well_name    - WELL
LOC .         00/07-35-074-21W4/0            : Location     - LOCATION
UWI .         00/07-35-074-21W4/0            : Uwi          - UNIQUE WELL ID
ENTR.         JAYE                           : Entered      - ENTERED BY
SRVC.         SCHLUMBERGER                   : Scn          - SERVICE COMPANY
DATE.         11 MAR 75                      : Date         - LOG DATE
STRT.M        387.096                        : top_depth    - START DEPTH
STOP.M        606.596                        : bot_depth    - STOP DEPTH
STEP.M        0.25                           : increment    - STEP LENGTH
 NULL. -999.2500:NULL Value
~CURVE INFORMATION BLOCK
#MNEM UNIT       ERCB CURVE CODE    CURVE DESCRIPTION
#-----------   ------------------   ----------------------------------
DEPT.M        00 001 00 00         : DEPTH        - DEPTH
ILD .OHMM     00 120 00 00         : RESD         - DEEP RESISTIVITY (DIL)
DPHI.V/V      00 890 00 00         : PHID         - DENSITY POROSITY (SANDSTONE)
NPHI.V/V      00 330 00 00         : PHIN         - NEUTRON POROSITY (SANDSTONE)
GR  .API      00 310 00 00         : GR           - GAMMA RAY
CALI.IN       00 280 01 00         : CAL          - CALIPER
~PARAMETER INFORMATION
#MNEM.UNIT           DATA             DESCRIPTION OF MNEMONIC
#---------         -----------     ------------------------------
GL  .M        691.896              : gl           - GROUND LEVEL ELEVATION
EREF.M        695.615              : kb           - ELEVATION OF DEPTH REFERENCE
DATM.M        691.896              : datum        - DATUM ELEVATION
TDD .M        669.036              : tdd          - TOTAL DEPTH DRILLER
RUN .         ONE                  : Run          - RUN NUMBER
BASE.         EDM                  : Branch       - HOME BASE OF LOGGING UNIT
MATR.         SANDSTONE            : Logunit      - NEUTRON MATRIX
TMAX.C        28.8889              : BHT          - MAXIMUM RECORDED TEMPERATURE
BHTD.M        669.036              : BHTDEP       - MAXIMUM RECORDED TEMPERATURE
RMT .C        15.5556              : MDTP         - TEMPERATURE OF MUD
MUDD.KG/M     0                    : MWT          - MUD DENSITY
NEUT.         1                    : NEUTRON      - NEUTRON TYPE
RESI.         0                    : RESIST       - RESISTIVITY TYPE
RM  .OHMM     2.8                  : RM           - RESISTIVITY OF MUD
RMC .OHMM     0                    : RMC          - RESISTIVITY OF MUD CAKE
RMF .OHMM     3.83                 : RMF          - RESISTIVITY OF MUD FILTRATE
SUFT.C        -17.7778             : SUFT         - SURFACE TEMPERATURE
~A  DEPTH     RESD     PHID     PHIN       GR      CAL
# ...
  423.596    6.845    0.337    0.481   60.001    8.416
  423.846    7.331    0.355    0.467   57.344    8.332
  424.096    7.639    0.344    0.455   57.614    8.332
  424.346    7.606    0.330    0.447   58.460    8.302
  424.596    7.003    0.326    0.454   59.020    8.238
  424.846    6.320    0.326    0.465   59.280    8.238
  425.096    5.872    0.332    0.466   59.258    8.207
  425.346    5.526    0.326    0.462   59.521    8.184
  425.596    5.276    0.320    0.457   60.950    8.184
  425.846    5.282    0.318    0.450   63.260    8.175
  426.096    5.424    0.318    0.449   67.022    8.175
  426.346    5.591    0.319    0.454   68.458    8.162
  426.596    5.794    0.323    0.463   64.350    8.159
  426.846    5.994    0.329    0.478   61.694    8.159
  427.096    6.303    0.308    0.487   62.255    8.149
  427.346    6.688    0.281    0.443   62.229    8.149
  427.596    6.932    0.253    0.416   61.617    8.139
  427.846    6.889    0.195    0.391   62.463    8.139
  428.096    6.662    0.235    0.441   65.937    8.129
  428.346    6.431    0.275    0.505   66.786    8.126
  428.596    6.107    0.284    0.485   66.174    8.126
  428.846    5.768    0.296    0.495   63.816    8.116
  429.096    5.418    0.306    0.486   60.874    8.116
  429.346    5.192    0.313    0.459   60.266    8.085
  429.596    5.170    0.320    0.458   58.782    8.085
  429.846    5.092    0.329    0.471   57.007    8.094
  430.096    4.987    0.332    0.478   57.847    8.091
  430.346    5.001    0.325    0.477   58.702    8.091
  430.596    5.025    0.324    0.473   58.674    8.100
  430.846    5.013    0.320    0.479   56.895    8.116
  431.096    4.982    0.306    0.456   55.409    8.116
  431.346    4.951    0.306    0.436   53.637    8.106
  431.596    4.930    0.338    0.437   52.445    8.106
  431.846    4.945    0.348    0.441   52.996    8.133
  432.096    4.950    0.344    0.446   53.557    8.133
  432.346    4.947    0.330    0.454   54.410    8.142
  432.596    4.961    0.322    0.459   55.547    8.161
  432.846    4.976    0.318    0.462   56.393    8.192
  433.096    5.008    0.314    0.456   56.954    8.229
  433.346    5.014    0.310    0.445   58.383    8.264
  433.596    5.029    0.304    0.437   60.684    8.318
  433.846    4.980    0.290    0.423   63.289    8.353
  434.096    4.922    0.273    0.431   70.261    8.427
  434.346    4.892    0.255    0.443   76.068    8.500
  434.596    4.862    0.242    0.471   80.124    8.593
  434.846    4.823    0.258    0.481   82.720    8.687
  435.096    4.768    0.287    0.476   83.281    8.760
  435.346    4.696    0.285    0.468   83.832    8.814
  435.596    4.624    0.265    0.483   84.393    8.869
  435.846    4.588    0.268    0.495   85.242    8.903
  436.096    4.559    0.324    0.497   86.383    8.903
  436.346    4.556    0.281    0.484   88.686    8.931
  436.596    4.628    0.213    0.467   90.699    8.967
  436.846    4.849    0.259    0.497   91.548    9.021
  437.096    5.034    0.275    0.513   91.526    9.075
  437.346    5.198    0.257    0.501   90.914    9.169
  437.596    5.349    0.253    0.498   90.594    9.243
  437.846    5.483    0.261    0.501   90.568    9.317
  438.096    5.519    0.318    0.504   90.539    9.430
  438.346    5.357    0.329    0.490   89.347    9.483
  438.596    5.087    0.326    0.498   88.159    9.519
  438.846    4.633    0.312    0.509   86.089    9.513
  439.096    4.219    0.317    0.520   82.273    9.429
  439.346    3.891    0.338    0.530   79.614    9.327
  439.596    3.531    0.386    0.541   78.428    9.184
  439.846    3.251    0.412    0.562   72.862    9.021
  440.096    3.122    0.390    0.571   67.002    8.919
  440.346    3.252    0.376    0.577   62.600    8.716
  440.596    3.521    0.355    0.540   57.906    8.633
  440.846    4.138    0.338    0.494   54.673    8.590
  441.096    5.024    0.337    0.452   54.647    8.525
  441.346    6.223    0.335    0.449   56.079    8.525
  441.596    6.497    0.331    0.450   57.217    8.495
  441.846    6.364    0.335    0.452   58.649    8.495
  442.096    6.131    0.343    0.453   58.919    8.425
  442.346    6.006    0.353    0.455   58.890    8.403
  442.596    5.851    0.358    0.460   57.990    8.403
  442.846    5.700    0.362    0.452   58.256    8.351
  443.096    5.522    0.366    0.452   58.807    8.330
  443.346    5.369    0.358    0.453   59.070    8.330
  443.596    5.259    0.368    0.449   59.051    8.299
  443.846    5.152    0.362    0.448   58.439    8.299
  444.096    5.055    0.358    0.448   57.827    8.267
  444.346    4.960    0.359    0.447   57.510    8.246
  444.596    4.858    0.352    0.448   57.189    8.237
  444.846    4.811    0.346    0.452   57.167    8.236
  445.096    4.799    0.349    0.464   57.142    8.236
  445.346    4.840    0.335    0.476   57.116    8.207
  445.596    5.025    0.329    0.477   57.090    8.207
  445.846    5.313    0.318    0.459   56.770    8.178
  446.096    5.597    0.293    0.448   57.036    8.178
  446.346    5.623    0.286    0.455   57.885    8.104
  446.596    5.640    0.345    0.469   57.850    8.143
  446.846    5.524    0.364    0.480   56.953    8.216
  447.096    5.313    0.365    0.473   56.348    8.231
  447.346    5.139    0.360    0.475   56.893    8.246
  447.596    4.996    0.347    0.479   57.168    8.242
  447.846    4.885    0.365    0.462   57.434    8.242
  448.096    4.802    0.361    0.463   56.819    8.231
  448.346    4.756    0.344    0.478   55.919    8.226
  448.596    4.718    0.344    0.479   55.605    8.221
  448.846    4.672    0.346    0.464   56.159    8.221
  449.096    4.634    0.342    0.456   56.711    8.208
  449.346    4.623    0.346    0.464   56.691    8.207
  449.596    4.611    0.348    0.477   56.954    8.198
  449.846    4.608    0.340    0.485   56.640    8.197
  450.096    4.596    0.357    0.479   55.737    8.169
  450.346    4.601    0.362    0.479   56.294    8.168
  450.596    4.615    0.364    0.476   56.852    8.168
  450.846    4.637    0.363    0.476   57.701    8.156
  451.096    4.702    0.361    0.476   58.547    8.156
  451.346    5.017    0.355    0.477   59.390    8.164
  451.596    5.633    0.343    0.478   58.202    8.240
  451.846    6.336    0.325    0.461   55.552    8.240
  452.096    7.258    0.276    0.436   54.065    8.231
  452.346    8.512    0.214    0.410   53.748    8.187
  452.596    9.033    0.162    0.331   53.719    8.143
  452.846    8.720    0.182    0.330   54.860    8.099
  453.096    8.161    0.227    0.377   56.296    8.093
  453.346    7.500    0.317    0.421   58.016    8.089
  453.596    6.634    0.350    0.459   58.862    8.081
  453.846    5.618    0.352    0.490   59.715    8.098
  454.096    4.888    0.345    0.504   61.730    8.094
  454.346    4.668    0.337    0.508   65.197    8.087
  454.596    4.742    0.338    0.508   66.636    8.104
  454.846    4.995    0.334    0.493   68.645    8.119
  455.096    5.243    0.331    0.460   68.328    8.115
  455.346    5.394    0.339    0.460   67.428    8.129
  455.596    5.430    0.335    0.465   64.778    8.143
  455.846    5.445    0.322    0.470   62.420    8.138
  456.096    5.442    0.328    0.463   58.604    8.153
  456.346    5.438    0.333    0.467   53.907    8.168
  456.596    5.375    0.318    0.472   52.718    8.183
  456.846    5.323    0.310    0.478   52.683    8.183
  457.096    5.290    0.298    0.482   52.952    8.174
  457.346    5.276    0.297    0.485   52.923    8.167
  457.596    5.225    0.307    0.480   52.901    8.164
  457.846    5.184    0.316    0.477   52.581    8.156
  458.096    5.087    0.320    0.482   52.267    8.154
  458.346    5.046    0.329    0.485   52.235    8.148
  458.596    5.015    0.331    0.484   52.796    8.144
  458.846    5.002    0.354    0.480   53.642    8.140
  459.096    4.999    0.352    0.482   53.616    8.134
  459.346    5.032    0.336    0.487   53.591    8.130
  459.596    5.047    0.325    0.480   53.273    8.125
  459.846    5.034    0.329    0.472   52.367    8.119
