~VERSION INFORMATION
 VERS.                 2.0:   CWLS LOG ASCII STANDARD -VERSION 2.0
 WRAP.                  NO:   ONE LINE PER DEPTH STEP
~WELL INFORMATION BLOCK
#MNEM.UNIT           DATA                    DESCRIPTION OF MNEMONIC
#---------    -------------------            -------------------------------
# Generated from Intellog Unique Number	CW_70_72/WELL/3006
NULL.         -999.25                        : NULL_VALUE
WELL.         GAO HONDO 06-14                : Well_name    - WELL              
LOC .         06-14-070-01W5                 : Location     - LOCATION          
UWI .         00/06-14-070-01W5/0              : Uwi          - UNIQUE WELL ID    
ENTR.         J                              : Entered      - ENTERED BY        
SRVC.         SCHLUMBERGER                   : Scn          - SERVICE COMPANY   
DATE.         1 JAN 76                       : Date         - LOG DATE          
STRT.M        438.912                        : top_depth    - START DEPTH       
STOP.M        676.662                        : bot_depth    - STOP DEPTH        
STEP.M        0.25                           : increment    - STEP LENGTH       
~CURVE INFORMATION BLOCK
#MNEM UNIT       ERCB CURVE CODE    CURVE DESCRIPTION
#-----------   ------------------   ----------------------------------
DEPT.M        00 001 00 00         : DEPTH        - DEPTH                       
ILD .OHMM     00 120 00 00         : RESD         - DEEP RESISTIVITY (DIL)      
CALI.MM       00 280 01 00         : CAL          - CALIPER                     
GR  .API      00 310 00 00         : GR           - GAMMA RAY                   
NPHI.V/V      00 330 00 00         : PHIN         - NEUTRON POROSITY (SANDSTONE)
DPHI.V/V      00 890 00 00         : PHID         - DENSITY POROSITY (SANDSTONE)
~PARAMETER INFORMATION       
#MNEM.UNIT           DATA             DESCRIPTION OF MNEMONIC
#---------         -----------     ------------------------------
GL  .M        604.723              : gl           - GROUND LEVEL ELEVATION      
EREF.M        607.771              : kb           - ELEVATION OF DEPTH REFERENCE
DATM.M        604.723              : datum        - DATUM ELEVATION             
TDD .M        688.848              : tdd          - TOTAL DEPTH DRILLER         
RUN .         ONE                  : Run          - RUN NUMBER                  
ENG .         SAWASE               : Engineer     - RECORDING ENGINEER          
WIT .         CUMMIN               : Witness      - WITNESSED BY                
BASE.         EDM                  : Branch       - HOME BASE OF LOGGING UNIT   
MATR.         SANDSTONE            : Logunit      - NEUTRON MATRIX              
TMAX.C        29.4444              : BHT          - MAXIMUM RECORDED TEMPERATURE
BHTD.M        690.067              : BHTDEP       - MAXIMUM RECORDED TEMPERATURE
RMT .C        17.7778              : MDTP         - TEMPERATURE OF MUD          
MUDD.KG/M     1188                 : MWT          - MUD DENSITY                 
NEUT.         1                    : NEUTRON      - NEUTRON TYPE                
RESI.         0                    : RESIST       - RESISTIVITY TYPE            
RM  .OHMM     2.5                  : RM           - RESISTIVITY OF MUD          
RMC .OHMM     2.5                  : RMC          - RESISTIVITY OF MUD CAKE     
RMF .OHMM     2.25                 : RMF          - RESISTIVITY OF MUD FILTRATE 
SUFT.C        -17.7778             : SUFT         - SURFACE TEMPERATURE         
~A  DEPTH     RESD      CAL       GR     PHIN     PHID
# ...
  475.412    2.920  173.420  104.909    0.355    0.200
  475.662    3.108  179.416  111.616    0.350    0.153
  475.912    3.057  184.693  118.022    0.355    0.188
  476.162    2.981  185.331   99.341    0.372    0.225
  476.412    2.811  172.051   80.602    0.389    0.255
  476.662    2.756  161.450   73.979    0.386    0.280
  476.912    2.864  160.441   77.459    0.369    0.309
  477.162    3.076  160.664   83.984    0.352    0.273
  477.412    3.238  162.538   87.527    0.344    0.263
  477.662    3.305  165.133   90.154    0.350    0.260
  477.912    3.169  167.936   91.139    0.361    0.259
  478.162    2.914  169.809   86.951    0.371    0.251
  478.412    2.621  169.313   83.918    0.371    0.245
  478.662    2.423  166.857   81.312    0.363    0.251
  478.912    2.256  163.782   78.703    0.356    0.261
  479.162    2.184  161.533   75.000    0.354    0.274
  479.412    2.144  160.420   72.212    0.357    0.280
  479.662    2.117  160.232   75.329    0.362    0.282
  479.912    2.106  160.565   75.641    0.368    0.273
  480.162    2.114  160.483   73.401    0.361    0.271
  480.412    2.122  159.983   73.959    0.348    0.281
  480.662    2.181  159.484   78.903    0.342    0.292
  480.912    2.267  159.190   82.382    0.352    0.274
  481.162    2.395  158.592   86.838    0.346    0.259
  481.412    2.480  157.990   89.710    0.326    0.253
  481.662    2.564  159.145   87.894    0.339    0.258
  481.912    2.689  159.573   91.315    0.353    0.267
  482.162    2.749  160.523   87.979    0.374    0.272
  482.412    2.795  161.471   86.894    0.395    0.249
  482.662    2.826  162.000   86.781    0.414    0.235
  482.912    2.921  163.053   84.236    0.411    0.254
  483.162    3.213  163.793   81.689    0.390    0.269
  483.412    3.420  164.531   78.474    0.374    0.240
  483.662    3.600  165.681   72.032    0.328    0.183
  483.912    3.561  167.246   62.364    0.248    0.150
  484.162    3.157  166.030   59.757    0.254    0.135
  484.412    2.876  164.912   64.821    0.349    0.150
  484.662    2.587  163.489   69.401    0.369    0.281
  484.912    2.272  162.786   71.356    0.375    0.297
  485.162    2.120  162.700   72.829    0.377    0.301
  485.412    2.044  162.720   69.493    0.369    0.293
  485.662    2.011  162.635   72.611    0.354    0.287
  485.912    1.997  162.140   77.063    0.364    0.284
  486.162    2.011  160.921   81.214    0.379    0.276
  486.412    2.038  159.599   80.615    0.382    0.278
  486.662    2.072  159.414   84.706    0.379    0.273
  486.912    2.177  161.801   94.152    0.368    0.257
  487.162    2.330  166.560  101.651    0.358    0.229
  487.412    2.544  172.867  111.888    0.395    0.230
  487.662    2.783  174.844  107.638    0.414    0.280
  487.912    3.049  167.750   98.397    0.443    0.312
  488.162    3.275  162.514   91.527    0.440    0.344
  488.412    3.193  163.871   82.834    0.415    0.323
  488.662    2.872  164.713   76.026    0.427    0.317
  488.912    2.504  162.465   68.854    0.392    0.304
  489.162    2.208  157.536   65.212    0.364    0.302
  489.412    2.034  158.172   71.554    0.353    0.302
  489.662    2.212  161.700   78.141    0.367    0.290
  489.912    2.478  163.572   83.751    0.428    0.299
  490.162    2.802  167.199   88.693    0.463    0.320
  490.412    3.110  171.341   93.455    0.506    0.358
  490.662    3.415  174.243   97.484    0.508    0.341
  490.912    3.446  169.418   98.649    0.435    0.264
  491.162    3.251  162.321   92.755    0.379    0.248
  491.412    3.083  161.108   91.367    0.362    0.239
  491.662    3.101  162.566   91.560    0.358    0.224
  491.912    3.153  164.751   93.215    0.361    0.213
  492.162    3.211  165.901   93.530    0.362    0.204
  492.412    3.035  165.921   86.905    0.356    0.194
  492.662    2.579  166.144   73.097    0.350    0.220
  492.912    2.106  165.029   61.845    0.342    0.270
  493.162    1.803  162.782   51.020    0.335    0.291
  493.412    1.661  161.048   44.578    0.322    0.295
  493.662    1.561  161.892   47.146    0.323    0.296
  493.912    1.717  164.281   59.332    0.326    0.299
  494.162    1.984  165.127   79.554    0.315    0.293
  494.412    2.318  165.656   88.697    0.306    0.278
  494.662    2.824  166.603   97.291    0.322    0.257
  494.912    3.258  167.135  100.347    0.341    0.229
  495.162    3.499  165.198  100.235    0.354    0.247
  495.412    3.597  166.966   97.446    0.348    0.247
  495.662    3.325  170.799   84.491    0.363    0.250
  495.912    2.953  174.735   75.856    0.400    0.274
  496.162    2.556  167.127   67.528    0.454    0.310
  496.412    2.245  162.094   59.563    0.384    0.324
  496.662    2.091  162.112   57.200    0.352    0.296
  496.912    1.922  162.440   58.856    0.348    0.293
  497.162    1.843  162.460   57.100    0.343    0.278
  497.412    1.830  162.579   51.876    0.327    0.288
  497.662    1.861  163.012   56.273    0.322    0.304
  497.912    1.885  163.547   59.692    0.329    0.305
  498.162    1.892  163.460   62.198    0.343    0.299
  498.412    1.913  163.787   62.634    0.344    0.293
  498.662    1.935  164.429   56.984    0.347    0.284
  498.912    1.949  164.135   54.927    0.346    0.271
  499.162    1.964  163.538   54.510    0.339    0.284
  499.412    1.989  163.450   54.520    0.334    0.295
  499.662    2.004  164.087   56.358    0.328    0.297
  499.912    2.004  164.620   59.109    0.343    0.295
  500.162    1.976  164.746   58.695    0.332    0.295
  500.412    1.905  164.249   57.851    0.331    0.304
  500.662    1.840  163.752   57.011    0.341    0.318
  500.912    1.774  162.841   57.875    0.348    0.316
  501.162    1.781  164.095   60.076    0.354    0.321
  501.412    1.785  165.454   64.227    0.357    0.321
  501.662    1.798  163.205   65.579    0.362    0.328
  501.912    1.818  162.606   65.710    0.364    0.328
  502.162    1.865  163.245   62.495    0.364    0.318
  502.412    2.029  164.086   59.767    0.364    0.300
  502.662    2.240  165.548   56.917    0.358    0.265
  502.912    2.671  167.216   53.335    0.270    0.206
  503.162    3.407  168.885   50.182    0.198    0.151
  503.412    4.212  169.730   50.678    0.189    0.161
  503.662    4.354  169.127   52.151    0.254    0.193
  503.912    3.653  164.402   58.007    0.300    0.272
  504.162    2.928  160.606   59.235    0.347    0.320
  504.412    2.238  162.173   59.610    0.374    0.324
  504.662    1.844  163.530   58.343    0.355    0.310
  504.912    1.647  165.716   56.772    0.360    0.316
  505.162    1.517  166.350   56.052    0.371    0.324
  505.412    1.476  162.452   57.037    0.359    0.322
  505.662    1.479  158.140   58.569    0.350    0.317
  505.912    1.495  157.545   60.468    0.348    0.317
  506.162    1.526  158.489   62.733    0.365    0.314
  506.412    1.529  159.544   63.413    0.370    0.312
  506.662    1.546  160.284   63.605    0.372    0.319
  506.912    1.566  160.710   63.009    0.353    0.323
  507.162    1.590  160.423   62.226    0.344    0.318
  507.412    1.590  160.024   60.899    0.348    0.315
  507.662    1.599  159.329   59.692    0.370    0.319
  507.912    1.611  159.240   57.877    0.365    0.322
  508.162    1.611  159.258   59.105    0.353    0.321
  508.412    1.599  159.274   61.977    0.354    0.317
  508.662    1.611  158.983   64.181    0.360    0.316
  508.912    1.632  159.001   65.652    0.357    0.322
  509.162    1.666  159.334   66.394    0.354    0.321
  509.412    1.712  159.450   62.934    0.356    0.319
  509.662    1.763  159.476   61.971    0.353    0.319
  509.912    1.873  159.080   62.714    0.355    0.306
  510.162    1.950  159.100   61.081    0.364    0.296
  510.412    2.080  159.119   60.787    0.374    0.291
  510.662    2.292  158.622   64.571    0.369    0.296
  510.912    2.535  158.330   64.644    0.365    0.297
  511.162    2.908  158.035   62.770    0.350    0.288
  511.412    3.140  159.188   62.047    0.319    0.239
  511.662    2.908  161.680   61.572    0.273    0.190
