~VERSION INFORMATION
 VERS.                 2.0:   CWLS LOG ASCII STANDARD -VERSION 2.0
 WRAP.                  NO:   ONE LINE PER DEPTH STEP
~WELL INFORMATION BLOCK
#MNEM.UNIT           DATA                    DESCRIPTION OF MNEMONIC
#---------    -------------------            -------------------------------
# Generated from Intellog Unique Number	CS_69_70/WELL/782
WELL.         UNIVERSAL EXPLORATIONS LT      : Well_name    - WELL
LOC .         00/06-30-069-09W4/0            : Location     - LOCATION
UWI .         00/06-30-069-09W4/0            : Uwi          - UNIQUE WELL ID
ENTR.         SP                             : Entered      - ENTERED BY
SRVC.         SCHLUMBERGER                   : Scn          - SERVICE COMPANY
STRT.M        420                            : top_depth    - START DEPTH
STOP.M        635                            : bot_depth    - STOP DEPTH
STEP.M        0.25                           : increment    - STEP LENGTH
 NULL. -999.2500:NULL Value
~CURVE INFORMATION BLOCK
#MNEM UNIT       ERCB CURVE CODE    CURVE DESCRIPTION
#-----------   ------------------   ----------------------------------
DEPT.M        00 001 00 00         : DEPTH        - DEPTH
ILD .OHMM     00 120 00 00         : RESD         - DEEP RESISTIVITY (DIL)
DPHI.V/V      00 890 00 00         : PHID         - DENSITY POROSITY (LIMESTONE)
NPHI.V/V      00 330 00 00         : PHIN         - NEUTRON POROSITY (LIMESTONE)
GR  .API      00 310 00 00         : GR           - GAMMA RAY
~PARAMETER INFORMATION
#MNEM.UNIT           DATA             DESCRIPTION OF MNEMONIC
#---------         -----------     ------------------------------
GL  .M        749.7                : gl           - GROUND LEVEL ELEVATION
EREF.M        753.2                : kb           - ELEVATION OF DEPTH REFERENCE
DATM.M        749.7                : datum        - DATUM ELEVATION
TDD .M        643                  : tdd          - TOTAL DEPTH DRILLER
RUN .         ONE                  : Run          - RUN NUMBER
ENG .         BILL                 : Engineer     - RECORDING ENGINEER
WIT .         JIM                  : Witness      - WITNESSED BY
MUD .         GEL                  : Mud_type     - MUD TYPE
MATR.         LIMESTONE            : Logunit      - NEUTRON MATRIX
TMAX.C        22                   : BHT          - MAXIMUM RECORDED TEMPERATURE
BHTD.M        643                  : BHTDEP       - MAXIMUM RECORDED TEMPERATURE
MATR.         1                    : LOGUNIT      - NEUTRON MATRIX
RMT .C        25                   : MDTP         - TEMPERATURE OF MUD
NEUT.         1                    : NEUTRON      - NEUTRON TYPE
RESI.         0                    : RESIST       - RESISTIVITY TYPE
RMC .OHMM     0.25                 : RMC          - RESISTIVITY OF MUD CAKE
RMF .OHMM     0.25                 : RMF          - RESISTIVITY OF MUD FILTRATE
SUFT.C        15                   : SUFT         - SURFACE TEMPERATURE
~A  DEPTH     RESD     PHID     PHIN       GR
# ...
  550.500    2.150    0.273    0.520  106.615
  550.750    2.007    0.277    0.534  106.426
  551.000    1.940    0.281    0.558  105.687
  551.250    1.933    0.279    0.548  103.417
  551.500    1.992    0.274    0.533   99.861
  551.750    2.095    0.266    0.523   97.959
  552.000    2.191    0.260    0.523   97.586
  552.250    2.283    0.254    0.520   97.397
  552.500    2.361    0.254    0.512   97.332
  552.750    2.488    0.259    0.506   96.715
  553.000    2.602    0.249    0.502   95.608
  553.250    2.752    0.244    0.494   91.379
  553.500    2.894    0.270    0.482   85.986
  553.750    3.061    0.286    0.472   82.369
  554.000    3.207    0.285    0.461   81.140
  554.250    3.373    0.272    0.473   83.155
  554.500    3.561    0.264    0.473   83.579
  554.750    3.794    0.262    0.458   81.370
  555.000    3.961    0.264    0.449   80.386
  555.250    4.158    0.236    0.455   80.320
  555.500    4.308    0.218    0.456   80.682
  555.750    4.481    0.213    0.443   81.657
  556.000    4.557    0.221    0.432   83.183
  556.250    4.531    0.230    0.437   83.485
  556.500    4.481    0.240    0.442   83.113
  556.750    4.448    0.244    0.442   82.802
  557.000    4.489    0.242    0.438   83.532
  557.250    4.704    0.243    0.431   83.466
  557.500    5.184    0.236    0.423   82.298
  557.750    6.019    0.169    0.411   77.823
  558.000    6.963    0.088    0.327   71.451
  558.250    7.716    0.036    0.246   63.487
  558.500    8.160    0.034    0.244   63.176
  558.750    7.094    0.119    0.349   75.600
  559.000    6.020    0.163    0.441   89.371
  559.250    5.473    0.200    0.460   96.469
  559.500    4.948    0.219    0.455   93.831
  559.750    4.618    0.219    0.443   90.091
  560.000    4.408    0.215    0.430   88.434
  560.250    4.334    0.210    0.421   89.653
  560.500    4.302    0.220    0.425   90.689
  560.750    4.310    0.222    0.431   91.541
  561.000    4.302    0.215    0.425   91.966
  561.250    4.262    0.223    0.423   91.716
  561.500    4.239    0.233    0.427   91.282
  561.750    4.215    0.240    0.440   91.706
  562.000    4.207    0.243    0.457   92.681
  562.250    4.184    0.246    0.463   93.656
  562.500    4.137    0.247    0.441   93.223
  562.750    4.107    0.247    0.431   88.932
  563.000    4.084    0.248    0.449   91.132
  563.250    4.038    0.242    0.433   98.963
  563.500    3.979    0.244    0.433  104.286
  563.750    3.891    0.249    0.468  109.607
  564.000    3.819    0.252    0.465  101.888
  564.250    3.699    0.254    0.453   93.618
  564.500    3.645    0.259    0.451   90.429
  564.750    3.571    0.261    0.438   93.547
  565.000    3.544    0.257    0.435   96.175
  565.250    3.544    0.249    0.440   98.252
  565.500    3.645    0.249    0.422   99.288
  565.750    3.700    0.239    0.420   94.936
  566.000    3.791    0.235    0.423   91.319
  566.250    3.834    0.235    0.425   90.764
  566.500    3.841    0.236    0.444   91.187
  566.750    3.805    0.232    0.441   90.999
  567.000    3.721    0.226    0.416   89.402
  567.250    3.479    0.220    0.402   83.948
  567.500    3.036    0.213    0.409   84.250
  567.750    2.630    0.236    0.439   87.612
  568.000    2.338    0.255    0.467   90.546
  568.250    2.154    0.273    0.480   90.970
  568.500    2.063    0.276    0.490   90.537
  568.750    2.048    0.276    0.511   89.920
  569.000    2.079    0.276    0.533   89.303
  569.250    2.303    0.276    0.540   90.706
  569.500    2.529    0.288    0.517   84.579
  569.750    2.766    0.297    0.498   80.411
  570.000    3.020    0.279    0.472   78.998
  570.250    3.224    0.271    0.461   82.912
  570.500    3.416    0.268    0.468   86.336
  570.750    3.586    0.262    0.471   88.657
  571.000    3.695    0.243    0.422   86.142
  571.250    3.722    0.211    0.400   85.403
  571.500    3.620    0.173    0.442   89.868
  571.750    3.520    0.208    0.464   93.046
  572.000    3.416    0.233    0.467   94.143
  572.250    3.372    0.248    0.458   93.404
  572.500    3.455    0.257    0.461   88.685
  572.750    3.640    0.265    0.453   86.476
  573.000    3.850    0.261    0.421   87.451
  573.250    4.087    0.215    0.399   84.936
  573.500    4.323    0.189    0.392   85.972
  573.750    4.454    0.217    0.415   86.519
  574.000    4.380    0.159    0.387   82.105
  574.250    3.938    0.112    0.384   83.937
  574.500    3.481    0.131    0.414   90.361
  574.750    3.072    0.189    0.442   95.621
  575.000    2.798    0.212    0.457   98.066
  575.250    2.583    0.228    0.465   99.715
  575.500    2.460    0.239    0.471   99.343
  575.750    2.397    0.241    0.482  101.296
  576.000    2.353    0.236    0.498  103.496
  576.250    2.318    0.234    0.510  105.878
  576.500    2.318    0.234    0.517  106.732
  576.750    2.327    0.236    0.506  107.584
  577.000    2.353    0.243    0.499  108.069
  577.250    2.371    0.249    0.514  107.758
  577.500    2.375    0.251    0.499  107.814
  577.750    2.371    0.242    0.478  108.790
  578.000    2.344    0.240    0.477  110.498
  578.250    2.310    0.239    0.503  111.535
  578.500    2.271    0.229    0.517  112.571
  578.750    2.246    0.228    0.521  113.484
  579.000    2.271    0.236    0.533  114.337
  579.250    2.336    0.245    0.462  113.598
  579.500    2.652    0.249    0.412  106.613
  579.750    3.257    0.237    0.399   93.200
  580.000    3.629    0.229    0.391   83.583
  580.250    4.515    0.217    0.368   80.027
  580.500    5.831    0.181    0.349   77.329
  580.750    7.015    0.157    0.346   74.079
  581.000    7.702    0.194    0.377   70.462
  581.250    8.131    0.225    0.386   68.559
  581.500    8.238    0.242    0.385   67.635
  581.750    8.346    0.256    0.390   66.467
  582.000    8.472    0.269    0.402   64.993
  582.250    8.632    0.280    0.398   64.989
  582.500    8.795    0.284    0.391   66.147
  582.750    8.911    0.280    0.404   65.163
  583.000    9.011    0.257    0.352   62.464
  583.250    9.113    0.221    0.336   63.500
  583.500    9.029    0.150    0.354   66.373
  583.750    8.633    0.172    0.370   70.348
  584.000    7.604    0.219    0.362   72.853
  584.250    6.888    0.239    0.351   74.441
  584.500    6.204    0.246    0.370   77.742
  584.750    5.944    0.237    0.394   81.655
  585.000    5.933    0.233    0.416   85.324
  585.250    6.170    0.230    0.430   90.584
  585.500    6.748    0.248    0.423   94.805
  585.750    7.577    0.255    0.409   98.657
  586.000    8.475    0.258    0.412   93.081
  586.250    9.409    0.264    0.426   86.463
  586.500   10.064    0.275    0.417   81.499
  586.750   10.664    0.285    0.398   82.290
  587.000    9.860    0.282    0.378   86.939
  587.250    9.375    0.267    0.363   91.464
  587.500    8.799    0.253    0.373   94.705
  587.750    8.461    0.242    0.390   99.048
  588.000    8.398    0.260    0.386   83.492
  588.250    8.461    0.292    0.376   72.956
  588.500    8.637    0.313    0.378   75.093
  588.750    8.702    0.295    0.369   78.579
  589.000    8.800    0.282    0.358   84.513
  589.250    8.899    0.273    0.369   88.120
  589.500    9.016    0.269    0.387   90.565
  589.750    9.377    0.271    0.402   88.295
  590.000   10.218    0.276    0.414   85.473
  590.250   11.820    0.285    0.422   83.265
  590.500   12.977    0.300    0.413   79.709
  590.750   14.247    0.311    0.403   78.051
  591.000   15.210    0.319    0.388   80.557
  591.250   15.238    0.308    0.377   83.490
  591.500   13.248    0.302    0.383   86.241
  591.750   11.453    0.295    0.378   88.686
  592.000    9.663    0.294    0.367   79.435
  592.250    7.973    0.305    0.359   73.125
  592.500    6.957    0.307    0.351   74.528
  592.750    6.255    0.294    0.352   89.401
  593.000    5.948    0.258    0.362  100.233
  593.250    6.302    0.096    0.289   92.452
  593.500    6.703    0.076    0.276   83.509
  593.750    7.209    0.181    0.344   78.055
