~VERSION INFORMATION
 VERS.                 2.0:   CWLS LOG ASCII STANDARD -VERSION 2.0
 WRAP.                  NO:   ONE LINE PER DEPTH STEP
~WELL INFORMATION BLOCK
#MNEM.UNIT           DATA                    DESCRIPTION OF MNEMONIC
#---------    -------------------            -------------------------------
# Generated from Intellog Unique Number	CW_79_81/WELL/288
WELL.         04-23-079-23W4                 : Well_name    - WELL
LOC .         00/04-23-079-23W4/0            : Location     - LOCATION
UWI .         00/04-23-079-23W4/0            : Uwi          - UNIQUE WELL ID
ENTR.         MAX                            : Entered      - ENTERED BY
SRVC.         COMPUTALOG                     : Scn          - SERVICE COMPANY
STRT.M        225                            : top_depth    - START DEPTH
STOP.M        477                            : bot_depth    - STOP DEPTH
STEP.M        0.25                           : increment    - STEP LENGTH
 NULL. -999.2500:NULL Value
~CURVE INFORMATION BLOCK
#MNEM UNIT       ERCB CURVE CODE    CURVE DESCRIPTION
#-----------   ------------------   ----------------------------------
DEPT.M        00 001 00 00         : DEPTH        - DEPTH
ILD .OHMM     00 120 00 00         : RESD         - DEEP RESISTIVITY (DIL)
NPHI.V/V      00 330 00 00         : PHIN         - NEUTRON POROSITY (SANDSTONE)
DPHI.V/V      00 890 00 00         : PHID         - DENSITY POROSITY (SANDSTONE)
CALI.MM       00 280 01 00         : CAL          - CALIPER
GR  .API      00 310 00 00         : GR           - GAMMA RAY
~PARAMETER INFORMATION
#MNEM.UNIT           DATA             DESCRIPTION OF MNEMONIC
#---------         -----------     ------------------------------
GL  .M        565.2                : gl           - GROUND LEVEL ELEVATION
EREF.M        570.2                : kb           - ELEVATION OF DEPTH REFERENCE
DATM.M        565.2                : datum        - DATUM ELEVATION
TDD .M        482                  : tdd          - TOTAL DEPTH DRILLER
RUN .         ONE                  : Run          - RUN NUMBER
ENG .         BILL                 : Engineer     - RECORDING ENGINEER
WIT .         JIM                  : Witness      - WITNESSED BY
MUD .         GEL                  : Mud_type     - MUD TYPE
MATR.         SANDSTONE            : Logunit      - NEUTRON MATRIX
TMAX.C        20                   : BHT          - MAXIMUM RECORDED TEMPERATURE
BHTD.M        482                  : BHTDEP       - MAXIMUM RECORDED TEMPERATURE
RMT .C        17.8                 : MDTP         - TEMPERATURE OF MUD
MUDD.KG/M     1080                 : MWT          - MUD DENSITY
NEUT.         1                    : NEUTRON      - NEUTRON TYPE
RESI.         0                    : RESIST       - RESISTIVITY TYPE
RM  .OHMM     7                    : RM           - RESISTIVITY OF MUD
RMC .OHMM     5.5                  : RMC          - RESISTIVITY OF MUD CAKE
RMF .OHMM     6                    : RMF          - RESISTIVITY OF MUD FILTRATE
SUFT.C        -5                   : SUFT         - SURFACE TEMPERATURE
~A  DEPTH     RESD     PHIN     PHID      CAL       GR
  225.000    2.792    0.523    0.303  245.450   88.069
  225.250    2.841    0.511    0.291  255.165   85.999
  225.500    2.864    0.509    0.283  258.536   83.925
  225.750    2.888    0.524    0.287  264.350   84.198
  226.000    2.912    0.532    0.299  267.238   85.638
  226.250    2.990    0.531    0.333  267.187   85.318
  226.500    3.156    0.525    0.353  264.720   83.832
  226.750    3.302    0.515    0.388  255.911   82.057
  227.000    3.328    0.508    0.352  238.314   79.987
  227.250    3.265    0.512    0.334  234.859   79.669
  227.500    3.145    0.502    0.346  240.190   82.274
  227.750    2.946    0.514    0.342  260.144   82.836
  228.000    2.760    0.529    0.325  276.681   79.894
  228.250    2.659    0.558    0.340  273.235   76.068
  228.500    2.514    0.573    0.377  284.891   73.407
  228.750    2.443    0.560    0.399  278.524   72.799
  229.000    2.555    0.533    0.446  285.800   72.191
  229.250    2.773    0.515    0.453  280.399   76.853
  229.500    3.452    0.494    0.438  263.778   78.878
  229.750    3.957    0.469    0.378  249.112   77.100
  230.000    4.749    0.462    0.336  236.870   75.612
  230.250    5.545    0.465    0.315  235.862   74.124
  230.500    5.642    0.469    0.317  236.312   75.272
  230.750    5.585    0.474    0.310  237.742   79.348
  231.000    6.003    0.480    0.304  239.641   83.711
  231.250    6.514    0.474    0.327  239.125   81.643
  231.500    9.136    0.467    0.334  234.699   65.819
  231.750   11.801    0.470    0.331  228.322   48.532
  232.000   15.665    0.435    0.312  224.370   47.340
  232.250   27.376    0.422    0.315  225.308   47.022
  232.500   35.680    0.438    0.299  225.767   45.832
  232.750   43.617    0.448    0.283  226.212   46.383
  233.000   46.887    0.462    0.310  226.662   46.951
  233.250   49.041    0.471    0.361  227.108   47.224
  233.500   52.243    0.470    0.387  227.563   46.617
  233.750   55.134    0.447    0.390  227.525   46.591
  234.000   56.632    0.424    0.378  227.000   46.569
  234.250   59.772    0.439    0.354  224.032   44.495
  234.500   61.940    0.450    0.334  222.536   45.643
  234.750   64.195    0.454    0.333  222.002   46.791
  235.000   66.523    0.439    0.355  221.964   47.353
  235.250   68.331    0.416    0.330  222.419   47.913
  235.500   67.028    0.390    0.277  226.273   46.138
  235.750   62.783    0.368    0.233  227.206   43.190
  236.000   57.238    0.383    0.224  227.183   41.992
  236.250   53.142    0.390    0.277  227.136   41.097
  236.500   50.246    0.396    0.276  226.611   39.026
  236.750   49.742    0.396    0.254  226.568   34.317
  237.000   52.027    0.391    0.241  227.023   32.829
  237.250   54.417    0.390    0.276  230.887   36.323
  237.500   54.855    0.390    0.265  232.317   33.375
  237.750   51.884    0.394    0.236  232.762   30.711
  238.000   41.599    0.395    0.230  232.720   31.566
  238.250   28.274    0.401    0.237  231.707   34.767
  238.500   22.055    0.414    0.260  231.674   42.937
  238.750    9.567    0.430    0.271  233.578   55.787
  239.000    6.871    0.458    0.277  233.062   64.837
  239.250    5.360    0.481    0.277  232.044   72.421
  239.500    4.624    0.498    0.276  231.515   78.250
  239.750    4.214    0.500    0.277  232.940   88.760
  240.000    4.288    0.486    0.278  232.898  100.733
  240.250    4.485    0.480    0.276  232.382   98.660
  240.500    4.822    0.501    0.277  228.922   91.908
  240.750    5.329    0.488    0.275  225.954   87.494
  241.000    5.781    0.455    0.264  225.438   86.597
  241.250    5.937    0.470    0.264  226.863   88.620
  241.500    5.824    0.478    0.274  229.752   88.305
  241.750    5.507    0.475    0.270  236.044   84.771
  242.000    5.501    0.462    0.268  237.474   78.894
  242.250    5.599    0.454    0.273  237.431   74.779
  242.500    6.129    0.454    0.290  236.423   68.609
  242.750    6.590    0.459    0.298  232.968   62.148
  243.000    6.957    0.458    0.303  227.084   59.785
  243.250    7.341    0.452    0.300  226.554   61.225
  243.500    7.472    0.439    0.280  230.412   63.540
  243.750    7.463    0.432    0.274  229.404   61.762
  244.000    7.388    0.433    0.272  226.929   61.450
  244.250    7.382    0.429    0.275  226.399   61.714
  244.500    7.511    0.446    0.277  227.332   62.282
  244.750    7.714    0.454    0.276  230.708   62.840
  245.000    7.922    0.450    0.283  231.158   63.112
  245.250    8.286    0.437    0.290  232.578   57.239
  245.500    8.747    0.429    0.294  234.984   55.162
  245.750    9.401    0.443    0.294  237.380   55.728
  246.000    9.924    0.449    0.289  240.272   56.583
  246.250   10.476    0.447    0.297  238.772   55.680
  246.500   11.263    0.440    0.316  241.655   51.854
  246.750   11.999    0.438    0.330  241.618   50.076
  247.000   12.210    0.436    0.330  241.093   49.466
  247.250   12.195    0.438    0.325  240.563   50.028
  247.500   12.186    0.442    0.323  241.022   50.003
  247.750   12.514    0.441    0.320  245.369   48.225
  248.000   13.575    0.444    0.337  245.819   47.916
  248.250   14.331    0.449    0.357  243.339   48.180
  248.500   14.582    0.453    0.362  248.182   47.569
  248.750   14.973    0.454    0.356  253.020   45.791
  249.000   15.807    0.454    0.333  252.491   45.187
  249.250   17.149    0.440    0.319  250.020   45.457
  249.500   19.302    0.395    0.294  243.639   44.261
  249.750   20.749    0.264    0.264  236.287   41.023
  250.000   21.509    0.253    0.147  224.537   38.654
  250.250   20.901    0.290    0.161  222.066   39.802
  250.500   20.133    0.375    0.278  220.078   42.126
  250.750   18.521    0.426    0.330  220.041   45.901
  251.000   17.512    0.438    0.345  220.003   45.293
  251.250   17.178    0.426    0.393  220.936   43.513
  251.500   17.637    0.417    0.410  222.352   42.027
  251.750   18.619    0.411    0.400  222.807   42.303
  252.000   19.656    0.416    0.355  222.765   42.863
  252.250   20.552    0.429    0.369  222.736   41.960
  252.500   20.727    0.433    0.377  221.231   40.182
  252.750   20.706    0.433    0.361  220.702   39.279
  253.000   20.689    0.429    0.336  220.176   40.719
  253.250   20.479    0.411    0.301  218.671   41.287
  253.500   19.901    0.401    0.282  218.638   40.677
  253.750   19.171    0.416    0.278  220.556   38.896
  254.000   17.635    0.426    0.286  221.494   39.754
  254.250   15.496    0.421    0.314  223.885   42.657
  254.500   13.008    0.425    0.330  224.818   46.438
  254.750   10.145    0.451    0.326  225.765   50.804
  255.000    7.629    0.480    0.294  226.210   63.362
  255.250    5.842    0.508    0.254  226.178   77.383
  255.500    4.683    0.515    0.268  222.722   96.088
  255.750    3.966    0.537    0.297  222.685   98.406
  256.000    3.785    0.542    0.296  235.813   99.258
  256.250    3.748    0.518    0.226  224.560  104.209
  256.500    3.848    0.515    0.227  215.248  102.721
  256.750    3.952    0.546    0.272  217.161   95.387
  257.000    3.912    0.555    0.300  234.195   94.484
  257.250    3.734    0.525    0.339  245.377   97.975
  257.500    3.629    0.505    0.379  256.063   99.995
  257.750    3.761    0.489    0.382  264.315   97.342
  258.000    4.080    0.484    0.338  236.483   93.224
  258.250    5.034    0.482    0.297  225.226   85.884
  258.500    6.383    0.477    0.267  231.532   84.692
  258.750    7.183    0.469    0.330  246.610   85.541
  259.000    8.160    0.447    0.342  254.862   84.939
  259.250    9.018    0.425    0.345  254.820   88.427
  259.500    9.259    0.441    0.313  236.244   90.453
  259.750    9.774    0.456    0.323  228.414   81.065
  260.000   11.413    0.457    0.364  219.594   68.755
  260.250   16.912    0.448    0.364  219.065   55.271
  260.500   29.018    0.450    0.342  220.490   49.690
  260.750   37.819    0.450    0.333  223.378   47.321
  261.000   48.841    0.450    0.337  225.296   48.472
  261.250   53.480    0.452    0.342  226.229   48.742
