~VERSION INFORMATION
 VERS.                 2.0:   CWLS LOG ASCII STANDARD -VERSION 2.0
 WRAP.                  NO:   ONE LINE PER DEPTH STEP
~WELL INFORMATION BLOCK
#MNEM.UNIT           DATA                    DESCRIPTION OF MNEMONIC
#---------    -------------------            -------------------------------
# Generated from Intellog Unique Number	CS_77_79/WELL/878
WELL.         C.W.W.E. HARDY                 : Well_name    - WELL
LOC .         00/06-19-078-04W4/0            : Location     - LOCATION
UWI .         00/06-19-078-04W4/0            : Uwi          - UNIQUE WELL ID
ENTR.         JHS                            : Entered      - ENTERED BY
SRVC.         SCHLUMBERGER                   : Scn          - SERVICE COMPANY
STRT.M        140                            : top_depth    - START DEPTH
STOP.M        380                            : bot_depth    - STOP DEPTH
STEP.M        0.25                           : increment    - STEP LENGTH
 NULL. -999.2500:NULL Value
~CURVE INFORMATION BLOCK
#MNEM UNIT       ERCB CURVE CODE    CURVE DESCRIPTION
#-----------   ------------------   ----------------------------------
DEPT.M        00 001 00 00         : DEPTH        - DEPTH
DPHI.V/V      00 890 00 00         : PHID         - DENSITY POROSITY (LIMESTONE)
NPHI.V/V      00 330 00 00         : PHIN         - NEUTRON POROSITY (LIMESTONE)
GR  .API      00 310 00 00         : GR           - GAMMA RAY
ILD .OHMM     00 120 00 00         : RESD         - DEEP RESISTIVITY (DIL)
RHOB.KG/M3    00 350 00 00         : DENS         - BULK DENSITY
~PARAMETER INFORMATION
#MNEM.UNIT           DATA             DESCRIPTION OF MNEMONIC
#---------         -----------     ------------------------------
GL  .M        562.1                : gl           - GROUND LEVEL ELEVATION
EREF.M        566                  : kb           - ELEVATION OF DEPTH REFERENCE
DATM.M        566                  : datum        - DATUM ELEVATION
TDD .M        385                  : tdd          - TOTAL DEPTH DRILLER
RUN .         ONE                  : Run          - RUN NUMBER
ENG .         BILL                 : Engineer     - RECORDING ENGINEER
WIT .         JIM                  : Witness      - WITNESSED BY
MUD .         GEL                  : Mud_type     - MUD TYPE
MATR.         LIMESTONE            : Logunit      - NEUTRON MATRIX
TMAX.C        18                   : BHT          - MAXIMUM RECORDED TEMPERATURE
BHTD.M        385                  : BHTDEP       - MAXIMUM RECORDED TEMPERATURE
MATR.         1                    : LOGUNIT      - NEUTRON MATRIX
RMT .C        25                   : MDTP         - TEMPERATURE OF MUD
NEUT.         1                    : NEUTRON      - NEUTRON TYPE
RESI.         0                    : RESIST       - RESISTIVITY TYPE
RMC .OHMM     0.25                 : RMC          - RESISTIVITY OF MUD CAKE
RMF .OHMM     0.25                 : RMF          - RESISTIVITY OF MUD FILTRATE
SUFT.C        15                   : SUFT         - SURFACE TEMPERATURE
~A  DEPTH     PHID     PHIN       GR     RESD     DENS
# ...
  249.500    0.248    0.493   91.866    5.530    0.000
  249.750    0.257    0.504   96.827    5.331    0.000
  250.000    0.243    0.514  101.176    5.043    0.000
  250.250    0.237    0.515   96.924    5.048    0.000
  250.500    0.240    0.506   93.273    4.960    0.000
  250.750    0.241    0.505   88.404    4.966    0.000
  251.000    0.230    0.506   94.600    5.064    0.000
  251.250    0.222    0.506   99.559    5.167    0.000
  251.500    0.234    0.500   96.532    5.173    0.000
  251.750    0.244    0.485   91.664    5.177    0.000
  252.000    0.239    0.474   90.466    5.185    0.000
  252.250    0.238    0.466   89.282    5.188    0.000
  252.500    0.243    0.480   89.334    5.003    0.000
  252.750    0.242    0.492   93.671    4.915    0.000
  253.000    0.251    0.505   96.796    5.012    0.000
  253.250    0.274    0.507   95.603    5.211    0.000
  253.500    0.338    0.492   83.356    5.626    0.000
  253.750    0.346    0.469   68.029    5.959    0.000
  254.000    0.339    0.454   62.543    6.434    0.000
  254.250    0.337    0.453   63.220    6.946    0.000
  254.500    0.349    0.455   63.257    7.085    0.000
  254.750    0.343    0.458   62.680    7.227    0.000
  255.000    0.335    0.460   61.486    7.235    0.000
  255.250    0.343    0.446   59.694    7.242    0.000
  255.500    0.352    0.448   57.896    7.114    0.000
  255.750    0.350    0.470   57.325    7.123    0.000
  256.000    0.343    0.455   56.133    6.998    0.000
  256.250    0.342    0.450   53.727    7.139    0.000
  256.500    0.341    0.452   56.233    7.146    0.000
  256.750    0.342    0.466   58.113    7.018    0.000
  257.000    0.344    0.493   60.005    7.026    0.000
  257.250    0.347    0.485   60.661    7.168    0.000
  257.500    0.348    0.462   61.934    7.596    0.000
  257.750    0.338    0.441   59.516    7.895    0.000
  258.000    0.317    0.431   56.488    8.053    0.000
  258.250    0.285    0.428   59.614    7.911    0.000
  258.500    0.277    0.434   63.335    7.771    0.000
  258.750    0.312    0.464   64.004    7.636    0.000
  259.000    0.333    0.476   62.822    7.641    0.000
  259.250    0.329    0.480   63.466    7.651    0.000
  259.500    0.330    0.473   64.742    7.661    0.000
  259.750    0.342    0.462   64.169    7.812    0.000
  260.000    0.342    0.452   62.377    7.823    0.000
  260.250    0.336    0.467   61.803    7.830    0.000
  260.500    0.342    0.482   63.694    7.840    0.000
  260.750    0.347    0.472   63.121    7.700    0.000
  261.000    0.344    0.468   60.705    7.707    0.000
  261.250    0.334    0.458   63.824    7.571    0.000
  261.500    0.325    0.447   66.334    7.440    0.000
  261.750    0.325    0.449   65.774    7.446    0.000
  262.000    0.331    0.448   66.412    7.594    0.000
  262.250    0.335    0.440   68.917    7.602    0.000
  262.500    0.329    0.440   70.197    7.756    0.000
  262.750    0.327    0.449   71.468    7.768    0.000
  263.000    0.320    0.463   73.358    7.630    0.000
  263.250    0.311    0.491   76.480    7.492    0.000
  263.500    0.298    0.473   77.746    7.223    0.000
  263.750    0.271    0.461   82.712    6.961    0.000
  264.000    0.253    0.467   88.282    6.463    0.000
  264.250    0.230    0.480   93.242    6.001    0.000
  264.500    0.227    0.499   95.147    5.675    0.000
  264.750    0.232    0.514   92.715    5.369    0.000
  265.000    0.238    0.522   90.301    5.175    0.000
  265.250    0.234    0.526   97.109    4.989    0.000
  265.500    0.233    0.549  102.067    4.720    0.000
  265.750    0.230    0.555  105.800    4.549    0.000
  266.000    0.218    0.506  100.318    4.304    0.000
  266.250    0.205    0.507   96.062    4.071    0.000
  266.500    0.216    0.539   96.718    3.709    0.000
  266.750    0.261    0.575   99.223    3.507    0.000
  267.000    0.285    0.603  105.413    2.963    0.000
  267.250    0.284    0.603  108.522    2.750    0.000
  267.500    0.269    0.568  104.905    2.651    0.000
  267.750    0.263    0.535  106.155    2.605    0.000
  268.000    0.258    0.537  111.120    2.759    0.000
  268.250    0.254    0.604  111.172    2.868    0.000
  268.500    0.246    0.588  105.677    2.982    0.000
  268.750    0.239    0.549  102.641    2.986    0.000
  269.000    0.250    0.527  107.615    2.988    0.000
  269.250    0.265    0.550  106.425    3.226    0.000
  269.500    0.271    0.530  102.786    3.417    0.000
  269.750    0.251    0.518  100.364    3.760    0.000
  270.000    0.236    0.510   96.718    4.058    0.000
  270.250    0.225    0.502   92.457    4.637    0.000
  270.500    0.234    0.499   89.443    5.101    0.000
  270.750    0.252    0.510   89.476    5.829    0.000
  271.000    0.279    0.510   87.064    6.058    0.000
  271.250    0.289    0.514   81.570    6.419    0.000
  271.500    0.293    0.530   77.321    6.800    0.000
  271.750    0.281    0.499   76.740    7.202    0.000
  272.000    0.288    0.423   81.712    8.076    0.000
  272.250    0.323    0.403   81.137    8.720    0.000
  272.500    0.320    0.399   75.038    9.064    0.000
  272.750    0.312    0.419   76.303    9.248    0.000
  273.000    0.307    0.474   76.354    9.253    0.000
  273.250    0.309    0.503   75.772    8.921    0.000
  273.500    0.306    0.517   75.826    8.439    0.000
  273.750    0.312    0.525   77.713    7.985    0.000
  274.000    0.307    0.534   80.226    8.144    0.000
  274.250    0.301    0.550   78.417    8.792    0.000
  274.500    0.308    0.522   74.771    9.490    0.000
  274.750    0.315    0.490   71.740   10.248    0.000
  275.000    0.305    0.473   69.325   10.854    0.000
  275.250    0.306    0.474   71.222   10.866    0.000
  275.500    0.303    0.481   72.487   10.877    0.000
  275.750    0.297    0.476   73.143   10.686    0.000
  276.000    0.312    0.465   76.259   10.301    0.000
  276.250    0.318    0.467   74.486   10.117    0.000
  276.500    0.309    0.462   74.504   10.132    0.000
  276.750    0.280    0.444   75.173   10.335    0.000
  277.000    0.230    0.421   72.133   10.540    0.000
  277.250    0.178    0.405   69.103   10.958    0.000
  277.500    0.210    0.390   70.993   10.972    0.000
  277.750    0.300    0.437   74.119   10.778    0.000
  278.000    0.306    0.461   77.240   10.196    0.000
  278.250    0.289    0.472   79.121    9.463    0.000
  278.500    0.279    0.489   80.406    8.621    0.000
  278.750    0.275    0.485   80.436    8.469    0.000
  279.000    0.281    0.463   79.275    8.807    0.000
  279.250    0.294    0.440   78.680    8.979    0.000
  279.500    0.283    0.433   77.496    9.335    0.000
  279.750    0.272    0.436   75.085    9.889    0.000
  280.000    0.273    0.440   74.517    9.899    0.000
  280.250    0.292    0.440   78.857    9.725    0.000
  280.500    0.296    0.434   75.831    9.553    0.000
  280.750    0.277    0.430   74.024    9.039    0.000
  281.000    0.251    0.432   87.596    8.551    0.000
  281.250    0.232    0.452   94.413    8.087    0.000
  281.500    0.218    0.468   96.286    7.368    0.000
  281.750    0.209    0.472   96.958    6.970    0.000
  282.000    0.208    0.454   97.608    6.844    0.000
  282.250    0.219    0.439   97.658    6.983    0.000
  282.500    0.233    0.431   94.629    7.397    0.000
  282.750    0.234    0.417   92.204    7.838    0.000
  283.000    0.232    0.403   89.804    8.146    0.000
  283.250    0.246    0.408   89.225    8.159    0.000
  283.500    0.246    0.425   88.652    7.864    0.000
  283.750    0.252    0.436   90.540    7.299    0.000
  284.000    0.254    0.434   88.751    7.035    0.000
  284.250    0.242    0.437   88.164    6.531    0.000
  284.500    0.237    0.455   90.052    6.062    0.000
  284.750    0.227    0.467   88.260    5.736    0.000
  285.000    0.213    0.469   85.847    5.529    0.000
  285.250    0.206    0.477   92.030    5.534    0.000
  285.500    0.201    0.486   93.322    5.649    0.000
  285.750    0.204    0.494   94.588    5.652    0.000
