~VERSION INFORMATION
 VERS.                 2.0:   CWLS LOG ASCII STANDARD -VERSION 2.0
 WRAP.                  NO:   ONE LINE PER DEPTH STEP
~WELL INFORMATION BLOCK
#MNEM.UNIT           DATA                    DESCRIPTION OF MNEMONIC
#---------    -------------------            -------------------------------
# Generated from Intellog Unique Number	CW_76_78/WELL/554
WELL.         AMOCO ROCK 07-06               : Well_name    - WELL
LOC .         00/07-06-077-23W4/0            : Location     - LOCATION
UWI .         00/07-06-077-23W4/0            : Uwi          - UNIQUE WELL ID
ENTR.         jj                             : Entered      - ENTERED BY
SRVC.         WESTERN ATLAS                  : Scn          - SERVICE COMPANY
DATE.         12 MAR 78                      : Date         - LOG DATE
STRT.M        524.256                        : top_depth    - START DEPTH
STOP.M        765.006                        : bot_depth    - STOP DEPTH
STEP.M        0.25                           : increment    - STEP LENGTH
 NULL. -999.2500:NULL Value
~CURVE INFORMATION BLOCK
#MNEM UNIT       ERCB CURVE CODE    CURVE DESCRIPTION
#-----------   ------------------   ----------------------------------
DEPT.M        00 001 00 00         : DEPTH        - DEPTH
ILD .OHMM     00 120 00 00         : RESD         - DEEP RESISTIVITY (DIL)
DPHI.V/V      00 890 00 00         : PHID         - DENSITY POROSITY (SANDSTONE)
NPHI.V/V      00 330 00 00         : PHIN         - NEUTRON POROSITY (SANDSTONE)
GR  .API      00 310 00 00         : GR           - GAMMA RAY
CALI.MM       00 280 01 00         : CAL          - CALIPER
~PARAMETER INFORMATION
#MNEM.UNIT           DATA             DESCRIPTION OF MNEMONIC
#---------         -----------     ------------------------------
GL  .M        828.294              : gl           - GROUND LEVEL ELEVATION
EREF.M        832.104              : kb           - ELEVATION OF DEPTH REFERENCE
DATM.M        828.294              : datum        - DATUM ELEVATION
TDD .M        789.432              : tdd          - TOTAL DEPTH DRILLER
RUN .         ONE                  : Run          - RUN NUMBER
ENG .         BURLET               : Engineer     - RECORDING ENGINEER
WIT .         MCDONALD             : Witness      - WITNESSED BY
BASE.         EDMONTON             : Branch       - HOME BASE OF LOGGING UNIT
MUD .         GEL BENDEX           : Mud_type     - MUD TYPE
MATR.         SANDSTONE            : Logunit      - NEUTRON MATRIX
TMAX.C        32.7778              : BHT          - MAXIMUM RECORDED TEMPERATURE
BHTD.M        788.213              : BHTDEP       - MAXIMUM RECORDED TEMPERATURE
RMT .C        20.5556              : MDTP         - TEMPERATURE OF MUD
MUDD.KG/M     1080                 : MWT          - MUD DENSITY
NEUT.         1                    : NEUTRON      - NEUTRON TYPE
RESI.         0                    : RESIST       - RESISTIVITY TYPE
RM  .OHMM     2.43                 : RM           - RESISTIVITY OF MUD
RMC .OHMM     3.7                  : RMC          - RESISTIVITY OF MUD CAKE
RMF .OHMM     2.9                  : RMF          - RESISTIVITY OF MUD FILTRATE
SUFT.C        4.5                  : SUFT         - SURFACE TEMPERATURE
~A  DEPTH     RESD     PHID     PHIN       GR      CAL
  524.256    1.836    0.195    0.462   97.906  246.008
  524.506    1.788    0.207    0.462   96.642  245.887
  524.756    1.760    0.212    0.453   96.445  245.021
  525.006    1.704    0.214    0.442   96.246  244.370
  525.256    1.688    0.216    0.430   95.359  243.930
  525.506    1.690    0.222    0.419   94.661  243.063
  525.756    1.722    0.230    0.403   92.707  242.623
  526.006    1.781    0.238    0.338   89.876  241.758
  526.256    1.894    0.239    0.302   86.671  240.891
  526.506    1.951    0.226    0.256   76.570  239.710
  526.756    1.958    0.198    0.248   58.947  238.736
  527.006    1.925    0.228    0.242   48.532  238.402
  527.256    1.892    0.301    0.239   44.448  237.958
  527.506    1.877    0.380    0.244   47.320  237.838
  527.756    1.865    0.386    0.338   48.190  237.501
  528.006    1.858    0.374    0.374   45.735  237.063
  528.256    1.875    0.335    0.395   43.595  236.301
  528.506    1.979    0.334    0.405   43.960  235.861
  528.756    2.162    0.347    0.408   45.517  235.526
  529.006    2.380    0.303    0.411   46.825  235.191
  529.256    2.938    0.301    0.415   48.069  234.751
  529.506    4.131    0.302    0.415   46.806  234.309
  529.756    9.031    0.292    0.420   40.840  234.079
  530.006   12.229    0.280    0.425   37.635  233.848
  530.256   12.960    0.276    0.434   36.370  233.518
  530.506   12.642    0.286    0.446   38.743  233.500
  530.756   10.746    0.304    0.457   44.248  233.378
  531.006    9.186    0.301    0.466   49.442  233.468
  531.256    7.750    0.285    0.472   57.455  234.088
  531.506    6.854    0.234    0.479   64.026  234.179
  531.756    6.487    0.216    0.483   70.661  234.904
  532.006    6.497    0.219    0.467   78.111  236.055
  532.256    6.668    0.232    0.453   87.252  236.889
  532.506    6.831    0.229    0.439   84.296  237.188
  532.756    6.881    0.239    0.420   82.467  236.325
  533.006    6.763    0.252    0.392   80.892  234.925
  533.256    6.377    0.256    0.349   74.740  234.060
  533.506    5.845    0.262    0.339   66.206  233.407
  533.756    4.321    0.238    0.334   59.615  232.754
  534.006    3.014    0.222    0.332   49.702  232.101
  534.256    2.416    0.229    0.331   42.922  231.765
  534.506    2.016    0.255    0.328   38.587  231.536
  534.756    1.736    0.261    0.321   36.635  231.308
  535.006    1.509    0.234    0.311   34.932  230.974
  535.256    1.445    0.194    0.308   34.296  230.429
  535.506    1.523    0.200    0.310   34.912  230.091
  535.756    1.692    0.211    0.316   35.843  230.077
  536.006    1.996    0.189    0.324   35.834  229.847
  536.256    2.428    0.180    0.336   34.821  229.726
  536.506    3.226    0.210    0.348   35.376  229.284
  536.756    6.180    0.269    0.363   37.371  229.268
  537.006   10.143    0.274    0.365   38.114  229.677
  537.256   15.065    0.259    0.357   37.603  230.825
  537.506   17.777    0.270    0.354   36.652  231.871
  537.756   19.712    0.235    0.357   35.891  232.174
  538.006   21.169    0.228    0.368   35.631  231.839
  538.256   22.141    0.245    0.375   36.623  230.756
  538.506   22.512    0.283    0.375   38.996  229.893
  538.756   22.802    0.281    0.378   40.678  229.027
  539.006   23.185    0.298    0.388   41.483  228.053
  539.256   23.842    0.302    0.402   41.536  227.509
  539.506   25.078    0.300    0.412   40.962  226.536
  539.756   26.729    0.300    0.408   40.576  225.672
  540.006   28.596    0.300    0.404   40.817  224.914
  540.256   29.573    0.289    0.400   41.560  224.260
  540.506   28.737    0.280    0.397   42.551  223.500
  540.756   27.249    0.281    0.397   43.171  223.273
  541.006   26.333    0.282    0.403   44.099  223.257
  541.256   24.688    0.279    0.406   44.529  223.238
  541.506   23.061    0.275    0.400   45.021  223.648
  541.756   20.472    0.283    0.398   45.639  223.951
  542.006   17.633    0.292    0.399   46.130  224.358
  542.256   15.187    0.293    0.407   46.810  225.297
  542.506   13.507    0.286    0.414   47.615  225.916
  542.756   12.311    0.276    0.408   50.237  226.004
  543.006   11.011    0.271    0.400   55.619  225.990
  543.256   10.150    0.265    0.402   59.872  226.289
  543.506    9.463    0.258    0.408   63.184  226.592
  543.756    9.075    0.248    0.414   66.559  226.896
  544.006    8.753    0.244    0.420   67.990  227.195
  544.256    8.395    0.251    0.422   67.605  227.394
  544.506    7.990    0.260    0.423   64.085  227.590
  544.756    7.606    0.263    0.424   60.691  227.680
  545.006    7.171    0.266    0.427   58.988  228.298
  545.256    6.611    0.264    0.431   58.790  229.132
  545.506    5.913    0.261    0.435   59.907  229.646
  545.756    5.160    0.260    0.436   62.093  230.480
  546.006    4.598    0.257    0.433   65.719  231.205
  546.256    4.199    0.251    0.426   66.837  231.933
  546.506    3.959    0.234    0.418   66.201  232.341
  546.756    3.884    0.206    0.416   68.573  232.534
  547.006    4.016    0.196    0.417   71.195  232.626
  547.256    4.154    0.206    0.417   68.742  232.396
  547.506    4.312    0.234    0.411   62.652  232.270
  547.756    4.174    0.290    0.404   56.249  231.938
  548.006    3.943    0.311    0.397   50.347  231.921
  548.256    3.718    0.320    0.396   49.084  232.013
  548.506    3.466    0.309    0.397   49.512  232.207
  548.756    3.275    0.293    0.399   50.004  232.297
  549.006    3.182    0.283    0.402   45.983  232.386
  549.256    3.242    0.296    0.406   43.216  232.263
  549.506    3.436    0.306    0.407   43.582  232.462
  549.756    3.956    0.297    0.406   45.327  232.443
  550.006    4.642    0.274    0.407   48.577  232.318
  550.256    5.561    0.241    0.412   51.137  232.198
  550.506    6.866    0.257    0.408   52.318  231.971
  550.756    7.862    0.267    0.399   53.123  231.742
  551.006    8.379    0.256    0.393   55.809  232.150
  551.256    8.282    0.260    0.392   57.805  232.023
  551.506    7.824    0.257    0.398   55.351  232.011
  551.756    7.447    0.251    0.405   52.458  231.676
  552.006    7.022    0.244    0.414   49.941  231.765
  552.256    6.709    0.271    0.418   48.363  231.961
  552.506    6.219    0.294    0.420   48.229  231.944
  552.756    5.897    0.295    0.407   49.033  231.929
  553.006    5.906    0.288    0.401   50.403  231.593
  553.256    5.960    0.277    0.399   51.960  231.256
  553.506    5.891    0.265    0.398   53.518  231.239
  553.756    5.790    0.268    0.393   55.325  231.544
  554.006    5.921    0.273    0.385   56.570  232.058
  554.256    6.491    0.266    0.385   59.693  232.571
  554.506    7.037    0.258    0.387   63.320  233.084
  554.756    7.305    0.231    0.387   67.886  233.707
  555.006    7.357    0.228    0.385   72.326  234.963
  555.256    7.245    0.252    0.379   75.639  236.009
  555.506    7.001    0.255    0.373   79.828  237.158
  555.756    6.701    0.245    0.368   82.576  237.461
  556.006    6.212    0.256    0.364   83.444  237.445
  556.256    5.556    0.246    0.359   80.802  237.111
  556.506    5.036    0.194    0.356   69.071  236.351
  556.756    4.677    0.201    0.354   59.158  235.061
  557.006    4.385    0.212    0.355   47.239  233.450
  557.256    4.166    0.253    0.360   45.787  232.161
  557.506    4.072    0.267    0.365   45.652  231.295
  557.756    4.093    0.288    0.368   43.762  231.278
  558.006    4.217    0.287    0.370   37.861  231.582
  558.256    4.694    0.282    0.372   30.642  231.884
  558.506    5.354    0.269    0.374   30.821  231.974
  558.756    5.937    0.255    0.377   43.034  231.639
  559.006    6.473    0.263    0.379   55.560  231.196
  559.256    6.886    0.313    0.380   51.100  230.969
  559.506    7.284    0.327    0.383   41.124  231.374
  559.756    7.763    0.294    0.388   41.491  231.888
  560.006    8.151    0.288    0.397   59.470  232.299
  560.256    8.163    0.276    0.405   66.669  232.813
  560.506    7.829    0.249    0.412   74.243  233.433
