~VERSION INFORMATION
 VERS.                 2.0:   CWLS LOG ASCII STANDARD -VERSION 2.0
 WRAP.                  NO:   ONE LINE PER DEPTH STEP
~WELL INFORMATION BLOCK
#MNEM.UNIT           DATA                    DESCRIPTION OF MNEMONIC
#---------    -------------------            -------------------------------
# Generated from Intellog Unique Number	CC_84_87/WELL/1065
NULL.         -999.25                        : NULL_VALUE
WELL.         SUNCOR NEWBY                   : Well_name    - WELL              
LOC .         06-08-084-04W4                 : Location     - LOCATION          
UWI .         00/06-08-084-04W4/0            : Uwi          - UNIQUE WELL ID    
ENTR.         JHS                            : Entered      - ENTERED BY        
SRVC.         SCHLUMBERGER                   : Scn          - SERVICE COMPANY   
DATE.         16 FEB 85                      : Date         - LOG DATE
STRT.M        85                             : top_depth    - START DEPTH       
STOP.M        229.901                        : bot_depth    - STOP DEPTH        
STEP.M        0.3                            : increment    - STEP LENGTH       
~CURVE INFORMATION BLOCK
#MNEM UNIT       ERCB CURVE CODE    CURVE DESCRIPTION
#-----------   ------------------   ----------------------------------
DEPT.M        00 001 00 00         : DEPTH        - DEPTH                       
DPHI.V/V      00 890 00 00         : PHID         - DENSITY POROSITY (LIMESTONE)
NPHI.V/V      00 330 00 00         : PHIN         - NEUTRON POROSITY (LIMESTONE)
GR  .API      00 310 00 00         : GR           - GAMMA RAY                   
ILD .OHMM     00 120 00 00         : RESD         - DEEP RESISTIVITY (DIL)      
~PARAMETER INFORMATION       
#MNEM.UNIT           DATA             DESCRIPTION OF MNEMONIC
#---------         -----------     ------------------------------
GL  .M        461.6                : gl           - GROUND LEVEL ELEVATION      
EREF.M        464.6                : kb           - ELEVATION OF DEPTH REFERENCE
DATM.M        464.6                : datum        - DATUM ELEVATION             
TDD .M        240                  : tdd          - TOTAL DEPTH DRILLER         
RUN .         ONE                  : Run          - RUN NUMBER                  
ENG .         BILL                 : Engineer     - RECORDING ENGINEER          
WIT .         JIM                  : Witness      - WITNESSED BY                
MUD .         GEL                  : Mud_type     - MUD TYPE                    
MATR.         LIMESTONE            : Logunit      - NEUTRON MATRIX              
TMAX.C        25                   : BHT          - MAXIMUM RECORDED TEMPERATURE
BHTD.M        240                  : BHTDEP       - MAXIMUM RECORDED TEMPERATURE
MATR.         1                    : LOGUNIT      - NEUTRON MATRIX              
RMT .C        25                   : MDTP         - TEMPERATURE OF MUD          
NEUT.         1                    : NEUTRON      - NEUTRON TYPE                
RESI.         0                    : RESIST       - RESISTIVITY TYPE            
RMC .OHMM     0.25                 : RMC          - RESISTIVITY OF MUD CAKE     
RMF .OHMM     0.25                 : RMF          - RESISTIVITY OF MUD FILTRATE 
SUFT.C        15                   : SUFT         - SURFACE TEMPERATURE         
~A  DEPTH     PHID     PHIN       GR     RESD
   85.000    0.392    0.411   68.391    6.804
   85.300    0.368    0.429   89.061    6.553
   85.600    0.343    0.460  100.949    5.967
   85.900    0.328    0.489  105.307    5.335
   86.200    0.321    0.521   97.744    4.510
   86.500    0.313    0.511   90.181    3.473
   86.800    0.307    0.489   92.028    2.991
   87.100    0.310    0.510  105.172    3.046
   87.400    0.304    0.507  105.141    3.280
   87.700    0.304    0.520  104.478    3.340
   88.000    0.303    0.548  105.695    3.217
   88.300    0.296    0.534  102.522    2.929
   88.600    0.292    0.487  103.747    2.769
   88.900    0.295    0.512  107.482    2.717
   89.200    0.301    0.507  104.937    2.715
   89.500    0.310    0.442   88.593    2.817
   89.800    0.324    0.419   77.893    3.148
   90.100    0.334    0.413   65.306    4.009
   90.400    0.335    0.418   64.021    5.010
   90.700    0.328    0.423   67.751    5.600
   91.000    0.334    0.392   66.464    6.258
   91.300    0.342    0.383   65.172    6.493
   91.600    0.339    0.405   65.140    6.736
   91.900    0.327    0.391   64.478    6.608
   92.200    0.328    0.364   61.936    6.484
   92.500    0.326    0.372   58.762    6.361
   92.800    0.322    0.374   65.004    6.242
   93.100    0.322    0.374   70.621    6.237
   93.400    0.319    0.385   73.093    6.235
   93.700    0.310    0.391   71.176    6.232
   94.000    0.306    0.386   67.382    6.346
   94.300    0.300    0.386   63.584    6.343
   94.600    0.284    0.387   60.404    6.581
   94.900    0.312    0.412   62.255    6.702
   95.200    0.322    0.414   65.360    6.576
   95.500    0.324    0.423   69.092    6.451
   95.800    0.330    0.445   69.687    6.212
   96.100    0.334    0.441   65.887    5.872
   96.400    0.318    0.415   60.838    5.655
   96.700    0.303    0.420   54.530    5.548
   97.000    0.320    0.432   53.868    5.545
   97.300    0.338    0.448   51.949    5.543
   97.600    0.330    0.451   50.038    5.438
   97.900    0.325    0.441   52.508    5.335
   98.200    0.339    0.435   54.361    5.138
   98.500    0.350    0.442   53.071    5.041
   98.800    0.352    0.431   53.661    4.946
   99.100    0.363    0.429   54.883    4.944
   99.400    0.364    0.448   56.736    4.941
   99.700    0.365    0.442   57.960    4.939
  100.000    0.369    0.435   69.220    4.846
  100.300    0.372    0.442   78.597    4.843
  100.600    0.369    0.420   70.405    4.841
  100.900    0.366    0.386   60.960    4.750
  101.200    0.362    0.420   61.541    4.660
  101.500    0.362    0.445   64.651    4.572
  101.800    0.363    0.438   66.507    4.569
  102.100    0.366    0.434   63.965    4.567
  102.400    0.372    0.439   60.166    4.566
  102.700    0.379    0.440   60.127    4.564
  103.000    0.381    0.440   63.231    4.561
  103.300    0.376    0.439   62.576    4.475
  103.600    0.369    0.447   59.399    4.309
  103.900    0.369    0.465   59.999    4.307
  104.200    0.369    0.467   60.587    4.305
  104.500    0.360    0.443   58.670    4.304
  104.800    0.337    0.430   57.383    4.301
  105.100    0.335    0.421   59.862    4.380
  105.400    0.362    0.412   62.965    4.545
  105.700    0.364    0.428   64.188    4.458
  106.000    0.353    0.419   59.757    4.457
  106.300    0.347    0.408   62.238    4.799
  106.600    0.357    0.428   60.948    4.887
  106.900    0.362    0.439   60.289    4.885
  107.200    0.361    0.436   61.505    4.882
  107.500    0.355    0.413   63.986    4.790
  107.800    0.350    0.395   63.320    4.613
  108.100    0.359    0.395   61.408    4.442
  108.400    0.366    0.403   60.108    4.358
  108.700    0.370    0.418   61.340    4.197
  109.000    0.370    0.434   61.933    4.118
  109.300    0.370    0.438   61.270    4.040
  109.600    0.367    0.436   60.607    4.038
  109.900    0.360    0.416   62.462    4.036
  110.200    0.365    0.415   65.563    4.034
  110.500    0.371    0.432   66.161    4.108
  110.800    0.377    0.447   64.864    4.106
  111.100    0.380    0.453   62.950    4.105
  111.400    0.380    0.465   62.293    4.027
  111.700    0.381    0.478   61.625    4.025
  112.000    0.383    0.479   61.600    3.949
  112.300    0.387    0.468   60.939    3.947
  112.600    0.398    0.448   57.769    3.945
  112.900    0.397    0.446   61.495    3.943
  113.200    0.385    0.463   62.092    3.942
  113.500    0.389    0.449   60.168    3.940
  113.800    0.387    0.437   61.391    4.087
  114.100    0.359    0.441   63.868    4.402
  114.400    0.309    0.433   65.724    4.919
  114.700    0.328    0.425   63.806    4.916
  115.000    0.351    0.425   64.397    4.824
  115.300    0.359    0.425   65.621    4.560
  115.600    0.361    0.416   66.213    4.310
  115.900    0.350    0.414   64.923    3.925
  116.200    0.354    0.430   61.130    3.780
  116.500    0.375    0.452   62.342    3.709
  116.800    0.377    0.449   64.828    3.638
  117.100    0.371    0.457   67.299    3.637
  117.400    0.367    0.448   67.270    3.635
  117.700    0.356    0.434   69.119    3.771
  118.000    0.351    0.437   73.476    3.986
  118.300    0.336    0.425   77.201    4.213
  118.600    0.328    0.427   75.286    4.371
  118.900    0.308    0.445   73.376    4.369
  119.200    0.228    0.449   72.088    4.449
  119.500    0.235    0.433   73.308    4.447
  119.800    0.304    0.435   76.410    4.363
  120.100    0.329    0.451   76.376    4.202
  120.400    0.329    0.422   79.475    4.046
  120.700    0.315    0.434   83.206    3.825
  121.000    0.311    0.476   89.451    3.683
  121.300    0.304    0.504   99.456    3.681
  121.600    0.293    0.520   95.655    3.612
  121.900    0.294    0.504   93.117    3.544
  122.200    0.302    0.500   98.725    3.349
  122.500    0.303    0.505  103.090    3.166
  122.800    0.297    0.520  101.801    3.049
  123.100    0.308    0.523  101.139    3.105
  123.400    0.324    0.515   96.087    3.344
  123.700    0.333    0.525   90.406    3.668
  124.000    0.329    0.529  100.409    3.467
  124.300    0.325    0.507  106.650    3.158
  124.600    0.330    0.512  110.382    2.719
  124.900    0.333    0.550  114.742    2.476
  125.200    0.335    0.574  112.199    2.385
  125.500    0.329    0.582  102.753    2.340
  125.800    0.316    0.573  103.972    2.382
  126.100    0.285    0.563  100.803    2.518
  126.400    0.253    0.570   99.514    2.662
  126.700    0.277    0.539  108.893    2.920
  127.000    0.294    0.488  107.605    3.264
  127.300    0.282    0.459  100.667    3.857
  127.600    0.249    0.449   96.866    4.231
  127.900    0.242    0.471   98.084    4.390
  128.200    0.265    0.476   97.425    4.471
  128.500    0.279    0.453   93.625    4.468
  128.800    0.281    0.429   92.970    4.466
  129.100    0.297    0.412   89.795    4.548
  129.400    0.284    0.408   87.258    4.719
  129.700    0.240    0.425   88.478    4.987
  130.000    0.259    0.431   94.718    5.174
  130.300    0.279    0.439   92.799    5.172
  130.600    0.285    0.456   89.630    5.074
  130.900    0.296    0.465   85.203    4.796
  131.200    0.298    0.469   85.168    4.618
  131.500    0.307    0.467   86.391    4.531
  131.800    0.304    0.460   90.753    4.701
  132.100    0.294    0.457   94.478    4.877
  132.400    0.282    0.438   94.447    5.155
  132.700    0.270    0.432   97.553    5.250
  133.000    0.277    0.430  100.652    5.446
  133.300    0.294    0.424   98.105    5.546
  133.600    0.285    0.415   95.572    5.441
  133.900    0.237    0.416   94.905    5.240
  134.201    0.265    0.425   96.757    5.046
  134.501    0.293    0.421   96.096    4.860
  134.801    0.292    0.430   96.688    4.680
  135.101    0.278    0.446   98.534    4.591
  135.401    0.267    0.435  102.893    4.589
  135.701    0.267    0.437  100.352    4.673
  136.001    0.274    0.455   99.691    4.848
  136.301    0.255    0.464   94.639    4.937
  136.601    0.256    0.446   89.583    4.844
  136.901    0.283    0.422   92.060    4.665
