~VERSION INFORMATION
 VERS.                 2.0:   CWLS LOG ASCII STANDARD -VERSION 2.0
 WRAP.                  NO:   ONE LINE PER DEPTH STEP
~WELL INFORMATION BLOCK
#MNEM.UNIT           DATA                    DESCRIPTION OF MNEMONIC
#---------    -------------------            -------------------------------
# Generated from Intellog Unique Number	CS_77_79/WELL/886
WELL.         PEX LOUGHERY                   : Well_name    - WELL
LOC .         00/06-30-078-05W4/0            : Location     - LOCATION
UWI .         00/06-30-078-05W4/0            : Uwi          - UNIQUE WELL ID
ENTR.         JHS                            : Entered      - ENTERED BY
SRVC.         SCHLUMBERGER                   : Scn          - SERVICE COMPANY
STRT.M        115                            : top_depth    - START DEPTH
STOP.M        390                            : bot_depth    - STOP DEPTH
STEP.M        0.25                           : increment    - STEP LENGTH
 NULL. -999.2500:NULL Value
~CURVE INFORMATION BLOCK
#MNEM UNIT       ERCB CURVE CODE    CURVE DESCRIPTION
#-----------   ------------------   ----------------------------------
DEPT.M        00 001 00 00         : DEPTH        - DEPTH
DPHI.V/V      00 890 00 00         : PHID         - DENSITY POROSITY (LIMESTONE)
NPHI.V/V      00 330 00 00         : PHIN         - NEUTRON POROSITY (LIMESTONE)
GR  .API      00 310 00 00         : GR           - GAMMA RAY
ILD .OHMM     00 120 00 00         : RESD         - DEEP RESISTIVITY (DIL)
RHOB.KG/M3    00 350 00 00         : DENS         - BULK DENSITY
~PARAMETER INFORMATION
#MNEM.UNIT           DATA             DESCRIPTION OF MNEMONIC
#---------         -----------     ------------------------------
GL  .M        552.72               : gl           - GROUND LEVEL ELEVATION
EREF.M        555.82               : kb           - ELEVATION OF DEPTH REFERENCE
DATM.M        555.82               : datum        - DATUM ELEVATION
TDD .M        398                  : tdd          - TOTAL DEPTH DRILLER
RUN .         ONE                  : Run          - RUN NUMBER
ENG .         BILL                 : Engineer     - RECORDING ENGINEER
WIT .         JIM                  : Witness      - WITNESSED BY
MUD .         GEL                  : Mud_type     - MUD TYPE
MATR.         LIMESTONE            : Logunit      - NEUTRON MATRIX
TMAX.C        18.5                 : BHT          - MAXIMUM RECORDED TEMPERATURE
BHTD.M        398                  : BHTDEP       - MAXIMUM RECORDED TEMPERATURE
MATR.         1                    : LOGUNIT      - NEUTRON MATRIX
RMT .C        25                   : MDTP         - TEMPERATURE OF MUD
NEUT.         1                    : NEUTRON      - NEUTRON TYPE
RESI.         0                    : RESIST       - RESISTIVITY TYPE
RMC .OHMM     0.25                 : RMC          - RESISTIVITY OF MUD CAKE
RMF .OHMM     0.25                 : RMF          - RESISTIVITY OF MUD FILTRATE
SUFT.C        15                   : SUFT         - SURFACE TEMPERATURE
~A  DEPTH     PHID     PHIN       GR     RESD     DENS
# ...
  297.500    0.244    0.541   81.914    3.493 2292.320
  297.750    0.252    0.554   86.793    3.426 2279.710
  298.000    0.316    0.566   90.453    3.361 2170.390
  298.250    0.282    0.507   88.625    3.360 2227.160
  298.500    0.257    0.439   89.845    3.423 2271.310
  298.750    0.257    0.421   84.969    3.620 2271.320
  299.000    0.293    0.463   82.530    3.830 2208.250
  299.250    0.282    0.529   87.410    4.129 2227.170
  299.500    0.238    0.539   91.069    4.451 2302.870
  299.750    0.233    0.523   87.412    4.890 2311.280
  300.000    0.092    0.531   78.266    5.173 2553.070
  300.250    0.051    0.343   72.780    5.370 2622.450
  300.500    0.054    0.316   76.439    5.368 2618.250
  300.750    0.154    0.356   79.489    5.787 2445.850
  301.000    0.216    0.404   84.368    6.479 2340.730
  301.250    0.228    0.430   80.711    7.532 2319.710
  301.500    0.266    0.410   72.785    8.274 2254.540
  301.750    0.287    0.382   69.128    8.750 2218.800
  302.000    0.276    0.360   72.787    8.585 2237.730
  302.250    0.264    0.359   77.666    8.264 2258.760
  302.500    0.269    0.407   81.936    7.806 2250.350
  302.750    0.288    0.480   80.718    7.100 2216.710
  303.000    0.280    0.462   76.450    6.836 2231.430
  303.250    0.271    0.378   61.817    5.876 2246.160
  303.500    0.272    0.363   55.721    4.863 2244.060
  303.750    0.270    0.383   60.600    4.594 2248.270
  304.000    0.286    0.375   61.820    4.769 2220.940
  304.250    0.274    0.344   60.602    5.338 2241.970
  304.500    0.265    0.330   54.505    5.976 2256.690
  304.750    0.285    0.308   41.092    6.946 2223.050
  305.000    0.318    0.290   33.166    7.212 2166.290
  305.250    0.325    0.298   39.265    7.346 2153.680
  305.500    0.323    0.298   38.656    7.206 2157.890
  305.750    0.319    0.291   32.559    7.069 2164.200
  306.000    0.320    0.296   30.121    7.067 2162.100
  306.250    0.325    0.307   36.830    6.932 2153.690
  306.500    0.322    0.302   38.051    6.799 2160.000
  306.750    0.309    0.291   41.100    6.796 2181.030
  307.000    0.302    0.296   44.760    6.667 2193.650
  307.250    0.312    0.301   37.444    6.665 2176.830
  307.500    0.328    0.295   28.908    6.663 2149.510
  307.750    0.327    0.291   25.861    6.536 2151.610
  308.000    0.329    0.290   30.130    6.534 2147.410
  308.250    0.324    0.288   30.741    6.409 2155.820
  308.500    0.320    0.297   30.132    6.407 2162.130
  308.750    0.318    0.303   30.134    6.285 2166.340
  309.000    0.319    0.319   27.695    6.282 2164.240
  309.250    0.304    0.320   24.648    6.163 2189.480
  309.500    0.301    0.330   25.259    6.160 2195.790
  309.750    0.314    0.350   24.040    6.042 2172.670
  310.000    0.328    0.366   23.431    5.928 2149.540
  310.250    0.318    0.355   30.140    5.705 2166.370
  310.500    0.301    0.354   37.458    5.493 2195.800
  310.750    0.306    0.356   39.288    5.287 2187.400
  311.000    0.308    0.344   35.021    5.285 2183.200
  311.250    0.296    0.317   36.242    5.283 2204.230
  311.500    0.287    0.324   44.779    5.281 2218.950
  311.750    0.287    0.347   47.220    5.380 2218.950
  312.000    0.275    0.331   57.587    5.278 2239.980
  312.250    0.263    0.349   72.832    5.375 2261.010
  312.500    0.258    0.366   89.906    5.374 2269.420
  312.750    0.242    0.358  100.273    5.372 2296.760
  313.000    0.221    0.361  108.201    5.577 2332.500
  313.250    0.217    0.384  113.081    6.012 2338.810
  313.500    0.251    0.394  115.520    6.481 2279.950
  313.750    0.287    0.403  114.912    6.728 2218.980
  314.000    0.317    0.420  107.596    7.390 2168.530
  314.250    0.324    0.467  105.768    7.672 2155.910
  314.500    0.313    0.523  109.427    8.115 2174.840
  314.750    0.291    0.570  118.575    8.113 2212.690
  315.000    0.269    0.595  125.893    5.997 2250.540
  315.250    0.249    0.567  129.552    4.432 2284.180
  315.500    0.233    0.540  127.725    3.956 2311.520
  315.750    0.222    0.550  123.457    3.598 2330.440
  316.000    0.217    0.508  111.263    3.398 2338.860
  316.250    0.201    0.457   94.191    3.398 2366.190
  316.500    0.151    0.405   83.826    3.876 2452.400
  316.750    0.078    0.383   85.047    4.859 2576.440
  317.000    0.121    0.374   90.535    5.544 2502.860
  317.250    0.170    0.406   96.634    6.568 2418.770
  317.500    0.194    0.411   97.245    7.493 2378.820
  317.750    0.191    0.415   98.466    7.632 2383.030
  318.000    0.180    0.437  101.516    7.209 2401.960
  318.250    0.188    0.435  100.907    6.940 2389.350
  318.500    0.210    0.425   98.469    6.680 2351.510
  318.750    0.218    0.395   94.811    6.806 2336.790
  319.000    0.212    0.381   90.544    7.064 2347.310
  319.250    0.219    0.420   83.838    6.929 2334.700
  319.500    0.215    0.405   78.351    6.797 2343.110
  319.750    0.207    0.389   77.133    6.795 2355.730
  320.000    0.238    0.394   71.036    6.792 2303.170
  320.250    0.258    0.388   64.330    7.050 2269.540
  320.500    0.260    0.379   61.892    6.917 2265.330
  320.750    0.250    0.371   69.820    6.785 2282.160
  321.000    0.237    0.362   76.528    6.532 2305.290
  321.250    0.233    0.383   71.651    6.529 2311.600
  321.500    0.266    0.389   63.116    6.527 2254.840
  321.750    0.281    0.377   67.995    6.649 2229.610
  322.000    0.277    0.365   69.216    6.772 2235.920
  322.250    0.272    0.363   56.412    6.770 2244.340
  322.500    0.278    0.353   44.827    6.641 2233.830
  322.750    0.313    0.345   48.487    6.273 2174.960
  323.000    0.304    0.367   64.952    5.926 2189.680
  323.250    0.288    0.373   75.319    5.598 2217.020
  323.500    0.283    0.392   78.369    5.388 2225.430
  323.750    0.317    0.412   76.540    5.286 2168.670
  324.000    0.313    0.415   79.590    5.384 2174.980
  324.250    0.292    0.415   82.030    5.382 2210.730
  324.500    0.274    0.415   89.349    5.483 2242.270
  324.750    0.265    0.414   96.057    5.800 2256.990
  325.000    0.249    0.416  102.156    6.021 2284.330
  325.250    0.244    0.421  100.328    6.134 2292.740
  325.500    0.255    0.438   81.426    6.488 2273.820
  325.750    0.255    0.431   72.891    6.735 2273.820
  326.000    0.238    0.404   77.160    6.992 2303.260
  326.250    0.259    0.412   86.917    7.258 2267.530
  326.500    0.239    0.415   94.235    7.393 2301.170
  326.750    0.222    0.411  103.993    7.531 2330.610
  327.000    0.211    0.399  104.604    7.528 2349.530
  327.250    0.221    0.372   93.019    7.669 2332.720
  327.500    0.224    0.357   85.703    7.812 2326.410
  327.750    0.198    0.355   91.802    8.264 2370.570
  328.000    0.195    0.380   89.974    8.420 2376.880
  328.250    0.235    0.384   82.048    8.576 2307.500
  328.500    0.261    0.363   68.024    8.573 2263.350
  328.750    0.267    0.344   64.367    8.410 2252.850
  329.000    0.244    0.329   69.856    8.249 2292.800
  329.250    0.212    0.331   77.784    8.092 2347.460
  329.500    0.191    0.334   82.663    8.090 2383.210
  329.750    0.230    0.339   88.762    8.241 2315.930
  330.000    0.245    0.361   92.421    8.553 2290.710
  330.250    0.222    0.371   96.081    8.551 2330.660
  330.500    0.198    0.382   99.131    8.548 2370.610
  330.750    0.190    0.390  100.351    8.228 2385.330
  331.000    0.203    0.389   97.914    7.921 2362.210
  331.250    0.212    0.382   96.085    7.624 2347.490
  331.500    0.227    0.374   94.257    7.202 2322.270
  331.750    0.224    0.372   93.039    7.200 2326.480
  332.000    0.211    0.384   93.040    7.334 2349.610
  332.250    0.198    0.396   93.651    7.331 2370.640
  332.500    0.213    0.388   93.652    7.328 2345.410
  332.750    0.238    0.377   92.433    7.465 2303.360
  333.000    0.230    0.363   93.044    7.323 2315.980
  333.250    0.208    0.362   95.484    7.183 2353.830
  333.500    0.191    0.410   96.705    7.180 2383.270
  333.750    0.178    0.421   91.218    7.314 2406.400
