~VERSION INFORMATION
 VERS.                 2.0:   CWLS LOG ASCII STANDARD -VERSION 2.0
 WRAP.                  NO:   ONE LINE PER DEPTH STEP
~WELL INFORMATION BLOCK
#MNEM.UNIT           DATA                    DESCRIPTION OF MNEMONIC
#---------    -------------------            -------------------------------
# Generated from Intellog Unique Number	CS_77_79/WELL/886
WELL.         PEX LOUGHERY                   : Well_name    - WELL
LOC .         00/06-30-078-05W4/0            : Location     - LOCATION
UWI .         00/06-30-078-05W4/0            : Uwi          - UNIQUE WELL ID
ENTR.         JHS                            : Entered      - ENTERED BY
SRVC.         SCHLUMBERGER                   : Scn          - SERVICE COMPANY
STRT.M        115                            : top_depth    - START DEPTH
STOP.M        390                            : bot_depth    - STOP DEPTH
STEP.M        0.25                           : increment    - STEP LENGTH
 NULL. -999.2500:NULL Value
~CURVE INFORMATION BLOCK
#MNEM UNIT       ERCB CURVE CODE    CURVE DESCRIPTION
#-----------   ------------------   ----------------------------------
DEPT.M        00 001 00 00         : DEPTH        - DEPTH
DPHI.V/V      00 890 00 00         : PHID         - DENSITY POROSITY (LIMESTONE)
NPHI.V/V      00 330 00 00         : PHIN         - NEUTRON POROSITY (LIMESTONE)
GR  .API      00 310 00 00         : GR           - GAMMA RAY
ILD .OHMM     00 120 00 00         : RESD         - DEEP RESISTIVITY (DIL)
RHOB.KG/M3    00 350 00 00         : DENS         - BULK DENSITY
~PARAMETER INFORMATION
#MNEM.UNIT           DATA             DESCRIPTION OF MNEMONIC
#---------         -----------     ------------------------------
GL  .M        552.72               : gl           - GROUND LEVEL ELEVATION
EREF.M        555.82               : kb           - ELEVATION OF DEPTH REFERENCE
DATM.M        555.82               : datum        - DATUM ELEVATION
TDD .M        398                  : tdd          - TOTAL DEPTH DRILLER
RUN .         ONE                  : Run          - RUN NUMBER
ENG .         BILL                 : Engineer     - RECORDING ENGINEER
WIT .         JIM                  : Witness      - WITNESSED BY
MUD .         GEL                  : Mud_type     - MUD TYPE
MATR.         LIMESTONE            : Logunit      - NEUTRON MATRIX
TMAX.C        18.5                 : BHT          - MAXIMUM RECORDED TEMPERATURE
BHTD.M        398                  : BHTDEP       - MAXIMUM RECORDED TEMPERATURE
MATR.         1                    : LOGUNIT      - NEUTRON MATRIX
RMT .C        25                   : MDTP         - TEMPERATURE OF MUD
NEUT.         1                    : NEUTRON      - NEUTRON TYPE
RESI.         0                    : RESIST       - RESISTIVITY TYPE
RMC .OHMM     0.25                 : RMC          - RESISTIVITY OF MUD CAKE
RMF .OHMM     0.25                 : RMF          - RESISTIVITY OF MUD FILTRATE
SUFT.C        15                   : SUFT         - SURFACE TEMPERATURE
~A  DEPTH     PHID     PHIN       GR     RESD     DENS
# ...
  151.500    0.312    0.407   36.142   28.979    0.000
  151.750    0.329    0.357   26.946   32.487    0.000
  152.000    0.338    0.361   25.710   35.066    0.000
  152.250    0.337    0.399   32.429   36.456    0.000
  152.500    0.348    0.393   37.313   35.811    0.000
  152.750    0.337    0.378   39.753   35.846    0.000
  153.000    0.349    0.385   40.352   35.895    0.000
  153.250    0.353    0.414   32.380   37.331    0.000
  153.500    0.342    0.402   26.858   38.069    0.000
  153.750    0.323    0.383   24.398   38.123    0.000
  154.000    0.334    0.391   23.773   38.145    0.000
  154.250    0.338    0.383   24.372   38.914    0.000
  154.500    0.347    0.388   26.198   38.960    0.000
  154.750    0.363    0.419   30.470   39.008    0.000
  155.000    0.354    0.428   32.292   39.065    0.000
  155.250    0.347    0.406   30.442   39.090    0.000
  155.500    0.343    0.405   31.044   39.131    0.000
  155.750    0.347    0.419   32.867   38.442    0.000
  156.000    0.352    0.397   35.918   37.771    0.000
  156.250    0.354    0.371   47.537   37.816    0.000
  156.500    0.346    0.374   63.441   37.859    0.000
  156.750    0.338    0.400   76.895   37.876    0.000
  157.000    0.347    0.428   66.475   37.217    0.000
  157.250    0.371    0.434   57.895   36.567    0.000
  157.500    0.347    0.405   47.472   36.596    0.000
  157.750    0.333    0.397   45.011   36.636    0.000
  158.000    0.343    0.392   45.614   37.376    0.000
  158.250    0.336    0.376   46.826   36.042    0.000
  158.500    0.316    0.358   46.810   34.743    0.000
  158.750    0.318    0.365   50.470   32.856    0.000
  159.000    0.396    0.444   52.296   29.939    0.000
  159.250    0.531    0.584   52.285   29.399    0.000
  159.500    0.463    0.609   57.167   28.884    0.000
  159.750    0.343    0.560   58.382   27.855    0.000
  160.000    0.336    0.428   58.369   27.873    0.000
  160.250    0.347    0.422   61.416   27.389    0.000
  160.500    0.356    0.434   62.017   27.423    0.000
  160.750    0.367    0.449   62.004   27.444    0.000
  161.000    0.374    0.454   63.829   27.484    0.000
  161.250    0.377    0.439   61.367   26.988    0.000
  161.500    0.368    0.452   60.744   27.016    0.000
  161.750    0.355    0.455   64.405   25.558    0.000
  162.000    0.352    0.459   65.614   24.177    0.000
  162.250    0.339    0.467   66.217   22.442    0.000
  162.500    0.335    0.463   72.326   20.445    0.000
  162.750    0.345    0.442   79.047   18.622    0.000
  163.000    0.356    0.430   79.646   15.149    0.000
  163.250    0.335    0.441   86.362   12.556    0.000
  163.500    0.311    0.440   90.641    9.836    0.000
  163.750    0.281    0.452  104.097    7.561    0.000
  164.000    0.216    0.495  118.164    7.151    0.000
  164.250    0.215    0.511  125.498    6.766    0.000
  164.500    0.222    0.509  121.811    6.163    0.000
  164.750    0.198    0.500  115.067    5.617    0.000
  165.000    0.185    0.479  110.156    5.518    0.000
  165.250    0.184    0.482  110.755    5.522    0.000
  165.500    0.216    0.506  119.313    5.634    0.000
  165.750    0.239    0.501  122.974    5.748    0.000
  166.000    0.285    0.522  112.555    5.863    0.000
  166.250    0.318    0.541   92.951    6.450    0.000
  166.500    0.275    0.444  101.509    7.230    0.000
  166.750    0.252    0.433  106.397    9.606    0.000
  167.000    0.249    0.474   70.878   14.292    0.000
  167.250    0.295    0.482   52.499   18.634    0.000
  167.500    0.327    0.413   42.079   23.396    0.000
  167.750    0.337    0.399   39.004   28.284    0.000
  168.000    0.338    0.393   39.603   34.201    0.000
  168.250    0.336    0.390   40.205   36.927    0.000
  168.500    0.339    0.385   41.419   36.270    0.000
  168.750    0.352    0.376   45.690   32.431    0.000
  169.000    0.345    0.392   49.964   30.678    0.000
  169.250    0.339    0.406   51.784   30.700    0.000
  169.500    0.327    0.392   52.388   30.734    0.000
  169.750    0.311    0.384   55.435   27.479    0.000
  170.000    0.293    0.390   60.319   25.026    0.000
  170.250    0.285    0.412   65.817   21.551    0.000
  170.500    0.272    0.427   72.541   20.380    0.000
  170.750    0.271    0.412   79.263   17.879    0.000
  171.000    0.277    0.412   79.245   16.288    0.000
  171.250    0.241    0.429   81.686   14.834    0.000
  171.500    0.223    0.408   82.896   14.034    0.000
  171.750    0.235    0.396   74.313   14.317    0.000
  172.000    0.286    0.420   70.017   16.360    0.000
  172.250    0.314    0.426   65.719   17.327    0.000
  172.500    0.276    0.399   74.890   15.785    0.000
  172.750    0.246    0.401   95.079   13.084    0.000
  173.000    0.247    0.455  101.801   11.919    0.000
  173.250    0.329    0.474   90.156   14.142    0.000
  173.500    0.352    0.433   81.573   18.092    0.000
  173.750    0.350    0.410   85.234   23.148    0.000
  174.000    0.353    0.410  102.364   27.989    0.000
  174.250    0.362    0.452  113.370   30.796    0.000
  174.500    0.363    0.468   99.278   30.833    0.000
  174.750    0.361    0.452   76.001   29.725    0.000
  175.000    0.342    0.412   63.133   28.644    0.000
  175.250    0.335    0.403   59.448   26.600    0.000
  175.500    0.340    0.400   69.229   25.630    0.000
  175.750    0.335    0.408   75.953   24.255    0.000
  176.000    0.333    0.431   64.918   23.830    0.000
  176.250    0.331    0.427   58.174   23.401    0.000
  176.500    0.320    0.420   56.326   22.992    0.000
  176.750    0.318    0.419   63.047   22.163    0.000
  177.000    0.322    0.406   73.438   20.966    0.000
  177.250    0.309    0.404   77.712   20.208    0.000
  177.500    0.303    0.414   81.374   19.116    0.000
  177.750    0.302    0.414   86.259   18.428    0.000
  178.000    0.309    0.409   89.306   17.768    0.000
  178.250    0.307    0.414   94.803   17.451    0.000
  178.500    0.312    0.440   98.467   17.802    0.000
  178.750    0.319    0.478   97.228   18.512    0.000
  179.000    0.312    0.453   91.705   18.535    0.000
  179.250    0.302    0.435   90.471   18.555    0.000
  179.500    0.287    0.425   86.173   18.921    0.000
  179.750    0.276    0.389   80.038   19.311    0.000
  180.000    0.265    0.362   79.412   18.964    0.000
  180.250    0.247    0.350   83.688   18.281    0.000
  180.500    0.226    0.363   92.244   16.972    0.000
  180.750    0.263    0.398   85.500   16.359    0.000
  181.000    0.285    0.420   73.854   16.692    0.000
  181.250    0.286    0.402   72.007   18.028    0.000
  181.500    0.278    0.388   75.052   18.383    0.000
  181.750    0.269    0.395   78.715   19.844    0.000
  182.000    0.275    0.414   80.541   21.020    0.000
  182.250    0.290    0.430   75.627   21.859    0.000
  182.500    0.285    0.401   74.392   21.880    0.000
  182.750    0.272    0.398   79.890   19.561    0.000
  183.000    0.275    0.425   89.673   17.815    0.000
  183.250    0.288    0.444   95.170   15.928    0.000
  183.500    0.269    0.412   89.033   14.787    0.000
  183.750    0.261    0.398   92.083   14.522    0.000
  184.000    0.271    0.424  103.090   14.542    0.000
  184.250    0.265    0.450  103.079   14.555    0.000
  184.500    0.261    0.427   97.557   14.854    0.000
  184.750    0.268    0.410   93.257   15.148    0.000
  185.000    0.274    0.405   91.407   15.453    0.000
  185.250    0.273    0.408   90.171   15.764    0.000
  185.500    0.266    0.413   90.157   15.786    0.000
  185.750    0.252    0.416   90.759   15.215    0.000
  186.000    0.245    0.406   92.582   14.393    0.000
  186.250    0.260    0.458   98.079   13.357    0.000
  186.500    0.265    0.487  104.189   11.941    0.000
  186.750    0.248    0.487  107.240   10.674    0.000
  187.000    0.241    0.480  107.839    9.365    0.000
  187.250    0.235    0.481  108.437    8.692    0.000
  187.500    0.224    0.495  110.875    8.542    0.000
  187.750    0.222    0.507  109.026    8.712    0.000
