~VERSION INFORMATION
 VERS.                 2.0:   CWLS LOG ASCII STANDARD -VERSION 2.0
 WRAP.                  NO:   ONE LINE PER DEPTH STEP
~WELL INFORMATION BLOCK
#MNEM.UNIT           DATA                    DESCRIPTION OF MNEMONIC
#---------    -------------------            -------------------------------
# Generated from Intellog Unique Number	CS_73_76/WELL/1064
WELL.         BRALORNE RES                   : Well_name    - WELL
LOC .         00/02-27-076-14W4/0            : Location     - LOCATION
UWI .         00/02-27-076-14W4/0            : Uwi          - UNIQUE WELL ID
ENTR.         T                              : Entered      - ENTERED BY
SRVC.         SCHLUMBERGER                   : Scn          - SERVICE COMPANY
STRT.M        290                            : top_depth    - START DEPTH
STOP.M        520                            : bot_depth    - STOP DEPTH
STEP.M        0.25                           : increment    - STEP LENGTH
 NULL. -999.2500:NULL Value
~CURVE INFORMATION BLOCK
#MNEM UNIT       ERCB CURVE CODE    CURVE DESCRIPTION
#-----------   ------------------   ----------------------------------
DEPT.M        00 001 00 00         : DEPTH        - DEPTH
GR  .API      00 310 00 00         : GR           - GAMMA RAY
NPHI.V/V      00 330 00 00         : PHIN         - NEUTRON POROSITY (SANDSTONE)
DPHI.V/V      00 890 00 00         : PHID         - DENSITY POROSITY (SANDSTONE)
ILD .OHMM     00 120 00 00         : RESD         - DEEP RESISTIVITY (DIL)
~PARAMETER INFORMATION
#MNEM.UNIT           DATA             DESCRIPTION OF MNEMONIC
#---------         -----------     ------------------------------
GL  .M        676.6                : gl           - GROUND LEVEL ELEVATION
EREF.M        679.9                : kb           - ELEVATION OF DEPTH REFERENCE
DATM.M        679.9                : datum        - DATUM ELEVATION
TDD .M        525                  : tdd          - TOTAL DEPTH DRILLER
RUN .         ONE                  : Run          - RUN NUMBER
ENG .         BILL                 : Engineer     - RECORDING ENGINEER
WIT .         JIM                  : Witness      - WITNESSED BY
MUD .         GEL                  : Mud_type     - MUD TYPE
MATR.         SANDSTONE            : Logunit      - NEUTRON MATRIX
TMAX.C        21                   : BHT          - MAXIMUM RECORDED TEMPERATURE
BHTD.M        525                  : BHTDEP       - MAXIMUM RECORDED TEMPERATURE
MATR.         1                    : LOGUNIT      - NEUTRON MATRIX
RMT .C        10                   : MDTP         - TEMPERATURE OF MUD
NEUT.         1                    : NEUTRON      - NEUTRON TYPE
RESI.         3.1                  : RESIST       - RESISTIVITY TYPE
RMC .OHMM     3                    : RMC          - RESISTIVITY OF MUD CAKE
RMF .OHMM     3.3                  : RMF          - RESISTIVITY OF MUD FILTRATE
SUFT.C        15                   : SUFT         - SURFACE TEMPERATURE
~A  DEPTH       GR     PHIN     PHID     RESD
# ...
  420.500   56.226    0.360    0.306    7.336
  420.750   56.156    0.355    0.305    7.326
  421.000   56.127    0.349    0.304    7.321
  421.250   55.450    0.354    0.301    7.313
  421.500   56.001    0.361    0.300    7.304
  421.750   56.580    0.369    0.300    7.297
  422.000   58.374    0.377    0.302    7.289
  422.250   58.954    0.384    0.305    7.147
  422.500   61.384    0.381    0.310    7.138
  422.750   63.800    0.378    0.314    6.998
  423.000   64.365    0.385    0.317    6.991
  423.250   64.944    0.392    0.323    6.980
  423.500   65.496    0.402    0.326    6.973
  423.750   64.196    0.407    0.318    6.970
  424.000   62.897    0.400    0.316    6.959
  424.250   61.597    0.384    0.311    6.954
  424.500   60.905    0.383    0.311    6.948
  424.750   60.877    0.384    0.316    6.938
  425.000   60.821    0.384    0.323    6.931
  425.250   60.765    0.391    0.326    6.923
  425.500   61.302    0.396    0.325    6.788
  425.750   61.274    0.392    0.321    6.525
  426.000   62.447    0.387    0.319    6.398
  426.250   63.026    0.384    0.316    6.393
  426.500   64.834    0.379    0.315    6.385
  426.750   66.021    0.378    0.311    6.378
  427.000   65.965    0.380    0.310    6.494
  427.250   65.273    0.384    0.308    6.611
  427.500   64.595    0.382    0.302    6.731
  427.750   63.296    0.373    0.297    6.726
  428.000   62.618    0.362    0.284    6.848
  428.250   62.562    0.346    0.270    7.238
  428.500   61.870    0.320    0.255    7.656
  428.750   61.220    0.293    0.130    8.096
  429.000   58.677    0.260    0.138    8.893
  429.250   56.756    0.247    0.152    9.768
  429.500   53.564    0.258    0.170   10.533
  429.750   53.522    0.282    0.227   11.351
  430.000   58.452    0.305    0.294   11.554
  430.250   67.098    0.331    0.310   11.540
  430.500   68.906    0.368    0.277   11.314
  430.750   66.364    0.360    0.213   11.090
  431.000   62.578    0.343    0.180   10.868
  431.250   57.535    0.306    0.159   10.857
  431.500   54.993    0.264    0.190   10.845
  431.750   58.044    0.258    0.217   10.040
  432.000   62.353    0.283    0.243    9.477
  432.250   65.404    0.299    0.258    8.776
  432.500   65.334    0.379    0.306    8.126
  432.750   64.656    0.380    0.309    7.526
  433.000   63.964    0.378    0.306    7.239
  433.250   63.300    0.378    0.307    6.831
  433.500   62.608    0.376    0.308    6.568
  433.750   61.295    0.375    0.309    6.440
  434.000   60.010    0.370    0.311    6.311
  434.250   58.724    0.365    0.311    6.306
  434.500   58.047    0.363    0.310    6.298
  434.750   58.598    0.368    0.311    6.410
  435.000   59.177    0.375    0.315    6.407
  435.250   60.986    0.380    0.319    6.522
  435.500   62.172    0.379    0.317    6.517
  435.750   63.345    0.379    0.311    6.633
  436.000   63.275    0.382    0.305    6.628
  436.250   62.625    0.387    0.304    6.748
  436.500   62.569    0.393    0.304    6.739
  436.750   63.727    0.397    0.311    6.731
  437.000   64.307    0.418    0.311    6.726
  437.250   64.886    0.418    0.308    6.721
  437.500   64.180    0.420    0.305    6.714
  437.750   63.531    0.422    0.303    6.705
  438.000   62.231    0.426    0.300    6.698
  438.250   62.161    0.435    0.298    6.691
  438.500   62.090    0.434    0.297    6.685
  438.750   62.048    0.365    0.295    6.806
  439.000   61.384    0.371    0.296    6.801
  439.250   61.314    0.372    0.297    6.794
  439.500   63.122    0.377    0.296    6.917
  439.750   66.781    0.381    0.294    7.042
  440.000   67.996    0.381    0.294    7.033
  440.250   67.926    0.375    0.297    7.028
  440.500   67.262    0.374    0.309    7.020
  440.750   64.706    0.380    0.315    7.013
  441.000   63.420    0.385    0.315    7.140
  441.250   63.350    0.388    0.315    7.129
  441.500   62.672    0.388    0.312    7.120
  441.750   61.387    0.388    0.307    7.115
  442.000   60.073    0.385    0.303    7.109
  442.250   60.639    0.377    0.306    7.102
  442.500   62.447    0.379    0.308    7.095
  442.750   62.405    0.380    0.308    7.086
  443.000   61.713    0.380    0.310    7.080
  443.250   60.385    0.375    0.315    7.070
  443.500   60.343    0.369    0.314    7.066
  443.750   60.287    0.364    0.308    7.192
  444.000   64.596    0.367    0.304    7.185
  444.250   68.890    0.377    0.305    7.179
  444.500   71.928    0.388    0.309    7.172
  444.750   71.899    0.390    0.311    7.163
  445.000   71.843    0.379    0.311    7.157
  445.250   69.908    0.371    0.311    7.148
  445.500   66.730    0.376    0.311    7.143
  445.750   63.566    0.381    0.310    7.136
  446.000   61.645    0.390    0.310    7.125
  446.250   64.089    0.395    0.309    7.119
  446.500   68.370    0.382    0.306    7.112
  446.750   72.678    0.372    0.297    7.105
  447.000   77.609    0.382    0.284    7.097
  447.250   84.389    0.391    0.273    7.092
  447.500   94.900    0.401    0.262    7.085
  447.750   99.180    0.397    0.254    7.076
  448.000   92.922    0.382    0.249    7.069
  448.250   85.407    0.387    0.258    7.063
  448.500   77.271    0.396    0.262    7.189
  448.750   78.429    0.404    0.264    7.182
  449.000   79.644    0.384    0.264    7.176
  449.250   82.060    0.374    0.263    7.303
  449.500   82.640    0.382    0.256    7.299
  449.750   80.083    0.389    0.251    7.431
  450.000   76.297    0.398    0.239    7.564
  450.250   75.606    0.376    0.225    7.558
  450.500   78.671    0.365    0.211    7.691
  450.750   82.980    0.363    0.202    7.687
  451.000   86.653    0.368    0.199    7.822
  451.250   90.933    0.373    0.196    7.816
  451.500   88.998    0.367    0.196    7.960
  451.750   88.349    0.359    0.196    8.100
  452.000   87.049    0.357    0.197    8.249
  452.250   86.993    0.357    0.194    8.243
  452.500   88.166    0.357    0.193    8.390
  452.750   91.217    0.360    0.192    8.544
  453.000   93.040    0.366    0.191    8.535
  453.250   96.713    0.374    0.190    8.688
  453.500   97.885    0.391    0.190    9.015
  453.750   97.843    0.378    0.189    9.180
  454.000   96.530    0.357    0.186    9.706
  454.250   95.245    0.349    0.182   10.264
  454.500   91.431    0.332    0.178   10.652
  454.750   88.902    0.314    0.173   11.694
  455.000   83.874    0.295    0.162   12.370
  455.250   76.359    0.325    0.173   13.328
  455.500   92.463    0.333    0.194   13.837
  455.750   97.379    0.339    0.206   14.088
  456.000   98.566    0.337    0.188   13.805
  456.250   97.902    0.340    0.180   13.028
  456.500   95.345    0.348    0.186   11.840
  456.750   94.046    0.353    0.192   10.963
  457.000   98.962    0.359    0.199   10.149
  457.250  111.973    0.363    0.210    9.575
  457.500  111.902    0.363    0.215    9.390
  457.750  111.860    0.350    0.216    9.200
  458.000  113.033    0.349    0.217    9.020
  458.250  113.598    0.355    0.217    8.673
  458.500  112.920    0.362    0.217    8.342
  458.750  107.892    0.369    0.218    8.179
  459.000  104.713    0.378    0.224    7.569
  459.250  106.550    0.379    0.236    7.423
  459.500  108.358    0.373    0.234    7.005
  459.750  106.437    0.356    0.206    6.738
  460.000  100.759    0.364    0.194    6.358
  460.250   98.231    0.384    0.184    5.775
  460.500   97.553    0.393    0.200    5.349
  460.750  101.212    0.398    0.229    4.860
  461.000  101.763    0.422    0.254    4.333
  461.250  101.735    0.444    0.265    3.580
  461.500  101.678    0.486    0.280    3.015
  461.750  101.622    0.498    0.274    2.537
  462.000  101.566    0.499    0.264    2.488
  462.250  100.888    0.449    0.255    2.486
  462.500  102.075    0.442    0.253    2.482
  462.750  106.369    0.451    0.246    2.575
  463.000  110.043    0.453    0.237    2.673
  463.250  111.215    0.449    0.225    2.881
  463.500  108.659    0.438    0.220    3.106
  463.750  107.373    0.417    0.215    3.348
