~VERSION INFORMATION
 VERS.                 2.0:   CWLS LOG ASCII STANDARD -VERSION 2.0
 WRAP.                  NO:   ONE LINE PER DEPTH STEP
~WELL INFORMATION BLOCK
#MNEM.UNIT           DATA                    DESCRIPTION OF MNEMONIC
#---------    -------------------            -------------------------------
# Generated from Intellog Unique Number	CN_94_101/WELL/3829
WELL.         08-23-096-18W4                 : Well_name    - WELL
LOC .         00/08-23-096-18W4/0            : Location     - LOCATION
UWI .         00/08-23-096-18W400            : Uwi          - UNIQUE WELL ID
ENTR.         T                              : Entered      - ENTERED BY
SRVC.         SCHLUMBERGER                   : Scn          - SERVICE COMPANY
DATE.         08/05/92                       : Date         - LOG DATE
STRT.M        270                            : top_depth    - START DEPTH
STOP.M        439.75                         : bot_depth    - STOP DEPTH
STEP.M        0.25                           : increment    - STEP LENGTH
 NULL. -999.2500:NULL Value
~CURVE INFORMATION BLOCK
#MNEM UNIT       ERCB CURVE CODE    CURVE DESCRIPTION
#-----------   ------------------   ----------------------------------
DEPT.M        00 001 00 00         : DEPTH        - DEPTH
GR  .API      00 310 00 00         : GR           - GAMMA RAY
CALI.MM       00 280 01 00         : CAL          - CALIPER
NPHI.V/V      00 330 00 00         : PHIN         - NEUTRON POROSITY (SANDSTONE)
DPHI.V/V      00 890 00 00         : PHID         - DENSITY POROSITY (SANDSTONE)
ILD .OHMM     00 120 00 00         : RESD         - DEEP RESISTIVITY (DIL)
~PARAMETER INFORMATION
#MNEM.UNIT           DATA             DESCRIPTION OF MNEMONIC
#---------         -----------     ------------------------------
GL  .M        685                  : gl           - GROUND LEVEL ELEVATION
EREF.M        689.4                : kb           - ELEVATION OF DEPTH REFERENCE
DATM.M        689.4                : datum        - DATUM ELEVATION
TDD .M        440                  : tdd          - TOTAL DEPTH DRILLER
RUN .         0.000000             : Run          - RUN NUMBER
MUD .         GEL                  : Mud_type     - MUD TYPE
MATR.         SANDSTONE            : Logunit      - NEUTRON MATRIX
TMAX.C        0                    : BHT          - MAXIMUM RECORDED TEMPERATURE
BHTD.M        229.972              : BHTDEP       - MAXIMUM RECORDED TEMPERATURE
RMT .C        -17.7778             : MDTP         - TEMPERATURE OF MUD
MUDD.KG/M     6900                 : MWT          - MUD DENSITY
NEUT.         1                    : NEUTRON      - NEUTRON TYPE
RESI.         0                    : RESIST       - RESISTIVITY TYPE
RM  .OHMM     0                    : RM           - RESISTIVITY OF MUD
RMC .OHMM     0                    : RMC          - RESISTIVITY OF MUD CAKE
RMF .OHMM     0                    : RMF          - RESISTIVITY OF MUD FILTRATE
SUFT.C        4                    : SUFT         - SURFACE TEMPERATURE
BTZC.MM       0                    : BITZC        - BIT SIZE CONSTANT
MDW .KG/M     0                    : MDW          - MUD WEIGHT
~A  DEPTH       GR      CAL     PHIN     PHID     RESD
# ...
  343.000   84.375  161.458    0.418    0.273    5.361
  343.250   92.500  164.583    0.425    0.255    5.361
  343.500  101.250  165.625    0.423    0.244    5.361
  343.750  104.375  161.458    0.405    0.244    5.361
  344.000  105.625  163.542    0.421    0.251    5.161
  344.250  106.250  162.500    0.430    0.258    5.161
  344.500  101.250  162.500    0.411    0.259    5.161
  344.750   98.750  157.292    0.409    0.255    5.260
  345.000  100.625  162.500    0.414    0.254    4.967
  345.250  106.875  164.583    0.444    0.245    4.967
  345.500  114.375  167.708    0.470    0.244    4.967
  345.750  114.375  166.667    0.476    0.243    4.967
  346.000  110.625  167.708    0.475    0.250    5.161
  346.250  105.000  162.500    0.453    0.264    5.260
  346.500   94.375  163.542    0.429    0.273    5.570
  346.750   91.250  163.542    0.416    0.283    6.128
  347.000   90.000  160.417    0.409    0.286    6.614
  347.250   90.000  159.375    0.408    0.278    6.741
  347.500   85.000  159.375    0.390    0.264    6.741
  347.750   81.250  161.458    0.386    0.249    6.614
  348.000   79.375  160.417    0.389    0.265    6.366
  348.250   78.750  159.375    0.396    0.301    6.246
  348.500   77.500  159.375    0.418    0.323    5.787
  348.750   80.000  159.375    0.425    0.310    5.161
  349.000   89.375  160.417    0.450    0.290    4.515
  349.250  102.500  162.500    0.479    0.265    4.027
  349.500  105.625  164.583    0.479    0.256    3.731
  349.750  108.750  162.500    0.484    0.253    3.523
  350.000  109.375  159.375    0.489    0.245    3.523
  350.250  107.500  162.500    0.491    0.239    3.523
  350.500  108.125  164.583    0.495    0.228    3.523
  350.750  111.250  163.542    0.480    0.224    3.803
  351.000  108.750  166.667    0.453    0.228    3.951
  351.250  105.625  160.417    0.436    0.238    4.104
  351.500  106.250  167.708    0.439    0.240    4.691
  351.750  108.125  164.583    0.439    0.241    4.874
  352.000  105.625  160.417    0.430    0.248    5.161
  352.250  103.125  161.458    0.449    0.258    5.361
  352.500  100.625  159.375    0.480    0.260    5.898
  352.750   95.000  160.417    0.475    0.243    6.012
  353.000   85.000  159.375    0.389    0.190    5.898
  353.250   81.875  159.375    0.374    0.150    9.687
  353.500   84.375  161.458    0.403    0.179    9.504
  353.750   88.750  163.542    0.416    0.240    9.148
  354.000   98.750  162.500    0.398    0.273    8.805
  354.250  105.625  161.458    0.400    0.259    8.476
  354.500  103.125  161.458    0.410    0.251    8.476
  354.750  100.625  163.542    0.423    0.260    8.158
  355.000   96.250  167.708    0.434    0.275    8.158
  355.250   91.875  161.458    0.438    0.286    8.316
  355.500   90.000  160.417    0.430    0.281    8.805
  355.750   85.625  159.375    0.390    0.261    8.975
  356.000   81.875  161.458    0.376    0.211    9.504
  356.250   81.875  162.500    0.390    0.218    9.504
  356.500   85.625  163.542    0.434    0.250    9.687
  356.750   87.500  162.500    0.436    0.276    9.324
  357.000   83.125  163.542    0.428    0.291    8.975
  357.250   81.875  160.417    0.400    0.288    8.476
  357.500   88.125  163.542    0.398    0.269    8.004
  357.750   93.750  163.542    0.406    0.250    7.704
  358.000  101.250  161.458    0.423    0.244    7.276
  358.250   99.375  162.500    0.420    0.245    6.871
  358.500   98.125  161.458    0.419    0.253    6.871
  358.750   94.375  161.458    0.418    0.274    7.138
  359.000   92.500  161.458    0.420    0.291    7.416
  359.250   88.750  161.458    0.424    0.309    7.704
  359.500   78.125  162.500    0.410    0.310    8.639
  359.750   75.625  166.667    0.408    0.298    7.853
  360.000   87.500  167.708    0.420    0.263    6.556
  360.250  105.000  164.583    0.430    0.250    5.517
  360.500  114.375  168.750    0.428    0.251    4.058
  360.750  115.625  168.750    0.436    0.259    3.687
  361.000  112.500  168.750    0.460    0.273    3.481
  361.250  109.375  163.542    0.460    0.273    3.687
  361.500  105.000  163.542    0.453    0.278    5.109
  361.750   93.125  161.458    0.428    0.298    5.623
  362.000   88.750  161.458    0.400    0.301    6.190
  362.250   86.875  160.417    0.405    0.296    9.810
  362.500   84.375  160.417    0.385    0.289    8.254
  362.750   81.250  160.417    0.394    0.283   10.000
  363.000   81.250  161.458    0.421    0.290    9.624
  363.250   85.000  161.458    0.423    0.286    9.624
  363.500   82.500  161.458    0.411    0.266    7.644
  363.750   85.000  161.458    0.411    0.268    8.254
  364.000   93.125  160.417    0.420    0.271    6.556
  364.250   99.375  161.458    0.420    0.266    5.843
  364.500  105.000  160.417    0.426    0.258    5.517
  364.750  103.750  163.542    0.445    0.250    5.109
  365.000  103.125  163.542    0.448    0.246    4.917
  365.250  106.250  163.542    0.446    0.243    5.109
  365.500  106.875  161.458    0.454    0.239    5.309
  365.750  105.000  160.417    0.456    0.244    5.623
  366.000  103.125  162.500    0.425    0.254    6.432
  366.250  100.000  162.500    0.390    0.258    7.943
  366.500  100.000  161.458    0.403    0.258    6.556
  366.750  102.500  159.375    0.423    0.241    7.943
  367.000   94.375  161.458    0.415    0.213    7.499
  367.250   91.875  162.500    0.396    0.130    9.441
  367.500  100.000  168.750    0.409    0.154    9.085
  367.750  105.000  168.750    0.416    0.180    7.499
  368.000  105.000  161.458    0.425    0.236    6.945
  368.250  103.750  160.417    0.430    0.241    7.217
  368.500  101.875  160.417    0.416    0.233    6.432
  368.750  101.250  155.208    0.414    0.214    5.517
  369.000  102.500  160.417    0.423    0.225    5.309
  369.250  105.000  167.708    0.434    0.233    6.072
  369.500  105.625  159.375    0.434    0.233    5.623
  369.750  106.250  159.375    0.423    0.230    5.309
  370.000  106.250  159.375    0.410    0.231    4.938
  370.250  105.625  159.375    0.431    0.231    4.661
  370.500  106.875  161.458    0.433    0.228    4.485
  370.750  108.750  161.458    0.436    0.220    4.234
  371.000  110.625  161.458    0.451    0.218    4.074
  371.250  116.250  162.500    0.478    0.221    4.661
  371.500  120.625  161.458    0.484    0.224    4.485
  371.750  121.250  162.500    0.489    0.208    4.752
  372.000  109.375  160.417    0.466    0.154    5.034
  372.250   96.250  160.417    0.388    0.106    5.334
  372.500  101.875  163.542    0.423    0.133    5.651
  372.750  116.250  160.417    0.433    0.211    5.986
  373.000  118.750  159.375    0.389    0.219    6.342
  373.250  118.750  163.542    0.385    0.218    6.719
  373.500  115.625  160.417    0.390    0.216    7.118
  373.750  116.250  160.417    0.401    0.224    7.541
  374.000  120.625  161.458    0.406    0.225    7.989
  374.250  123.750  163.542    0.404    0.225    8.303
  374.500  121.250  163.542    0.374    0.228    8.303
  374.750  112.500  168.750    0.363    0.223    8.303
  375.000  108.125  170.833    0.370    0.224    8.303
  375.250  105.000  162.500    0.366    0.229    8.628
  375.500  106.250  162.500    0.359    0.229    8.967
  375.750  108.125  164.583    0.363    0.224    8.967
  376.000  108.125  167.708    0.359    0.186    9.873
  376.250  103.750  168.750    0.301    0.153   10.870
  376.500   95.625  167.708    0.295    0.113   10.662
  376.750  101.250  162.500    0.323    0.116    9.684
  377.000  108.750  171.875    0.411    0.154    8.796
  377.250  117.500  170.833    0.418    0.218    7.688
  377.500  119.375  168.750    0.418    0.219    7.256
  377.750  116.875  168.750    0.416    0.216    6.849
  378.000  113.750  171.875    0.396    0.220    7.118
  378.250  111.875  168.750    0.360    0.239    7.397
  378.500  107.500  165.625    0.353    0.256    8.303
  378.750  106.250  161.458    0.364    0.255    8.796
  379.000  106.875  160.417    0.371    0.245    8.796
  379.250  106.875  165.625    0.369    0.234    8.967
