~VERSION INFORMATION
 VERS.                 2.0:   CWLS LOG ASCII STANDARD -VERSION 2.0
 WRAP.                  NO:   ONE LINE PER DEPTH STEP
~WELL INFORMATION BLOCK
#MNEM.UNIT           DATA                    DESCRIPTION OF MNEMONIC
#---------    -------------------            -------------------------------
# Generated from Intellog Unique Number	CW_82_90/WELL/3055
WELL.         06-28-087-22W4                 : Well_name    - WELL
LOC .         00/06-28-087-22W4/0            : Location     - LOCATION
UWI .         00/06-28-087-22W4/0            : Uwi          - UNIQUE WELL ID
ENTR.         MAX                            : Entered      - ENTERED BY
SRVC.         SCHLUMBERGER                   : Scn          - SERVICE COMPANY
STRT.M        106.68                         : top_depth    - START DEPTH
STOP.M        303.68                         : bot_depth    - STOP DEPTH
STEP.M        0.25                           : increment    - STEP LENGTH
 NULL. -999.2500:NULL Value
~CURVE INFORMATION BLOCK
#MNEM UNIT       ERCB CURVE CODE    CURVE DESCRIPTION
#-----------   ------------------   ----------------------------------
DEPT.M        00 001 00 00         : DEPTH        - DEPTH
GR  .API      00 310 00 00         : GR           - GAMMA RAY
CALI.MM       00 280 01 00         : CAL          - CALIPER
DPHI.V/V      00 890 00 00         : PHID         - DENSITY POROSITY (SANDSTONE)
NPHI.V/V      00 330 00 00         : PHIN         - NEUTRON POROSITY (SANDSTONE)
ILD .OHMM     00 120 00 00         : RESD         - DEEP RESISTIVITY (DIL)
~PARAMETER INFORMATION
#MNEM.UNIT           DATA             DESCRIPTION OF MNEMONIC
#---------         -----------     ------------------------------
GL  .M        536.448              : gl           - GROUND LEVEL ELEVATION
EREF.M        539.801              : kb           - ELEVATION OF DEPTH REFERENCE
DATM.M        536.448              : datum        - DATUM ELEVATION
TDD .M        307.238              : tdd          - TOTAL DEPTH DRILLER
RUN .         ONE                  : Run          - RUN NUMBER
ENG .         BILL                 : Engineer     - RECORDING ENGINEER
WIT .         JIM                  : Witness      - WITNESSED BY
MUD .         GEL                  : Mud_type     - MUD TYPE
MATR.         SANDSTONE            : Logunit      - NEUTRON MATRIX
TMAX.C        20                   : BHT          - MAXIMUM RECORDED TEMPERATURE
BHTD.M        307.238              : BHTDEP       - MAXIMUM RECORDED TEMPERATURE
MATR.         1                    : LOGUNIT      - NEUTRON MATRIX
RMT .C        17.2222              : MDTP         - TEMPERATURE OF MUD
NEUT.         1                    : NEUTRON      - NEUTRON TYPE
RESI.         0                    : RESIST       - RESISTIVITY TYPE
RMC .OHMM     1.12                 : RMC          - RESISTIVITY OF MUD CAKE
RMF .OHMM     1.23                 : RMF          - RESISTIVITY OF MUD FILTRATE
SUFT.C        -15                  : SUFT         - SURFACE TEMPERATURE
~A  DEPTH       GR      CAL     PHID     PHIN     RESD
# ...
  252.680   69.744  235.205    0.193    0.505   14.860
  252.930   69.797  235.254    0.221    0.465   15.427
  253.180   69.258  235.830    0.208    0.451   16.018
  253.430   66.966  235.920    0.194    0.431   16.786
  253.680   67.600  236.516    0.152    0.392   17.748
  253.930   68.825  236.576    0.136    0.397   18.595
  254.180   69.751  236.665    0.207    0.454   18.800
  254.430   70.671  237.261    0.228    0.505   18.839
  254.680   72.776  237.321    0.214    0.488   18.530
  254.930   72.243  237.401    0.198    0.479   17.280
  255.180   69.072  237.977    0.182    0.453   15.840
  255.430   67.062  238.066    0.139    0.429   15.448
  255.680   67.103  238.156    0.120    0.394   15.469
  255.930   68.920  237.740    0.164    0.407   15.359
  256.180   70.133  237.323    0.216    0.463   15.390
  256.430   70.772  236.906    0.202    0.494   16.124
  256.680   71.406  236.500    0.182    0.501   14.910
  256.930   70.861  236.083    0.158    0.478   14.534
  257.180   69.448  236.153    0.135    0.450   15.238
  257.430   67.151  236.233    0.108    0.417   15.819
  257.680   69.836  233.851    0.119    0.386   16.275
  257.930   73.106  233.445    0.202    0.423   16.167
  258.180   73.452  233.504    0.206    0.479   16.196
  258.430   73.505  233.604    0.190    0.479   15.655
  258.680   71.501  234.180    0.160    0.443   15.824
  258.930   68.618  234.260    0.133    0.405   16.006
  259.180   67.486  233.843    0.107    0.385   16.028
  259.430   69.304  233.923    0.180    0.410   16.057
  259.680   69.943  234.003    0.198    0.460   16.087
  259.930   69.685  234.102    0.212    0.506   16.261
  260.180   68.859  234.172    0.179    0.493   16.145
  260.430   69.498  234.242    0.140    0.435   16.182
  260.680   68.373  233.329    0.137    0.439   16.799
  260.930   65.483  232.942    0.153    0.459   18.083
  261.180   61.140  232.526    0.133    0.390   21.094
  261.430   62.072  232.099    0.034    0.333   23.117
  261.680   68.854  232.665    0.041    0.297   23.169
  261.930   74.762  233.251    0.070    0.357   22.789
  262.180   75.987  234.820    0.127    0.400   22.231
  262.430   75.155  235.892    0.159    0.452   18.952
  262.680   76.088  236.974    0.123    0.436   16.164
  262.930   77.020  237.550    0.152    0.498   15.760
  263.180   74.722  238.136    0.158    0.463   15.800
  263.430   70.954  238.702    0.146    0.433   15.967
  263.680   68.375  239.784    0.190    0.436   16.428
  263.930   67.830  240.370    0.178    0.400   17.526
  264.180   67.291  240.440    0.155    0.387   18.040
  264.430   67.924  241.016    0.137    0.429   17.752
  264.680   70.902  241.602    0.121    0.479   17.006
  264.930   76.529  242.188    0.082    0.493   15.718
  265.180   76.283  242.267    0.082    0.480   14.534
  265.430   74.572  242.833    0.168    0.457   14.042
  265.680   73.734  243.439    0.153    0.435   13.572
  265.930   75.539  243.499    0.129    0.443   13.479
  266.180   80.580  244.085    0.098    0.413   13.503
  266.430   82.966  244.671    0.193    0.429   13.531
  266.680   81.260  245.257    0.184    0.446   13.312
  266.930   77.198  245.317    0.166    0.435   12.983
  267.180   72.850  245.396    0.148    0.412   12.781
  267.430   70.552  245.000    0.132    0.383   12.688
  267.680   71.490  243.591    0.124    0.391   12.940
  267.930   73.589  243.174    0.199    0.405   14.438
  268.180   76.267  242.767    0.195    0.413   15.406
  268.430   76.332  242.827    0.191    0.415   15.854
  268.680   75.793  242.927    0.182    0.396   16.319
  268.930   75.248  243.017    0.154    0.389   16.489
  269.180   74.117  241.598    0.119    0.379   17.753
  269.430   72.998  240.675    0.046    0.344   18.596
  269.680   74.803  239.792    0.011    0.287   20.022
  269.930   79.252  241.350    0.132    0.342   20.972
  270.180   80.184  243.415    0.186    0.422   21.010
  270.430   78.174  245.480    0.204    0.450   18.904
  270.680   77.348  245.550    0.191    0.414   16.707
  270.930   78.274  245.143    0.185    0.403   14.122
  271.180   78.034  245.719    0.177    0.408   13.770
  271.430   75.737  246.295    0.164    0.417   14.963
  271.680   74.019  246.385    0.149    0.401   15.814
  271.930   74.072  244.976    0.113    0.365   15.985
  272.180   76.458  243.080    0.061    0.371   15.454
  272.430   82.959  244.142    0.150    0.416   14.156
  272.680   85.069  247.706    0.192    0.455   12.849
  272.930   83.944  253.244    0.191    0.513   11.154
  273.180   83.106  254.317    0.184    0.536    9.344
  273.430   82.279  252.918    0.163    0.510    8.335
  273.680   76.758  251.518    0.134    0.494    7.981
  273.930   77.386  249.613    0.109    0.479    7.926
  274.180   78.324  247.202    0.081    0.500    8.682
  274.430   76.014  245.306    0.086    0.532   10.406
  274.680   71.665  244.384    0.142    0.511   11.305
  274.930   73.184  242.975    0.137    0.441   12.273
  275.180   74.409  242.072    0.107    0.379   13.693
  275.430   72.698  241.179    0.194    0.410   15.280
  275.680   71.285  240.742    0.207    0.433   16.893
  275.930   69.861  240.326    0.191    0.445   17.548
  276.180   67.863  239.423    0.167    0.441   17.890
  276.430   67.329  238.024    0.109    0.395   17.922
  276.680   72.640  237.101    0.075    0.369   17.644
  276.930   79.146  236.695    0.058    0.342   16.902
  277.180   77.722  236.784    0.107    0.380   15.622
  277.430   74.252  236.854    0.175    0.481   14.829
  277.680   71.955  234.949    0.168    0.484   14.992
  277.930   70.543  233.540    0.146    0.451   15.288
  278.180   70.302  232.150    0.106    0.393   16.608
  278.430   72.981  231.724    0.075    0.340   15.917
  278.680   73.615  230.831    0.139    0.383   14.974
  278.930   74.547  230.891    0.135    0.443   13.958
  279.180   76.950  230.484    0.149    0.479   12.562
  279.430   78.157  230.058    0.131    0.497   11.613
  279.680   79.975  230.147    0.140    0.509   11.023
  279.930   79.143  230.227    0.185    0.542   10.657
  280.180   78.604  230.307    0.182    0.546   10.583
  280.430   78.064  230.883    0.177    0.522   10.600
  280.680   76.933  231.469    0.166    0.482   10.617
  280.930   76.992  231.558    0.099    0.440   10.735
  281.180   79.964  231.142    0.046    0.401   10.948
  281.430   86.758  231.718    0.139    0.485   11.067
  281.680   91.793  234.289    0.174    0.493   10.991
  281.930   95.063  234.855    0.163    0.498   10.628
  282.180   94.243  235.431    0.173    0.481    9.733
  282.430   91.348  238.488    0.148    0.457    9.408
  282.680   87.878  238.081    0.127    0.443    9.423
  282.930   86.466  228.722    0.094    0.423    9.699
  283.180   84.754  227.383    0.035    0.391   10.164
  283.430   80.992  227.403    0.087    0.404   11.236
  283.680   77.821  227.493    0.117    0.370   12.534
  283.930   79.913  227.582    0.022    0.354   13.739
  284.180   84.362  228.158    0.035    0.386   14.012
  284.430   83.237  228.724    0.164    0.407   13.913
  284.680   80.359  230.363    0.165    0.393   13.691
  284.930   80.700  228.397    0.145    0.388   13.115
  285.180   82.505  228.487    0.135    0.414   12.127
  285.430   81.081  229.053    0.136    0.406   11.717
  285.680   74.681  229.629    0.130    0.374   11.532
  285.930   64.471  228.726    0.116    0.359   12.982
  286.180   63.058  228.330    0.090    0.264   17.166
  286.430   70.444  229.898    0.006    0.240   21.135
  286.680   74.289  229.958    0.026    0.253   26.021
  286.930   80.795  229.551    0.063    0.310   27.025
  287.180   81.422  229.145    0.129    0.363   24.973
  287.430   81.768  229.224    0.153    0.387   18.954
  287.680   82.401  228.312    0.176    0.372   16.311
  287.930   83.035  228.381    0.169    0.388   14.938
  288.180   82.214  227.985    0.162    0.413   13.807
  288.430   80.210  227.558    0.158    0.429   13.348
  288.680   78.780  227.162    0.144    0.434   13.250
  288.930   76.483  227.221    0.128    0.402   13.639
