~VERSION INFORMATION
 VERS.                 2.0:   CWLS LOG ASCII STANDARD -VERSION 2.0
 WRAP.                  NO:   ONE LINE PER DEPTH STEP
~WELL INFORMATION BLOCK
#MNEM.UNIT           DATA                    DESCRIPTION OF MNEMONIC
#---------    -------------------            -------------------------------
# Generated from Intellog Unique Number	CS_77_79/WELL/910
WELL.         BOW VALLEY EXPLORATION         : Well_name    - WELL
LOC .         00/07-28-077-14W4/0            : Location     - LOCATION
UWI .         00/07-28-077-14W4/0            : Uwi          - UNIQUE WELL ID
ENTR.         SP                             : Entered      - ENTERED BY
SRVC.         SCHLUMBERGER                   : Scn          - SERVICE COMPANY
STRT.M        275                            : top_depth    - START DEPTH
STOP.M        535                            : bot_depth    - STOP DEPTH
STEP.M        0.25                           : increment    - STEP LENGTH
 NULL. -999.2500:NULL Value
~CURVE INFORMATION BLOCK
#MNEM UNIT       ERCB CURVE CODE    CURVE DESCRIPTION
#-----------   ------------------   ----------------------------------
DEPT.M        00 001 00 00         : DEPTH        - DEPTH
ILD .OHMM     00 120 00 00         : RESD         - DEEP RESISTIVITY (DIL)
DPHI.V/V      00 890 00 00         : PHID         - DENSITY POROSITY (LIMESTONE)
NPHI.V/V      00 330 00 00         : PHIN         - NEUTRON POROSITY (LIMESTONE)
GR  .API      00 310 00 00         : GR           - GAMMA RAY
~PARAMETER INFORMATION
#MNEM.UNIT           DATA             DESCRIPTION OF MNEMONIC
#---------         -----------     ------------------------------
GL  .M        674.43               : gl           - GROUND LEVEL ELEVATION
EREF.M        677.88               : kb           - ELEVATION OF DEPTH REFERENCE
DATM.M        674.43               : datum        - DATUM ELEVATION
TDD .M        544                  : tdd          - TOTAL DEPTH DRILLER
RUN .         ONE                  : Run          - RUN NUMBER
ENG .         BILL                 : Engineer     - RECORDING ENGINEER
WIT .         JIM                  : Witness      - WITNESSED BY
MUD .         GEL                  : Mud_type     - MUD TYPE
MATR.         LIMESTONE            : Logunit      - NEUTRON MATRIX
TMAX.C        25                   : BHT          - MAXIMUM RECORDED TEMPERATURE
BHTD.M        544                  : BHTDEP       - MAXIMUM RECORDED TEMPERATURE
MATR.         1                    : LOGUNIT      - NEUTRON MATRIX
RMT .C        25                   : MDTP         - TEMPERATURE OF MUD
NEUT.         1                    : NEUTRON      - NEUTRON TYPE
RESI.         0                    : RESIST       - RESISTIVITY TYPE
RMC .OHMM     0.25                 : RMC          - RESISTIVITY OF MUD CAKE
RMF .OHMM     0.25                 : RMF          - RESISTIVITY OF MUD FILTRATE
SUFT.C        15                   : SUFT         - SURFACE TEMPERATURE
~A  DEPTH     RESD     PHID     PHIN       GR
# ...
  449.000    8.803    0.219    0.413   84.719
  449.250    8.972    0.208    0.383   81.675
  449.500    9.148    0.199    0.393   83.528
  449.750    9.151    0.209    0.405   85.996
  450.000    9.158    0.216    0.404   87.235
  450.250    8.992    0.219    0.404   90.310
  450.500    7.889    0.221    0.409   93.385
  450.750    7.602    0.226    0.426   96.464
  451.000    7.327    0.208    0.425   98.312
  451.250    7.062    0.189    0.420   93.431
  451.500    7.065    0.202    0.416   94.671
  451.750    6.937    0.216    0.416   95.910
  452.000    6.688    0.232    0.416   94.702
  452.250    6.567    0.235    0.420   94.714
  452.500    6.328    0.236    0.431   97.795
  452.750    6.212    0.239    0.436   95.973
  453.000    5.987    0.232    0.432   92.927
  453.250    5.770    0.217    0.428   89.266
  453.500    5.457    0.191    0.425   86.222
  453.750    5.160    0.188    0.423   86.847
  454.000    4.045    0.204    0.465   87.476
  454.250    3.293    0.264    0.515   85.654
  454.500    2.943    0.280    0.524   82.002
  454.750    2.631    0.291    0.550   80.788
  455.000    2.397    0.288    0.548   80.196
  455.250    2.268    0.286    0.527   80.818
  455.500    2.227    0.285    0.535   82.056
  455.750    2.313    0.283    0.513   85.135
  456.000    2.494    0.276    0.498   88.213
  456.250    2.847    0.254    0.541   91.902
  456.500    3.248    0.243    0.564   93.138
  456.750    3.776    0.227    0.554   89.483
  457.000    4.229    0.203    0.487   87.662
  457.250    4.917    0.205    0.443   88.298
  457.500    5.717    0.207    0.430   88.916
  457.750    6.402    0.202    0.433   89.542
  458.000    6.650    0.190    0.422   88.331
  458.250    6.781    0.174    0.397   83.448
  458.500    6.658    0.169    0.388   84.078
  458.750    6.296    0.191    0.397   87.770
  459.000    6.069    0.212    0.409   89.619
  459.250    6.304    0.218    0.421   90.858
  459.500    6.928    0.217    0.428   87.204
  459.750    8.363    0.210    0.442   83.545
  460.000   10.095    0.203    0.428   79.273
  460.250   11.521    0.167    0.408   70.713
  460.500   11.744    0.100    0.385   61.545
  460.750   10.902    0.077    0.346   60.947
  461.000    9.931    0.088    0.295   68.926
  461.250    8.552    0.139    0.313   76.285
  461.500    7.788    0.189    0.338   87.936
  461.750    6.460    0.191    0.361   91.625
  462.000    5.562    0.179    0.408   92.251
  462.250    4.972    0.194    0.408   94.719
  462.500    4.615    0.216    0.414   97.798
  462.750    4.366    0.231    0.452   99.031
  463.000    4.287    0.222    0.493  100.889
  463.250    4.209    0.214    0.476  100.287
  463.500    4.134    0.212    0.452   99.088
  463.750    4.214    0.221    0.465   99.096
  464.000    4.295    0.226    0.459   98.496
  464.250    4.463    0.234    0.448   98.511
  464.500    4.725    0.223    0.437  100.974
  464.750    4.816    0.193    0.429  102.827
  465.000    5.196    0.171    0.427  104.070
  465.250    5.396    0.177    0.424  105.310
  465.500    5.712    0.177    0.432  104.711
  465.750    6.161    0.183    0.418  102.276
  466.000    6.771    0.157    0.401   96.780
  466.250    7.874    0.108    0.401   88.226
  466.500    8.654    0.196    0.395   80.281
  466.750    9.334    0.226    0.369   74.784
  467.000    9.878    0.257    0.338   69.902
  467.250   11.272    0.275    0.364   73.590
  467.500   13.108    0.263    0.380   76.054
  467.750   14.406    0.255    0.390   74.844
  468.000   14.961    0.260    0.365   76.700
  468.250   16.444    0.258    0.339   73.651
  468.500   16.454    0.241    0.328   71.835
  468.750   15.859    0.234    0.335   73.683
  469.000   15.280    0.225    0.348   79.209
  469.250   14.451    0.230    0.336   79.225
  469.500   17.445    0.234    0.355   73.117
  469.750   23.572    0.237    0.401   65.782
  470.000   26.894    0.240    0.387   52.331
  470.250   28.470    0.253    0.353   44.384
  470.500   27.436    0.264    0.339   46.848
  470.750   19.215    0.259    0.340   59.723
  471.000   14.239    0.251    0.346   81.167
  471.250   12.033    0.231    0.362   98.939
  471.500   11.379    0.194    0.391  106.301
  471.750   11.602    0.186    0.414  109.989
  472.000   12.993    0.207    0.398  105.110
  472.250   18.922    0.235    0.392   97.162
  472.500   32.632    0.258    0.359   72.075
  472.750   43.266    0.295    0.282   55.559
  473.000   58.457    0.330    0.241   36.593
  473.250   74.657    0.340    0.242   25.587
  473.500   91.831    0.322    0.270   26.214
  473.750  108.794    0.303    0.343   25.619
  474.000  128.881    0.298    0.365   24.410
  474.250  158.544    0.302    0.346   26.266
  474.500  164.693    0.302    0.314   28.727
  474.750  144.498    0.299    0.334   33.645
  475.000   50.974    0.297    0.347   45.548
  475.250   43.895    0.283    0.372   57.092
  475.500   37.101    0.275    0.394   64.385
  475.750   32.555    0.265    0.405   68.641
  476.000   30.215    0.263    0.396   69.253
  476.250   29.117    0.251    0.395   72.295
  476.500   28.052    0.251    0.404   72.906
  476.750   26.037    0.263    0.405   72.304
  477.000   22.848    0.261    0.383   80.206
  477.250   20.048    0.221    0.362   88.104
  477.500   18.606    0.196    0.356   97.219
  477.750   17.269    0.194    0.370   94.794
  478.000   20.834    0.197    0.380   94.800
  478.250   22.882    0.211    0.393   92.983
  478.500   26.587    0.242    0.401   62.015
  478.750   33.923    0.265    0.395   55.340
  479.000   44.103    0.278    0.354   55.953
  479.250   48.447    0.281    0.330   58.386
  479.500   49.377    0.217    0.320   60.821
  479.750   47.575    0.172    0.300   56.575
  480.000   40.212    0.138    0.286   48.077
  480.250   35.283    0.190    0.292   46.261
  480.500   30.959    0.241    0.304   52.339
  480.750   28.734    0.232    0.309   69.351
  481.000   28.210    0.246    0.315   70.567
  481.250   30.987    0.264    0.342   71.787
  481.500   38.805    0.275    0.364   69.364
  481.750   45.940    0.282    0.372   63.903
  482.000   58.620    0.297    0.363   54.192
  482.250   74.792    0.306    0.357   48.124
  482.500  115.073    0.315    0.358   46.306
  482.750  155.308    0.320    0.367   48.135
  483.000  177.116    0.313    0.370   49.959
  483.250  183.918    0.303    0.359   56.645
  483.500  177.223    0.300    0.351   54.222
  483.750  177.278    0.309    0.347   48.762
  484.000  187.575    0.309    0.341   44.515
  484.250  209.938    0.308    0.341   43.912
  484.500  243.931    0.309    0.357   45.132
  484.750  273.017    0.320    0.369   41.494
  485.000  299.890    0.322    0.371   37.247
  485.250  329.405    0.317    0.355   35.431
  485.500  428.256    0.312    0.332   38.473
  485.750  497.591    0.309    0.319   37.869
  486.000  461.840    0.308    0.325   34.232
  486.250  126.951    0.311    0.335   36.666
  486.500   47.976    0.314    0.343   45.172
  486.750   27.368    0.282    0.331   74.935
  487.000   19.545    0.204    0.311   97.409
  487.250   15.044    0.181    0.336   94.987
  487.500   12.956    0.184    0.353   96.812
  487.750   11.583    0.184    0.361  102.283
  488.000   10.953    0.172    0.370  105.933
  488.250   10.755    0.161    0.385  104.115
  488.500   10.757    0.158    0.379  107.157
  488.750   11.173    0.156    0.385  107.769
  489.000   11.385    0.164    0.376   98.057
  489.250   13.479    0.195    0.345   79.843
  489.500   17.199    0.261    0.343   74.990
  489.750   19.983    0.283    0.386   70.138
  490.000   19.619    0.262    0.403   76.215
  490.250   18.904    0.237    0.390   84.723
  490.500   17.545    0.221    0.356   98.088
  490.750   15.982    0.218    0.339  101.736
  491.000   15.691    0.221    0.356   99.921
  491.250   15.993    0.203    0.374   99.318
  491.500   17.567    0.186    0.359  101.752
  491.750   20.412    0.177    0.376  100.542
  492.000   24.625    0.057    0.386   68.967
  492.250   27.559    0.000    0.374   55.612
