~VERSION INFORMATION
 VERS.                 2.0:   CWLS LOG ASCII STANDARD -VERSION 2.0
 WRAP.                  NO:   ONE LINE PER DEPTH STEP
~WELL INFORMATION BLOCK
#MNEM.UNIT           DATA                    DESCRIPTION OF MNEMONIC
#---------    -------------------            -------------------------------
# Generated from Intellog Unique Number	CS_77_79/WELL/5037
WELL.         MESA HB LEISMER                : Well_name    - WELL
LOC .         00/07-35-078-10W4/0            : Location     - LOCATION
UWI .         00/07-35-078-10W4/0            : Uwi          - UNIQUE WELL ID
ENTR.         JOE                            : Entered      - ENTERED BY
SRVC.         SCHLUMBERGER                   : Scn          - SERVICE COMPANY
STRT.M        231.648                        : top_depth    - START DEPTH
STOP.M        463.148                        : bot_depth    - STOP DEPTH
STEP.M        0.25                           : increment    - STEP LENGTH
 NULL. -999.2500:NULL Value
~CURVE INFORMATION BLOCK
#MNEM UNIT       ERCB CURVE CODE    CURVE DESCRIPTION
#-----------   ------------------   ----------------------------------
DEPT.M        00 001 00 00         : DEPTH        - DEPTH
RHOB.KG/M3    00 350 00 00         : DENS         - BULK DENSITY
GR  .API      00 310 00 00         : GR           - GAMMA RAY
DPHI.V/V      00 890 00 00         : PHID         - DENSITY POROSITY (SANDSTONE)
NPHI.V/V      00 330 00 00         : PHIN         - NEUTRON POROSITY (SANDSTONE)
ILD .OHMM     00 120 00 00         : RESD         - DEEP RESISTIVITY (DIL)
~PARAMETER INFORMATION
#MNEM.UNIT           DATA             DESCRIPTION OF MNEMONIC
#---------         -----------     ------------------------------
GL  .M        657.454              : gl           - GROUND LEVEL ELEVATION
EREF.M        661.416              : kb           - ELEVATION OF DEPTH REFERENCE
DATM.M        661.416              : datum        - DATUM ELEVATION
TDD .M        475.488              : tdd          - TOTAL DEPTH DRILLER
RUN .         ONE                  : Run          - RUN NUMBER
ENG .         BILL                 : Engineer     - RECORDING ENGINEER
WIT .         JIM                  : Witness      - WITNESSED BY
MUD .         GEL                  : Mud_type     - MUD TYPE
MATR.         SANDSTONE            : Logunit      - NEUTRON MATRIX
TMAX.C        23                   : BHT          - MAXIMUM RECORDED TEMPERATURE
BHTD.M        405                  : BHTDEP       - MAXIMUM RECORDED TEMPERATURE
MATR.         1                    : LOGUNIT      - NEUTRON MATRIX
RMT .C        25                   : MDTP         - TEMPERATURE OF MUD
NEUT.         1                    : NEUTRON      - NEUTRON TYPE
RESI.         0                    : RESIST       - RESISTIVITY TYPE
RMC .OHMM     0.25                 : RMC          - RESISTIVITY OF MUD CAKE
RMF .OHMM     0.25                 : RMF          - RESISTIVITY OF MUD FILTRATE
SUFT.C        15                   : SUFT         - SURFACE TEMPERATURE
~A  DEPTH     DENS       GR     PHID     PHIN     RESD
  231.648    0.000  106.197    0.254    0.540    2.565
  231.898    0.000  103.527    0.279    0.536    2.519
  232.148    0.000  103.420    0.289    0.552    2.524
  232.398    0.000  107.176    0.301    0.577    2.524
  232.648    0.000  107.057    0.281    0.570    2.580
  232.898    0.000  103.655    0.263    0.552    2.580
  233.148    0.000  100.918    0.262    0.540    2.582
  233.398    0.000  102.416    0.272    0.547    2.584
  233.648    0.000  104.753    0.267    0.558    2.587
  233.898    0.000  106.344    0.287    0.562    2.590
  234.148    0.000  105.804    0.276    0.574    2.592
  234.398    0.000  108.270    0.289    0.554    2.595
  234.648    0.000  108.552    0.266    0.552    2.600
  234.898    0.000  105.784    0.270    0.565    2.616
  235.148    0.000  104.068    0.256    0.572    2.653
  235.398    0.000  103.714    0.262    0.595    2.682
  235.648    0.000  103.461    0.247    0.594    2.773
  235.898    0.000  101.365    0.249    0.556    2.810
  236.148    0.000   99.371    0.282    0.529    2.869
  236.398    0.000  101.992    0.275    0.521    2.937
  236.648    0.000  101.415    0.260    0.534    2.978
  236.898    0.000  100.315    0.267    0.585    3.042
  237.148    0.000  100.045    0.285    0.605    3.102
  237.398    0.000  101.561    0.259    0.550    3.149
  237.648    0.000  102.899    0.220    0.526    3.179
  237.898    0.000  103.676    0.184    0.543    3.289
  238.148    0.000  102.470    0.225    0.569    3.286
  238.398    0.000  100.297    0.235    0.569    3.379
  238.648    0.000  104.187    0.270    0.540    3.422
  238.898    0.000  105.388    0.243    0.513    3.529
  239.148    0.000  102.625    0.232    0.504    3.639
  239.398    0.000  100.278    0.223    0.512    3.761
  239.648    0.000  100.384    0.228    0.517    3.795
  239.898    0.000  102.046    0.215    0.526    3.918
  240.148    0.000  101.624    0.233    0.507    3.978
  240.398    0.000  100.873    0.245    0.511    3.995
  240.648    0.000  100.262    0.231    0.503    4.001
  240.898    0.000  100.945    0.229    0.493    4.005
  241.148    0.000  104.324    0.241    0.521    4.004
  241.398    0.000  108.075    0.226    0.516    4.088
  241.648    0.000  109.635    0.234    0.489    4.140
  241.898    0.000  105.381    0.245    0.487    4.171
  242.148    0.000  101.131    0.247    0.505    4.181
  242.398    0.000  101.019    0.225    0.490    4.013
  242.648    0.000  106.256    0.239    0.499    3.936
  242.898    0.000  107.112    0.247    0.509    3.686
  243.148    0.000  106.252    0.239    0.520    3.688
  243.398    0.000  104.618    0.257    0.526    3.695
  243.648    0.000  105.704    0.245    0.509    3.876
  243.898    0.000  105.052    0.220    0.528    4.057
  244.148    0.000  103.499    0.225    0.558    4.376
  244.398    0.000   98.345    0.223    0.505    4.460
  244.648    0.000   88.094    0.202    0.476    4.443
  244.898    0.000   80.419    0.164    0.457    4.386
  245.148    0.000   79.359    0.126    0.449    4.381
  245.398    0.000   85.328    0.069    0.465    4.480
  245.648    0.000   91.264    0.043    0.466    4.624
  245.898    0.000   92.482    0.114    0.472    4.907
  246.148    0.000   84.090    0.245    0.435    5.470
  246.398    0.000   78.180    0.244    0.410    6.402
  246.648    0.000   82.259    0.212    0.443    7.146
  246.898    0.000   87.811    0.209    0.431    8.002
  247.148    0.000   93.087    0.219    0.429    9.483
  247.398    0.000   97.864    0.211    0.437   10.792
  247.648    0.000   94.269    0.225    0.420   13.180
  247.898    0.000   86.786    0.250    0.420   15.438
  248.148    0.000   73.186    0.238    0.438   18.207
  248.398    0.000   59.304    0.263    0.432   19.829
  248.648    0.000   45.218    0.301    0.429   19.503
  248.898    0.000   36.884    0.309    0.422   18.714
  249.148    0.000   36.743    0.306    0.395   16.784
  249.398    0.000   38.139    0.304    0.369   14.642
  249.648    0.000   45.009    0.299    0.369   12.408
  249.898    0.000   61.897    0.312    0.411    9.114
  250.148    0.000   76.967    0.314    0.435    6.718
  250.398    0.000   84.932    0.269    0.430    5.495
  250.648    0.000   90.722    0.282    0.412    5.459
  250.898    0.000  100.952    0.269    0.487    6.265
  251.148    0.000  109.832    0.268    0.547    7.508
  251.398    0.000  114.711    0.282    0.532    9.979
  251.648    0.000  107.549    0.273    0.486   11.968
  251.898    0.000   88.096    0.281    0.457   12.275
  252.148    0.000   79.997    0.268    0.416   11.454
  252.398    0.000   77.741    0.230    0.390   10.895
  252.648    0.000   77.453    0.201    0.383   10.071
  252.898    0.000   74.826    0.219    0.379    9.313
  253.148    0.000   78.920    0.243    0.396    8.991
  253.398    0.000   88.024    0.228    0.420    9.123
  253.648    0.000   86.111    0.229    0.411    9.413
  253.898    0.000   89.289    0.226    0.409    9.896
  254.148    0.000   89.290    0.189    0.416   11.180
  254.398    0.000   74.406    0.183    0.419   12.582
  254.648    0.000   70.332    0.154    0.401   14.011
  254.898    0.000   68.100    0.139    0.375   15.568
  255.148    0.000   63.272    0.120    0.366   16.563
  255.398    0.000   53.691    0.201    0.388   17.869
  255.648    0.000   39.196    0.232    0.402   19.481
  255.898    0.000   33.412    0.255    0.380   19.804
  256.148    0.000   34.133    0.260    0.369   19.928
  256.398    0.000   34.770    0.249    0.365   19.348
  256.648    0.000   37.398    0.263    0.367   18.413
  256.898    0.000   39.816    0.277    0.356   17.662
  257.148    0.000   48.079    0.258    0.352   17.061
  257.398    0.000   58.060    0.261    0.367   16.558
  257.648    0.000   64.436    0.271    0.400   16.248
  257.898    0.000   60.796    0.273    0.418   16.330
  258.148    0.000   56.749    0.292    0.417   16.872
  258.398    0.000   53.698    0.301    0.432   17.240
  258.648    0.000   49.269    0.307    0.440   17.607
  258.898    0.000   49.315    0.311    0.430   17.596
  259.148    0.000   51.572    0.316    0.424   17.611
  259.398    0.000   56.990    0.303    0.404   17.618
  259.648    0.000   61.662    0.291    0.393   17.566
  259.898    0.000   61.702    0.289    0.412   17.670
  260.148    0.000   57.382    0.308    0.406   17.697
  260.398    0.000   58.737    0.308    0.401   17.727
  260.648    0.000   59.065    0.310    0.423   17.834
  260.898    0.000   55.169    0.305    0.439   17.776
  261.148    0.000   53.018    0.324    0.433   17.620
  261.398    0.000   54.717    0.314    0.413   17.084
  261.648    0.000   57.576    0.311    0.403   16.598
  261.898    0.000   62.564    0.300    0.410   16.250
  262.148    0.000   68.296    0.275    0.421   15.929
  262.398    0.000   75.162    0.263    0.415   15.715
  262.648    0.000   80.614    0.251    0.402   15.395
  262.898    0.000   83.440    0.237    0.393   15.447
  263.148    0.000   82.606    0.241    0.416   15.451
  263.398    0.000   80.495    0.278    0.434   15.314
  263.648    0.000   81.004    0.280    0.413   14.678
  263.898    0.000   82.038    0.281    0.396   13.167
  264.148    0.000   84.372    0.274    0.390   11.358
  264.398    0.000   87.540    0.256    0.380    8.688
  264.648    0.000   92.635    0.247    0.384    7.135
  264.898    0.000   98.760    0.231    0.408    5.641
  265.148    0.000  106.670    0.204    0.442    6.093
  265.398    0.000  111.699    0.189    0.486    7.163
  265.648    0.000  110.962    0.153    0.491   10.221
  265.898    0.000  105.577    0.140    0.475   14.077
  266.148    0.000   97.332    0.186    0.482   17.522
  266.398    0.000   79.822    0.227    0.444   21.485
  266.648    0.000   59.735    0.312    0.417   23.032
  266.898    0.000   48.838    0.303    0.398   23.058
  267.148    0.000   45.959    0.300    0.393   22.365
  267.398    0.000   44.293    0.307    0.398   21.686
  267.648    0.000   44.236    0.321    0.396   21.531
  267.898    0.000   45.764    0.314    0.382   20.841
