~VERSION INFORMATION
 VERS.                 2.0:   CWLS LOG ASCII STANDARD -VERSION 2.0
 WRAP.                  NO:   ONE LINE PER DEPTH STEP
~WELL INFORMATION BLOCK
#MNEM.UNIT           DATA                    DESCRIPTION OF MNEMONIC
#---------    -------------------            -------------------------------
# Generated from Intellog Unique Number	CW_70_72/WELL/2898
NULL.         -999.25                        : NULL_VALUE
WELL.         SUN GAMBLER                    : Well_name    - WELL              
LOC .         06-07-070-20W4                 : Location     - LOCATION          
UWI .         00/06-07-070-20W4/0            : Uwi          - UNIQUE WELL ID    
ENTR.         MAX                            : Entered      - ENTERED BY        
SRVC.         SCHLUMBERGER                   : Scn          - SERVICE COMPANY   
DATE.         06 MAR 79                      : Date         - LOG DATE
STRT.M        380                            : top_depth    - START DEPTH       
STOP.M        550                            : bot_depth    - STOP DEPTH        
STEP.M        0.25                           : increment    - STEP LENGTH       
~CURVE INFORMATION BLOCK
#MNEM UNIT       ERCB CURVE CODE    CURVE DESCRIPTION
#-----------   ------------------   ----------------------------------
DEPT.M        00 001 00 00         : DEPTH        - DEPTH                       
ILD .OHMM     00 120 00 00         : RESD         - DEEP RESISTIVITY (DIL)      
NPHI.V/V      00 330 00 00         : PHIN         - NEUTRON POROSITY (SANDSTONE)
DPHI.V/V      00 890 00 00         : PHID         - DENSITY POROSITY (SANDSTONE)
CALI.MM       00 280 01 00         : CAL          - CALIPER                     
GR  .API      00 310 00 00         : GR           - GAMMA RAY                   
~PARAMETER INFORMATION       
#MNEM.UNIT           DATA             DESCRIPTION OF MNEMONIC
#---------         -----------     ------------------------------
GL  .M        634.1                : gl           - GROUND LEVEL ELEVATION      
EREF.M        637.7                : kb           - ELEVATION OF DEPTH REFERENCE
DATM.M        634.1                : datum        - DATUM ELEVATION             
TDD .M        576                  : tdd          - TOTAL DEPTH DRILLER         
RUN .         ONE                  : Run          - RUN NUMBER                  
ENG .         BILL                 : Engineer     - RECORDING ENGINEER          
WIT .         JIM                  : Witness      - WITNESSED BY                
MUD .         GEL                  : Mud_type     - MUD TYPE                    
MATR.         SANDSTONE            : Logunit      - NEUTRON MATRIX              
TMAX.C        26                   : BHT          - MAXIMUM RECORDED TEMPERATURE
BHTD.M        576                  : BHTDEP       - MAXIMUM RECORDED TEMPERATURE
RMT .C        14                   : MDTP         - TEMPERATURE OF MUD          
MUDD.KG/M     1100                 : MWT          - MUD DENSITY                 
NEUT.         1                    : NEUTRON      - NEUTRON TYPE                
RESI.         0                    : RESIST       - RESISTIVITY TYPE            
RM  .OHMM     3.6                  : RM           - RESISTIVITY OF MUD          
RMC .OHMM     0.25                 : RMC          - RESISTIVITY OF MUD CAKE     
RMF .OHMM     3.6                  : RMF          - RESISTIVITY OF MUD FILTRATE 
SUFT.C        -5                   : SUFT         - SURFACE TEMPERATURE         
~A  DEPTH     RESD     PHIN     PHID      CAL       GR
# ...
  453.000    4.047    0.410    0.267  160.602   83.098
  453.250    4.046    0.410    0.261  161.091   80.422
  453.500    4.008    0.422    0.264  161.578   72.107
  453.750    3.830    0.433    0.280  162.067   69.432
  454.000    3.659    0.421    0.272  162.554   71.208
  454.250    3.528    0.419    0.288  163.041   74.172
  454.500    3.464    0.423    0.289  163.036   75.949
  454.750    3.463    0.424    0.273  162.037   75.351
  455.000    3.431    0.413    0.270  160.548   74.754
  455.250    3.493    0.412    0.268  159.551   75.046
  455.500    3.523    0.420    0.278  159.544   75.339
  455.750    3.522    0.425    0.274  160.528   74.445
  456.000    3.684    0.432    0.271  160.519   72.659
  456.250    3.925    0.440    0.265  160.513   70.874
  456.500    4.143    0.435    0.253  160.011   72.058
  456.750    4.031    0.426    0.246  160.006   75.022
  457.000    3.714    0.434    0.239  159.504   79.174
  457.250    3.485    0.440    0.254  159.497   85.402
  457.500    3.270    0.451    0.265  159.984   87.475
  457.750    3.096    0.468    0.296  160.966   83.613
  458.000    2.905    0.477    0.295  161.950   77.672
  458.250    2.801    0.447    0.272  162.438   81.231
  458.500    2.750    0.465    0.253  163.915   89.537
  458.750    2.774    0.507    0.249  168.855   87.455
  459.000    2.876    0.526    0.247  164.891   83.889
  459.250    3.009    0.498    0.320  167.357   80.621
  459.500    3.147    0.466    0.332  166.361   70.822
  459.750    3.292    0.439    0.328  163.881   67.850
  460.000    3.292    0.446    0.318  162.391   67.548
  460.250    3.381    0.433    0.309  161.889   69.029
  460.500    3.473    0.423    0.307  161.388   69.617
  460.750    3.535    0.415    0.304  160.886   67.537
  461.000    3.632    0.410    0.304  160.880   63.080
  461.250    3.631    0.413    0.311  160.870   60.702
  461.500    3.630    0.421    0.318  160.864   61.291
  461.750    3.596    0.416    0.319  160.854   61.287
  462.000    3.595    0.420    0.318  160.851   58.611
  462.250    3.595    0.416    0.316  160.845   58.311
  462.500    3.561    0.412    0.312  160.832   59.494
  462.750    3.496    0.418    0.319  160.830   60.380
  463.000    3.371    0.430    0.319  160.830   59.486
  463.250    3.221    0.424    0.303  160.816   59.185
  463.500    3.105    0.407    0.297  160.316   58.291
  463.750    3.021    0.402    0.319  160.316   57.396
  464.000    2.993    0.406    0.321  160.302   57.688
  464.250    2.992    0.422    0.315  159.801   58.872
  464.500    3.019    0.427    0.315  159.801   60.054
  464.750    3.046    0.423    0.314  159.784   60.348
  465.000    3.045    0.415    0.305  159.780   57.969
  465.250    3.044    0.420    0.302  160.763   56.183
  465.500    3.016    0.416    0.314  161.250   56.477
  465.750    2.988    0.412    0.314  161.250   57.364
  466.000    2.988    0.408    0.313  161.730   57.655
  466.250    2.959    0.402    0.320  161.723   58.245
  466.500    2.932    0.398    0.328  161.222   58.834
  466.750    2.931    0.408    0.328  160.722   58.237
  467.000    2.930    0.426    0.324  160.715   56.452
  467.250    2.903    0.424    0.324  160.708   55.558
  467.500    2.902    0.411    0.314  161.197   56.147
  467.750    2.902    0.407    0.314  162.179   57.034
  468.000    2.875    0.420    0.317  162.172   57.327
  468.250    2.848    0.438    0.318  162.164   57.322
  468.500    2.821    0.453    0.321  162.158   58.504
  468.750    2.821    0.432    0.322  161.656   59.095
  469.000    2.846    0.410    0.325  161.649   59.684
  469.250    2.871    0.426    0.327  161.649   59.977
  469.500    2.896    0.428    0.325  161.139   60.566
  469.750    2.895    0.430    0.321  161.135   59.968
  470.000    2.868    0.432    0.318  161.126   59.965
  470.250    2.842    0.436    0.324  160.626   62.632
  470.500    2.815    0.442    0.326  160.620   61.441
  470.750    2.789    0.447    0.323  160.118   54.906
  471.000    2.788    0.446    0.321  160.111   55.496
  471.250    2.788    0.452    0.325  159.609   56.679
  471.500    2.787    0.456    0.324  159.108   58.753
  471.750    2.786    0.457    0.318  159.101   61.420
  472.000    2.785    0.446    0.324  158.600   60.822
  472.250    2.810    0.436    0.327  158.592   59.632
  472.500    2.861    0.421    0.323  158.585   59.033
  472.750    2.939    0.409    0.318  159.074   59.326
  473.000    3.074    0.411    0.316  159.561   59.322
  473.250    3.187    0.421    0.317  159.554   60.208
  473.500    3.273    0.421    0.317  159.549   60.798
  473.750    3.272    0.426    0.315  159.047   61.387
  474.000    3.184    0.435    0.320  159.039   63.164
  474.250    3.126    0.439    0.324  158.539   62.863
  474.500    3.097    0.450    0.321  158.532   60.782
  474.750    3.068    0.434    0.316  158.525   60.777
  475.000    3.068    0.412    0.317  158.517   61.070
  475.250    3.039    0.423    0.323  158.512   60.768
  475.500    3.038    0.424    0.320  158.503   60.765
  475.750    3.178    0.432    0.314  158.496   59.574
  476.000    3.235    0.431    0.318  158.491   58.976
  476.250    3.323    0.415    0.320  158.485   60.753
  476.500    3.383    0.421    0.319  158.476   60.156
  476.750    3.382    0.422    0.316  157.975   58.073
  477.000    3.321    0.426    0.313  157.473   58.662
  477.250    3.173    0.443    0.314  156.973   59.846
  477.500    3.059    0.410    0.323  156.973   58.952
  477.750    3.003    0.400    0.325  156.956   58.057
  478.000    2.976    0.410    0.321  157.942   56.568
  478.250    2.975    0.423    0.310  158.925   55.971
  478.500    2.974    0.412    0.310  158.925   55.967
  478.750    3.000    0.412    0.302  159.403   56.260
  479.000    3.110    0.416    0.305  158.903   57.147
  479.250    3.224    0.415    0.310  157.907   58.329
  479.500    3.342    0.414    0.306  156.911   60.996
  479.750    3.592    0.415    0.303  156.409   63.366
  480.000    3.896    0.418    0.291  155.908   63.362
  480.250    3.966    0.418    0.293  155.902   62.764
  480.500    4.001    0.419    0.299  155.895   61.277
  480.750    3.858    0.431    0.294  156.382   60.085
  481.000    3.587    0.407    0.291  156.869   60.081
  481.250    3.397    0.395    0.308  157.357   60.077
  481.500    3.158    0.402    0.312  157.845   59.480
  481.750    3.045    0.415    0.321  157.845   58.585
  482.000    2.990    0.426    0.324  158.323   57.690
  482.250    2.962    0.435    0.329  158.320   56.795
  482.500    2.934    0.436    0.333  158.314   56.495
  482.750    2.907    0.421    0.333  158.307   56.195
  483.000    2.803    0.417    0.326  157.804   54.706
  483.250    2.777    0.403    0.321  157.304   53.812
  483.500    2.751    0.402    0.321  156.801   54.401
  483.750    2.751    0.408    0.317  156.795   54.990
  484.000    2.750    0.428    0.319  157.283   55.283
  484.250    2.749    0.445    0.315  157.771   56.169
  484.500    2.749    0.445    0.316  157.765   57.649
  484.750    2.748    0.431    0.317  157.758   59.426
  485.000    2.772    0.438    0.287  157.257   61.500
  485.250    2.822    0.444    0.277  157.743   64.168
  485.500    2.873    0.443    0.268  157.735   68.022
  485.750    2.978    0.441    0.268  158.225   72.767
  486.000    3.087    0.447    0.271  158.218   76.917
  486.250    3.200    0.449    0.274  158.211   75.726
  486.500    3.317    0.453    0.286  158.211   73.051
  486.750    3.377    0.458    0.279  158.194   72.453
  487.000    3.377    0.455    0.276  158.191   73.636
  487.250    3.405    0.441    0.274  158.183   77.194
  487.500    3.436    0.447    0.263  158.671   80.751
  487.750    3.562    0.452    0.254  158.664   81.638
  488.000    3.659    0.457    0.248  159.151   80.446
  488.250    3.725    0.467    0.255  159.640   80.442
  488.500    3.757    0.459    0.240  160.127   78.657
  488.750    3.790    0.458    0.227  160.616   77.763
  489.000    3.824    0.457    0.230  160.610   81.320
  489.250    3.823    0.450    0.231  160.603   84.581
