~VERSION INFORMATION
 VERS.                 2.0:   CWLS LOG ASCII STANDARD -VERSION 2.0
 WRAP.                  NO:   ONE LINE PER DEPTH STEP
~WELL INFORMATION BLOCK
#MNEM.UNIT           DATA                    DESCRIPTION OF MNEMONIC
#---------    -------------------            -------------------------------
# Generated from Intellog Unique Number	CN_94_101/WELL/3829
WELL.         08-23-096-18W4                 : Well_name    - WELL
LOC .         00/08-23-096-18W4/0            : Location     - LOCATION
UWI .         00/08-23-096-18W400            : Uwi          - UNIQUE WELL ID
ENTR.         T                              : Entered      - ENTERED BY
SRVC.         SCHLUMBERGER                   : Scn          - SERVICE COMPANY
DATE.         08/05/92                       : Date         - LOG DATE
STRT.M        270                            : top_depth    - START DEPTH
STOP.M        439.75                         : bot_depth    - STOP DEPTH
STEP.M        0.25                           : increment    - STEP LENGTH
 NULL. -999.2500:NULL Value
~CURVE INFORMATION BLOCK
#MNEM UNIT       ERCB CURVE CODE    CURVE DESCRIPTION
#-----------   ------------------   ----------------------------------
DEPT.M        00 001 00 00         : DEPTH        - DEPTH
GR  .API      00 310 00 00         : GR           - GAMMA RAY
CALI.MM       00 280 01 00         : CAL          - CALIPER
NPHI.V/V      00 330 00 00         : PHIN         - NEUTRON POROSITY (SANDSTONE)
DPHI.V/V      00 890 00 00         : PHID         - DENSITY POROSITY (SANDSTONE)
ILD .OHMM     00 120 00 00         : RESD         - DEEP RESISTIVITY (DIL)
~PARAMETER INFORMATION
#MNEM.UNIT           DATA             DESCRIPTION OF MNEMONIC
#---------         -----------     ------------------------------
GL  .M        685                  : gl           - GROUND LEVEL ELEVATION
EREF.M        689.4                : kb           - ELEVATION OF DEPTH REFERENCE
DATM.M        689.4                : datum        - DATUM ELEVATION
TDD .M        440                  : tdd          - TOTAL DEPTH DRILLER
RUN .         0.000000             : Run          - RUN NUMBER
MUD .         GEL                  : Mud_type     - MUD TYPE
MATR.         SANDSTONE            : Logunit      - NEUTRON MATRIX
TMAX.C        0                    : BHT          - MAXIMUM RECORDED TEMPERATURE
BHTD.M        229.972              : BHTDEP       - MAXIMUM RECORDED TEMPERATURE
RMT .C        -17.7778             : MDTP         - TEMPERATURE OF MUD
MUDD.KG/M     6900                 : MWT          - MUD DENSITY
NEUT.         1                    : NEUTRON      - NEUTRON TYPE
RESI.         0                    : RESIST       - RESISTIVITY TYPE
RM  .OHMM     0                    : RM           - RESISTIVITY OF MUD
RMC .OHMM     0                    : RMC          - RESISTIVITY OF MUD CAKE
RMF .OHMM     0                    : RMF          - RESISTIVITY OF MUD FILTRATE
SUFT.C        4                    : SUFT         - SURFACE TEMPERATURE
BTZC.MM       0                    : BITZC        - BIT SIZE CONSTANT
MDW .KG/M     0                    : MDW          - MUD WEIGHT
~A  DEPTH       GR      CAL     PHIN     PHID     RESD
# ...
  379.500  109.375  167.708    0.374    0.213    8.144
  379.750  107.500  168.750    0.355    0.201    8.796
  380.000  105.000  166.667    0.325    0.188   10.459
  380.250   99.375  163.542    0.333    0.201   10.260
  380.500  101.250  162.500    0.360    0.234   10.064
  380.750  106.875  162.500    0.371    0.233    9.500
  381.000  111.250  162.500    0.361    0.225    8.967
  381.250  113.750  162.500    0.355    0.221    8.464
  381.500  110.625  163.542    0.361    0.219    8.464
  381.750  106.875  162.500    0.380    0.200    8.967
  382.000  101.875  165.625    0.369    0.173    9.319
  382.250   83.125  160.417    0.293    0.121    9.500
  382.500   63.125  161.458    0.239    0.048   11.296
  382.750   64.375  162.500    0.248    0.045   10.260
  383.000   83.750  160.417    0.278    0.059    9.500
  383.250  106.250  164.583    0.348    0.114    8.628
  383.500  117.500  165.625    0.399    0.191    7.397
  383.750  116.875  168.750    0.390    0.201    7.397
  384.000  114.375  175.000    0.391    0.211    7.499
  384.250  114.375  170.833    0.398    0.213    7.644
  384.500  113.750  168.750    0.404    0.211    7.356
  384.750  113.125  170.833    0.418    0.208    7.217
  385.000  118.125  167.708    0.433    0.200    7.079
  385.250  127.500  166.667    0.424    0.194    6.813
  385.500  125.625  164.583    0.426    0.188    6.683
  385.750  115.625  167.708    0.399    0.165    6.683
  386.000  106.875  168.750    0.355    0.134    6.683
  386.250  110.625  169.792    0.369    0.155    6.556
  386.500  113.125  168.750    0.368    0.173    5.872
  386.750  108.750  169.792    0.340    0.156    5.760
  387.000  104.375  163.542    0.348    0.144    5.437
  387.250  108.125  167.708    0.406    0.168    5.232
  387.500  108.125  163.542    0.383    0.205    4.938
  387.750  108.750  164.583    0.378    0.208    4.661
  388.000  113.750  163.542    0.403    0.215    4.058
  388.250  115.625  163.542    0.438    0.234    3.687
  388.500  118.125  163.542    0.509    0.239    3.617
  388.750  120.625  163.542    0.499    0.230    3.617
  389.000  119.375  165.625    0.489    0.214    3.758
  389.250  111.875  163.542    0.483    0.213    4.467
  389.500  108.750  163.542    0.439    0.118    5.412
  389.750  100.625  162.500    0.310    0.090    5.732
  390.000   96.250  162.500    0.325    0.120    6.310
  390.250   96.875  163.542    0.346    0.174    6.813
  390.500   98.125  163.542    0.393    0.194    7.079
  390.750   99.375  163.542    0.369    0.158    7.079
  391.000  100.625  162.500    0.373    0.175    6.945
  391.250  103.125  162.500    0.375    0.188    6.813
  391.500  106.875  163.542    0.365    0.200    6.813
  391.750  117.500  162.500    0.419    0.211    6.813
  392.000  119.375  162.500    0.449    0.248    7.041
  392.250  117.500  162.500    0.440    0.238    7.457
  392.500  114.375  162.500    0.421    0.228    7.457
  392.750  112.500  162.500    0.390    0.216    7.748
  393.000  115.000  162.500    0.371    0.205    7.898
  393.250  118.750  163.542    0.396    0.198    8.254
  393.500  119.375  163.542    0.405    0.191    8.913
  393.750  118.125  162.500    0.379    0.171    9.624
  394.000  110.625  167.708    0.305    0.130   10.194
  394.250  106.875  168.750    0.276    0.093    9.810
  394.500  107.500  167.708    0.301    0.135    9.261
  394.750  110.625  158.333    0.324    0.176    9.085
  395.000  110.625  161.458    0.348    0.200    8.254
  395.250  107.500  159.375    0.360    0.201    8.414
  395.500  107.500  160.417    0.363    0.200    8.743
  395.750  107.500  160.417    0.339    0.165    9.624
  396.000  106.250  162.500    0.309    0.111    9.748
  396.250  108.125  164.583    0.336    0.125    9.204
  396.500  110.000  161.458    0.386    0.155    9.030
  396.750  110.625  162.500    0.385    0.206    8.206
  397.000  112.500  167.708    0.375    0.206    7.457
  397.250  112.500  170.833    0.379    0.190    7.601
  397.500  113.750  171.875    0.388    0.185    7.457
  397.750  114.375  170.833    0.380    0.186    7.457
  398.000  118.750  168.750    0.371    0.184    7.601
  398.250  121.250  163.542    0.360    0.183    8.050
  398.500  121.250  170.833    0.350    0.183    8.206
  398.750  121.250  170.833    0.346    0.183    8.364
  399.000  118.125  171.875    0.360    0.178    9.030
  399.250  113.125  175.000    0.359    0.160    9.030
  399.500  111.875  173.958    0.364    0.148    9.382
  399.750  111.875  172.917    0.358    0.141    9.563
  400.000  112.500  173.958    0.343    0.131   10.128
  400.250  108.750  171.875    0.341    0.133   10.128
  400.500  107.500  162.500    0.364    0.161    9.030
  400.750  108.125  161.458    0.370    0.205    8.859
  401.000  112.500  166.667    0.371    0.205    8.691
  401.250  118.125  169.792    0.388    0.199    9.382
  401.500  120.000  171.875    0.400    0.198    8.691
  401.750  110.625  176.042    0.393    0.181   14.293
  402.000  100.625  175.000    0.373    0.148   11.145
  402.250   81.250  164.583    0.300    0.098   11.580
  402.500   76.875  162.500    0.226    0.013   14.851
  402.750   81.250  168.750    0.231    0.009   16.032
  403.000   93.125  168.750    0.268    0.029   12.501
  403.250  102.500  162.500    0.326    0.141   11.145
  403.500  101.250  168.750    0.355    0.226    9.204
  403.750  103.125  169.792    0.365    0.229    8.691
  404.000  106.250  169.792    0.369    0.225    7.457
  404.250  106.875  169.792    0.371    0.218    7.177
  404.500  105.625  169.792    0.355    0.211    7.316
  404.750  101.250  168.750    0.359    0.213    8.859
  405.000  102.500  168.750    0.363    0.213    9.204
  405.250  103.125  169.792    0.339    0.169    9.748
  405.500  102.500  169.792    0.334    0.128    8.691
  405.750  105.000  160.417    0.356    0.145    8.526
  406.000  105.625  163.542    0.363    0.176    8.206
  406.250  108.125  166.667    0.379    0.174    7.457
  406.500  111.875  163.542    0.401    0.166    7.138
  406.750  115.625  161.458    0.404    0.156    6.741
  407.000  117.500  175.000    0.416    0.150    6.366
  407.250  117.500  163.542    0.444    0.153    5.570
  407.500  118.750  166.667    0.448    0.163    5.161
  407.750  122.500  170.833    0.433    0.168    4.691
  408.000  122.500  161.458    0.420    0.184    4.691
  408.250  118.750  163.542    0.409    0.184    4.602
  408.500  115.000  162.500    0.408    0.176    4.602
  408.750  113.750  162.500    0.409    0.176    4.515
  409.000  115.625  162.500    0.418    0.178    4.430
  409.250  118.125  163.542    0.414    0.181    4.874
  409.500  117.500  173.958    0.409    0.174    4.874
  409.750  120.000  172.917    0.403    0.165    4.874
  410.000  116.250  173.958    0.402    0.154    4.895
  410.250  115.000  172.917    0.393    0.143    5.184
  410.500  121.875  171.875    0.392    0.149    4.990
  410.750  127.500  172.917    0.388    0.173    4.990
  411.000  129.375  171.875    0.391    0.175    5.086
  411.250  130.000  171.875    0.401    0.170    4.895
  411.500  130.625  170.833    0.422    0.165    4.802
  411.750  128.750  170.833    0.450    0.159    4.448
  412.000  126.250  171.875    0.447    0.162    4.281
  412.250  122.500  171.875    0.425    0.175    4.281
  412.500  116.250  170.833    0.416    0.183    4.364
  412.750  120.625  175.000    0.417    0.182    4.364
  413.000  122.500  172.917    0.432    0.175    4.281
  413.250  123.125  168.750    0.437    0.167    4.691
  413.500  123.125  167.708    0.441    0.154    4.781
  413.750  120.625  167.708    0.451    0.144    4.874
  414.000  117.500  167.708    0.443    0.144    4.967
  414.250  115.625  169.792    0.432    0.149    6.489
  414.500  116.250  169.792    0.436    0.148    5.260
  414.750  120.625  172.917    0.432    0.150    5.260
  415.000  128.750  170.833    0.418    0.165    5.260
  415.250  129.375  171.875    0.411    0.170    5.361
  415.500  123.750  172.917    0.417    0.159    5.465
  415.750  118.750  168.750    0.395    0.142    5.570
