~VERSION INFORMATION
 VERS.                 2.0:   CWLS LOG ASCII STANDARD -VERSION 2.0
 WRAP.                  NO:   ONE LINE PER DEPTH STEP
~WELL INFORMATION BLOCK
#MNEM.UNIT           DATA                    DESCRIPTION OF MNEMONIC
#---------    -------------------            -------------------------------
# Generated from Intellog Unique Number	CS_77_79/WELL/2978
WELL.         CDNOXY VINEFRED                : Well_name    - WELL
LOC .         00/06-03-077-03W4/0            : Location     - LOCATION
UWI .         00/06-03-077-03W4/0            : Uwi          - UNIQUE WELL ID
ENTR.         TIM                            : Entered      - ENTERED BY
SRVC.         SCHLUMBERGER                   : Scn          - SERVICE COMPANY
STRT.M        210                            : top_depth    - START DEPTH
STOP.M        485                            : bot_depth    - STOP DEPTH
STEP.M        0.25                           : increment    - STEP LENGTH
 NULL. -999.2500:NULL Value
~CURVE INFORMATION BLOCK
#MNEM UNIT       ERCB CURVE CODE    CURVE DESCRIPTION
#-----------   ------------------   ----------------------------------
DEPT.M        00 001 00 00         : DEPTH        - DEPTH
GR  .API      00 310 00 00         : GR           - GAMMA RAY
NPHI.V/V      00 330 00 00         : PHIN         - NEUTRON POROSITY (DOLOMITE)
DPHI.V/V      00 890 00 00         : PHID         - DENSITY POROSITY (DOLOMITE)
ILD .OHMM     00 120 00 00         : RESD         - DEEP RESISTIVITY (DIL)
~PARAMETER INFORMATION
#MNEM.UNIT           DATA             DESCRIPTION OF MNEMONIC
#---------         -----------     ------------------------------
GL  .M        587.4                : gl           - GROUND LEVEL ELEVATION
EREF.M        590.4                : kb           - ELEVATION OF DEPTH REFERENCE
DATM.M        590.4                : datum        - DATUM ELEVATION
TDD .M        492.2                : tdd          - TOTAL DEPTH DRILLER
RUN .         ONE                  : Run          - RUN NUMBER
ENG .         BILL                 : Engineer     - RECORDING ENGINEER
WIT .         JIM                  : Witness      - WITNESSED BY
MUD .         GEL                  : Mud_type     - MUD TYPE
MATR.         DOLOMITE             : Logunit      - NEUTRON MATRIX
TMAX.C        20                   : BHT          - MAXIMUM RECORDED TEMPERATURE
BHTD.M        492                  : BHTDEP       - MAXIMUM RECORDED TEMPERATURE
MATR.         1                    : LOGUNIT      - NEUTRON MATRIX
RMT .C        20                   : MDTP         - TEMPERATURE OF MUD
NEUT.         1                    : NEUTRON      - NEUTRON TYPE
RESI.         4.33                 : RESIST       - RESISTIVITY TYPE
RMC .OHMM     3.65                 : RMC          - RESISTIVITY OF MUD CAKE
RMF .OHMM     3.62                 : RMF          - RESISTIVITY OF MUD FILTRATE
SUFT.C        15                   : SUFT         - SURFACE TEMPERATURE
~A  DEPTH       GR     PHIN     PHID     RESD
# ...
  340.500  104.703    0.426    0.253    8.267
  340.750  102.249    0.432    0.255    7.820
  341.000  102.252    0.428    0.259    7.395
  341.250  102.254    0.435    0.260    6.738
  341.500  102.871    0.449    0.261    6.254
  341.750  103.488    0.452    0.262    5.805
  342.000  103.491    0.451    0.262    5.289
  342.250  102.880    0.444    0.262    4.729
  342.500  102.884    0.446    0.265    4.472
  342.750  104.115    0.449    0.267    4.074
  343.000  105.346    0.445    0.270    3.712
  343.250  108.421    0.441    0.267    3.382
  343.500  110.264    0.437    0.265    3.259
  343.750  113.953    0.445    0.265    3.082
  344.000  116.411    0.476    0.270    2.970
  344.250  118.871    0.495    0.273    2.971
  344.500  118.873    0.489    0.268    3.029
  344.750  115.193    0.474    0.266    3.266
  345.000  113.966    0.463    0.265    3.726
  345.250  110.285    0.447    0.273    4.170
  345.500  105.375    0.434    0.285    4.938
  345.750   96.781    0.429    0.294    5.847
  346.000   93.100    0.438    0.279    6.795
  346.250   92.488    0.439    0.279    7.751
  346.500   91.263    0.427    0.279    8.515
  346.750   84.510    0.406    0.281   11.496
  347.000   74.688    0.313    0.278   15.813
  347.250   66.093    0.178    0.231   17.701
  347.500   68.552    0.174    0.095   16.743
  347.750   75.310    0.211    0.038   14.971
  348.000   82.069    0.270    0.060   13.386
  348.250   83.300    0.317    0.105   11.967
  348.500   84.531    0.384    0.153   10.116
  348.750   90.674    0.422    0.268    9.215
  349.000   93.749    0.440    0.298    8.088
  349.250   94.366    0.450    0.315    7.794
  349.500   91.299    0.456    0.312    7.654
  349.750   89.459    0.457    0.310    7.374
  350.000   87.619    0.453    0.302    7.107
  350.250   87.623    0.446    0.298    6.849
  350.500   90.083    0.438    0.287    6.853
  350.750   92.540    0.428    0.267    6.855
  351.000   94.387    0.425    0.266    6.988
  351.250   92.546    0.440    0.266    7.257
  351.500   87.022    0.452    0.266    7.399
  351.750   84.569    0.458    0.261    7.685
  352.000   91.941    0.430    0.258    7.834
  352.250   98.085    0.413    0.252    7.837
  352.500   99.931    0.399    0.249    7.988
  352.750  101.776    0.425    0.254    7.991
  353.000   99.936    0.439    0.260    7.995
  353.250   90.728    0.419    0.262    8.151
  353.500   90.731    0.395    0.257    8.154
  353.750   93.190    0.392    0.249    8.158
  354.000   96.263    0.401    0.250    8.162
  354.250   95.652    0.412    0.260    7.866
  354.500   93.813    0.408    0.268    7.579
  354.750   94.430    0.403    0.263    7.035
  355.000   95.047    0.399    0.234    5.947
  355.250   96.278    0.400    0.228    5.027
  355.500   98.124    0.408    0.229    4.411
  355.750  100.583    0.431    0.233    3.944
  356.000  103.042    0.440    0.239    3.527
  356.250  105.501    0.455    0.258    3.038
  356.500  104.276    0.464    0.264    2.873
  356.750  101.208    0.470    0.274    2.618
  357.000   96.299    0.481    0.285    2.570
  357.250   91.389    0.494    0.291    2.431
  357.500   87.707    0.495    0.291    2.342
  357.750   87.710    0.491    0.294    2.300
  358.000   87.713    0.481    0.295    2.301
  358.250   89.559    0.472    0.294    2.301
  358.500   92.017    0.458    0.290    2.939
  358.750   99.389    0.452    0.288    2.940
  359.000  101.850    0.444    0.279    3.053
  359.250  102.466    0.433    0.267    3.354
  359.500  103.083    0.428    0.256    3.685
  359.750  103.087    0.429    0.241    4.203
  360.000   99.405    0.423    0.239    4.532
  360.250   92.652    0.413    0.240    4.619
  360.500   89.585    0.403    0.242    4.982
  360.750   90.816    0.395    0.244    5.272
  361.000   91.433    0.397    0.241    5.579
  361.250   91.435    0.408    0.240    5.795
  361.500   91.439    0.415    0.240    5.797
  361.750   91.442    0.417    0.249    5.692
  362.000   90.831    0.423    0.253    5.384
  362.250   90.219    0.442    0.261    5.188
  362.500   91.451    0.450    0.267    4.999
  362.750   90.840    0.456    0.274    4.641
  363.000   95.141    0.463    0.272    4.389
  363.250  105.585    0.467    0.267    4.151
  363.500  104.972    0.459    0.266    4.001
  363.750  104.976    0.451    0.261    4.002
  364.000  104.978    0.443    0.257    4.005
  364.250  105.595    0.432    0.247    3.932
  364.500  106.212    0.432    0.239    3.789
  364.750  106.829    0.437    0.238    3.720
  365.000  106.832    0.439    0.238    3.722
  365.250  105.607    0.436    0.238    3.655
  365.500  104.995    0.431    0.238    3.657
  365.750  103.158    0.430    0.237    3.658
  366.000  101.932    0.430    0.236    3.871
  366.250  100.707    0.430    0.236    4.253
  366.500   99.481    0.425    0.235    4.761
  366.750   97.641    0.403    0.235    5.430
  367.000   93.960    0.381    0.233    6.079
  367.250   89.050    0.363    0.228    7.065
  367.500   84.754    0.358    0.259    7.761
  367.750   82.300    0.353    0.270    8.689
  368.000   79.233    0.348    0.287    9.194
  368.250   77.394    0.346    0.302    9.916
  368.500   76.169    0.347    0.300   10.297
  368.750   74.943    0.348    0.296   10.496
  369.000   74.331    0.352    0.292   10.306
  369.250   73.721    0.347    0.289    9.568
  369.500   72.496    0.340    0.279    8.716
  369.750   71.270    0.334    0.239    8.092
  370.000   70.659    0.315    0.094    7.510
  370.250   71.276    0.345    0.139    6.591
  370.500   72.507    0.380    0.240    6.118
  370.750   73.738    0.382    0.297    5.470
  371.000   74.969    0.393    0.306    4.801
  371.250   76.200    0.388    0.293    4.626
  371.500   76.817    0.390    0.320    4.294
  371.750   77.436    0.393    0.326    4.062
  372.000   81.122    0.396    0.300    3.988
  372.250   94.635    0.413    0.289    3.989
  372.500   97.710    0.427    0.291    3.992
  372.750   84.816    0.409    0.309    3.993
  373.000   71.922    0.385    0.315    4.070
  373.250   63.943    0.345    0.315    4.149
  373.500   63.331    0.357    0.320    4.391
  373.750   61.492    0.365    0.330    4.561
  374.000   60.881    0.359    0.280    4.918
  374.250   61.497    0.348    0.253    5.108
  374.500   65.185    0.337    0.247    5.405
  374.750   68.259    0.334    0.240    5.939
  375.000   70.717    0.341    0.232    6.648
  375.250   76.861    0.352    0.221    7.442
  375.500   90.375    0.362    0.221    7.729
  375.750   97.747    0.363    0.224    8.179
  376.000  100.206    0.352    0.226    8.339
  376.250   94.068    0.346    0.226    8.501
  376.500   92.843    0.347    0.221    8.506
  376.750   97.145    0.349    0.220    8.509
  377.000   99.605    0.352    0.215    8.355
  377.250   99.607    0.355    0.214    8.051
  377.500   97.768    0.355    0.214    7.615
  377.750   95.928    0.353    0.214    7.337
  378.000   93.475    0.352    0.215    6.941
  378.250   92.249    0.348    0.214    6.814
  378.500   89.796    0.340    0.214    6.566
  378.750   87.342    0.334    0.219    6.448
  379.000   84.888    0.331    0.227    6.331
  379.250   80.595    0.326    0.234    6.334
  379.500   79.368    0.324    0.240    6.219
  379.750   81.828    0.326    0.241    6.222
  380.000   86.129    0.336    0.223    6.109
  380.250   89.817    0.342    0.224    6.113
  380.500   89.820    0.346    0.227    6.002
  380.750   89.823    0.348    0.230    6.005
  381.000   90.440    0.347    0.231    5.896
  381.250   90.444    0.341    0.232    5.682
  381.500   91.673    0.332    0.232    5.374
  381.750   97.818    0.322    0.232    5.082
  382.000   99.049    0.326    0.232    4.630
  382.250   96.595    0.331    0.234    4.140
  382.500   95.985    0.336    0.237    3.843
  382.750   84.933    0.343    0.241    3.372
  383.000   65.899    0.359    0.265    3.130
  383.250   59.147    0.365    0.297    2.960
  383.500   48.096    0.364    0.319    2.800
  383.750   43.186    0.366    0.316    2.750
