~VERSION INFORMATION
 VERS.                 2.0:   CWLS LOG ASCII STANDARD -VERSION 2.0
 WRAP.                  NO:   ONE LINE PER DEPTH STEP
~WELL INFORMATION BLOCK
#MNEM.UNIT           DATA                    DESCRIPTION OF MNEMONIC
#---------    -------------------            -------------------------------
# Generated from Intellog Unique Number	CS_67_68/WELL/2165
WELL.         GEOG et al HYLO                : Well_name    - WELL
LOC .         00/06-03-067-14W4/0            : Location     - LOCATION
UWI .         00/06-03-067-14W4/0            : Uwi          - UNIQUE WELL ID
ENTR.         SP                             : Entered      - ENTERED BY
SRVC.         SCHLUMBERGER                   : Scn          - SERVICE COMPANY
STRT.M        335                            : top_depth    - START DEPTH
STOP.M        520                            : bot_depth    - STOP DEPTH
STEP.M        0.25                           : increment    - STEP LENGTH
 NULL. -999.2500:NULL Value
~CURVE INFORMATION BLOCK
#MNEM UNIT       ERCB CURVE CODE    CURVE DESCRIPTION
#-----------   ------------------   ----------------------------------
DEPT.M        00 001 00 00         : DEPTH        - DEPTH
ILD .OHMM     00 120 00 00         : RESD         - DEEP RESISTIVITY (DIL)
DPHI.V/V      00 890 00 00         : PHID         - DENSITY POROSITY (LIMESTONE)
NPHI.V/V      00 330 00 00         : PHIN         - NEUTRON POROSITY (LIMESTONE)
GR  .API      00 310 00 00         : GR           - GAMMA RAY
CALI.MM       00 280 01 00         : CAL          - CALIPER
~PARAMETER INFORMATION
#MNEM.UNIT           DATA             DESCRIPTION OF MNEMONIC
#---------         -----------     ------------------------------
GL  .M        598.4                : gl           - GROUND LEVEL ELEVATION
EREF.M        601.36               : kb           - ELEVATION OF DEPTH REFERENCE
DATM.M        601.36               : datum        - DATUM ELEVATION
TDD .M        520                  : tdd          - TOTAL DEPTH DRILLER
RUN .         ONE                  : Run          - RUN NUMBER
ENG .         BILL                 : Engineer     - RECORDING ENGINEER
WIT .         JIM                  : Witness      - WITNESSED BY
MUD .         GEL                  : Mud_type     - MUD TYPE
MATR.         LIMESTONE            : Logunit      - NEUTRON MATRIX
TMAX.C        16.7                 : BHT          - MAXIMUM RECORDED TEMPERATURE
BHTD.M        521.2                : BHTDEP       - MAXIMUM RECORDED TEMPERATURE
MATR.         1                    : LOGUNIT      - NEUTRON MATRIX
RMT .C        25                   : MDTP         - TEMPERATURE OF MUD
NEUT.         1                    : NEUTRON      - NEUTRON TYPE
RESI.         0                    : RESIST       - RESISTIVITY TYPE
RMC .OHMM     0.25                 : RMC          - RESISTIVITY OF MUD CAKE
RMF .OHMM     0.25                 : RMF          - RESISTIVITY OF MUD FILTRATE
SUFT.C        15                   : SUFT         - SURFACE TEMPERATURE
~A  DEPTH     RESD     PHID     PHIN       GR      CAL
# ...
  481.000    4.819    0.203    0.390   98.081  199.007
  481.250    3.936    0.194    0.401   97.660  199.519
  481.500    3.257    0.187    0.406   96.695  200.636
  481.750    2.675    0.201    0.416   98.820  203.168
  482.000    2.201    0.223    0.433  100.279  205.800
  482.250    1.958    0.226    0.451   99.192  207.726
  482.500    1.784    0.239    0.459  100.711  206.319
  482.750    1.794    0.247    0.454  102.412  202.288
  483.000    1.868    0.253    0.450  103.688  198.862
  483.250    2.004    0.246    0.445  104.116  195.133
  483.500    2.099    0.230    0.434  104.908  193.625
  483.750    2.223    0.207    0.422  105.397  193.229
  484.000    2.372    0.196    0.414  104.795  193.742
  484.250    2.498    0.197    0.407  104.073  194.354
  484.500    2.611    0.200    0.405  103.350  194.461
  484.750    2.740    0.198    0.404  104.021  194.267
  485.000    2.853    0.205    0.394  106.509  194.072
  485.250    2.961    0.204    0.390  108.755  193.069
  485.500    3.061    0.209    0.397  109.244  191.562
  485.750    3.182    0.217    0.399  108.823  190.356
  486.000    3.338    0.224    0.395  107.495  189.961
  486.250    3.445    0.231    0.401  100.411  190.169
  486.500    3.561    0.220    0.399   96.478  190.176
  486.750    3.743    0.211    0.400   95.694  190.688
  487.000    3.920    0.181    0.396   96.425  191.705
  487.250    3.963    0.036    0.354   95.036  193.227
  487.500    3.804    0.033    0.336   90.981  194.142
  487.750    3.584    0.073    0.342   91.955  194.654
  488.000    3.309    0.105    0.371   94.746  194.864
  488.250    3.044    0.137    0.394   99.476  194.972
  488.500    2.862    0.164    0.409  102.327  194.574
  488.750    2.794    0.182    0.405  104.574  193.471
  489.000    2.778    0.170    0.404  106.032  192.367
  489.250    2.777    0.179    0.410  108.035  192.072
  489.500    2.782    0.161    0.411  109.372  192.079
  489.750    2.797    0.149    0.405  110.345  192.086
  490.000    2.822    0.171    0.407  109.562  191.790
  490.250    2.896    0.170    0.416  108.476  191.292
  490.500    3.033    0.176    0.419  108.480  191.703
  490.750    3.124    0.182    0.433  108.060  192.823
  491.000    3.248    0.123    0.448  105.035  193.232
  491.250    3.370    0.077    0.439  103.101  193.945
  491.500    3.496    0.072    0.415  103.348  194.458
  491.750    3.621    0.117    0.393  104.806  194.768
  492.000    3.757    0.152    0.387  106.931  195.077
  492.250    3.792    0.150    0.379  106.026  195.287
  492.500    3.626    0.149    0.371  102.274  195.900
  492.750    3.398    0.143    0.379  101.007  196.310
  493.000    3.108    0.144    0.394  102.161  196.520
  493.250    2.848    0.157    0.406  104.650  196.527
  493.500    2.609    0.161    0.431  107.380  196.130
  493.750    2.427    0.096    0.448  107.627  194.319
  494.000    2.321    0.113    0.437  104.663  192.206
  494.250    2.261    0.134    0.427  104.303  191.405
  494.500    2.252    0.140    0.422  106.246  192.119
  494.750    2.260    0.163    0.418  108.431  192.934
  495.000    2.289    0.176    0.423  113.464  193.648
  495.250    2.297    0.168    0.431  116.376  194.261
  495.500    2.301    0.160    0.422  114.926  194.672
  495.750    2.309    0.159    0.415  111.356  195.085
  496.000    2.357    0.156    0.407  110.876  194.888
  496.250    2.459    0.152    0.409  111.123  194.593
  496.500    2.638    0.150    0.426  111.187  194.196
  496.750    2.809    0.162    0.427  109.980  193.698
  497.000    3.020    0.197    0.414  106.349  192.897
  497.250    3.222    0.214    0.397   99.568  191.288
  497.500    3.431    0.188    0.377   93.514  190.690
  497.750    3.708    0.176    0.353   93.700  192.413
  498.000    4.068    0.160    0.343   99.097  194.036
  498.250    4.640    0.147    0.323   92.739  194.851
  498.500    5.471    0.155    0.296   82.323  194.656
  498.750    6.206    0.172    0.273   75.663  193.148
  499.000    6.897    0.186    0.252   70.458  187.400
  499.250    7.580    0.083    0.238   64.646  185.489
  499.500    8.254    0.000    0.221   57.017  187.414
  499.750    8.806    0.000    0.208   57.082  190.147
  500.000    8.002    0.070    0.222   59.752  192.578
  500.250    7.146    0.122    0.241   62.482  192.888
  500.500    6.659    0.136    0.282   66.121  189.361
  500.750    6.428    0.153    0.292   70.730  185.127
  501.000    6.217    0.159    0.300   74.429  184.831
  501.250    6.113    0.165    0.295   76.978  185.547
  501.500    6.056    0.170    0.292   79.103  186.664
  501.750    6.055    0.176    0.293   79.592  188.488
  502.000    6.077    0.183    0.298   77.173  190.617
  502.250    6.352    0.231    0.302   74.632  192.036
  502.500    6.916    0.238    0.299   76.697  193.355
  502.750    7.757    0.225    0.299   79.609  194.070
  503.000    8.445    0.220    0.303   81.491  194.480
  503.250    8.910    0.209    0.304   82.283  194.690
  503.500    8.975    0.173    0.305   83.559  194.595
  503.750    9.024    0.163    0.307   84.352  194.097
  504.000    9.328    0.199    0.317   83.325  192.893
  504.250    9.643    0.223    0.324   73.697  189.972
  504.500    9.988    0.263    0.321   61.222  188.162
  504.750    9.446    0.273    0.330   62.255  189.077
  505.000    8.297    0.265    0.337   69.348  191.205
  505.250    7.100    0.228    0.342   75.774  192.524
  505.500    6.448    0.187    0.337   82.685  193.339
  505.750    6.042    0.172    0.329   89.899  193.650
  506.000    5.843    0.159    0.318   95.476  193.252
  506.250    5.672    0.151    0.312  100.872  192.555
  506.500    5.588    0.157    0.308   98.029  191.853
  506.750    5.702    0.167    0.311   97.670  190.043
  507.000    5.840    0.176    0.321   98.098  188.031
  507.250    6.004    0.176    0.325   99.072  187.735
  507.500    6.230    0.167    0.322  100.712  188.853
  507.750    6.452    0.156    0.322  101.019  189.667
  508.000    6.682    0.147    0.324  100.538  190.482
  508.250    6.933    0.152    0.326  100.906  191.095
  508.500    7.154    0.157    0.321   94.126  191.507
  508.750    7.220    0.141    0.314   91.403  191.615
  509.000    6.969    0.138    0.323  102.009  191.420
  509.250    6.567    0.157    0.328  108.314  190.719
  509.500    6.410    0.167    0.323  107.349  189.414
  509.750    6.639    0.188    0.331   89.299  188.411
  510.000    6.837    0.214    0.335   76.824  187.914
  510.250    7.042    0.205    0.334   78.888  188.122
  510.500    7.133    0.200    0.322   83.437  189.240
  510.750    7.172    0.210    0.317   86.106  190.459
  511.000    7.539    0.223    0.313   88.775  191.173
  511.250    8.208    0.204    0.321   90.961  191.988
  511.500    8.660    0.152    0.327   93.389  193.307
  511.750    9.428    0.139    0.326   95.089  195.839
  512.000   10.077    0.163    0.322   85.340  195.543
  512.250   10.475    0.195    0.320   66.805  193.834
  512.500    9.183    0.299    0.325   46.151  193.033
  512.750    8.262    0.318    0.325   48.094  191.929
  513.000    7.379    0.139    0.319   56.580  191.229
  513.250    6.577    0.088    0.316   65.732  191.539
  513.500    6.051    0.048    0.331   77.186  192.556
  513.750    5.733    0.079    0.344   92.033  193.472
  514.000    5.680    0.116    0.333  104.033  194.491
  514.250    5.893    0.142    0.321  102.098  194.899
  514.500    6.115    0.148    0.308  107.676  195.310
  514.750    6.286    0.153    0.307  111.921  195.419
  515.000    6.379    0.166    0.312  112.107  195.830
  515.250    6.308    0.163    0.316  111.203  195.534
  515.500    6.249    0.152    0.312  111.571  190.290
  515.750    6.248    0.145    0.318  112.726  188.783
  516.000    6.213    0.141    0.318  110.247  189.902
  516.250    6.042    0.144    0.311  108.676  191.019
  516.500    5.630    0.139    0.307  106.075  192.643
  516.750    5.435    0.153    0.302  103.959  193.355
  517.000    5.404    0.168    0.308  104.084  193.565
  517.250    5.474    0.182    0.302  105.603  193.066
