~VERSION INFORMATION
 VERS.                 2.0:   CWLS LOG ASCII STANDARD -VERSION 2.0
 WRAP.                  NO:   ONE LINE PER DEPTH STEP
~WELL INFORMATION BLOCK
#MNEM.UNIT           DATA                    DESCRIPTION OF MNEMONIC
#---------    -------------------            -------------------------------
# Generated from Intellog Unique Number	CS_73_76/WELL/1043
WELL.         BOW VALLEY EXPLORATION         : Well_name    - WELL
LOC .         00/06-18-076-13W4/0            : Location     - LOCATION
UWI .         00/06-18-076-13W4/0            : Uwi          - UNIQUE WELL ID
ENTR.         SP                             : Entered      - ENTERED BY
SRVC.         SCHLUMBERGER                   : Scn          - SERVICE COMPANY
STRT.M        300                            : top_depth    - START DEPTH
STOP.M        540                            : bot_depth    - STOP DEPTH
STEP.M        0.25                           : increment    - STEP LENGTH
 NULL. -999.2500:NULL Value
~CURVE INFORMATION BLOCK
#MNEM UNIT       ERCB CURVE CODE    CURVE DESCRIPTION
#-----------   ------------------   ----------------------------------
DEPT.M        00 001 00 00         : DEPTH        - DEPTH
ILD .OHMM     00 120 00 00         : RESD         - DEEP RESISTIVITY (DIL)
DPHI.V/V      00 890 00 00         : PHID         - DENSITY POROSITY (LIMESTONE)
NPHI.V/V      00 330 00 00         : PHIN         - NEUTRON POROSITY (LIMESTONE)
GR  .API      00 310 00 00         : GR           - GAMMA RAY
~PARAMETER INFORMATION
#MNEM.UNIT           DATA             DESCRIPTION OF MNEMONIC
#---------         -----------     ------------------------------
GL  .M        674.43               : gl           - GROUND LEVEL ELEVATION
EREF.M        677.88               : kb           - ELEVATION OF DEPTH REFERENCE
DATM.M        674.43               : datum        - DATUM ELEVATION
TDD .M        547                  : tdd          - TOTAL DEPTH DRILLER
RUN .         ONE                  : Run          - RUN NUMBER
ENG .         BILL                 : Engineer     - RECORDING ENGINEER
WIT .         JIM                  : Witness      - WITNESSED BY
MUD .         GEL                  : Mud_type     - MUD TYPE
MATR.         LIMESTONE            : Logunit      - NEUTRON MATRIX
TMAX.C        23                   : BHT          - MAXIMUM RECORDED TEMPERATURE
BHTD.M        547                  : BHTDEP       - MAXIMUM RECORDED TEMPERATURE
MATR.         1                    : LOGUNIT      - NEUTRON MATRIX
RMT .C        25                   : MDTP         - TEMPERATURE OF MUD
NEUT.         1                    : NEUTRON      - NEUTRON TYPE
RESI.         0                    : RESIST       - RESISTIVITY TYPE
RMC .OHMM     0.25                 : RMC          - RESISTIVITY OF MUD CAKE
RMF .OHMM     0.25                 : RMF          - RESISTIVITY OF MUD FILTRATE
SUFT.C        15                   : SUFT         - SURFACE TEMPERATURE
~A  DEPTH     RESD     PHID     PHIN       GR
# ...
  474.000    5.575    0.133    0.410   92.742
  474.250    5.076    0.172    0.401   95.193
  474.500    4.369    0.194    0.442   98.870
  474.750    3.832    0.197    0.467  101.321
  475.000    3.978    0.188    0.469  101.937
  475.250    4.287    0.180    0.472   99.491
  475.500    4.707    0.191    0.471   96.433
  475.750    5.265    0.186    0.455   92.761
  476.000    5.781    0.164    0.437   89.092
  476.250    6.001    0.187    0.437   89.707
  476.500    6.229    0.192    0.443   92.773
  476.750    6.228    0.188    0.432   93.999
  477.000    6.838    0.171    0.437   93.389
  477.250    7.098    0.157    0.454   89.107
  477.500    7.096    0.135    0.440   86.661
  477.750    7.096    0.107    0.385   89.114
  478.000    6.834    0.119    0.389   92.791
  478.250    6.582    0.167    0.418   97.079
  478.500    6.459    0.168    0.422  101.367
  478.750    6.338    0.168    0.415  100.146
  479.000    6.457    0.160    0.413   99.536
  479.250    6.830    0.146    0.423  101.988
  479.500    7.359    0.139    0.432   97.093
  479.750    7.639    0.140    0.438   94.035
  480.000    7.930    0.159    0.419   93.426
  480.250    8.706    0.170    0.401   95.266
  480.500    9.382    0.182    0.391   90.984
  480.750   10.110    0.182    0.394   92.823
  481.000   10.494    0.166    0.388   92.826
  481.250   10.691    0.149    0.378   87.319
  481.500   10.689    0.121    0.361   84.873
  481.750    9.733    0.100    0.365   90.387
  482.000    7.488    0.146    0.381   94.062
  482.250    7.212    0.156    0.399  100.802
  482.500    7.211    0.178    0.413  102.028
  482.750    7.345    0.173    0.424  103.256
  483.000    6.943    0.136    0.432  105.095
  483.250    6.943    0.130    0.438  106.935
  483.500    7.207    0.150    0.452  106.326
  483.750    7.766    0.178    0.465  103.881
  484.000    9.190    0.210    0.446  101.434
  484.250   11.080    0.238    0.423   95.927
  484.500   13.612    0.260    0.394   96.542
  484.750   16.108    0.232    0.378  103.893
  485.000   18.360    0.215    0.394  110.630
  485.250   21.323    0.220    0.414  114.306
  485.500   23.412    0.229    0.411  110.024
  485.750   24.302    0.251    0.402  101.456
  486.000   24.299    0.236    0.380   96.561
  486.250   14.384    0.213    0.384   87.380
  486.500   10.659    0.204    0.397   84.934
  486.750    9.526    0.195    0.386   89.836
  487.000    8.673    0.199    0.385   98.410
  487.250    8.511    0.182    0.400  110.658
  487.500    8.352    0.173    0.409  119.233
  487.750    8.196    0.179    0.412  123.521
  488.000    8.195    0.186    0.413  124.748
  488.250    9.341    0.202    0.411  118.630
  488.500    9.880    0.217    0.411  102.713
  488.750   12.137    0.254    0.415   93.533
  489.000   16.682    0.275    0.433   78.230
  489.250   19.375    0.293    0.417   72.110
  489.500   22.502    0.289    0.406   67.828
  489.750   24.247    0.273    0.379   71.504
  490.000   23.795    0.246    0.357   77.018
  490.250   22.918    0.244    0.380   83.755
  490.500   19.360    0.219    0.393   81.921
  490.750   17.302    0.194    0.395   86.822
  491.000   16.662    0.193    0.380   92.949
  491.250   16.660    0.210    0.369   96.625
  491.500   16.973    0.217    0.354   93.567
  491.750   16.971    0.210    0.342   85.611
  492.000   17.616    0.185    0.337   79.492
  492.250   18.285    0.188    0.333   75.821
  492.500   19.339    0.199    0.347   72.150
  492.750   19.701    0.202    0.357   76.439
  493.000   20.451    0.207    0.349   80.729
  493.250   19.331    0.210    0.352   81.344
  493.500   16.955    0.218    0.359   84.408
  493.750   13.044    0.147    0.364   92.371
  494.000   11.657    0.103    0.372   95.434
  494.250   10.814    0.069    0.380  101.560
  494.500   10.415    0.077    0.391  106.460
  494.750   10.220    0.096    0.383  110.749
  495.000   10.029    0.085    0.377  107.080
  495.250   10.027    0.118    0.370  106.471
  495.500   10.409    0.130    0.363  109.534
  495.750   10.604    0.140    0.361  111.374
  496.000   10.803    0.132    0.365  109.541
  496.250   11.006    0.121    0.361  105.869
  496.500   11.640    0.143    0.358  100.363
  496.750   13.022    0.158    0.361   96.692
  497.000   15.700    0.165    0.366   94.246
  497.250   18.233    0.192    0.386   89.351
  497.500   18.927    0.233    0.385   64.252
  497.750   20.782    0.272    0.378   59.357
  498.000   22.394    0.252    0.369   72.832
  498.250   22.814    0.229    0.364   76.507
  498.500   21.973    0.216    0.347   78.347
  498.750   20.770    0.202    0.342   76.513
  499.000   20.004    0.220    0.348   70.393
  499.250   20.380    0.238    0.360   65.498
  499.500   21.554    0.256    0.364   62.440
  499.750   23.226    0.244    0.355   64.892
  500.000   32.221    0.273    0.377   74.388
  500.250   38.156    0.274    0.377   77.434
  500.500   41.915    0.268    0.366   80.478
  500.750   49.635    0.263    0.360   65.841
  501.000   61.026    0.251    0.366   60.350
  501.250   69.603    0.270    0.383   57.907
  501.500   75.040    0.280    0.376   57.292
  501.750   79.396    0.249    0.354   57.900
  502.000   79.405    0.266    0.351   61.554
  502.250   67.071    0.266    0.355   65.208
  502.500   49.676    0.265    0.352   70.081
  502.750   36.794    0.274    0.360   72.518
  503.000   31.667    0.265    0.376   84.100
  503.250   29.379    0.221    0.387   83.486
  503.500   28.836    0.199    0.402   81.653
  503.750   33.513    0.205    0.401   71.284
  504.000   39.685    0.213    0.381   48.109
  504.250   57.773    0.246    0.370   40.179
  504.500   73.747    0.279    0.365   35.297
  504.750   99.593    0.285    0.370   34.074
  505.000  113.592    0.297    0.371   40.777
  505.250   82.569    0.286    0.369   48.700
  505.500   32.304    0.267    0.354   62.111
  505.750   19.831    0.204    0.332   97.472
  506.000   15.250    0.163    0.342  116.980
  506.250   13.374    0.170    0.363  122.465
  506.500   12.178    0.180    0.372  120.021
  506.750   11.298    0.198    0.360  118.797
  507.000   11.089    0.220    0.354  120.014
  507.250   11.301    0.170    0.339  120.620
  507.500   11.516    0.187    0.357  117.567
  507.750   13.135    0.193    0.366  113.906
  508.000   14.429    0.201    0.368  103.536
  508.250   16.151    0.204    0.368   91.947
  508.500   17.742    0.214    0.359   84.626
  508.750   20.620    0.240    0.363   78.525
  509.000   22.230    0.258    0.368   68.764
  509.250   23.520    0.279    0.363   65.713
  509.500   22.657    0.264    0.354   69.977
  509.750   21.419    0.228    0.346   80.338
  510.000   19.139    0.210    0.338   87.652
  510.250   16.166    0.193    0.333   92.527
  510.500   14.719    0.178    0.330  101.668
  510.750   13.915    0.159    0.325  105.933
  511.000   13.155    0.165    0.331  108.369
  511.250   12.912    0.190    0.363  103.487
  511.500   12.673    0.207    0.346   94.337
  511.750   12.439    0.215    0.342   90.065
  512.000   12.209    0.202    0.338  105.915
  512.250   11.983    0.175    0.341  116.277
  512.500   12.444    0.162    0.353  119.321
  512.750   12.681    0.162    0.353  110.781
  513.000   12.922    0.182    0.344   91.266
  513.250   13.418    0.196    0.346   86.994
  513.500   13.420    0.191    0.348   95.527
  513.750   13.676    0.161    0.330  102.230
  514.000   13.678    0.156    0.343   96.737
  514.250   13.679    0.175    0.359   90.027
  514.500   13.681    0.202    0.379   83.926
  514.750   13.428    0.236    0.376   75.385
  515.000   13.429    0.227    0.365   75.382
  515.250   12.936    0.201    0.353   80.255
  515.500   12.460    0.181    0.337   82.690
  515.750   11.780    0.173    0.335   83.907
  516.000   10.726    0.190    0.335   84.512
  516.250    9.766    0.178    0.326   82.680
  516.500    8.892    0.146    0.320   69.872
  516.750    8.250    0.214    0.336   64.380
  517.000    8.097    0.247    0.341   68.034
  517.250    7.655    0.250    0.353   77.177
