~VERSION INFORMATION
 VERS.                 2.0:   CWLS LOG ASCII STANDARD -VERSION 2.0
 WRAP.                  NO:   ONE LINE PER DEPTH STEP
~WELL INFORMATION BLOCK
#MNEM.UNIT           DATA                    DESCRIPTION OF MNEMONIC
#---------    -------------------            -------------------------------
# Generated from Intellog Unique Number	CN_91_93/WELL/1065
WELL.         PETRO-CANADA                   : Well_name    - WELL
LOC .         00/02-22-091-19W4/0            : Location     - LOCATION
UWI .         00/02-22-091-19W400            : Uwi          - UNIQUE WELL ID
ENTR.         JOETTE                         : Entered      - ENTERED BY
SRVC.         SCHLUMBERGER                   : Scn          - SERVICE COMPANY
DATE.         01/30/92                       : Date         - LOG DATE
STRT.F        360.892                        : top_depth    - START DEPTH
STOP.F        770.997                        : bot_depth    - STOP DEPTH
STEP.F        0.821                          : increment    - STEP LENGTH
 NULL. -999.2500:NULL Value
~CURVE INFORMATION BLOCK
#MNEM UNIT       ERCB CURVE CODE    CURVE DESCRIPTION
#-----------   ------------------   ----------------------------------
DEPT.F        00 001 00 00         : DEPTH        - DEPTH
GR  .API      00 310 00 00         : GR           - GAMMA RAY
CALI.IN       00 280 01 00         : CAL          - CALIPER
PHIN.V/V      00 330 00 00         : PHIN         - NEUTRON POROSITY (SANDSTONE)
PHID.V/V      00 890 00 00         : PHID         - DENSITY POROSITY (SANDSTONE)
ILD .OHMM     00 120 00 00         : RESD         - DEEP RESISTIVITY (DIL)
~PARAMETER INFORMATION
#MNEM.UNIT           DATA             DESCRIPTION OF MNEMONIC
#---------         -----------     ------------------------------
GL  .F        1715.98              : gl           - GROUND LEVEL ELEVATION
EREF.F        1728.28              : kb           - ELEVATION OF DEPTH REFERENCE
DATM.F        1728.28              : datum        - DATUM ELEVATION
TDD .F        1021.98              : tdd          - TOTAL DEPTH DRILLER
RUN .         ONE                  : Run          - RUN NUMBER
ENG .         JO                   : Engineer     - RECORDING ENGINEER
WIT .         TIM                  : Witness      - WITNESSED BY
MUD .         GEL                  : Mud_type     - MUD TYPE
MATR.         SANDSTONE            : Logunit      - NEUTRON MATRIX
TMAX.F        50                   : BHT          - MAXIMUM RECORDED TEMPERATURE
BHTD.F        524.934              : BHTDEP       - MAXIMUM RECORDED TEMPERATURE
RMT .F        64.4                 : MDTP         - TEMPERATURE OF MUD
MUDD.LB/G     0.541666             : MWT          - MUD DENSITY
NEUT.         1                    : NEUTRON      - NEUTRON TYPE
RESI.         0                    : RESIST       - RESISTIVITY TYPE
RM  .OHMM     1.5                  : RM           - RESISTIVITY OF MUD
RMC .OHMM     1.8                  : RMC          - RESISTIVITY OF MUD CAKE
RMF .OHMM     1.1                  : RMF          - RESISTIVITY OF MUD FILTRATE
SUFT.F        39.2                 : SUFT         - SURFACE TEMPERATURE
~A   DEPT       GR     CALI     PHIN     PHID      ILD
# ...
  600.394   99.012    8.663    0.367    0.194   15.206
  601.214  100.791    8.682    0.356    0.188   13.244
  602.034   99.613    8.721    0.352    0.172   11.856
  602.854   94.885    8.741    0.337    0.142   13.336
  603.675   80.399    8.761    0.325    0.084   14.460
  604.495   84.840    8.781    0.318    0.123   14.052
  605.315   91.351    8.781    0.318    0.147   14.430
  606.135   91.947    8.762    0.342    0.201   13.035
  606.955   83.080    8.743    0.331    0.181   12.215
  607.776   77.466    8.821    0.325    0.143   11.979
  608.596   86.344    8.918    0.324    0.162   12.413
  609.416   93.445    8.957    0.363    0.197    9.601
  610.236  100.252    8.957    0.378    0.211    7.987
  611.056  108.538    8.958    0.400    0.235    6.895
  611.877  101.446    8.939    0.409    0.239    6.521
  612.697   94.648    8.900    0.397    0.220    7.676
  613.517   85.189    8.881    0.381    0.204    8.174
  614.337   73.364    8.881    0.366    0.157   10.353
  615.157   70.412    8.979    0.340    0.156   12.076
  615.978   82.247    9.018    0.347    0.170   12.627
  616.798   93.195    9.018    0.372    0.193   12.614
  617.618   93.790    9.019    0.374    0.204   12.149
  618.438   98.823    8.999    0.380    0.204   11.174
  619.259   94.686    8.941    0.385    0.212   10.568
  620.079   95.874    8.845    0.384    0.208   10.270
  620.899  103.569    8.787    0.368    0.199   10.546
  621.719  100.616    8.787    0.353    0.157   11.646
  622.539   88.200    8.846    0.341    0.119   12.747
  623.360   80.811    8.865    0.332    0.149   14.469
  624.180   75.493    8.885    0.332    0.175   16.272
  625.000   82.891    8.905    0.339    0.203   15.813
  625.820   96.204    8.944    0.338    0.216   14.419
  626.640   90.294    8.944    0.345    0.224   14.272
  627.461   86.454    8.964    0.336    0.225   14.923
  628.281   82.615    8.945    0.323    0.222   14.504
  629.101   84.986    8.946    0.309    0.218   14.886
  629.921   85.286    8.887    0.299    0.205   18.349
  630.741   82.334    8.830    0.314    0.220   18.838
  631.562   79.382    8.791    0.323    0.226   18.814
  632.382   81.160    8.791    0.327    0.248   17.470
  633.202   72.885    8.850    0.313    0.241   16.979
  634.022   66.975    8.889    0.293    0.228   18.750
  634.843   63.727    8.870    0.284    0.147   33.913
  635.663   74.378    8.831    0.274    0.192   38.140
  636.483   71.722    8.812    0.276    0.243   36.721
  637.303   68.769    8.812    0.290    0.286   30.015
  638.123   65.520    8.794    0.305    0.194   26.377
  638.944   67.004    8.755    0.324    0.197   26.590
  639.764   66.417    8.755    0.329    0.213   24.246
  640.584   64.352    8.756    0.337    0.240   18.923
  641.404   62.878    8.717    0.351    0.246   18.733
  642.224   61.404    8.718    0.355    0.249   18.713
  643.045   64.663    8.679    0.359    0.256   16.449
  643.865   66.738    8.660    0.373    0.306   14.859
  644.685   64.672    8.660    0.428    0.289   13.797
  645.505   62.015    8.661    0.352    0.123   14.295
  646.325   59.951    8.642    0.323    0.097   21.338
  647.146   60.251    8.642    0.281    0.086   33.042
  647.966   59.960    8.642    0.263    0.084   46.694
  648.786   59.669    8.662    0.253    0.077   51.102
  649.606   59.083    8.662    0.250    0.105   48.768
  650.427   59.087    8.682    0.272    0.143   42.088
  651.247   80.681    8.702    0.307    0.187   35.670
  652.067   90.740    8.741    0.334    0.202   28.878
  652.887   89.858    8.819    0.337    0.205   16.526
  653.707   84.836    8.897    0.345    0.169   12.322
  654.528   80.996    8.955    0.351    0.140   11.339
  655.348   75.382    8.994    0.334    0.107   11.122
  656.168   91.356    9.053    0.337    0.089   11.735
  656.988   96.684    9.111    0.348    0.186   13.080
  657.808   92.845    8.898    0.352    0.207   12.595
  658.629   89.597    8.821    0.358    0.215   12.813
  659.449   89.307    8.996    0.358    0.217   13.642
  660.269   87.537    9.074    0.352    0.211   14.132
  661.089   86.653    8.977    0.345    0.175   14.380
  661.909   89.024    8.861    0.342    0.150   13.722
  662.730   84.002    8.784    0.345    0.148   14.216
  663.550   91.400    8.726    0.348    0.137   14.201
  664.370   83.716    8.940    0.350    0.159   13.927
  665.190   76.919    9.134    0.356    0.186   14.298
  666.010   85.499    9.115    0.365    0.199   13.768
  666.831   88.166    9.018    0.371    0.188   13.508
  667.651   90.241    8.883    0.374    0.183   13.127
  668.471   92.021    8.767    0.370    0.191   13.474
  669.291   93.801    9.039    0.363    0.204   13.216
  670.112   95.579    9.213    0.354    0.203   12.614
  670.932   94.106    9.097    0.346    0.201   12.832
  671.752   82.576    8.981    0.354    0.025   12.586
  672.572   74.596    8.923    0.331    0.055   13.402
  673.392   79.629    8.963    0.338    0.124   13.509
  674.213   92.055    9.079    0.355    0.145   13.010
  675.033   95.608    9.080    0.370    0.197   12.301
  675.853   95.317    9.080    0.378    0.196   11.847
  676.673   95.914    8.964    0.383    0.198   11.726
  677.493   95.623    8.906    0.372    0.199   11.819
  678.314   92.966    8.984    0.370    0.196   12.470
  679.134   91.788    9.042    0.361    0.196   12.802
  679.954   94.159    8.965    0.355    0.199   12.558
  680.774   96.530    8.888    0.350    0.199   12.207
  681.594   97.126    8.907    0.337    0.200   12.530
  682.415   97.722    8.927    0.333    0.202   12.630
  683.235   94.178    8.986    0.332    0.204   12.618
  684.055   98.028    9.005    0.328    0.202   12.717
  684.875   97.737    8.909    0.337    0.196   12.822
  685.696   93.010    8.851    0.317    0.041   13.163
  686.516   69.652    8.890    0.282    0.006   14.275
  687.336   69.952    9.007    0.299    0.119   14.254
  688.156   97.165    8.968    0.328    0.154   13.855
  688.976  109.295    8.891    0.344    0.176   13.591
  689.797  108.412    8.988    0.348    0.178   12.853
  690.617  112.558    9.086    0.357    0.188   11.297
  691.437  111.971    9.067    0.360    0.196   11.388
  692.257  106.653    9.009    0.364    0.199   11.166
  693.077  107.249    9.028    0.378    0.201   10.754
  693.898  110.803    9.087    0.399    0.198   10.548
  694.718  110.216    9.029    0.411    0.190   10.827
  695.538  101.053    9.029    0.393    0.169   11.424
  696.358   93.665    8.952    0.374    0.094   11.732
  697.178   92.191    8.952    0.358    0.118   12.044
  697.999   99.293    8.778    0.374    0.135   11.493
  698.819  107.875    8.701    0.373    0.173   10.867
  699.639  106.696    8.682    0.360    0.209   10.560
  700.459  117.052    8.682    0.355    0.208   10.648
  701.280  116.761    8.624    0.349    0.205   10.930
  702.100  100.796    8.489    0.342    0.200   11.640
  702.920   93.999    8.469    0.338    0.232   12.623
  703.740   87.202    8.470    0.335    0.261   14.862
  704.560   75.377    8.451    0.302    0.317   29.447
  705.381   51.131    8.451    0.280    0.361   36.956
  706.201   28.364    8.432    0.212    0.454   77.345
  707.021   23.638    8.374    0.164    0.451   83.103
  707.841   23.051    8.336    0.138    0.446   86.889
  708.661   24.831    8.355    0.125    0.437   42.965
  709.482   23.652    8.394    0.209    0.423   34.473
  710.302   23.652    8.414    0.206    0.394   26.422
  711.122   23.073    8.414    0.309    0.354   21.007
  711.942   24.555    8.415    0.296    0.331   22.162
  712.762   26.334    8.415    0.336    0.331   31.900
  713.583   26.634    8.415    0.335    0.333   40.035
  714.403   25.160    8.396    0.333    0.334   44.210
  715.223   24.869    8.416    0.330    0.332   51.583
  716.043   26.354    8.319    0.328    0.328   66.535
  716.864   28.723    8.417    0.342    0.322   78.333
  717.684   40.557    8.611    0.335    0.322   87.307
  718.504   36.126    8.747    0.329    0.332   93.819
  719.324   29.625    8.767    0.333    0.340  109.451
