~VERSION INFORMATION
 VERS.                 2.0:   CWLS LOG ASCII STANDARD -VERSION 2.0
 WRAP.                  NO:   ONE LINE PER DEPTH STEP
~WELL INFORMATION BLOCK
#MNEM.UNIT           DATA                    DESCRIPTION OF MNEMONIC
#---------    -------------------            -------------------------------
# Generated from Intellog Unique Number	CW_70_72/WELL/1028
NULL.         -999.25                        : NULL_VALUE
WELL.         MANNVILLE ET AL PETER 09-34    : Well_name    - WELL              
LOC .         09-34-072-01W5                 : Location     - LOCATION          
UWI .         00/09-34-072-01W5/0            : Uwi          - UNIQUE WELL ID    
ENTR.         JAYE                           : Entered      - ENTERED BY        
SRVC.         WESTERN ATLAS                  : Scn          - SERVICE COMPANY   
DATE.         7 SEPT 80                      : Date         - LOG DATE          
STRT.M        440                            : top_depth    - START DEPTH       
STOP.M        695                            : bot_depth    - STOP DEPTH        
STEP.M        0.25                           : increment    - STEP LENGTH       
~CURVE INFORMATION BLOCK
#MNEM UNIT       ERCB CURVE CODE    CURVE DESCRIPTION
#-----------   ------------------   ----------------------------------
DEPT.M        00 001 00 00         : DEPTH        - DEPTH                       
DPHI.V/V      00 890 00 00         : PHID         - DENSITY POROSITY (SANDSTONE)
NPHI.V/V      00 330 00 00         : PHIN         - NEUTRON POROSITY (SANDSTONE)
GR  .API      00 310 00 00         : GR           - GAMMA RAY                   
CALI.MM       00 280 01 00         : CAL          - CALIPER                     
ILD .OHMM     00 120 00 00         : RESD         - DEEP RESISTIVITY (DIL)      
~PARAMETER INFORMATION       
#MNEM.UNIT           DATA             DESCRIPTION OF MNEMONIC
#---------         -----------     ------------------------------
GL  .M        651.1                : gl           - GROUND LEVEL ELEVATION      
EREF.M        654                  : kb           - ELEVATION OF DEPTH REFERENCE
DATM.M        651.1                : datum        - DATUM ELEVATION             
TDD .M        696                  : tdd          - TOTAL DEPTH DRILLER         
RUN .         ONE                  : Run          - RUN NUMBER                  
ENG .         IRELAND              : Engineer     - RECORDING ENGINEER          
WIT .         KELLY                : Witness      - WITNESSED BY                
BASE.         EDM                  : Branch       - HOME BASE OF LOGGING UNIT   
MUD .         GEL-CHEM             : Mud_type     - MUD TYPE                    
MATR.         SANDSTONE            : Logunit      - NEUTRON MATRIX              
TMAX.C        27.1                 : BHT          - MAXIMUM RECORDED TEMPERATURE
BHTD.M        697                  : BHTDEP       - MAXIMUM RECORDED TEMPERATURE
RMT .C        21.6                 : MDTP         - TEMPERATURE OF MUD          
MUDD.KG/M     1210                 : MWT          - MUD DENSITY                 
NEUT.         1                    : NEUTRON      - NEUTRON TYPE                
RESI.         0                    : RESIST       - RESISTIVITY TYPE            
RM  .OHMM     1.84                 : RM           - RESISTIVITY OF MUD          
RMC .OHMM     0                    : RMC          - RESISTIVITY OF MUD CAKE     
RMF .OHMM     1.47                 : RMF          - RESISTIVITY OF MUD FILTRATE 
SUFT.C        32                   : SUFT         - SURFACE TEMPERATURE         
~A  DEPTH     PHID     PHIN       GR      CAL     RESD
# ...
  586.000    0.167    0.358   67.843  173.126    9.099
  586.250    0.186    0.359   66.010  169.152    9.930
  586.500    0.144    0.356   67.164  166.927   10.962
  586.750    0.076    0.333   71.190  167.710   11.919
  587.000    0.070    0.246   74.206  170.155   11.772
  587.250    0.102    0.258   78.662  173.320   10.285
  587.500    0.165    0.326   82.057  176.286    9.139
  587.750    0.207    0.376   84.582  177.900    7.939
  588.000    0.216    0.402   79.643  178.585    6.580
  588.250    0.207    0.428   78.371  178.857    6.176
  588.500    0.198    0.425   79.336  178.915    6.053
  588.750    0.188    0.394   83.295  178.973    6.058
  589.000    0.201    0.407   85.072  178.824    6.062
  589.250    0.200    0.426   84.984  178.575    6.090
  589.500    0.195    0.432   84.645  178.214    6.106
  589.750    0.187    0.407   86.548  177.753    6.122
  590.000    0.175    0.382   86.711  176.888    6.139
  590.250    0.164    0.395   81.890  176.111    6.108
  590.500    0.159    0.407   82.174  175.135    6.135
  590.750    0.155    0.411   85.199  174.252    6.198
  591.000    0.153    0.392   85.734  173.076    6.345
  591.250    0.151    0.384   82.781  172.408    6.606
  591.500    0.145    0.385   80.947  171.644    6.865
  591.750    0.157    0.391   80.362  171.388    6.988
  592.000    0.158    0.381   81.515  171.231    6.993
  592.250    0.155    0.360   83.295  171.187    6.880
  592.500    0.156    0.366   86.072  171.046    6.668
  592.750    0.155    0.375   88.532  170.999    6.487
  593.000    0.158    0.372   91.745  171.164    6.286
  593.250    0.165    0.381   94.269  171.321    5.979
  593.500    0.172    0.394   94.614  171.383    5.708
  593.750    0.179    0.418   92.097  171.343    5.532
  594.000    0.185    0.433   87.596  171.300    5.382
  594.250    0.191    0.413   87.876  171.354    5.285
  594.500    0.191    0.416   90.587  171.723    5.200
  594.750    0.185    0.427   93.484  171.787    5.107
  595.000    0.182    0.415   95.201  171.841    5.015
  595.250    0.173    0.414   96.108  171.792    4.925
  595.500    0.170    0.431   96.831  172.064    4.863
  595.750    0.179    0.420   97.058  172.328    4.794
  596.000    0.180    0.419   97.148  171.867    4.843
  596.250    0.179    0.419   96.374  170.060    5.110
  596.500    0.178    0.420   94.419  169.392    5.381
  596.750    0.177    0.432   90.657  169.764    5.817
  597.000    0.170    0.440   84.966  169.720    6.544
  597.250    0.148    0.404   75.728  163.346    7.210
  597.500    0.134    0.382   75.326  164.239    7.478
  597.750    0.119    0.364   85.447  166.998    6.862
  598.000    0.123    0.324   93.697  170.059    6.214
  598.250    0.153    0.364   96.350  171.572    5.585
  598.500    0.166    0.404   98.499  171.530    5.262
  598.750    0.168    0.407  101.836  171.173    5.080
  599.000    0.173    0.419  107.037  170.610    4.886
  599.250    0.191    0.432  106.760  170.465    4.727
  599.500    0.185    0.448   97.149  170.211    4.921
  599.750    0.173    0.422   93.138  169.747    5.261
  600.000    0.168    0.404   90.546  171.847    5.519
  600.250    0.174    0.411   92.718  171.736    5.723
  600.500    0.164    0.420   93.397  171.314    5.863
  600.750    0.156    0.421   92.707  170.889    5.939
  601.000    0.150    0.420   92.516  170.777    6.029
  601.250    0.163    0.413   93.817  171.078    6.119
  601.500    0.170    0.400   91.884  171.071    6.163
  601.750    0.155    0.407   87.402  170.856    6.185
  602.000    0.161    0.409   85.282  170.536    6.127
  602.250    0.171    0.389   87.018  170.321    6.092
  602.500    0.180    0.367   89.562  170.105    6.090
  602.750    0.189    0.380   91.983  169.576    6.205
  603.000    0.181    0.399   93.097  168.844    6.392
  603.250    0.143    0.405   88.180  167.904    6.712
  603.500    0.098    0.356   81.894  166.443    7.318
  603.750    0.069    0.339   73.182  165.293    7.740
  604.000    0.118    0.333   79.769  164.456    7.754
  604.250    0.163    0.355   87.413  163.929    7.069
  604.500    0.178    0.378   96.798  163.712    6.300
  604.750    0.163    0.398   99.405  163.914    5.723
  605.000    0.159    0.406   97.970  164.318    5.553
  605.250    0.161    0.396   93.238  164.620    5.636
  605.500    0.161    0.378   89.316  164.615    5.785
  605.750    0.156    0.372   90.803  164.709    5.763
  606.000    0.146    0.394   94.592  165.010    5.665
  606.250    0.139    0.398   93.529  165.107    5.590
  606.500    0.145    0.397   96.571  165.200    5.556
  606.750    0.144    0.401  100.111  165.193    5.545
  607.000    0.143    0.409  103.277  164.664    5.555
  607.250    0.147    0.422  102.651  164.451    5.585
  607.500    0.152    0.429  101.091  164.027    5.637
  607.750    0.156    0.422  100.526  163.915    5.755
  608.000    0.152    0.410  101.019  163.906    5.840
  608.250    0.143    0.389  102.444  164.001    5.859
  608.500    0.149    0.391  103.869  164.199    5.903
  608.750    0.157    0.405  103.615  164.089    5.935
  609.000    0.165    0.407  103.423  164.081    5.957
  609.250    0.169    0.405  105.409  163.866    6.012
  609.500    0.170    0.420  106.585  163.443    6.113
  609.750    0.166    0.433  102.973  163.020    6.371
  610.000    0.152    0.419  101.849  162.596    6.765
  610.250    0.144    0.378  101.906  162.171    7.277
  610.500    0.148    0.361   96.739  161.854    8.210
  610.750    0.171    0.373   91.386  161.119    9.103
  611.000    0.181    0.392   86.530  160.490   10.149
  611.250    0.161    0.395   80.119  160.067   11.274
  611.500    0.125    0.353   77.813  159.745   12.129
  611.750    0.108    0.319   80.482  159.633   11.857
  612.000    0.153    0.331   81.161  159.625   10.953
  612.250    0.173    0.353   81.716  159.618    9.510
  612.500    0.176    0.377   82.582  159.298    8.588
  612.750    0.172    0.385   83.509  159.187    8.055
  613.000    0.178    0.387   85.369  158.969    8.069
  613.250    0.196    0.376   87.044  158.754    8.098
  613.500    0.192    0.342   89.339  158.540    8.203
  613.750    0.149    0.313   91.698  158.220    8.373
  614.000    0.117    0.293   95.424  158.210    7.882
  614.250    0.130    0.323   99.213  158.201    7.296
  614.500    0.150    0.355  106.795  158.089    7.158
  614.750    0.166    0.379  100.508  158.184    7.292
  615.000    0.171    0.386   97.083  157.967    7.627
  615.250    0.163    0.399   92.663  157.962    8.475
  615.500    0.141    0.396   84.200  157.743    9.576
  615.750    0.111    0.377   73.996  157.634   10.557
  616.000    0.083    0.348   66.963  157.313   11.230
  616.250    0.048    0.283   69.259  157.203   10.414
  616.500    0.040    0.265   77.960  156.987    8.874
  616.750    0.073    0.299   85.356  157.080    7.633
  617.000    0.107    0.328   90.637  157.176    7.024
  617.250    0.136    0.358   90.942  157.583    6.636
  617.500    0.143    0.389   90.503  157.885    6.354
  617.750    0.146    0.399   90.808  158.293    6.413
  618.000    0.147    0.396   92.420  158.800    6.573
  618.250    0.140    0.400   92.540  159.103    6.697
  618.500    0.131    0.400   88.368  159.509    6.846
  618.750    0.125    0.389   89.420  159.917    7.041
  619.000    0.120    0.362   92.213  160.425    7.213
  619.250    0.110    0.369   90.156  160.624    7.364
  619.500    0.098    0.386   87.228  160.616    7.559
  619.750    0.073    0.389   87.658  160.608    7.744
  620.000    0.082    0.371   89.892  160.495    7.964
  620.250    0.104    0.358   93.369  160.487    8.315
  620.500    0.122    0.356   93.737  160.583    8.470
  620.750    0.119    0.356   91.555  160.782    8.501
  621.000    0.108    0.352   90.680  160.773    8.360
  621.250    0.113    0.354   90.862  161.180    8.261
  621.500    0.124    0.353   92.038  161.273    8.213
  621.750    0.135    0.364   95.826  161.265    8.260
  622.000    0.125    0.373   97.749  161.257    8.367
  622.250    0.097    0.331   89.349  161.145    8.539
