~VERSION INFORMATION
 VERS.                 2.0:   CWLS LOG ASCII STANDARD -VERSION 2.0
 WRAP.                  NO:   ONE LINE PER DEPTH STEP
~WELL INFORMATION BLOCK
#MNEM.UNIT           DATA                    DESCRIPTION OF MNEMONIC
#---------    -------------------            -------------------------------
# Generated from Intellog Unique Number	CW_70_72/WELL/3004
NULL.         -999.25                        : NULL_VALUE
WELL.         SULPETRO BREND MITSUE 05-20    : Well_name    - WELL              
LOC .         05-20-070-05W5                 : Location     - LOCATION          
UWI .         00/05-20-070-05W5/0            : Uwi          - UNIQUE WELL ID    
ENTR.         JAYE                           : Entered      - ENTERED BY        
SRVC.         SCHLUMBERGER                   : Scn          - SERVICE COMPANY   
DATE.         5 FEB 80                       : Date         - LOG DATE          
STRT.M        635                            : top_depth    - START DEPTH       
STOP.M        885                            : bot_depth    - STOP DEPTH        
STEP.M        0.25                           : increment    - STEP LENGTH       
~CURVE INFORMATION BLOCK
#MNEM UNIT       ERCB CURVE CODE    CURVE DESCRIPTION
#-----------   ------------------   ----------------------------------
DEPT.M        00 001 00 00         : DEPTH        - DEPTH                       
ILD .OHMM     00 120 00 00         : RESD         - DEEP RESISTIVITY (DIL)      
CALI.MM       00 280 01 00         : CAL          - CALIPER                     
GR  .API      00 310 00 00         : GR           - GAMMA RAY                   
NPHI.V/V      00 330 00 00         : PHIN         - NEUTRON POROSITY (SANDSTONE)
DPHI.V/V      00 890 00 00         : PHID         - DENSITY POROSITY (SANDSTONE)
~PARAMETER INFORMATION       
#MNEM.UNIT           DATA             DESCRIPTION OF MNEMONIC
#---------         -----------     ------------------------------
GL  .M        738.2                : gl           - GROUND LEVEL ELEVATION      
EREF.M        742                  : kb           - ELEVATION OF DEPTH REFERENCE
DATM.M        738.2                : datum        - DATUM ELEVATION             
TDD .M        898                  : tdd          - TOTAL DEPTH DRILLER         
RUN .         ONE                  : Run          - RUN NUMBER                  
ENG .         DECKER               : Engineer     - RECORDING ENGINEER          
WIT .         CIAVARELLA           : Witness      - WITNESSED BY                
BASE.         EDM                  : Branch       - HOME BASE OF LOGGING UNIT   
MUD .         GEL CHEM             : Mud_type     - MUD TYPE                    
MATR.         SANDSTONE            : Logunit      - NEUTRON MATRIX              
TMAX.C        31.1                 : BHT          - MAXIMUM RECORDED TEMPERATURE
BHTD.M        899.5                : BHTDEP       - MAXIMUM RECORDED TEMPERATURE
RMT .C        12.7                 : MDTP         - TEMPERATURE OF MUD          
MUDD.KG/M     1000                 : MWT          - MUD DENSITY                 
NEUT.         1                    : NEUTRON      - NEUTRON TYPE                
RESI.         0                    : RESIST       - RESISTIVITY TYPE            
RM  .OHMM     0.25                 : RM           - RESISTIVITY OF MUD          
RMC .OHMM     0.25                 : RMC          - RESISTIVITY OF MUD CAKE     
RMF .OHMM     5                    : RMF          - RESISTIVITY OF MUD FILTRATE 
SUFT.C        0                    : SUFT         - SURFACE TEMPERATURE         
~A  DEPTH     RESD      CAL       GR     PHIN     PHID
# ...
  708.000    2.773  164.248   96.939    0.460    0.177
  708.250    2.845  164.269   92.857    0.474    0.200
  708.500    2.975  164.601   92.684    0.483    0.218
  708.750    3.069  165.037   94.743    0.485    0.232
  709.000    3.161  165.055   96.493    0.509    0.214
  709.250    3.250  165.078   94.893    0.498    0.207
  709.500    3.169  164.582   92.736    0.493    0.189
  709.750    2.895  161.607   91.011    0.515    0.235
  710.000    2.724  157.490   89.286    0.462    0.269
  710.250    2.593  155.444   85.020    0.435    0.259
  710.500    2.549  155.055   79.510    0.417    0.221
  710.750    2.640  155.075   78.034    0.429    0.211
  711.000    2.703  155.303   78.853    0.437    0.230
  711.250    2.687  156.047   80.293    0.443    0.227
  711.500    2.675  156.174   75.654    0.440    0.210
  711.750    2.566  156.401   70.951    0.416    0.234
  712.000    2.437  157.459   72.081    0.401    0.261
  712.250    2.395  158.824   80.283    0.420    0.255
  712.500    2.533  160.703   85.880    0.462    0.216
  712.750    2.688  167.240   88.187    0.453    0.201
  713.000    2.875  165.400   90.371    0.425    0.185
  713.250    3.005  163.457   91.067    0.435    0.171
  713.500    3.066  162.445   91.453    0.451    0.161
  713.750    2.990  162.466   91.216    0.444    0.178
  714.000    2.814  162.694   87.507    0.432    0.185
  714.250    2.509  164.783   87.768    0.432    0.165
  714.500    2.236  170.284   88.897    0.452    0.182
  714.750    2.012  182.196   86.615    0.490    0.205
  715.000    1.887  198.760   84.332    0.509    0.232
  715.250    1.799  209.949   85.462    0.559    0.257
  715.500    1.732  198.494   83.304    0.537    0.279
  715.750    1.677  176.905   77.237    0.506    0.260
  716.000    1.561  159.039   70.985    0.457    0.283
  716.250    1.460  152.856   66.530    0.419    0.297
  716.500    1.419  150.708   62.635    0.409    0.315
  716.750    1.424  151.246   65.440    0.426    0.330
  717.000    1.475  151.681   67.065    0.419    0.312
  717.250    1.548  151.497   67.699    0.407    0.292
  717.500    1.618  151.723   68.021    0.414    0.274
  717.750    1.667  152.471   68.282    0.413    0.288
  718.000    1.684  154.351   69.288    0.404    0.284
  718.250    1.687  156.442   69.486    0.407    0.270
  718.500    1.657  157.394   68.012    0.420    0.270
  718.750    1.584  157.415   65.667    0.414    0.287
  719.000    1.533  157.125   62.887    0.408    0.284
  719.250    1.504  156.736   59.550    0.414    0.275
  719.500    1.506  156.036   56.771    0.426    0.268
  719.750    1.533  156.052   56.908    0.436    0.278
  720.000    1.649  155.869   58.596    0.443    0.287
  720.250    1.776  155.994   59.541    0.427    0.291
  720.500    1.932  156.427   59.925    0.399    0.295
  720.750    2.198  156.661   57.890    0.364    0.262
  721.000    2.610  156.783   55.422    0.292    0.109
  721.250    2.860  156.906   54.132    0.237    0.076
  721.500    2.763  157.551   55.323    0.222    0.097
  721.750    2.408  158.089   59.059    0.254    0.118
  722.000    2.022  157.486   61.182    0.281    0.165
  722.250    1.650  156.474   61.814    0.336    0.266
  722.500    1.433  155.462   61.517    0.369    0.299
  722.750    1.318  155.175   61.095    0.398    0.289
  723.000    1.283  154.990   61.852    0.422    0.284
  723.250    1.334  154.805   64.098    0.430    0.304
  723.500    1.462  155.031   64.050    0.413    0.290
  723.750    1.695  155.364   59.844    0.371    0.260
  724.000    2.157  155.899   55.017    0.295    0.215
  724.250    3.109  156.336   47.215    0.193    0.079
  724.500    5.023  156.770   42.574    0.175    0.016
  724.750    8.331  157.828   39.050    0.142    0.002
  725.000   12.325  158.263   40.306    0.129   -0.008
  725.250   15.283  158.596   43.048    0.122   -0.013
  725.500   15.078  158.824   45.728    0.118   -0.010
  725.750   13.900  159.152   42.020    0.118   -0.007
  726.000   12.114  159.486   40.728    0.126    0.001
  726.250   10.303  159.507   41.982    0.138    0.015
  726.500    8.896  159.636   43.235    0.157    0.032
  726.750    7.609  159.549   44.428    0.176    0.047
  727.000    6.557  159.363   45.123    0.189    0.058
  727.250    5.463  159.384   47.120    0.205    0.084
  727.500    4.620  158.164   50.918    0.247    0.115
  727.750    3.886  155.911   54.963    0.281    0.182
  728.000    3.107  153.762   56.838    0.368    0.299
  728.250    2.627  152.649   55.361    0.397    0.285
  728.500    2.281  152.565   56.181    0.400    0.278
  728.750    2.011  152.486   57.062    0.399    0.293
  729.000    1.789  153.437   58.749    0.398    0.303
  729.250    1.604  153.766   59.755    0.411    0.302
  729.500    1.501  154.202   60.885    0.424    0.290
  729.750    1.456  154.533   61.271    0.412    0.280
  730.000    1.439  154.763   61.034    0.407    0.272
  730.250    1.440  154.989   62.039    0.408    0.273
  730.500    1.451  155.116   59.943    0.403    0.286
  730.750    1.461  155.342   58.344    0.401    0.278
  731.000    1.474  155.570   56.867    0.396    0.283
  731.250    1.495  155.695   57.316    0.388    0.297
  731.500    1.520  156.026   57.203    0.383    0.308
  731.750    1.542  156.363   56.100    0.415    0.308
  732.000    1.570  156.591   57.539    0.455    0.315
  732.250    1.611  156.715   55.629    0.472    0.313
  732.500    1.669  156.940   51.733    0.447    0.303
  732.750    1.728  157.169   52.057    0.420    0.281
  733.000    1.741  157.813   54.738    0.390    0.259
  733.250    1.691  158.037   57.169    0.367    0.251
  733.500    1.637  157.956   59.167    0.396    0.275
  733.750    1.591  158.292   60.110    0.403    0.283
  734.000    1.557  158.310   58.510    0.403    0.282
  734.250    1.554  158.435   56.352    0.394    0.275
  734.500    1.556  158.150   56.614    0.387    0.263
  734.750    1.567  158.063   58.797    0.383    0.235
  735.000    1.580  157.672   61.291    0.377    0.185
  735.250    1.595  157.387   63.351    0.397    0.211
  735.500    1.585  157.611   63.427    0.414    0.236
  735.750    1.572  157.532   61.083    0.428    0.237
  736.000    1.589  157.449   60.102    0.402    0.265
  736.250    1.639  157.578   62.969    0.393    0.276
  736.500    1.780  157.593   65.091    0.395    0.279
  736.750    1.914  157.306   64.484    0.397    0.232
  737.000    1.913  156.809   54.509    0.331    0.175
  737.250    1.841  156.731   50.303    0.266    0.134
  737.500    1.736  156.544   53.232    0.285    0.190
  737.750    1.613  156.462   55.477    0.323    0.215
  738.000    1.521  155.965   57.041    0.380    0.274
  738.250    1.450  153.193   57.738    0.412    0.284
  738.500    1.455  152.802   59.238    0.421    0.283
  738.750    1.538  152.619   57.390    0.402    0.289
  739.000    1.698  152.948   60.568    0.386    0.271
  739.250    1.875  155.141   65.170    0.375    0.248
  739.500    1.829  157.126   73.620    0.382    0.226
  739.750    1.655  157.769   76.860    0.400    0.198
  740.000    1.426  158.205   71.724    0.403    0.240
  740.250    1.224  158.433   66.712    0.431    0.274
  740.500    1.095  158.556   60.769    0.442    0.289
  740.750    1.027  158.580   55.509    0.429    0.315
  741.000    1.056  158.291   53.784    0.396    0.315
  741.250    1.110  158.314   54.976    0.415    0.314
  741.500    1.219  158.339   58.400    0.421    0.324
  741.750    1.355  158.361   63.872    0.430    0.306
  742.000    1.494  158.271   70.647    0.417    0.274
  742.250    1.495  158.198   77.546    0.444    0.233
  742.500    1.363  158.007   64.655    0.453    0.245
  742.750    1.217  157.819   54.494    0.408    0.273
  743.000    1.116  157.847   47.993    0.389    0.301
  743.250    1.230  157.656   48.627    0.386    0.321
  743.500    1.397  157.263   52.611    0.400    0.329
  743.750    1.625  156.563   58.020    0.389    0.330
  744.000    1.934  156.688   63.367    0.387    0.325
  744.250    2.245  157.534   68.157    0.410    0.307
