~VERSION INFORMATION
 VERS.                 2.0:   CWLS LOG ASCII STANDARD -VERSION 2.0
 WRAP.                  NO:   ONE LINE PER DEPTH STEP
~WELL INFORMATION BLOCK
#MNEM.UNIT           DATA                    DESCRIPTION OF MNEMONIC
#---------    -------------------            -------------------------------
# Generated from Intellog Unique Number	CW_76_78/WELL/619
WELL.         07-12-077-04W5                 : Well_name    - WELL
LOC .         00/07-12-077-04W5/0            : Location     - LOCATION
UWI .         00/07-12-077-04W5/0            : Uwi          - UNIQUE WELL ID
ENTR.         JAYE                           : Entered      - ENTERED BY
SRVC.         WESTERN ATLAS                  : Scn          - SERVICE COMPANY
STRT.M        435.864                        : top_depth    - START DEPTH
STOP.M        633.864                        : bot_depth    - STOP DEPTH
STEP.M        0.25                           : increment    - STEP LENGTH
 NULL. -999.2500:NULL Value
~CURVE INFORMATION BLOCK
#MNEM UNIT       ERCB CURVE CODE    CURVE DESCRIPTION
#-----------   ------------------   ----------------------------------
DEPT.M        00 001 00 00         : DEPTH        - DEPTH
ILD .OHMM     00 120 00 00         : RESD         - DEEP RESISTIVITY (DIL)
DPHI.V/V      00 890 00 00         : PHID         - DENSITY POROSITY (SANDSTONE)
NPHI.V/V      00 330 00 00         : PHIN         - NEUTRON POROSITY (SANDSTONE)
GR  .API      00 310 00 00         : GR           - GAMMA RAY
CALI.MM       00 280 01 00         : CAL          - CALIPER
~PARAMETER INFORMATION
#MNEM.UNIT           DATA             DESCRIPTION OF MNEMONIC
#---------         -----------     ------------------------------
GL  .M        719.938              : gl           - GROUND LEVEL ELEVATION
EREF.M        723.595              : kb           - ELEVATION OF DEPTH REFERENCE
DATM.M        719.938              : datum        - DATUM ELEVATION
TDD .M        694.944              : tdd          - TOTAL DEPTH DRILLER
RUN .         ONE                  : Run          - RUN NUMBER
ENG .         SKOWOEODKO           : Engineer     - RECORDING ENGINEER
WIT .         MIS/STEIDEL          : Witness      - WITNESSED BY
BASE.         EDM                  : Branch       - HOME BASE OF LOGGING UNIT
MUD .         GEL CHEM             : Mud_type     - MUD TYPE
MATR.         SANDSTONE            : Logunit      - NEUTRON MATRIX
TMAX.C        27.2222              : BHT          - MAXIMUM RECORDED TEMPERATURE
BHTD.M        695.858              : BHTDEP       - MAXIMUM RECORDED TEMPERATURE
RMT .C        15.5556              : MDTP         - TEMPERATURE OF MUD
MUDD.KG/M     0                    : MWT          - MUD DENSITY
NEUT.         1                    : NEUTRON      - NEUTRON TYPE
RESI.         0                    : RESIST       - RESISTIVITY TYPE
RM  .OHMM     3.35                 : RM           - RESISTIVITY OF MUD
RMC .OHMM     0                    : RMC          - RESISTIVITY OF MUD CAKE
RMF .OHMM     4.4                  : RMF          - RESISTIVITY OF MUD FILTRATE
SUFT.C        -17.7778             : SUFT         - SURFACE TEMPERATURE
~A  DEPTH     RESD     PHID     PHIN       GR      CAL
# ...
  581.864    6.876    0.178    0.372   98.911  162.788
  582.114    6.562    0.185    0.372  100.087  162.809
  582.364    6.619    0.213    0.382   94.476  163.039
  582.614    7.080    0.196    0.396   92.471  163.269
  582.864    7.871    0.158    0.395   92.729  163.399
  583.114    9.332    0.063    0.375   91.398  163.626
  583.364   11.268    0.025    0.336   87.254  163.653
  583.614   12.322    0.007    0.278   81.091  163.777
  583.864   11.590    0.029    0.247   75.479  163.806
  584.114    9.962    0.127    0.272   77.757  163.828
  584.364    8.626    0.185    0.338   82.234  163.846
  584.614    7.821    0.188    0.391   87.506  163.772
  584.864    7.262    0.176    0.410   95.468  163.788
  585.114    6.881    0.161    0.410  102.575  163.507
  585.364    6.592    0.173    0.398  106.503  163.523
  585.614    6.467    0.187    0.395  100.217  163.444
  585.864    6.429    0.153    0.419   93.993  163.157
  586.114    6.471    0.178    0.412   96.026  163.180
  586.364    6.611    0.189    0.405   99.647  163.001
  586.614    6.817    0.168    0.422   99.416  163.126
  586.864    7.042    0.159    0.417   99.857  163.254
  587.114    7.220    0.176    0.406  101.829  163.172
  587.364    7.349    0.160    0.394  102.576  163.195
  587.614    7.399    0.172    0.382   99.226  163.321
  587.864    7.491    0.155    0.370  101.380  163.342
  588.114    7.638    0.158    0.386  106.042  163.571
  588.364    7.760    0.164    0.405  103.425  164.320
  588.614    7.987    0.186    0.374  102.034  165.276
  588.864    8.357    0.185    0.386  103.270  166.128
  589.114    8.858    0.159    0.410  105.118  166.878
  589.364    9.597    0.162    0.421  106.659  167.414
  589.614    9.987    0.164    0.406  106.856  167.854
  589.864   10.109    0.144    0.384   98.187  168.398
  590.114    9.491    0.126    0.357   93.004  168.627
  590.364    8.700    0.119    0.329   93.446  168.860
  590.614    8.109    0.134    0.349   97.007  169.189
  590.864    7.613    0.160    0.383  100.932  169.418
  591.114    7.186    0.178    0.384  107.917  169.756
  591.364    6.923    0.129    0.386  112.640  170.190
  591.614    6.768    0.129    0.395  114.549  170.525
  591.864    6.615    0.132    0.407  114.379  170.857
  592.114    6.611    0.102    0.420  111.885  171.299
  592.364    6.631    0.114    0.430  111.716  171.838
  592.614    6.762    0.138    0.403  113.869  172.172
  592.864    6.947    0.142    0.385  117.429  172.505
  593.114    7.215    0.138    0.389  116.648  172.734
  593.364    7.494    0.141    0.396  114.338  172.758
  593.614    7.713    0.139    0.389  111.356  172.470
  593.864    8.025    0.138    0.384  104.827  171.668
  594.114    8.276    0.144    0.378  104.844  170.961
  594.364    8.628    0.157    0.369  106.078  169.434
  594.614    9.487    0.133    0.371  107.130  168.524
  594.864   10.801    0.134    0.387  107.267  167.926
  595.114   12.097    0.168    0.395  107.218  167.431
  595.364   13.799    0.185    0.406   92.434  166.735
  595.614   16.360    0.180    0.417   79.364  166.445
  595.864   18.972    0.173    0.390   80.662  166.050
  596.114   22.534    0.223    0.373   84.224  165.866
  596.364   24.371    0.212    0.353   85.825  165.583
  596.614   21.299    0.190    0.334   83.332  165.394
  596.864   17.390    0.145    0.310   81.146  165.210
  597.114   14.251    0.144    0.317   83.603  165.653
  597.364   12.049    0.165    0.339   90.956  165.879
  597.614   10.805    0.175    0.388   98.489  166.316
  597.864    9.886    0.186    0.376  103.149  166.654
  598.114    9.488    0.141    0.368   96.499  166.674
  598.364    9.396    0.119    0.362   92.477  167.006
  598.614    9.337    0.143    0.376   91.818  167.443
  598.864    9.366    0.148    0.371   92.383  167.781
  599.114    9.429    0.136    0.368   92.212  168.008
  599.364    9.423    0.175    0.366   91.920  168.348
  599.614    9.330    0.190    0.371   91.322  168.469
  599.864    9.206    0.138    0.379   90.296  168.910
  600.114    9.066    0.145    0.394   92.144  168.929
  600.364    9.010    0.154    0.395   95.459  169.055
  600.614    9.055    0.147    0.396   96.329  168.975
  600.864    9.438    0.174    0.397   94.937  169.001
  601.114    9.986    0.189    0.408   94.767  169.231
  601.364   10.879    0.171    0.418   95.821  169.252
  601.614   12.162    0.157    0.432   95.406  169.068
  601.864   14.183    0.141    0.433   92.240  168.575
  602.114   17.539    0.129    0.408   84.977  168.084
  602.364   19.644    0.113    0.299   81.078  167.688
  602.614   22.949    0.098    0.239   79.748  167.298
  602.864   25.281    0.093    0.258   78.661  166.603
  603.114   26.064    0.145    0.281   77.145  166.107
  603.364   25.716    0.159    0.317   72.756  165.816
  603.614   24.726    0.143    0.291   63.841  165.526
  603.864   23.043    0.050    0.249   61.348  165.345
  604.114   21.281    0.010    0.196   62.403  165.056
  604.364   19.081    0.030    0.232   67.734  164.768
  604.614   17.426    0.067    0.307   78.266  164.483
  604.864   16.392    0.160    0.398   82.498  164.194
  605.114   16.082    0.181    0.411   80.862  164.008
  605.364   16.369    0.171    0.393   78.123  164.137
  605.614   16.755    0.183    0.378   80.095  164.162
  605.864   17.182    0.186    0.372   81.148  164.283
  606.114   17.554    0.180    0.385   78.164  164.205
  606.364   17.769    0.182    0.381   77.873  164.332
  606.614   17.823    0.160    0.380   79.538  164.253
  606.864   17.679    0.153    0.388   80.285  164.376
  607.114   17.508    0.187    0.381   79.564  164.507
  607.364   17.306    0.198    0.387   79.578  164.634
  607.614   17.074    0.171    0.429   79.775  164.758
  607.864   16.907    0.174    0.409   80.033  164.579
  608.114   16.711    0.182    0.389   80.536  164.600
  608.364   16.485    0.187    0.395   81.346  164.517
  608.614   16.356    0.186    0.390   81.787  164.333
  608.864   16.136    0.178    0.389   82.597  164.357
  609.114   15.919    0.186    0.393   83.709  164.276
  609.364   16.506    0.201    0.388   86.842  164.303
  609.614   17.557    0.173    0.374   88.505  164.323
  609.864   18.472    0.154    0.361   81.365  164.348
  610.114   18.494    0.142    0.344   76.243  164.165
  610.364   16.984    0.153    0.359   76.440  163.977
  610.614   14.953    0.160    0.346   77.311  163.797
  610.864   12.996    0.155    0.332   79.281  163.713
  611.114   10.888    0.136    0.362   82.534  163.531
  611.364    9.138    0.157    0.380   92.454  163.552
  611.614    8.254    0.174    0.385   99.622  163.371
  611.864    7.483    0.148    0.382  100.370  163.391
  612.114    7.130    0.128    0.380  100.810  163.622
  612.364    6.958    0.139    0.379  101.684  163.643
  612.614    6.851    0.136    0.384  102.490  163.876
  612.864    6.797    0.137    0.387  104.398  163.901
  613.114    6.767    0.150    0.384  106.797  164.023
  613.364    6.801    0.166    0.383  106.871  164.154
  613.614    6.834    0.153    0.383  107.802  164.282
  613.864    6.854    0.144    0.385  104.270  164.308
  614.114    6.876    0.142    0.386  102.696  164.426
  614.364    6.858    0.129    0.388  102.769  164.762
  614.614    6.829    0.143    0.389  103.517  164.788
  614.864    6.775    0.163    0.390  104.263  165.019
  615.114    6.635    0.144    0.391  104.827  165.044
  615.364    6.451    0.131    0.392  105.086  165.275
  615.614    6.078    0.116    0.392  105.405  165.404
  615.864    5.749    0.096    0.393  105.541  165.628
  616.114    5.548    0.120    0.394  105.373  165.652
  616.364    5.404    0.134    0.389  104.956  165.673
  616.614    5.312    0.125    0.375  103.565  166.010
  616.864    5.260    0.106    0.363  101.684  166.032
  617.114    5.364    0.088    0.352  100.595  166.155
  617.364    6.453    0.080    0.347  100.182  166.182
  617.614    7.864    0.095    0.362  102.579  166.097
  617.864    9.410    0.114    0.359  105.284  166.021
  618.114   11.659    0.128    0.351  106.031  165.940
