~VERSION INFORMATION
 VERS.                 2.0:   CWLS LOG ASCII STANDARD -VERSION 2.0
 WRAP.                  NO:   ONE LINE PER DEPTH STEP
~WELL INFORMATION BLOCK
#MNEM.UNIT           DATA                    DESCRIPTION OF MNEMONIC
#---------    -------------------            -------------------------------
# Generated from Intellog Unique Number	CC_80_83/WELL/2317
NULL.         -999.25                        : NULL_VALUE
WELL.         CWWE THORNBURY                 : Well_name    - WELL
LOC .         08-02-080-13W4                 : Location     - LOCATION          
UWI .         00/08-02-080-13W4/0            : Uwi          - UNIQUE WELL ID    
ENTR.         DW                             : Entered      - ENTERED BY        
SRVC.         SCHLUMBERGER                   : Scn          - SERVICE COMPANY   
STRT.M        265                            : top_depth    - START DEPTH       
STOP.M        495.091                        : bot_depth    - STOP DEPTH        
STEP.M        0.3                            : increment    - STEP LENGTH       
~CURVE INFORMATION BLOCK
#MNEM UNIT       ERCB CURVE CODE    CURVE DESCRIPTION
#-----------   ------------------   ----------------------------------
DEPT.M        00 001 00 00         : DEPTH        - DEPTH                       
DPHI.V/V      00 890 00 00         : PHID         - DENSITY POROSITY (LIMESTONE)
NPHI.V/V      00 330 00 00         : PHIN         - NEUTRON POROSITY (LIMESTONE)
GR  .API      00 310 00 00         : GR           - GAMMA RAY                   
ILD .OHMM     00 120 00 00         : RESD         - DEEP RESISTIVITY (DIL)      
~PARAMETER INFORMATION       
#MNEM.UNIT           DATA             DESCRIPTION OF MNEMONIC
#---------         -----------     ------------------------------
GL  .M        686.67               : gl           - GROUND LEVEL ELEVATION      
EREF.M        692.7                : kb           - ELEVATION OF DEPTH REFERENCE
DATM.M        692.7                : datum        - DATUM ELEVATION             
TDD .M        502                  : tdd          - TOTAL DEPTH DRILLER         
RUN .         ONE                  : Run          - RUN NUMBER                  
ENG .         BILL                 : Engineer     - RECORDING ENGINEER          
WIT .         JIM                  : Witness      - WITNESSED BY                
MUD .         GEL                  : Mud_type     - MUD TYPE                    
MATR.         LIMESTONE            : Logunit      - NEUTRON MATRIX              
TMAX.C        21                   : BHT          - MAXIMUM RECORDED TEMPERATURE
BHTD.M        503                  : BHTDEP       - MAXIMUM RECORDED TEMPERATURE
MATR.         1                    : LOGUNIT      - NEUTRON MATRIX              
RMT .C        25                   : MDTP         - TEMPERATURE OF MUD          
NEUT.         1                    : NEUTRON      - NEUTRON TYPE                
RESI.         0                    : RESIST       - RESISTIVITY TYPE            
RMC .OHMM     0.25                 : RMC          - RESISTIVITY OF MUD CAKE     
RMF .OHMM     0.25                 : RMF          - RESISTIVITY OF MUD FILTRATE 
SUFT.C        15                   : SUFT         - SURFACE TEMPERATURE         
~A  DEPTH     PHID     PHIN       GR     RESD
# ...
  421.594    0.215    0.411   93.198    9.195
  421.894    0.226    0.407   95.683    9.730
  422.194    0.221    0.411  101.268    9.912
  422.494    0.210    0.421  100.031    9.709
  422.794    0.174    0.397   94.454    9.158
  423.094    0.183    0.360   90.738    7.994
  423.394    0.194    0.380   88.881    7.396
  423.694    0.207    0.398  103.147    7.110
  423.994    0.190    0.398  104.391    6.701
  424.294    0.197    0.403  108.736    6.321
  424.594    0.216    0.419  109.979    5.519
  424.893    0.222    0.417  108.123    4.637
  425.193    0.223    0.412  100.687    3.895
  425.493    0.237    0.414   98.831    3.273
  425.793    0.290    0.424   99.454    2.450
  426.093    0.312    0.443   98.218    2.019
  426.393    0.320    0.556   88.921    1.978
  426.693    0.302    0.568   92.645    2.218
  426.993    0.271    0.578   95.749    3.073
  427.293    0.250    0.564   89.553    4.340
  427.593    0.235    0.447   84.596    5.567
  427.893    0.217    0.458   91.421    6.871
  428.193    0.219    0.447   90.185    7.705
  428.493    0.205    0.385   84.608    8.154
  428.793    0.190    0.360   80.891    8.145
  429.093    0.206    0.323   79.035    6.975
  429.393    0.246    0.333   83.380    4.392
  429.693    0.242    0.372   96.404    5.020
  429.993    0.221    0.497   98.268    5.627
  430.293    0.199    0.515   88.352    5.730
  430.593    0.181    0.454   83.396    5.616
  430.893    0.176    0.372   81.539    4.809
  431.193    0.186    0.377   85.263    3.669
  431.493    0.228    0.443   93.328    3.527
  431.793    0.231    0.483  108.213    3.455
  432.093    0.242    0.480  103.877    3.588
  432.393    0.249    0.510  101.400    3.871
  432.693    0.249    0.517  107.606    4.098
  432.993    0.212    0.494  107.609    4.419
  433.293    0.196    0.448  108.233    4.500
  433.593    0.218    0.437  111.338    4.585
  433.893    0.223    0.463  110.101    4.578
  434.193    0.185    0.485  101.425    4.575
  434.493    0.171    0.456  103.288    4.481
  434.793    0.216    0.407  111.353    4.477
  435.093    0.230    0.447  114.457    4.649
  435.393    0.221    0.470  113.841    5.113
  435.693    0.197    0.458  111.984    6.434
  435.993    0.169    0.451   93.387    8.253
  436.293    0.164    0.306   61.768   13.082
  436.593    0.232    0.241   66.733   16.777
  436.893    0.320    0.232   87.198   17.088
  437.193    0.339    0.273   92.162   16.423
  437.493    0.298    0.324   93.406   15.486
  437.793    0.258    0.350   89.690   15.774
  438.093    0.249    0.309   79.153   15.453
  438.393    0.233    0.278   67.996   14.292
  438.693    0.180    0.258   64.280   13.481
  438.993    0.194    0.309   76.684   12.712
  439.293    0.241    0.372   88.469   12.219
  439.593    0.221    0.357   86.615   11.520
  439.893    0.238    0.309   86.617   11.506
  440.193    0.230    0.305   94.062   11.945
  440.493    0.207    0.380  113.907   12.403
  440.793    0.207    0.388  110.811   12.631
  441.093    0.215    0.360  112.056   14.717
  441.393    0.257    0.336  112.060   18.879
  441.693    0.259    0.320  108.963   19.977
  441.993    0.244    0.304   82.925   19.575
  442.293    0.248    0.290   81.689   19.550
  442.593    0.251    0.299   81.073   19.529
  442.893    0.231    0.314   84.796   20.674
  443.193    0.222    0.313   89.140   22.737
  443.493    0.263    0.284   78.603   24.059
  443.793    0.247    0.269   77.369   24.507
  444.093    0.248    0.275   79.852   28.007
  444.393    0.252    0.267   77.376   34.573
  444.693    0.272    0.228   74.899   49.768
  444.993    0.357    0.165   69.322   77.395
  445.293    0.396    0.104   64.366  122.678
  445.593    0.413    0.089   61.270  160.428
  445.893    0.427    0.076   64.994  154.200
  446.193    0.419    0.093   61.898  166.372
  446.493    0.399    0.094   67.482  186.456
  446.793    0.404    0.086   68.726  186.259
  447.093    0.435    0.077   58.189  186.103
  447.393    0.419    0.092   59.434  175.489
  447.693    0.414    0.084   53.857  159.188
  447.993    0.439    0.079   46.420  150.109
  448.293    0.434    0.097   43.944  144.300
  448.593    0.410    0.108   45.188  141.410
  448.893    0.400    0.118   58.832  146.808
  449.193    0.403    0.122   76.818  158.401
  449.492    0.407    0.123   72.482  191.810
  449.792    0.413    0.110   51.404  265.730
  450.092    0.466    0.057   45.522  596.185
  450.392    0.462    0.068   26.463  643.829
  450.692    0.458    0.065   32.638  584.995
  450.992    0.437    0.065   36.958  492.262
  451.292    0.417    0.090   38.207  464.782
  451.592    0.420    0.086   36.388  473.859
  451.892    0.409    0.094   38.248  483.094
  452.192    0.429    0.076   39.498  473.956
  452.492    0.421    0.074   34.599  383.811
  452.792    0.405    0.107   40.767  369.399
  453.092    0.421    0.110   55.548  406.665
  453.392    0.440    0.097   64.175  456.329
  453.692    0.449    0.082   67.886  532.114
  453.992    0.431    0.080   46.382  553.007
  454.292    0.413    0.091   40.870  585.844
  454.592    0.442    0.072   35.970  723.628
  454.892    0.451    0.057   30.455  766.604
  455.192    0.436    0.075   36.011  710.059
  455.492    0.434    0.072   37.873  620.871
  455.792    0.434    0.063   28.056  512.522
  456.092    0.435    0.069   30.534  456.829
  456.392    0.454    0.081   41.626  423.120
  456.692    0.474    0.072   48.414  415.135
  456.992    0.429    0.072   50.278  431.424
  457.292    0.420    0.151   47.221  415.229
  457.592    0.476    0.130   38.014  392.047
  457.892    0.484    0.058   33.735  363.127
  458.192    0.439    0.059   32.519  305.567
  458.492    0.374    0.249   28.850  267.181
  458.792    0.350    0.330   31.948  216.361
  459.092    0.336    0.371   36.889  162.260
  459.392    0.325    0.385   39.370  112.696
  459.692    0.307    0.373   42.458   53.323
  459.992    0.272    0.374   54.778   45.741
  460.292    0.302    0.398   60.332   45.747
  460.592    0.301    0.390   54.207   50.360
  460.892    0.296    0.379   55.458   55.436
  461.192    0.286    0.374   54.859   61.027
  461.492    0.272    0.364   60.415   61.036
  461.792    0.316    0.370   58.588   57.627
  462.092    0.311    0.364   62.298   46.666
  462.392    0.285    0.360   65.400   43.225
  462.692    0.266    0.352   65.415   44.065
  462.992    0.284    0.381   53.750   65.944
  463.292    0.309    0.389   52.539  220.951
  463.592    0.314    0.343   62.403  350.249
  463.892    0.313    0.354   66.108  364.009
  464.192    0.313    0.371   66.742  337.159
  464.492    0.314    0.356   64.307  324.491
  464.792    0.318    0.354   63.093  324.526
  465.092    0.321    0.392   60.654  312.344
  465.392    0.326    0.375   47.146  262.836
  465.692    0.335    0.366   49.009  189.696
  465.992    0.323    0.362   55.795  175.699
  466.292    0.303    0.354   57.044  186.135
  466.592    0.308    0.352   55.219  193.439
  466.892    0.334    0.380   55.857  182.635
  467.192    0.322    0.362   58.334  162.793
  467.492    0.306    0.342   65.123  156.686
  467.792    0.312    0.355   69.445  153.722
  468.092    0.325    0.387   70.079  142.381
  468.392    0.314    0.384   62.105  126.914
  468.692    0.299    0.366   57.207  119.829
  468.992    0.300    0.362   55.994  117.561
  469.292    0.305    0.368   58.475  124.547
  469.592    0.307    0.363   59.109  131.944
  469.892    0.327    0.359   49.291  134.517
  470.192    0.311    0.369   52.999  131.972
  470.492    0.292    0.395   64.704  117.634
  470.792    0.311    0.405   54.886  113.217
  471.092    0.316    0.385   50.600  122.262
  471.392    0.306    0.353   47.545  145.333
  471.692    0.307    0.347   48.180  176.098
  471.992    0.323    0.395   42.053  226.024
  472.292    0.328    0.378   46.992  258.555
  472.592    0.324    0.368   50.088  234.930
  472.892    0.328    0.379   45.804  129.604
  473.192    0.291    0.369   45.821   62.511
  473.492    0.260    0.317   56.910   38.694
