~VERSION INFORMATION
 VERS.                 2.0:   CWLS LOG ASCII STANDARD -VERSION 2.0
 WRAP.                  NO:   ONE LINE PER DEPTH STEP
~WELL INFORMATION BLOCK
#MNEM.UNIT           DATA                    DESCRIPTION OF MNEMONIC
#---------    -------------------            -------------------------------
# Generated from Intellog Unique Number	CW_73_75/WELL/2726
WELL.         UNIGAS ET AL TOMATO 05-02      : Well_name    - WELL
LOC .         00/05-02-073-23W4/0            : Location     - LOCATION
UWI .         00/05-02-073-23W4/0            : Uwi          - UNIQUE WELL ID
ENTR.         JAYE                           : Entered      - ENTERED BY
SRVC.         SCHLUMBERGER                   : Scn          - SERVICE COMPANY
DATE.         14 DEC 80                      : Date         - LOG DATE
STRT.M        325                            : top_depth    - START DEPTH
STOP.M        622                            : bot_depth    - STOP DEPTH
STEP.M        0.25                           : increment    - STEP LENGTH
 NULL. -999.2500:NULL Value
~CURVE INFORMATION BLOCK
#MNEM UNIT       ERCB CURVE CODE    CURVE DESCRIPTION
#-----------   ------------------   ----------------------------------
DEPT.M        00 001 00 00         : DEPTH        - DEPTH
ILD .OHMM     00 120 00 00         : RESD         - DEEP RESISTIVITY (DIL)
NPHI.V/V      00 330 00 00         : PHIN         - NEUTRON POROSITY (SANDSTONE)
DPHI.V/V      00 890 00 00         : PHID         - DENSITY POROSITY (SANDSTONE)
GR  .API      00 310 00 00         : GR           - GAMMA RAY
CALI.MM       00 280 01 00         : CAL          - CALIPER
~PARAMETER INFORMATION
#MNEM.UNIT           DATA             DESCRIPTION OF MNEMONIC
#---------         -----------     ------------------------------
GL  .M        625                  : gl           - GROUND LEVEL ELEVATION
EREF.M        627.5                : kb           - ELEVATION OF DEPTH REFERENCE
DATM.M        625                  : datum        - DATUM ELEVATION
TDD .M        624                  : tdd          - TOTAL DEPTH DRILLER
RUN .         ONE                  : Run          - RUN NUMBER
ENG .         KUZIO                : Engineer     - RECORDING ENGINEER
BASE.         EDM                  : Branch       - HOME BASE OF LOGGING UNIT
MUD .         GEL CHEM             : Mud_type     - MUD TYPE
MATR.         SANDSTONE            : Logunit      - NEUTRON MATRIX
TMAX.C        23.3                 : BHT          - MAXIMUM RECORDED TEMPERATURE
BHTD.M        625                  : BHTDEP       - MAXIMUM RECORDED TEMPERATURE
RMT .C        16.6                 : MDTP         - TEMPERATURE OF MUD
MUDD.KG/M     1110                 : MWT          - MUD DENSITY
NEUT.         1                    : NEUTRON      - NEUTRON TYPE
RESI.         0                    : RESIST       - RESISTIVITY TYPE
RM  .OHMM     3.19                 : RM           - RESISTIVITY OF MUD
RMC .OHMM     0                    : RMC          - RESISTIVITY OF MUD CAKE
RMF .OHMM     3.11                 : RMF          - RESISTIVITY OF MUD FILTRATE
SUFT.C        0                    : SUFT         - SURFACE TEMPERATURE
~A  DEPTH     RESD     PHIN     PHID       GR      CAL
# ...
  580.500    6.494    0.117   -0.016   18.356  165.487
  580.750    5.460    0.129    0.004   20.683  165.724
  581.000    4.591    0.140    0.010   27.950  165.860
  581.250    4.003    0.186    0.024   36.400  165.790
  581.500    3.668    0.227    0.071   47.726  165.808
  581.750    3.734    0.273    0.176   62.550  166.052
  582.000    4.009    0.463    0.278   74.064  166.283
  582.250    4.371    0.433    0.271   75.831  166.523
  582.500    4.923    0.415    0.272   77.348  166.652
  582.750    5.503    0.407    0.268   84.924  166.785
  583.000    5.743    0.405    0.259  106.621  167.125
  583.250    5.540    0.440    0.249  128.131  167.259
  583.500    5.019    0.460    0.240  104.031  164.811
  583.750    4.851    0.432    0.237   83.307  165.024
  584.000    4.654    0.416    0.258   71.827  165.681
  584.250    4.431    0.415    0.285   67.785  163.103
  584.500    4.146    0.413    0.300   71.299  160.842
  584.750    3.770    0.453    0.297   77.628  160.144
  585.000    3.332    0.471    0.297   75.458  160.173
  585.250    2.911    0.454    0.295   64.416  160.199
  585.500    2.514    0.426    0.298   70.181  160.649
  585.750    2.549    0.437    0.286   99.813  161.717
  586.000    2.865    0.533    0.245  120.948  162.994
  586.250    3.166    0.595    0.286  120.778  164.479
  586.500    3.532    0.601    0.415  105.051  165.133
  586.750    3.888    0.468    0.332   65.769  164.641
  587.000    4.143    0.425    0.310   46.607  163.527
  587.250    4.348    0.386    0.314   37.064  162.720
  587.500    4.477    0.367    0.317   36.894  162.125
  587.750    4.609    0.351    0.298   43.222  161.739
  588.000    4.612    0.360    0.276   41.427  161.346
  588.250    4.526    0.376    0.274   25.637  158.981
  588.500    4.236    0.366    0.296   22.281  158.073
  588.750    3.693    0.355    0.291   25.235  158.415
  589.000    3.456    0.363    0.296   29.626  159.279
  589.250    3.531    0.370    0.312   37.015  160.139
  589.500    3.806    0.360    0.307   47.278  161.208
  589.750    4.198    0.342    0.256   62.102  162.280
  590.000    4.657    0.328    0.209   70.554  163.138
  590.250    5.135    0.330    0.178   76.570  164.208
  590.500    4.706    0.326    0.180   78.273  165.070
  590.750    3.867    0.317    0.187   73.791  165.311
  591.000    2.944    0.332    0.202   64.877  165.444
  591.250    2.499    0.363    0.223   70.703  165.472
  591.500    2.179    0.366    0.227   80.404  165.605
  591.750    1.926    0.359    0.206   82.922  165.843
  592.000    1.744    0.346    0.185   71.129  166.077
  592.250    1.651    0.343    0.207   59.525  166.317
  592.500    1.575    0.356    0.230   43.425  166.763
  592.750    1.517    0.345    0.248   42.066  166.790
  593.000    1.556    0.333    0.244   61.577  166.298
  593.250    1.709    0.319    0.231   71.278  165.906
  593.500    2.004    0.357    0.209   77.418  165.624
  593.750    2.300    0.363    0.196   73.624  165.549
  594.000    2.723    0.362    0.203   86.261  165.472
  594.250    3.607    0.366    0.196  152.756  165.293
  594.500    4.487    0.409    0.173  155.210  165.012
  594.750    4.719    0.479    0.135  141.294  164.937
  595.000    4.748    0.450    0.117   99.263  164.756
  595.250    4.696    0.395    0.148   80.724  164.161
  595.500    4.636    0.346    0.183   41.880  163.146
  595.750    4.568    0.366    0.226   34.151  161.613
  596.000    4.527    0.362    0.256   28.795  160.393
  596.250    4.555    0.360    0.275   35.185  160.108
  596.500    4.575    0.362    0.252   36.204  159.831
  596.750    4.675    0.361    0.249   35.782  159.750
  597.000    4.840    0.361    0.279   35.801  159.570
  597.250    5.012    0.387    0.296   38.066  159.390
  597.500    5.151    0.375    0.309   46.392  159.315
  597.750    5.243    0.343    0.260   69.464  159.656
  598.000    5.245    0.329    0.178  110.466  161.455
  598.250    5.228    0.413    0.087  103.486  164.399
  598.500    5.190    0.376    0.098   92.382  168.175
  598.750    5.164    0.348    0.121   88.588  168.620
  599.000    5.127    0.304    0.148   86.419  165.110
  599.250    5.071    0.317    0.155   88.622  162.223
  599.500    4.920    0.312    0.124   99.198  160.897
  599.750    4.729    0.322    0.092  110.774  160.196
  600.000    4.511    0.339    0.097  109.229  160.017
  600.250    4.327    0.350    0.080   97.564  160.156
  600.500    4.215    0.340    0.053   86.648  160.179
  600.750    4.114    0.319    0.071   74.481  160.418
  601.000    4.085    0.300    0.095   66.002  160.653
  601.250    4.142    0.285    0.125   71.829  160.687
  601.500    4.224    0.267    0.114  100.273  160.711
  601.750    4.570    0.268    0.076   97.230  160.740
  602.000    5.147    0.301    0.045   58.448  160.877
  602.250    6.105    0.324    0.028   48.219  160.901
  602.500    7.008    0.315    0.097   42.675  160.721
  602.750    7.714    0.309    0.126   44.255  160.855
  603.000    7.988    0.338    0.106   48.709  160.890
  603.250    7.167    0.360    0.085   43.852  160.915
  603.500    5.768    0.375    0.087   36.434  160.948
  603.750    5.136    0.376    0.128   29.267  160.969
  604.000    4.760    0.370    0.111   24.222  160.894
  604.250    4.455    0.358    0.092   20.428  161.027
  604.500    4.185    0.348    0.103   19.509  161.058
  604.750    4.015    0.352    0.120   19.464  161.191
  605.000    3.933    0.378    0.123   18.107  161.114
  605.250    3.846    0.367    0.085   16.312  161.143
  605.500    3.826    0.358    0.051   17.517  161.484
  605.750    3.835    0.365    0.037   19.409  161.515
  606.000    3.851    0.350    0.046   18.175  161.644
  606.250    3.876    0.340    0.067   16.255  161.575
  606.500    3.900    0.326    0.067   14.464  161.597
  606.750    3.901    0.347    0.077   13.292  161.729
  607.000    3.911    0.347    0.092   12.371  161.655
  607.250    3.898    0.340    0.101   11.638  161.897
  607.500    3.915    0.324    0.105   10.907  162.028
  607.750    4.077    0.339    0.098   11.050  162.264
  608.000    4.403    0.359    0.098   11.380  162.291
  608.250    4.701    0.342    0.101   11.458  162.530
  608.500    5.274    0.355    0.109   11.665  162.559
  608.750    6.412    0.405    0.140   11.992  162.484
  609.000    8.038    0.424    0.154   11.884  162.407
  609.250    9.624    0.412    0.147   10.839  162.434
  609.500   10.614    0.400    0.138   10.109  162.359
  609.750   11.864    0.391    0.134   10.125  162.702
  610.000   12.715    0.384    0.141   10.579  162.936
  610.250   13.267    0.397    0.144   11.845  162.759
  610.500   13.977    0.424    0.146   12.675  162.681
  610.750   14.501    0.433    0.150   12.817  162.816
  611.000   14.816    0.432    0.157   12.336  162.947
  611.250   14.909    0.415    0.151   11.792  162.976
  611.500   14.166    0.400    0.139   11.808  163.214
  611.750   12.930    0.379    0.124   12.013  163.347
  612.000   10.998    0.406    0.135   12.717  163.273
  612.250    9.212    0.425    0.151   14.607  163.303
  612.500    7.614    0.416    0.156   15.438  163.019
  612.750    6.677    0.423    0.161   13.330  163.047
  613.000    6.141    0.465    0.170   13.909  163.177
  613.250    5.948    0.439    0.160   14.427  163.836
  613.500    6.043    0.384    0.115   14.257  164.277
  613.750    6.305    0.330    0.072   14.213  164.929
  614.000    6.783    0.320    0.079   13.915  165.582
  614.250    7.242    0.327    0.079   13.871  165.819
  614.500    7.123    0.339    0.070   14.264  166.264
  614.750    6.653    0.324    0.059   14.530  165.984
  615.000    6.237    0.320    0.061   14.671  165.387
  615.250    5.650    0.378    0.085   14.628  164.479
  615.500    4.769    0.382    0.094   14.333  163.362
  615.750    4.080    0.343    0.040   13.974  162.348
  616.000    3.702    0.312    0.047   12.868  161.752
  616.250    3.393    0.305    0.063   11.947  161.571
  616.500    3.193    0.303    0.082   12.026  161.184
  616.750    3.116    0.300    0.071   13.543  160.902
