~VERSION INFORMATION
 VERS.                 2.0:   CWLS LOG ASCII STANDARD -VERSION 2.0
 WRAP.                  NO:   ONE LINE PER DEPTH STEP
~WELL INFORMATION BLOCK
#MNEM.UNIT           DATA                    DESCRIPTION OF MNEMONIC
#---------    -------------------            -------------------------------
# Generated from Intellog Unique Number	CS_69_70/WELL/774
WELL.         ET AL HEART LAKE               : Well_name    - WELL
LOC .         00/06-23-069-11W4/0            : Location     - LOCATION
UWI .         00/06-23-069-11W4/0            : Uwi          - UNIQUE WELL ID
ENTR.         SP                             : Entered      - ENTERED BY
SRVC.         SCHLUMBERGER                   : Scn          - SERVICE COMPANY
STRT.M        310                            : top_depth    - START DEPTH
STOP.M        505                            : bot_depth    - STOP DEPTH
STEP.M        0.25                           : increment    - STEP LENGTH
 NULL. -999.2500:NULL Value
~CURVE INFORMATION BLOCK
#MNEM UNIT       ERCB CURVE CODE    CURVE DESCRIPTION
#-----------   ------------------   ----------------------------------
DEPT.M        00 001 00 00         : DEPTH        - DEPTH
ILD .OHMM     00 120 00 00         : RESD         - DEEP RESISTIVITY (DIL)
DPHI.V/V      00 890 00 00         : PHID         - DENSITY POROSITY (LIMESTONE)
NPHI.V/V      00 330 00 00         : PHIN         - NEUTRON POROSITY (LIMESTONE)
GR  .API      00 310 00 00         : GR           - GAMMA RAY
~PARAMETER INFORMATION
#MNEM.UNIT           DATA             DESCRIPTION OF MNEMONIC
#---------         -----------     ------------------------------
GL  .M        634.4                : gl           - GROUND LEVEL ELEVATION
EREF.M        638.8                : kb           - ELEVATION OF DEPTH REFERENCE
DATM.M        634.4                : datum        - DATUM ELEVATION
TDD .M        507                  : tdd          - TOTAL DEPTH DRILLER
RUN .         ONE                  : Run          - RUN NUMBER
ENG .         BILL                 : Engineer     - RECORDING ENGINEER
WIT .         JIM                  : Witness      - WITNESSED BY
MUD .         GEL                  : Mud_type     - MUD TYPE
MATR.         LIMESTONE            : Logunit      - NEUTRON MATRIX
TMAX.C        20                   : BHT          - MAXIMUM RECORDED TEMPERATURE
BHTD.M        507                  : BHTDEP       - MAXIMUM RECORDED TEMPERATURE
MATR.         1                    : LOGUNIT      - NEUTRON MATRIX
RMT .C        25                   : MDTP         - TEMPERATURE OF MUD
NEUT.         1                    : NEUTRON      - NEUTRON TYPE
RESI.         0                    : RESIST       - RESISTIVITY TYPE
RMC .OHMM     0.25                 : RMC          - RESISTIVITY OF MUD CAKE
RMF .OHMM     0.25                 : RMF          - RESISTIVITY OF MUD FILTRATE
SUFT.C        15                   : SUFT         - SURFACE TEMPERATURE
~A  DEPTH     RESD     PHID     PHIN       GR
# ...
  440.500    2.708    0.245    0.555   96.882
  440.750    2.521    0.237    0.554   97.311
  441.000    2.248    0.226    0.533  100.065
  441.250    2.193    0.219    0.523  102.451
  441.500    2.088    0.214    0.537   98.599
  441.750    2.004    0.239    0.546   94.685
  442.000    1.988    0.269    0.556   95.358
  442.250    2.072    0.276    0.578   98.234
  442.500    2.156    0.259    0.572   99.092
  442.750    2.298    0.245    0.554   94.566
  443.000    2.417    0.236    0.535   96.892
  443.250    2.510    0.238    0.540  100.257
  443.500    2.640    0.242    0.557   95.976
  443.750    2.783    0.236    0.537   90.900
  444.000    2.895    0.228    0.511   88.821
  444.250    3.017    0.222    0.478   86.864
  444.500    3.138    0.240    0.464   83.806
  444.750    3.252    0.264    0.470   82.339
  445.000    3.357    0.278    0.453   80.933
  445.250    3.453    0.259    0.441   82.464
  445.500    3.518    0.232    0.445   85.340
  445.750    3.598    0.227    0.467   84.607
  446.000    3.736    0.230    0.471   85.464
  446.250    3.757    0.225    0.456   87.974
  446.500    3.814    0.220    0.448   89.687
  446.750    3.849    0.233    0.467   89.627
  447.000    3.915    0.238    0.469   87.793
  447.250    3.966    0.237    0.458   86.571
  447.500    4.064    0.233    0.479   85.960
  447.750    4.156    0.230    0.492   84.431
  448.000    4.243    0.213    0.472   82.475
  448.250    4.364    0.198    0.462   83.332
  448.500    4.455    0.188    0.448   86.637
  448.750    4.471    0.203    0.432   88.228
  449.000    4.388    0.220    0.431   86.883
  449.250    4.298    0.225    0.445   85.355
  449.500    4.185    0.215    0.447   87.987
  449.750    4.107    0.204    0.450   90.068
  450.000    4.068    0.197    0.458   91.659
  450.250    4.022    0.209    0.471   90.620
  450.500    4.014    0.213    0.481   92.212
  450.750    3.991    0.216    0.469   94.415
  451.000    3.991    0.223    0.455   95.273
  451.250    4.006    0.221    0.443   92.521
  451.500    4.021    0.214    0.445   90.197
  451.750    4.028    0.211    0.449   89.403
  452.000    4.043    0.222    0.443   89.771
  452.250    4.058    0.235    0.437   90.261
  452.500    4.065    0.232    0.436   91.425
  452.750    4.088    0.221    0.434   89.957
  453.000    4.095    0.216    0.440   87.573
  453.250    4.110    0.224    0.462   86.350
  453.500    4.125    0.223    0.479   85.984
  453.750    4.133    0.222    0.480   88.371
  454.000    4.109    0.220    0.474   94.123
  454.250    3.979    0.218    0.466  100.241
  454.500    3.832    0.230    0.457   97.367
  454.750    3.561    0.238    0.459   89.721
  455.000    3.358    0.245    0.460   84.461
  455.250    3.321    0.243    0.460   82.443
  455.500    3.228    0.236    0.460   84.524
  455.750    3.162    0.229    0.461   89.297
  456.000    3.203    0.223    0.461   90.093
  456.250    3.276    0.230    0.460   88.993
  456.500    3.363    0.237    0.445   87.893
  456.750    3.479    0.224    0.439   88.016
  457.000    3.578    0.212    0.430   89.057
  457.250    3.646    0.206    0.427   89.486
  457.500    3.715    0.215    0.445   87.530
  457.750    3.728    0.220    0.444   86.491
  458.000    3.406    0.226    0.469   87.654
  458.250    2.692    0.246    0.501   88.818
  458.500    2.525    0.256    0.555   88.451
  458.750    2.160    0.255    0.586   85.088
  459.000    1.951    0.251    0.554   83.131
  459.250    1.786    0.248    0.531   85.396
  459.500    1.717    0.245    0.552   86.376
  459.750    1.726    0.244    0.561   84.052
  460.000    1.847    0.247    0.542   81.545
  460.250    1.995    0.254    0.509   80.567
  460.500    2.179    0.254    0.483   82.098
  460.750    2.371    0.249    0.480   83.689
  461.000    2.485    0.243    0.485   85.097
  461.250    2.644    0.241    0.492   86.322
  461.500    2.829    0.251    0.495   87.791
  461.750    2.867    0.257    0.490   88.220
  462.000    2.899    0.259    0.470   88.650
  462.250    2.899    0.259    0.481   88.834
  462.500    2.898    0.256    0.488   84.308
  462.750    2.920    0.248    0.494   80.394
  463.000    2.964    0.240    0.482   78.192
  463.250    3.020    0.254    0.460   77.337
  463.500    3.083    0.272    0.459   77.583
  463.750    3.159    0.276    0.466   81.010
  464.000    3.231    0.249    0.466   85.232
  464.250    3.267    0.221    0.462   87.986
  464.500    3.304    0.209    0.467   89.088
  464.750    3.323    0.206    0.473   90.312
  465.000    3.354    0.203    0.488   92.455
  465.250    3.379    0.212    0.498   94.107
  465.500    3.398    0.219    0.489   90.988
  465.750    3.417    0.217    0.478   87.196
  466.000    3.423    0.205    0.470   84.689
  466.250    3.435    0.202    0.461   84.140
  466.500    3.441    0.201    0.453   88.484
  466.750    3.441    0.193    0.487   95.092
  467.000    3.389    0.186    0.508  101.149
  467.250    3.179    0.194    0.530  105.738
  467.500    2.899    0.202    0.528  105.739
  467.750    2.609    0.213    0.527  101.030
  468.000    2.456    0.212    0.527   95.709
  468.250    2.357    0.211    0.537   92.162
  468.500    2.295    0.214    0.554   94.610
  468.750    2.278    0.217    0.543   98.526
  469.000    2.290    0.214    0.535  101.341
  469.250    2.321    0.212    0.525  104.462
  469.500    2.351    0.216    0.516  109.418
  469.750    2.369    0.219    0.514  113.028
  470.000    2.364    0.208    0.517  114.681
  470.250    2.337    0.196    0.529  112.908
  470.500    2.272    0.194    0.556  108.994
  470.750    2.221    0.205    0.567  107.037
  471.000    2.155    0.215    0.546  102.817
  471.250    2.131    0.218    0.546   95.233
  471.500    2.103    0.219    0.515   89.116
  471.750    2.126    0.219    0.460   80.553
  472.000    2.297    0.217    0.429   65.566
  472.250    2.927    0.243    0.428   62.937
  472.500    3.852    0.266    0.422   61.959
  472.750    4.891    0.247    0.413   62.266
  473.000    6.049    0.230    0.396   62.572
  473.250    7.138    0.216    0.381   64.286
  473.500    7.623    0.234    0.382   64.960
  473.750    7.944    0.250    0.396   63.615
  474.000    8.049    0.258    0.405   62.026
  474.250    8.094    0.258    0.411   62.272
  474.500    8.169    0.253    0.414   63.068
  474.750    8.169    0.230    0.422   64.231
  475.000    8.137    0.172    0.384   64.477
  475.250    8.061    0.070    0.350   62.521
  475.500    7.940    0.117    0.334   63.806
  475.750    7.791    0.154    0.353   70.353
  476.000    7.517    0.177    0.367   77.328
  476.250    7.307    0.196    0.373   86.260
  476.500    7.170    0.202    0.399   90.054
  476.750    7.116    0.230    0.420   84.366
  477.000    7.196    0.255    0.414   79.351
  477.250    7.499    0.273    0.406   78.740
  477.500    8.131    0.273    0.403   85.898
  477.750    8.848    0.242    0.395   95.810
  478.000    9.169    0.219    0.388  104.069
  478.250    8.053    0.204    0.422  104.254
  478.500    6.901    0.228    0.427   78.256
  478.750    6.448    0.257    0.399   70.121
  479.000    6.448    0.264    0.373   66.267
  479.250    6.951    0.252    0.371   71.407
  479.500    7.579    0.244    0.387   75.752
  479.750    8.310    0.241    0.394   77.404
  480.000    8.742    0.244    0.395   80.709
  480.250    9.231    0.261    0.397   88.296
  480.500    9.231    0.265    0.397   95.454
  480.750    8.806    0.253    0.397  102.674
  481.000    7.940    0.243    0.399  104.204
  481.250    7.433    0.240    0.403   95.824
  481.500    6.791    0.250    0.411   91.665
  481.750    6.540    0.257    0.419   88.852
  482.000    6.381    0.240    0.422   88.792
  482.250    6.238    0.220    0.418  101.884
  482.500    6.144    0.225    0.417  110.144
  482.750    6.063    0.236    0.417  105.618
  483.000    6.040    0.252    0.401   91.916
  483.250    6.040    0.247    0.382   88.369
  483.500    6.051    0.208    0.382   91.551
  483.750    6.061    0.171    0.407   94.305
