~VERSION INFORMATION
 VERS.                 2.0:   CWLS LOG ASCII STANDARD -VERSION 2.0
 WRAP.                  NO:   ONE LINE PER DEPTH STEP
~WELL INFORMATION BLOCK
#MNEM.UNIT           DATA                    DESCRIPTION OF MNEMONIC
#---------    -------------------            -------------------------------
# Generated from Intellog Unique Number	CS_77_79/WELL/907
WELL.         HOME OIL COMPANY LIMITED       : Well_name    - WELL
LOC .         00/07-25-077-06W4/0            : Location     - LOCATION
UWI .         00/07-25-077-06W4/0            : Uwi          - UNIQUE WELL ID
ENTR.         SP                             : Entered      - ENTERED BY
SRVC.         SCHLUMBERGER                   : Scn          - SERVICE COMPANY
STRT.M        145                            : top_depth    - START DEPTH
STOP.M        420                            : bot_depth    - STOP DEPTH
STEP.M        0.25                           : increment    - STEP LENGTH
 NULL. -999.2500:NULL Value
~CURVE INFORMATION BLOCK
#MNEM UNIT       ERCB CURVE CODE    CURVE DESCRIPTION
#-----------   ------------------   ----------------------------------
DEPT.M        00 001 00 00         : DEPTH        - DEPTH
ILD .OHMM     00 120 00 00         : RESD         - DEEP RESISTIVITY (DIL)
DPHI.V/V      00 890 00 00         : PHID         - DENSITY POROSITY (LIMESTONE)
NPHI.V/V      00 330 00 00         : PHIN         - NEUTRON POROSITY (LIMESTONE)
GR  .API      00 310 00 00         : GR           - GAMMA RAY
~PARAMETER INFORMATION
#MNEM.UNIT           DATA             DESCRIPTION OF MNEMONIC
#---------         -----------     ------------------------------
GL  .M        565.83               : gl           - GROUND LEVEL ELEVATION
EREF.M        568.85               : kb           - ELEVATION OF DEPTH REFERENCE
DATM.M        565.83               : datum        - DATUM ELEVATION
TDD .M        420.8                : tdd          - TOTAL DEPTH DRILLER
RUN .         ONE                  : Run          - RUN NUMBER
ENG .         BILL                 : Engineer     - RECORDING ENGINEER
WIT .         JIM                  : Witness      - WITNESSED BY
MUD .         GEL                  : Mud_type     - MUD TYPE
MATR.         LIMESTONE            : Logunit      - NEUTRON MATRIX
TMAX.C        16                   : BHT          - MAXIMUM RECORDED TEMPERATURE
BHTD.M        420.8                : BHTDEP       - MAXIMUM RECORDED TEMPERATURE
MATR.         1                    : LOGUNIT      - NEUTRON MATRIX
RMT .C        25                   : MDTP         - TEMPERATURE OF MUD
NEUT.         1                    : NEUTRON      - NEUTRON TYPE
RESI.         0                    : RESIST       - RESISTIVITY TYPE
RMC .OHMM     0.25                 : RMC          - RESISTIVITY OF MUD CAKE
RMF .OHMM     0.25                 : RMF          - RESISTIVITY OF MUD FILTRATE
SUFT.C        15                   : SUFT         - SURFACE TEMPERATURE
~A  DEPTH     RESD     PHID     PHIN       GR
# ...
  275.500    9.965    0.270    0.499   82.451
  275.750   10.546    0.269    0.511   86.738
  276.000   11.588    0.289    0.522   82.484
  276.250   12.733    0.302    0.537   77.018
  276.500   13.474    0.016    0.593   73.375
  276.750   14.259    0.014    0.328   70.948
  277.000   14.811    0.157    0.373   67.915
  277.250   13.496    0.265    0.477   74.031
  277.500   12.069    0.287    0.457   80.146
  277.750   10.995    0.271    0.439   80.162
  278.000   10.401    0.266    0.408   77.738
  278.250   10.213    0.279    0.419   81.418
  278.500   10.221    0.301    0.451   79.602
  278.750   10.226    0.285    0.475   80.228
  279.000   10.229    0.294    0.445   77.809
  279.250    9.859    0.280    0.421   75.993
  279.500    9.325    0.261    0.417   82.716
  279.750    8.988    0.248    0.441   83.954
  280.000    8.991    0.230    0.491   87.019
  280.250    8.830    0.266    0.487   91.303
  280.500    9.002    0.285    0.474   85.222
  280.750    9.350    0.286    0.474   81.581
  281.000    9.183    0.287    0.469   82.208
  281.250    8.686    0.273    0.442   82.225
  281.500    8.370    0.259    0.393   81.020
  281.750    8.068    0.269    0.363   87.136
  282.000    8.071    0.271    0.433   87.762
  282.250    8.077    0.265    0.525   84.119
  282.500    8.234    0.254    0.495   82.307
  282.750    8.085    0.238    0.478   86.597
  283.000    8.088    0.221    0.461   90.877
  283.250    8.093    0.211    0.467   95.775
  283.500    8.249    0.215    0.506   95.791
  283.750    8.411    0.221    0.476   97.637
  284.000    8.574    0.230    0.450   98.871
  284.250    8.907    0.234    0.446   97.058
  284.500    8.912    0.242    0.408   90.977
  284.750    8.914    0.259    0.441   92.822
  285.000    8.755    0.253    0.454   97.723
  285.250    8.597    0.251    0.449   91.636
  285.500    8.441    0.256    0.461   95.312
  285.750    7.985    0.260    0.484   93.499
  286.000    7.696    0.271    0.500   89.856
  286.250    7.418    0.273    0.517   84.994
  286.500    7.284    0.276    0.530   86.231
  286.750    7.153    0.282    0.507   85.029
  287.000    7.291    0.260    0.518   81.996
  287.250    7.160    0.251    0.470   86.891
  287.500    6.899    0.244    0.450   93.615
  287.750    6.650    0.227    0.486   93.022
  288.000    6.530    0.211    0.517   93.040
  288.250    6.413    0.209    0.530   96.713
  288.500    5.952    0.201    0.495   94.903
  288.750    5.323    0.206    0.478   95.530
  289.000    4.850    0.215    0.508   96.765
  289.250    4.419    0.217    0.518  101.048
  289.500    3.598    0.220    0.471  104.115
  289.750    3.341    0.229    0.476  103.522
  290.000    3.343    0.237    0.496  102.321
  290.250    3.407    0.242    0.509  102.336
  290.500    3.960    0.216    0.488  100.523
  290.750    4.602    0.226    0.531  106.027
  291.000    5.152    0.245    0.579   98.727
  291.250    6.333    0.270    0.594   88.986
  291.500    7.090    0.275    0.526   81.683
  291.750    7.503    0.278    0.527   77.431
  292.000    7.649    0.282    0.475   77.449
  292.250    6.713    0.275    0.435   77.465
  292.500    6.233    0.238    0.461   81.144
  292.750    6.006    0.233    0.481   88.478
  293.000    5.790    0.242    0.549  106.788
  293.250    5.791    0.220    0.494  109.242
  293.500    6.246    0.234    0.536   99.506
  293.750    6.488    0.243    0.583   92.200
  294.000    6.615    0.236    0.599   85.512
  294.250    6.617    0.258    0.544   80.653
  294.500    6.379    0.247    0.414   78.832
  294.750    6.263    0.204    0.425   84.953
  295.000    6.035    0.206    0.458   90.456
  295.250    5.816    0.193    0.485   94.139
  295.500    5.712    0.194    0.528   95.979
  295.750    5.714    0.205    0.508   99.045
  296.000    5.937    0.206    0.501  101.499
  296.250    6.051    0.206    0.474  104.563
  296.500    6.287    0.189    0.439   99.700
  296.750    6.529    0.190    0.452   96.672
  297.000    7.042    0.184    0.459   96.075
  297.250    7.177    0.194    0.469   99.141
  297.500    7.458    0.201    0.479   98.548
  297.750    6.667    0.207    0.500   98.565
  298.000    6.546    0.208    0.445   99.191
  298.250    6.549    0.214    0.460   95.550
  298.500    6.433    0.217    0.458   97.394
  298.750    6.316    0.217    0.406   96.803
  299.000    6.318    0.213    0.409   94.989
  299.250    6.323    0.206    0.435   93.785
  299.500    6.327    0.223    0.510   94.411
  299.750    6.448    0.250    0.566   93.818
  300.000    6.454    0.256    0.475   88.345
  300.250    6.458    0.256    0.445   84.703
  300.500    6.461    0.259    0.452   85.941
  300.750    6.227    0.264    0.463   89.010
  301.000    6.467    0.273    0.485   85.973
  301.250    6.469    0.267    0.423   82.940
  301.500    6.119    0.195    0.384   81.739
  301.750    5.575    0.189    0.427   83.583
  302.000    5.273    0.203    0.464   90.309
  302.250    4.896    0.208    0.524   92.767
  302.500    4.062    0.210    0.552   94.614
  302.750    3.565    0.208    0.504   98.289
  303.000    3.129    0.244    0.451   97.084
  303.250    2.960    0.272    0.497   91.004
  303.500    2.646    0.265    0.560   91.628
  303.750    2.324    0.249    0.558   95.302
  304.000    2.239    0.237    0.549   93.491
  304.250    2.199    0.248    0.529   93.509
  304.500    2.200    0.251    0.593   87.427
  304.750    2.201    0.261    0.673   85.613
  305.000    2.202    0.256    0.665   85.634
  305.250    2.203    0.251    0.642   83.826
  305.500    2.288    0.251    0.588   83.837
  305.750    2.332    0.239    0.535   84.464
  306.000    2.563    0.229    0.503   88.744
  306.250    2.712    0.232    0.501   94.861
  306.500    3.037    0.222    0.500   95.488
  306.750    3.274    0.203    0.463   93.063
  307.000    3.952    0.198    0.419   88.811
  307.250    4.261    0.196    0.457   91.877
  307.500    4.509    0.191    0.500   99.821
  307.750    4.682    0.189    0.453   94.355
  308.000    5.050    0.173    0.418   90.707
  308.250    5.245    0.181    0.395   88.896
  308.500    5.347    0.191    0.436   91.960
  308.750    5.451    0.198    0.485   92.587
  309.000    5.157    0.218    0.466   96.261
  309.250    4.969    0.231    0.490   99.938
  309.500    4.445    0.230    0.590  103.004
  309.750    4.204    0.202    0.578  106.071
  310.000    4.052    0.198    0.531  103.648
  310.250    3.978    0.199    0.509   97.565
  310.500    3.906    0.196    0.463   97.582
  310.750    3.836    0.196    0.467   97.598
  311.000    3.838    0.193    0.469  101.274
  311.250    3.768    0.188    0.437  101.290
  311.500    3.770    0.181    0.462  100.699
  311.750    3.703    0.203    0.481  107.420
  312.000    3.704    0.211    0.498  109.877
  312.250    3.571    0.224    0.519  106.236
  312.500    3.441    0.209    0.475  111.137
  312.750    3.378    0.201    0.478  114.196
  313.000    3.318    0.205    0.490  109.337
  313.250    3.319    0.203    0.515  107.521
  313.500    3.321    0.207    0.516  102.660
  313.750    3.450    0.209    0.534  102.677
  314.000    3.651    0.195    0.534  100.863
  314.250    4.013    0.191    0.468   98.443
  314.500    4.246    0.189    0.471   99.675
  314.750    4.935    0.180    0.484  102.131
  315.000    5.735    0.188    0.446   96.053
  315.250    6.301    0.004    0.377   91.797
  315.500    6.794    0.052    0.344   86.326
  315.750    7.327    0.163    0.363   75.364
  316.000    7.610    0.206    0.392   73.552
  316.250    7.613    0.194    0.439   82.716
  316.500    7.764    0.165    0.290   85.174
  316.750    7.768    0.061    0.316   74.212
  317.000    7.627    0.205    0.388   61.421
  317.250    7.350    0.241    0.400   73.636
  317.500    7.083    0.222    0.422   75.480
  317.750    6.454    0.251    0.444   79.159
  318.000    5.992    0.263    0.460   81.612
  318.250    5.563    0.250    0.477   80.409
  318.500    5.360    0.232    0.474   85.917
  318.750    5.070    0.230    0.444   85.324
