~VERSION INFORMATION
 VERS.                 2.0:   CWLS LOG ASCII STANDARD -VERSION 2.0
 WRAP.                  NO:   ONE LINE PER DEPTH STEP
~WELL INFORMATION BLOCK
#MNEM.UNIT           DATA                    DESCRIPTION OF MNEMONIC
#---------    -------------------            -------------------------------
# Generated from Intellog Unique Number	CS_73_76/WELL/2169
WELL.         CANADA CITIES SERVICE LTD      : Well_name    - WELL
LOC .         00/06-26-074-03W4/0            : Location     - LOCATION
UWI .         00/06-26-074-03W4/0            : Uwi          - UNIQUE WELL ID
ENTR.         SP                             : Entered      - ENTERED BY
SRVC.         SCHLUMBERGER                   : Scn          - SERVICE COMPANY
STRT.M        310                            : top_depth    - START DEPTH
STOP.M        555                            : bot_depth    - STOP DEPTH
STEP.M        0.25                           : increment    - STEP LENGTH
 NULL. -999.2500:NULL Value
~CURVE INFORMATION BLOCK
#MNEM UNIT       ERCB CURVE CODE    CURVE DESCRIPTION
#-----------   ------------------   ----------------------------------
DEPT.M        00 001 00 00         : DEPTH        - DEPTH
ILD .OHMM     00 120 00 00         : RESD         - DEEP RESISTIVITY (DIL)
DPHI.V/V      00 890 00 00         : PHID         - DENSITY POROSITY (LIMESTONE)
NPHI.V/V      00 330 00 00         : PHIN         - NEUTRON POROSITY (LIMESTONE)
GR  .API      00 310 00 00         : GR           - GAMMA RAY
~PARAMETER INFORMATION
#MNEM.UNIT           DATA             DESCRIPTION OF MNEMONIC
#---------         -----------     ------------------------------
GL  .M        657.2                : gl           - GROUND LEVEL ELEVATION
EREF.M        660.66               : kb           - ELEVATION OF DEPTH REFERENCE
DATM.M        657.2                : datum        - DATUM ELEVATION
TDD .M        570                  : tdd          - TOTAL DEPTH DRILLER
RUN .         ONE                  : Run          - RUN NUMBER
ENG .         BILL                 : Engineer     - RECORDING ENGINEER
WIT .         JIM                  : Witness      - WITNESSED BY
MUD .         GEL                  : Mud_type     - MUD TYPE
MATR.         LIMESTONE            : Logunit      - NEUTRON MATRIX
TMAX.C        10                   : BHT          - MAXIMUM RECORDED TEMPERATURE
BHTD.M        570                  : BHTDEP       - MAXIMUM RECORDED TEMPERATURE
MATR.         1                    : LOGUNIT      - NEUTRON MATRIX
RMT .C        25                   : MDTP         - TEMPERATURE OF MUD
NEUT.         1                    : NEUTRON      - NEUTRON TYPE
RESI.         0                    : RESIST       - RESISTIVITY TYPE
RMC .OHMM     0.25                 : RMC          - RESISTIVITY OF MUD CAKE
RMF .OHMM     0.25                 : RMF          - RESISTIVITY OF MUD FILTRATE
SUFT.C        15                   : SUFT         - SURFACE TEMPERATURE
~A  DEPTH     RESD     PHID     PHIN       GR
# ...
  527.500    3.074    0.274    0.387   49.077
  527.750    3.078    0.286    0.391   44.832
  528.000    2.971    0.276    0.402   47.289
  528.250    2.921    0.280    0.408   49.747
  528.500    2.870    0.267    0.404   52.205
  528.750    2.875    0.262    0.382   50.398
  529.000    2.879    0.270    0.370   47.367
  529.250    2.882    0.291    0.380   48.001
  529.500    2.941    0.296    0.369   49.232
  529.750    2.945    0.301    0.364   52.307
  530.000    3.004    0.277    0.368   53.538
  530.250    3.009    0.269    0.364   55.387
  530.500    3.070    0.260    0.368   56.625
  530.750    3.075    0.247    0.385   56.644
  531.000    3.022    0.262    0.396   55.445
  531.250    3.026    0.282    0.398   51.200
  531.500    2.920    0.305    0.408   48.168
  531.750    2.817    0.295    0.411   45.746
  532.000    2.772    0.302    0.400   48.822
  532.250    2.777    0.310    0.387   52.503
  532.500    2.579    0.292    0.378   53.733
  532.750    2.680    0.268    0.386   52.532
  533.000    2.735    0.277    0.389   45.237
  533.250    2.738    0.301    0.378   42.814
  533.500    2.793    0.304    0.375   44.662
  533.750    2.799    0.307    0.385   45.296
  534.000    2.854    0.303    0.389   44.701
  534.250    2.968    0.290    0.394   44.720
  534.500    3.084    0.301    0.376   44.129
  534.750    3.147    0.296    0.383   47.197
  535.000    3.269    0.287    0.387   50.880
  535.250    3.399    0.262    0.363   48.456
  535.500    3.402    0.253    0.337   42.987
  535.750    3.406    0.254    0.327   41.792
  536.000    3.287    0.251    0.329   45.471
  536.250    3.171    0.245    0.343   46.095
  536.500    3.061    0.247    0.364   44.900
  536.750    2.955    0.265    0.374   44.918
  537.000    2.958    0.275    0.389   44.936
  537.250    2.961    0.288    0.391   44.342
  537.500    2.967    0.284    0.375   48.020
  537.750    2.970    0.273    0.368   47.436
  538.000    2.974    0.257    0.369   45.625
  538.250    2.924    0.279    0.365   45.030
  538.500    2.822    0.288    0.360   42.609
  538.750    2.724    0.276    0.372   40.194
  539.000    2.726    0.271    0.380   38.989
  539.250    2.731    0.288    0.377   41.452
  539.500    2.839    0.287    0.372   45.132
  539.750    3.005    0.286    0.374   50.032
  540.000    3.303    0.268    0.361   54.313
  540.250    3.560    0.242    0.348   61.652
  540.500    4.296    0.217    0.340   68.379
  540.750    4.631    0.180    0.330   74.491
  541.000    5.585    0.153    0.337   87.315
  541.250    6.610    0.156    0.370   91.603
  541.500    7.398    0.158    0.374   93.452
  541.750    7.985    0.158    0.377   92.252
  542.000    8.143    0.156    0.386   94.104
  542.250    8.313    0.155    0.389   95.338
  542.500    8.324    0.152    0.385   93.530
  542.750    8.334    0.145    0.380   95.378
  543.000    8.342    0.150    0.387   96.005
  543.250    8.360    0.161    0.389   94.197
  543.500    8.368    0.161    0.400   93.613
  543.750    8.223    0.150    0.408   93.627
  544.000    8.093    0.148    0.404   94.254
  544.250    7.956    0.133    0.383   94.883
  544.500    7.965    0.144    0.376   93.079
  544.750    7.826    0.148    0.372   93.092
  545.000    7.695    0.147    0.385   92.504
  545.250    7.700    0.155    0.388   91.305
  545.500    7.858    0.158    0.399   90.716
  545.750    7.867    0.159    0.406   91.346
  546.000    7.600    0.163    0.389   90.749
  546.250    7.607    0.168    0.381   90.772
  546.500    7.474    0.150    0.377   94.449
  546.750    7.080    0.120    0.381   98.126
  547.000    6.832    0.082    0.397   99.364
  547.250    6.593    0.071    0.413  100.604
  547.500    6.481    0.080    0.415  102.455
  547.750    6.487    0.079    0.406  102.470
  548.000    6.746    0.078    0.413  106.765
  548.250    7.008    0.060    0.427  109.220
  548.500    7.847    0.026    0.448  111.065
  548.750    8.784    0.052    0.460  100.718
  549.000   10.206    0.090    0.443   83.056
  549.250   11.426    0.078    0.413   66.001
  549.500   12.094    0.041    0.333   56.874
  549.750   13.545    0.000    0.293   51.405
  550.000   14.337    0.000    0.258   47.156
  550.250   14.900    0.000    0.235   48.403
  550.500   16.085    0.000    0.226   49.637
  550.750   16.406    0.000    0.228   52.106
  551.000   16.726    0.000    0.229   53.340
  551.250   16.761    0.005    0.229   54.570
  551.500   16.779    0.016    0.225   56.421
  551.750   17.115    0.010    0.224   58.884
  552.000   17.141    0.000    0.222   60.727
  552.250   17.164    0.000    0.220   63.187
  552.500   17.186    0.000    0.222   63.203
  552.750   17.863    0.000    0.225   61.393
  553.000   17.886    0.000    0.226   58.974
  553.250   17.924    0.001    0.223   58.386
  553.500   17.950    0.005    0.219   56.578
  553.750   17.971    0.007    0.217   54.764
  554.000   17.994    0.011    0.215   51.738
  554.250   18.023    0.015    0.218   49.923
  554.500   18.044    0.004    0.223   48.726
  554.750   18.064    0.002    0.232   49.969
  555.000   18.099    0.000    0.237   51.817
