~VERSION INFORMATION
 VERS.                 2.0:   CWLS LOG ASCII STANDARD -VERSION 2.0
 WRAP.                  NO:   ONE LINE PER DEPTH STEP
~WELL INFORMATION BLOCK
#MNEM.UNIT           DATA                    DESCRIPTION OF MNEMONIC
#---------    -------------------            -------------------------------
# Generated from Intellog Unique Number	CN_94_101/WELL/3728
WELL.         01-29-096-19W4                 : Well_name    - WELL
LOC .         00/01-29-096-19W4/0            : Location     - LOCATION
UWI .         00/01-29-096-19W400            : Uwi          - UNIQUE WELL ID
ENTR.         JOETTE                         : Entered      - ENTERED BY
SRVC.         SCHLUMBERGER                   : Scn          - SERVICE COMPANY
DATE.         08/10/92                       : Date         - LOG DATE
STRT.F        1100                           : top_depth    - START DEPTH
STOP.F        1720.08                        : bot_depth    - STOP DEPTH
STEP.F        0.82                           : increment    - STEP LENGTH
 NULL. -999.2500:NULL Value
~CURVE INFORMATION BLOCK
#MNEM UNIT       ERCB CURVE CODE    CURVE DESCRIPTION
#-----------   ------------------   ----------------------------------
DEPT.F        00 001 00 00         : DEPTH        - DEPTH
ILD .OHMM     00 120 00 00         : RESD         - DEEP RESISTIVITY (DIL)
GR  .API      00 310 00 00         : GR           - GAMMA RAY
NPHI.V/V      00 330 00 00         : PHIN         - NEUTRON POROSITY (SANDSTONE)
~PARAMETER INFORMATION
#MNEM.UNIT           DATA             DESCRIPTION OF MNEMONIC
#---------         -----------     ------------------------------
GL  .M        783.793              : gl           - GROUND LEVEL ELEVATION
EREF.M        786.11               : kb           - ELEVATION OF DEPTH REFERENCE
DATM.M        786.11               : datum        - DATUM ELEVATION
TDD .M        526.39               : tdd          - TOTAL DEPTH DRILLER
RUN .         ONE                  : Run          - RUN NUMBER
ENG .         BILL                 : Engineer     - RECORDING ENGINEER
WIT .         JIM                  : Witness      - WITNESSED BY
MUD .         GEL                  : Mud_type     - MUD TYPE
MATR.         SANDSTONE            : Logunit      - NEUTRON MATRIX
TMAX.F        65                   : BHT          - MAXIMUM RECORDED TEMPERATURE
BHTD.F        1727                 : BHTDEP       - MAXIMUM RECORDED TEMPERATURE
RMT .F        70                   : MDTP         - TEMPERATURE OF MUD
MUDD.LB/G     9.1                  : MWT          - MUD DENSITY
NEUT.         1                    : NEUTRON      - NEUTRON TYPE
RESI.         0                    : RESIST       - RESISTIVITY TYPE
RM  .OHMM     6.2                  : RM           - RESISTIVITY OF MUD
RMC .OHMM     6.2                  : RMC          - RESISTIVITY OF MUD CAKE
RMF .OHMM     6.2                  : RMF          - RESISTIVITY OF MUD FILTRATE
SUFT.F        4                    : SUFT         - SURFACE TEMPERATURE
~A  DEPTH     RESD       GR     PHIN
# ...
 1455.970    7.974   58.623    0.372
 1456.790    8.287   56.837    0.377
 1457.610    8.933   56.279    0.382
 1458.430    9.455   58.808    0.385
 1459.250    9.471   63.781    0.376
 1460.070    8.040   69.353    0.374
 1460.890    6.462   69.410    0.381
 1461.710    5.290   71.953    0.387
 1462.530    4.411   75.068    0.394
 1463.350    3.815   78.811    0.404
 1464.170    3.487   80.726    0.418
 1464.990    3.130   79.554    0.423
 1465.810    2.966   80.225    0.424
 1466.630    2.711   79.668    0.411
 1467.450    2.715   74.195    0.372
 1468.270    2.981   69.936    0.368
 1469.090    3.334   62.005    0.352
 1469.910    4.089   54.689    0.339
 1470.730    6.022   54.746    0.345
 1471.560    9.203   54.188    0.358
 1472.380   14.067   53.631    0.278
 1473.200   15.731   53.073    0.241
 1474.020   16.657   49.444    0.208
 1474.840   16.390   36.597    0.194
 1475.660   16.106   44.027    0.277
 1476.480   15.552   63.146    0.328
 1477.300   16.780   68.747    0.368
 1478.120   15.329   69.418    0.409
 1478.940   13.498   68.246    0.418
 1479.760   10.458   66.474    0.410
 1480.580    7.126   65.917    0.406
 1481.400    5.421   65.974    0.411
 1482.220    4.954   66.045    0.414
 1483.040    4.527   65.473    0.398
 1483.860    4.455   65.516    0.413
 1484.680    4.379   65.001    0.403
 1485.500    4.470   65.029    0.404
 1486.320    4.821   67.544    0.402
 1487.140    5.098   71.287    0.385
 1487.960    6.138   70.115    0.369
 1488.780    6.992   68.329    0.392
 1489.600    8.415   70.844    0.373
 1490.420    9.767   71.543    0.365
 1491.240    9.435   70.972    0.365
 1492.060    8.308   79.016    0.371
 1492.880    6.678   87.689    0.361
 1493.700    5.994   87.746    0.352
 1494.520    5.683   82.287    0.350
 1495.340    5.693   80.487    0.346
 1496.160    5.705   75.000    0.354
 1496.980    5.713   73.242    0.351
 1497.800    5.725   75.128    0.354
 1498.620    5.730   77.028    0.362
 1499.440    5.535   80.157    0.374
 1500.260    5.061   80.828    0.379
 1501.080    4.794   79.656    0.376
 1501.900    4.305   77.884    0.380
 1502.720    4.154   77.326    0.374
 1503.540    4.011   81.699    0.356
 1504.360    3.945   84.199    0.341
 1505.180    3.954   83.656    0.351
 1506.000    3.964   81.869    0.372
 1506.820    3.967   81.312    0.389
 1507.640    3.974   83.212    0.392
 1508.460    3.983   83.269    0.378
 1509.280    3.919   81.497    0.374
 1510.100    3.852   84.011    0.393
 1510.930    3.787   89.584    0.362
 1511.750    3.660   93.328    0.347
 1512.570    3.804   93.384    0.334
 1513.390    4.028   99.000    0.331
 1514.210    4.259   99.671    0.335
 1515.030    4.854   96.641    0.344
 1515.850    5.426   89.939    0.333
 1516.670    6.183   90.625    0.305
 1517.490    6.668   93.754    0.290
 1518.310    6.932   93.211    0.275
 1519.130    7.067   95.097    0.280
 1519.950    7.216   98.226    0.292
 1520.770    7.229   94.596    0.299
 1521.590    7.238   89.737    0.294
 1522.410    7.254   86.722    0.291
 1523.230    7.263   83.707    0.304
 1524.050    7.276   81.935    0.319
 1524.870    7.288   79.534    0.313
 1525.690    7.304   77.747    0.309
 1526.510    7.317   77.804    0.322
 1527.330    7.329   79.104    0.340
 1528.150    7.342   80.362    0.340
 1528.970    7.355   82.876    0.328
 1529.790    7.236   86.648    0.319
 1530.610    7.246   83.633    0.331
 1531.430    7.000   81.846    0.368
 1532.250    6.636   83.732    0.396
 1533.070    5.957   88.105    0.391
 1533.890    5.646   87.533    0.390
 1534.710    5.257   83.917    0.393
 1535.530    5.262   82.760    0.356
 1536.350    5.271   82.174    0.329
 1537.170    5.685   79.158    0.310
 1537.990    6.242   74.928    0.308
 1538.810    7.375   78.672    0.313
 1539.630    8.560   81.801    0.325
 1540.450    8.571   87.402    0.336
 1541.270    7.985   90.531    0.362
 1542.090    7.301   93.660    0.365
 1542.910    7.047   95.560    0.356
 1543.730    6.802   95.617    0.354
 1544.550    6.568   91.987    0.347
 1545.370    6.582   88.372    0.344
 1546.190    6.594   89.658    0.355
 1547.010    6.602   92.158    0.368
 1547.830    6.616   95.302    0.384
 1548.650    6.510   95.358    0.379
 1549.480    6.519   94.186    0.368
 1550.300    6.292   88.099    0.349
 1551.120    5.862   91.228    0.329
 1551.940    5.663   93.128    0.331
 1552.760    5.668   88.884    0.340
 1553.580    5.785   87.726    0.350
 1554.400    6.014   90.241    0.355
 1555.220    6.134   86.597    0.372
 1556.040    6.144   84.810    0.354
 1556.860    5.719   86.711    0.356
 1557.680    5.134   88.011    0.377
 1558.500    4.865   89.311    0.392
 1559.320    4.696   91.197    0.384
 1560.140    4.456   91.254    0.376
 1560.960    4.460   89.481    0.367
 1561.780    4.637   88.909    0.372
 1562.600    4.823   88.966    0.376
 1563.420    4.827   89.023    0.368
 1564.240    4.837   87.880    0.392
 1565.060    4.586   85.465    0.380
 1565.880    4.426   83.692    0.369
 1566.700    4.198   85.607    0.362
 1567.520    4.129   86.864    0.395
 1568.340    4.061   93.080    0.439
 1569.160    3.850   89.436    0.396
 1569.980    3.584   87.663    0.390
 1570.800    3.275   86.506    0.398
 1571.620    2.995   85.305    0.398
 1572.440    2.892   79.847    0.392
 1573.260    2.950   79.889    0.386
 1574.080    3.124   83.032    0.377
 1574.900    3.305   81.246    0.371
 1575.720    3.497   79.460    0.362
 1576.540    3.770   80.131    0.370
 1577.360    4.219   78.344    0.367
 1578.180    4.464   83.317    0.367
 1579.000    4.725   94.448    0.379
 1579.820    4.821  100.035    0.427
 1580.640    5.012  103.778    0.409
 1581.460    4.751  100.763    0.411
 1582.280    4.344   95.290    0.413
 1583.100    4.117   91.674    0.405
 1583.920    3.905   89.259    0.363
 1584.740    3.911   88.716    0.312
 1585.560    3.918   92.460    0.325
 1586.380    3.998   87.601    0.332
 1587.200    4.154   87.043    0.344
 1588.020    4.480   88.944    0.332
 1588.850    4.652   92.687    0.320
 1589.670    5.303   98.274    0.320
 1590.490    5.611   99.574    0.291
 1591.310    6.163   93.486    0.283
 1592.130    6.405   92.329    0.289
 1592.950    6.532   94.215    0.302
 1593.770    6.790   96.129    0.308
 1594.590    6.931   94.943    0.307
 1595.410    6.940   90.713    0.300
 1596.230    6.832   93.828    0.287
 1597.050    6.841   98.800    0.290
 1597.870    6.849   98.885    0.304
 1598.690    6.867   99.557    0.318
 1599.510    6.873   96.527    0.316
 1600.330    6.885   91.068    0.316
 1601.150    6.777   92.969    0.336
 1601.970    6.786   94.240    0.350
 1602.790    6.798   96.140    0.344
 1603.610    6.810   91.282    0.338
 1604.430    6.948   95.654    0.335
 1605.250    6.963  101.241    0.328
 1606.070    6.972  101.912    0.321
 1606.890    6.984  100.126    0.309
 1607.710    6.999   99.568    0.313
 1608.530    7.014  100.239    0.318
 1609.350    7.026   91.694    0.312
 1610.170    7.038   93.594    0.300
 1610.990    7.181   90.579    0.291
 1611.810    7.330   86.349    0.286
 1612.630    7.336   91.307    0.320
 1613.450    7.485   89.521    0.310
 1614.270    7.643   93.307    0.303
 1615.090    7.660   97.036    0.311
 1615.910    7.670  100.780    0.347
 1616.730    7.680  100.237    0.358
 1617.550    7.422   95.964    0.349
 1618.370    7.167   92.963    0.343
 1619.190    7.046   90.562    0.338
 1620.010    6.807   92.448    0.337
 1620.830    6.816   98.663    0.326
 1621.650    6.824  102.421    0.315
 1622.470    6.966   98.163    0.309
 1623.290    6.978   95.776    0.311
 1624.110    6.993   91.518    0.294
 1624.930    7.005   89.117    0.307
 1625.750    7.017   88.559    0.313
 1626.570    7.029   88.630    0.303
 1627.400    7.042   96.075    0.297
 1628.220    6.925   91.202    0.296
 1629.040    6.937   88.815    0.317
 1629.860    6.949   91.944    0.339
 1630.680    6.835   96.288    0.306
 1631.500    6.847   93.273    0.300
 1632.320    6.737   79.812    0.300
 1633.140    6.392   81.098    0.331
