~VERSION INFORMATION
 VERS.                 2.0:   CWLS LOG ASCII STANDARD -VERSION 2.0
 WRAP.                  NO:   ONE LINE PER DEPTH STEP
~WELL INFORMATION BLOCK
#MNEM.UNIT           DATA                    DESCRIPTION OF MNEMONIC
#---------    -------------------            -------------------------------
# Generated from Intellog Unique Number	CS_73_76/WELL/1034
WELL.         ALLIED ROXANNA MINERALS LT     : Well_name    - WELL
LOC .         00/06-08-075-16W4/0            : Location     - LOCATION
UWI .         00/06-08-075-16W4/0            : Uwi          - UNIQUE WELL ID
ENTR.         SP                             : Entered      - ENTERED BY
SRVC.         SCHLUMBERGER                   : Scn          - SERVICE COMPANY
STRT.M        323.088                        : top_depth    - START DEPTH
STOP.M        542.338                        : bot_depth    - STOP DEPTH
STEP.M        0.25                           : increment    - STEP LENGTH
 NULL. -999.2500:NULL Value
~CURVE INFORMATION BLOCK
#MNEM UNIT       ERCB CURVE CODE    CURVE DESCRIPTION
#-----------   ------------------   ----------------------------------
DEPT.M        00 001 00 00         : DEPTH        - DEPTH
GR  .API      00 310 00 00         : GR           - GAMMA RAY
DPHI.V/V      00 890 00 00         : PHID         - DENSITY POROSITY (SANDSTONE)
NPHI.V/V      00 330 00 00         : PHIN         - NEUTRON POROSITY (SANDSTONE)
ILD .OHMM     00 120 00 00         : RESD         - DEEP RESISTIVITY (DIL)
~PARAMETER INFORMATION
#MNEM.UNIT           DATA             DESCRIPTION OF MNEMONIC
#---------         -----------     ------------------------------
GL  .M        675.437              : gl           - GROUND LEVEL ELEVATION
EREF.M        678.485              : kb           - ELEVATION OF DEPTH REFERENCE
DATM.M        675.437              : datum        - DATUM ELEVATION
TDD .M        554.736              : tdd          - TOTAL DEPTH DRILLER
RUN .         ONE                  : Run          - RUN NUMBER
ENG .         BILL                 : Engineer     - RECORDING ENGINEER
WIT .         JIM                  : Witness      - WITNESSED BY
MUD .         GEL                  : Mud_type     - MUD TYPE
MATR.         SANDSTONE            : Logunit      - NEUTRON MATRIX
TMAX.C        22.7778              : BHT          - MAXIMUM RECORDED TEMPERATURE
BHTD.M        554.736              : BHTDEP       - MAXIMUM RECORDED TEMPERATURE
MATR.         1                    : LOGUNIT      - NEUTRON MATRIX
RMT .C        25                   : MDTP         - TEMPERATURE OF MUD
NEUT.         1                    : NEUTRON      - NEUTRON TYPE
RESI.         0                    : RESIST       - RESISTIVITY TYPE
RMC .OHMM     0.25                 : RMC          - RESISTIVITY OF MUD CAKE
RMF .OHMM     0.25                 : RMF          - RESISTIVITY OF MUD FILTRATE
SUFT.C        15                   : SUFT         - SURFACE TEMPERATURE
~A  DEPTH       GR     PHID     PHIN     RESD
# ...
  366.588   84.911    0.245    0.474    6.290
  366.838   88.086    0.247    0.497    6.382
  367.088   88.496    0.251    0.516    6.577
  367.338   89.193    0.244    0.529    6.732
  367.588   89.135    0.250    0.539    6.697
  367.838   86.414    0.252    0.540    6.523
  368.088   83.098    0.248    0.531    6.263
  368.338   77.373    0.253    0.522    6.283
  368.588   76.747    0.272    0.524    6.530
  368.838   68.919    0.290    0.502    7.007
  369.088   60.107    0.305    0.476    7.868
  369.338   52.461    0.313    0.442    8.458
  369.588   45.571    0.321    0.412    9.024
  369.838   42.186    0.326    0.419    9.365
  370.088   43.026    0.327    0.446    9.303
  370.338   42.972    0.324    0.459    9.138
  370.588   43.297    0.323    0.463    9.003
  370.838   45.291    0.322    0.456    8.965
  371.088   47.650    0.328    0.464    8.826
  371.338   48.794    0.335    0.480    8.733
  371.588   46.234    0.332    0.497    8.724
  371.838   45.864    0.331    0.498    8.657
  372.088   45.499    0.332    0.484    8.658
  372.338   45.894    0.326    0.470    8.657
  372.588   46.001    0.328    0.474    8.656
  372.838   45.509    0.334    0.477    8.655
  373.088   47.707    0.333    0.477    8.654
  373.338   51.215    0.331    0.486    8.652
  373.588   49.113    0.336    0.498    8.652
  373.838   46.395    0.341    0.503    8.650
  374.088   44.851    0.344    0.490    8.599
  374.338   44.958    0.345    0.481    8.590
  374.588   45.083    0.340    0.465    8.648
  374.838   46.331    0.335    0.449    8.648
  375.088   48.272    0.329    0.426    8.657
  375.338   48.761    0.330    0.437    8.727
  375.588   48.320    0.336    0.440    8.762
  375.838   48.706    0.339    0.438    8.806
  376.088   49.283    0.340    0.451    8.874
  376.338   49.254    0.341    0.470    8.965
  376.588   48.566    0.345    0.482    8.955
  376.838   46.607    0.346    0.487    8.959
  377.088   48.414    0.344    0.482    8.840
  377.338   49.786    0.343    0.467    8.794
  377.588   48.865    0.347    0.452    8.713
  377.838   46.074    0.351    0.445    8.623
  378.088   42.103    0.348    0.453    8.631
  378.338   42.943    0.347    0.465    8.629
  378.588   47.543    0.345    0.475    8.628
  378.838   49.255    0.345    0.457    8.627
  379.088   53.190    0.341    0.454    8.627
  379.338   56.421    0.337    0.469    8.629
  379.588   55.773    0.341    0.457    8.715
  379.838   53.506    0.345    0.472    8.611
  380.088   54.429    0.341    0.473    8.620
  380.338   54.375    0.341    0.487    8.464
  380.588   51.501    0.350    0.496    8.268
  380.838   48.998    0.353    0.496    8.145
  381.088   52.203    0.351    0.479    8.144
  381.338   54.324    0.346    0.463    8.150
  381.588   53.470    0.342    0.466    8.284
  381.838   53.339    0.342    0.465    8.384
  382.088   53.492    0.349    0.457    8.274
  382.338   50.800    0.360    0.451    8.135
  382.588   50.412    0.358    0.447    8.046
  382.838   52.514    0.356    0.463    8.055
  383.088   49.756    0.361    0.497    8.128
  383.338   47.247    0.369    0.518    8.218
  383.588   44.077    0.360    0.526    8.207
  383.838   46.569    0.358    0.518    8.206
  384.088   49.931    0.353    0.498    8.206
  384.338   53.346    0.350    0.482    8.203
  384.588   54.311    0.355    0.496    8.169
  384.838   52.208    0.351    0.503    8.041
  385.088   52.636    0.342    0.512    7.973
  385.338   53.621    0.344    0.513    7.928
  385.588   49.721    0.348    0.483    7.882
  385.838   44.172    0.343    0.468    7.879
  386.088   41.987    0.342    0.468    7.873
  386.338   43.961    0.345    0.483    7.958
  386.588   46.300    0.350    0.490    8.094
  386.838   48.510    0.351    0.510    8.123
  387.088   52.143    0.346    0.521    8.341
  387.338   52.273    0.345    0.498    8.464
  387.588   50.303    0.338    0.483    8.691
  387.838   48.844    0.334    0.467    8.799
  388.088   47.163    0.330    0.478    9.115
  388.338   45.537    0.327    0.489    9.229
  388.588   46.125    0.326    0.498    9.357
  388.838   46.337    0.328    0.511    9.493
  389.088   44.315    0.330    0.525    9.533
  389.338   43.237    0.324    0.507    9.672
  389.588   44.730    0.322    0.492    9.680
  389.838   44.373    0.331    0.496    9.764
  390.088   41.954    0.339    0.503    9.754
  390.338   40.511    0.343    0.513    9.850
  390.588   38.461    0.340    0.521    9.842
  390.838   36.764    0.338    0.520    9.883
  391.088   35.821    0.342    0.538    9.916
  391.338   34.780    0.344    0.551    9.924
  391.588   34.653    0.343    0.519    9.836
  391.838   36.088    0.338    0.491    9.752
  392.088   40.039    0.336    0.484    9.706
  392.338   40.779    0.335    0.484    9.447
  392.588   35.812    0.340    0.509    9.274
  392.838   33.129    0.347    0.530    9.066
  393.088   33.008    0.351    0.541    8.844
  393.338   33.449    0.345    0.554    8.722
  393.588   33.017    0.339    0.555    8.591
  393.838   34.847    0.340    0.544    8.460
  394.088   36.842    0.341    0.526    8.322
  394.338   38.129    0.340    0.511    8.286
  394.588   39.338    0.344    0.510    8.154
  394.838   39.428    0.351    0.502    8.091
  395.088   38.063    0.354    0.477    8.082
  395.338   36.810    0.359    0.464    7.987
  395.588   34.822    0.365    0.446    7.907
  395.838   33.894    0.368    0.472    7.884
  396.088   33.281    0.378    0.470    7.832
  396.338   33.263    0.367    0.460    7.742
  396.588   33.147    0.362    0.459    7.731
  396.838   32.070    0.358    0.464    7.666
  397.088   31.952    0.362    0.468    7.621
  397.338   33.517    0.366    0.490    7.577
  397.588   33.953    0.367    0.525    7.504
  397.838   33.098    0.369    0.532    7.505
  398.088   33.844    0.362    0.516    7.504
  398.338   34.745    0.357    0.488    7.511
  398.588   36.445    0.348    0.473    7.414
  398.838   37.351    0.355    0.463    7.422
  399.088   38.941    0.360    0.474    7.419
  399.338   39.900    0.356    0.483    7.397
  399.588   40.278    0.351    0.470    7.338
  399.838   38.948    0.351    0.453    7.337
  400.088   37.852    0.353    0.470    7.336
  400.338   37.294    0.354    0.507    7.335
  400.588   37.173    0.353    0.506    7.334
  400.838   37.823    0.353    0.504    7.333
  401.088   38.752    0.362    0.505    7.332
  401.338   40.019    0.373    0.526    7.333
  401.588   42.026    0.380    0.538    7.335
  401.838   42.494    0.370    0.527    7.353
  402.088   43.106    0.369    0.530    7.330
  402.338   40.735    0.368    0.525    7.326
  402.588   39.420    0.365    0.521    7.270
  402.838   40.410    0.361    0.530    7.227
  403.088   41.857    0.358    0.534    7.162
  403.338   41.799    0.356    0.537    7.161
  403.588   42.516    0.358    0.544    7.158
  403.838   41.966    0.363    0.551    7.232
  404.088   41.395    0.364    0.533    7.538
  404.338   43.214    0.352    0.518    8.905
  404.588   45.350    0.339    0.521   10.681
  404.838   45.485    0.317    0.527   11.952
  405.088   43.484    0.296    0.481   13.377
  405.338   41.000    0.156    0.299   14.357
  405.588   39.765    0.151    0.225   14.763
  405.838   41.705    0.161    0.220   13.246
  406.088   44.994    0.215    0.277   11.275
  406.338   48.119    0.284    0.350    9.967
  406.588   53.814    0.333    0.421    8.738
  406.838   58.021    0.350    0.481    7.833
  407.088   63.657    0.348    0.537    7.344
  407.338   64.522    0.342    0.585    7.151
  407.588   64.745    0.340    0.600    7.110
  407.838   68.194    0.345    0.605    7.064
  408.088   69.201    0.350    0.568    7.009
  408.338   67.575    0.352    0.548    6.897
  408.588   69.686    0.350    0.550    6.820
  408.838   69.515    0.347    0.569    6.656
  409.088   68.053    0.340    0.595    6.551
  409.338   65.015    0.335    0.582    6.498
  409.588   63.827    0.336    0.584    6.491
  409.838   67.081    0.329    0.574    6.594
