~VERSION INFORMATION
 VERS.                 2.0:   CWLS LOG ASCII STANDARD -VERSION 2.0
 WRAP.                  NO:   ONE LINE PER DEPTH STEP
~WELL INFORMATION BLOCK
#MNEM.UNIT           DATA                    DESCRIPTION OF MNEMONIC
#---------    -------------------            -------------------------------
# Generated from Intellog Unique Number	CW_73_75/WELL/642
LOC .         00/07-02-075-24W4/0            : Location     - LOCATION
UWI .         00/07-02-075-24W4/0            : Uwi          - UNIQUE WELL ID
ENTR.         JAYE                           : Entered      - ENTERED BY
SRVC.         SCHLUMBERGER                   : Scn          - SERVICE COMPANY
DATE.         1 MAR 75                       : Date         - LOG DATE
STRT.M        426.72                         : top_depth    - START DEPTH
STOP.M        621.72                         : bot_depth    - STOP DEPTH
STEP.M        0.25                           : increment    - STEP LENGTH
 NULL. -999.2500:NULL Value
~CURVE INFORMATION BLOCK
#MNEM UNIT       ERCB CURVE CODE    CURVE DESCRIPTION
#-----------   ------------------   ----------------------------------
DEPT.M        00 001 00 00         : DEPTH        - DEPTH
ILD .OHMM     00 120 00 00         : RESD         - DEEP RESISTIVITY (DIL)
CALI.MM       00 280 01 00         : CAL          - CALIPER
GR  .API      00 310 00 00         : GR           - GAMMA RAY
DPHI.V/V      00 890 00 00         : PHID         - DENSITY POROSITY (SANDSTONE)
NPHI.V/V      00 330 00 00         : PHIN         - NEUTRON POROSITY (SANDSTONE)
~PARAMETER INFORMATION
#MNEM.UNIT           DATA             DESCRIPTION OF MNEMONIC
#---------         -----------     ------------------------------
GL  .M        702.107              : gl           - GROUND LEVEL ELEVATION
EREF.M        706.222              : kb           - ELEVATION OF DEPTH REFERENCE
DATM.M        702.107              : datum        - DATUM ELEVATION
TDD .M        623.316              : tdd          - TOTAL DEPTH DRILLER
RUN .         ONE                  : Run          - RUN NUMBER
ENG .         EARLE                : Engineer     - RECORDING ENGINEER
WIT .         BRYANT               : Witness      - WITNESSED BY
BASE.         EDM                  : Branch       - HOME BASE OF LOGGING UNIT
MATR.         SANDSTONE            : Logunit      - NEUTRON MATRIX
TMAX.C        29.4444              : BHT          - MAXIMUM RECORDED TEMPERATURE
BHTD.M        622.706              : BHTDEP       - MAXIMUM RECORDED TEMPERATURE
RMT .C        20                   : MDTP         - TEMPERATURE OF MUD
MUDD.KG/M     0                    : MWT          - MUD DENSITY
NEUT.         1                    : NEUTRON      - NEUTRON TYPE
RESI.         0                    : RESIST       - RESISTIVITY TYPE
RM  .OHMM     3.85                 : RM           - RESISTIVITY OF MUD
RMC .OHMM     0                    : RMC          - RESISTIVITY OF MUD CAKE
RMF .OHMM     4.96                 : RMF          - RESISTIVITY OF MUD FILTRATE
SUFT.C        -17.7778             : SUFT         - SURFACE TEMPERATURE
~A  DEPTH     RESD      CAL       GR     PHID     PHIN
# ...
  536.220    4.960  225.138  111.848    0.202    0.448
  536.470    4.896  225.669  112.038    0.220    0.453
  536.720    4.851  226.093  105.193    0.229    0.461
  536.970    4.877  226.309  107.524    0.215    0.442
  537.220    4.913  226.631  112.546    0.199    0.477
  537.470    4.912  226.746  114.816    0.222    0.492
  537.720    4.939  226.549  110.479    0.221    0.460
  537.970    4.947  226.663  108.039    0.213    0.443
  538.220    4.947  226.673  108.657    0.208    0.447
  538.470    4.974  226.787  110.253    0.200    0.478
  538.720    4.937  227.523  111.421    0.216    0.497
  538.970    4.900  228.155  113.324    0.204    0.483
  539.220    4.855  228.684  117.000    0.179    0.473
  539.470    4.855  229.108  112.419    0.188    0.465
  539.720    4.846  229.325  107.347    0.195    0.462
  539.970    4.845  229.336  105.947    0.198    0.485
  540.220    4.766  228.208  106.320    0.180    0.476
  540.470    4.662  226.871  105.898    0.211    0.459
  540.720    4.561  225.432  104.191    0.269    0.442
  540.970    4.510  224.614  100.406    0.248    0.458
  541.220    4.764  224.209   97.475    0.218    0.480
  541.470    5.209  223.704   93.076    0.218    0.456
  541.720    6.128  223.505   87.516    0.155    0.429
  541.970    6.762  223.206   83.546    0.125    0.401
  542.220    7.103  222.801   90.465    0.102    0.360
  542.470    6.886  222.813   97.873    0.157    0.438
  542.720    6.400  222.718  104.119    0.215    0.468
  542.970    5.673  222.627  106.449    0.227    0.471
  543.220    5.140  222.843  103.581    0.229    0.464
  543.470    4.777  222.958  100.467    0.242    0.486
  543.720    4.572  223.487  101.819    0.255    0.478
  543.970    4.497  224.016  104.884    0.231    0.450
  544.220    4.521  224.026  107.765    0.206    0.447
  544.470    4.613  224.346  107.465    0.199    0.470
  544.720    4.723  224.565  106.310    0.210    0.450
  544.970    4.818  224.782  106.438    0.209    0.455
  545.220    5.024  224.896  107.117    0.197    0.469
  545.470    5.268  225.427  105.349    0.180    0.437
  545.720    5.585  225.540  102.603    0.167    0.407
  545.970    5.760  225.859   99.734    0.148    0.373
  546.220    5.760  225.974  102.860    0.138    0.402
  546.470    5.432  226.297  107.820    0.161    0.466
  546.720    5.227  226.512  111.926    0.189    0.460
  546.970    5.104  226.730  110.892    0.216    0.443
  547.220    5.085  226.847  105.332    0.206    0.425
  547.470    5.066  226.855  103.196    0.205    0.412
  547.720    5.075  226.969  105.895    0.216    0.403
  547.970    5.056  227.395  108.225    0.203    0.408
  548.220    5.019  227.507  110.494    0.196    0.425
  548.470    4.927  227.935  112.458    0.189    0.440
  548.720    4.891  227.944  109.956    0.178    0.442
  548.970    4.873  228.576  107.210    0.163    0.455
  549.220    4.863  228.689  110.214    0.181    0.479
  549.470    4.872  228.701  112.606    0.197    0.474
  549.720    4.880  228.919  114.203    0.212    0.461
  549.970    4.898  228.927  114.637    0.210    0.448
  550.220    4.915  229.043  114.704    0.200    0.437
  550.470    4.960  229.053  115.261    0.207    0.433
  550.720    5.032  229.166  111.902    0.197    0.428
  550.970    5.115  228.972  108.972    0.210    0.421
  551.220    5.209  228.982  108.305    0.192    0.439
  551.470    5.266  228.784  108.618    0.185    0.474
  551.720    5.343  228.793  109.358    0.193    0.455
  551.970    5.381  228.599  109.487    0.171    0.464
  552.220    5.420  228.608  110.106    0.157    0.476
  552.470    5.530  228.620  110.846    0.204    0.473
  552.720    5.570  228.732  110.239    0.168    0.455
  552.970    5.631  228.743  106.697    0.175    0.433
  553.220    5.744  228.753  105.358    0.188    0.421
  553.470    6.045  228.662  105.180    0.187    0.430
  553.720    6.258  228.775  102.985    0.183    0.435
  553.970    6.454  228.891  103.725    0.180    0.418
  554.220    6.573  229.003  101.346    0.173    0.405
  554.470    6.210  229.116   99.822    0.151    0.388
  554.720    5.922  229.231  106.068    0.152    0.399
  554.970    5.667  229.655  111.825    0.188    0.425
  555.220    5.554  230.288  117.826    0.210    0.418
  555.470    5.493  230.818  121.074    0.189    0.436
  555.720    5.503  231.241  117.838    0.185    0.449
  555.970    5.522  231.873  111.543    0.189    0.448
  556.220    5.738  232.194  106.717    0.182    0.446
  556.470    6.390  232.101  103.420    0.172    0.451
  556.720    7.129  231.904  106.913    0.161    0.465
  556.970    7.739  230.777  106.736    0.144    0.474
  557.220    8.777  229.853   99.707    0.127    0.306
  557.470    9.918  228.415   84.726    0.109    0.274
  557.720   10.514  228.322   87.974    0.038    0.244
  557.970    9.666  229.367  100.031    0.079    0.303
  558.220    8.474  231.658  107.807    0.122    0.425
  558.470    7.269  233.117  110.504    0.146    0.414
  558.720    6.744  234.164  113.998    0.151    0.401
  558.970    6.842  234.073  115.533    0.142    0.390
  559.220    6.879  233.772  105.017    0.146    0.391
  559.470    6.967  233.367   99.396    0.132    0.389
  559.720    7.017  233.068  105.825    0.112    0.393
  559.970    7.042  232.870  111.826    0.136    0.432
  560.220    6.990  232.778  115.564    0.164    0.434
  560.470    6.914  232.477  117.650    0.170    0.429
  560.720    6.763  232.487  114.108    0.164    0.438
  560.970    6.616  232.497  110.444    0.149    0.438
  561.220    6.472  232.405  107.086    0.136    0.415
  561.470    6.366  232.208  105.930    0.138    0.441
  561.720    6.319  231.909  106.426    0.143    0.453
  561.970    6.330  231.607  107.350    0.171    0.436
  562.220    6.352  231.100  108.640    0.172    0.423
  562.470    6.352  231.110  111.582    0.147    0.423
  562.720    6.351  230.707  116.727    0.147    0.430
  562.970    6.339  229.994  115.143    0.165    0.441
  563.220    6.361  229.590  108.421    0.162    0.431
  563.470    6.384  229.288  105.429    0.152    0.439
  563.720    6.395  229.299  107.393    0.132    0.454
  563.970    6.406  229.309  111.070    0.131    0.463
  564.220    6.394  229.526  113.828    0.142    0.471
  564.470    6.347  229.641  115.670    0.157    0.471
  564.720    6.300  229.861  114.513    0.173    0.446
  564.970    6.276  230.179  113.113    0.172    0.426
  565.220    6.264  230.400  114.648    0.163    0.436
  565.470    6.275  230.304  119.671    0.154    0.446
  565.720    6.309  230.419  121.328    0.167    0.454
  565.970    6.378  230.325  119.072    0.158    0.438
  566.220    6.436  230.337  116.202    0.151    0.431
  566.470    6.494  230.141  113.578    0.167    0.428
  566.720    6.577  230.150  109.363    0.193    0.416
  566.970    6.673  229.850  104.721    0.181    0.413
  567.220    6.697  229.757  101.362    0.168    0.428
  567.470    6.733  229.456  104.182    0.164    0.434
  567.720    6.770  229.054  107.798    0.161    0.423
  567.970    6.794  228.959  110.189    0.170    0.427
  568.220    6.805  228.762  110.624    0.165    0.441
  568.470    6.930  228.878  109.529    0.140    0.433
  568.720    7.227  229.824  107.027    0.159    0.420
  568.970    7.960  229.933  103.119    0.177    0.400
  569.220    8.897  230.255   97.375    0.138    0.378
  569.470    9.676  230.369   90.713    0.113    0.339
  569.720    9.999  230.275   87.721    0.079    0.318
  569.970   10.016  229.872   88.157    0.042    0.320
  570.220    9.361  229.469   91.771    0.057    0.375
  570.470    8.419  229.171   98.017    0.086    0.431
  570.720    7.261  229.489  103.834    0.111    0.439
  570.970    6.712  230.018  109.835    0.189    0.422
  571.220    6.447  230.651  111.187    0.170    0.420
  571.470    6.330  231.074  111.866    0.149    0.412
  571.720    6.294  231.292  114.748    0.132    0.416
  571.970    6.329  232.030  113.042    0.148    0.426
  572.220    6.433  232.453  108.582    0.143    0.430
  572.470    6.563  232.566  110.668    0.159    0.435
