~VERSION INFORMATION
 VERS.                 2.0:   CWLS LOG ASCII STANDARD -VERSION 2.0
 WRAP.                  NO:   ONE LINE PER DEPTH STEP
~WELL INFORMATION BLOCK
#MNEM.UNIT           DATA                    DESCRIPTION OF MNEMONIC
#---------    -------------------            -------------------------------
# Generated from Intellog Unique Number	CW_70_72/WELL/927
NULL.         -999.25                        : NULL_VALUE
WELL.         LANDBANK ET AL MITSUE 07-29    : Well_name    - WELL              
LOC .         07-29-071-02W5                 : Location     - LOCATION          
UWI .         00/07-29-071-02W5/0            : Uwi          - UNIQUE WELL ID    
ENTR.         JAYE                           : Entered      - ENTERED BY        
SRVC.         SCHLUMBERGER                   : Scn          - SERVICE COMPANY   
DATE.         25 FEB 83                      : Date         - LOG DATE          
STRT.M        400                            : top_depth    - START DEPTH       
STOP.M        630                            : bot_depth    - STOP DEPTH        
STEP.M        0.25                           : increment    - STEP LENGTH       
~CURVE INFORMATION BLOCK
#MNEM UNIT       ERCB CURVE CODE    CURVE DESCRIPTION
#-----------   ------------------   ----------------------------------
DEPT.M        00 001 00 00         : DEPTH        - DEPTH                       
DPHI.V/V      00 890 00 00         : PHID         - DENSITY POROSITY (SANDSTONE)
NPHI.V/V      00 330 00 00         : PHIN         - NEUTRON POROSITY (SANDSTONE)
GR  .API      00 310 00 00         : GR           - GAMMA RAY                   
CALI.MM       00 280 01 00         : CAL          - CALIPER                     
ILD .OHMM     00 120 00 00         : RESD         - DEEP RESISTIVITY (DIL)      
~PARAMETER INFORMATION       
#MNEM.UNIT           DATA             DESCRIPTION OF MNEMONIC
#---------         -----------     ------------------------------
GL  .M        592.56               : gl           - GROUND LEVEL ELEVATION      
EREF.M        596.21               : kb           - ELEVATION OF DEPTH REFERENCE
DATM.M        592.56               : datum        - DATUM ELEVATION             
TDD .M        649                  : tdd          - TOTAL DEPTH DRILLER         
RUN .         ONE                  : Run          - RUN NUMBER                  
ENG .         WRIGHT               : Engineer     - RECORDING ENGINEER          
WIT .         SMITH                : Witness      - WITNESSED BY                
BASE.         EDM                  : Branch       - HOME BASE OF LOGGING UNIT   
MUD .         GEL CHEM             : Mud_type     - MUD TYPE                    
MATR.         SANDSTONE            : Logunit      - NEUTRON MATRIX              
TMAX.C        35.6                 : BHT          - MAXIMUM RECORDED TEMPERATURE
BHTD.M        650                  : BHTDEP       - MAXIMUM RECORDED TEMPERATURE
RMT .C        15.6                 : MDTP         - TEMPERATURE OF MUD          
MUDD.KG/M     1200                 : MWT          - MUD DENSITY                 
NEUT.         1                    : NEUTRON      - NEUTRON TYPE                
RESI.         0                    : RESIST       - RESISTIVITY TYPE            
RM  .OHMM     6.49                 : RM           - RESISTIVITY OF MUD          
RMC .OHMM     0                    : RMC          - RESISTIVITY OF MUD CAKE     
RMF .OHMM     5.45                 : RMF          - RESISTIVITY OF MUD FILTRATE 
SUFT.C        0                    : SUFT         - SURFACE TEMPERATURE         
~A  DEPTH     PHID     PHIN       GR      CAL     RESD
# ...
  473.000    0.324    0.397   57.121  165.148    2.327
  473.250    0.327    0.409   56.810  164.938    2.331
  473.500    0.329    0.412   56.992  164.830    2.331
  473.750    0.333    0.417   57.174  164.619    2.326
  474.000    0.336    0.418   56.986  164.615    2.318
  474.250    0.331    0.406   56.798  164.610    2.314
  474.500    0.318    0.386   56.980  164.605    2.305
  474.750    0.326    0.389   57.840  164.600    2.293
  475.000    0.329    0.396   58.946  164.595    2.293
  475.250    0.322    0.408   60.484  164.591    2.302
  475.500    0.321    0.412   61.097  164.585    2.319
  475.750    0.331    0.418   61.464  164.786    2.323
  476.000    0.333    0.414   61.707  165.192    2.467
  476.250    0.331    0.413   61.396  165.393    2.823
  476.500    0.333    0.422   59.236  165.490    3.442
  476.750    0.322    0.430   55.659  165.690    4.097
  477.000    0.241    0.361   51.835  167.226    4.653
  477.250    0.132    0.267   46.163  168.660    4.097
  477.500    0.101    0.212   49.919  165.470    3.482
  477.750    0.170    0.239   52.319  162.898    3.061
  478.000    0.255    0.296   53.549  160.633    2.645
  478.250    0.299    0.390   55.580  159.909    2.360
  478.500    0.316    0.401   57.918  159.697    2.278
  478.750    0.323    0.407   59.949  159.693    2.308
  479.000    0.323    0.417   62.658  159.995    2.370
  479.250    0.310    0.411   63.271  159.990    2.428
  479.500    0.316    0.405   60.495  159.985    2.502
  479.750    0.336    0.410   58.890  160.186    2.599
  480.000    0.356    0.429   59.688  160.285    2.668
  480.250    0.346    0.450   62.458  160.486    2.717
  480.500    0.312    0.468   66.091  160.788    2.800
  480.750    0.297    0.449   66.519  161.091    2.853
  481.000    0.283    0.415   65.407  161.291    2.929
  481.250    0.291    0.403   64.541  161.288    2.968
  481.500    0.297    0.412   63.860  161.384    2.995
  481.750    0.285    0.398   62.810  161.483    3.030
  482.000    0.267    0.401   61.821  161.682    3.052
  482.250    0.277    0.410   61.694  161.678    3.070
  482.500    0.292    0.416   62.000  161.775    3.070
  482.750    0.295    0.408   63.044  161.874    3.123
  483.000    0.292    0.404   64.582  161.868    3.248
  483.250    0.284    0.407   66.798  161.555    3.416
  483.500    0.260    0.376   70.615  161.344    3.614
  483.750    0.240    0.351   73.447  161.135    3.696
  484.000    0.234    0.345   68.329  161.026    3.567
  484.250    0.239    0.390   61.486  161.022    3.147
  484.500    0.267    0.424   56.430  161.119    2.694
  484.750    0.294    0.432   54.269  161.012    2.316
  485.000    0.330    0.429   55.253  160.905    2.101
  485.250    0.333    0.416   57.407  161.001    2.105
  485.500    0.315    0.416   59.499  160.997    2.286
  485.750    0.310    0.419   59.681  160.993    2.501
  486.000    0.315    0.422   58.569  161.295    2.712
  486.250    0.318    0.416   60.723  161.394    2.884
  486.500    0.295    0.371   63.123  161.799    3.080
  486.750    0.226    0.343   63.058  161.896    3.264
  487.000    0.240    0.333   61.946  162.405    3.356
  487.250    0.271    0.398   62.559  162.502    3.138
  487.500    0.303    0.415   63.850  162.396    2.890
  487.750    0.315    0.403   66.313  162.390    2.618
  488.000    0.319    0.420   66.556  162.282    2.598
  488.250    0.322    0.444   62.794  162.484    2.677
  488.500    0.322    0.456   62.606  162.684    2.779
  488.750    0.311    0.440   63.466  162.679    2.897
  489.000    0.282    0.413   65.188  162.674    3.007
  489.250    0.258    0.392   67.774  162.669    3.123
  489.500    0.280    0.412   69.558  162.664    3.182
  489.750    0.313    0.435   70.541  162.659    3.211
  490.000    0.306    0.466   71.832  162.449    3.242
  490.250    0.302    0.463   73.555  160.287    3.292
  490.500    0.305    0.459   76.695  158.536    3.328
  490.750    0.275    0.446   82.115  167.570    3.411
  491.000    0.208    0.416   84.392  169.721    3.508
  491.250    0.196    0.402   82.602  170.333    3.615
  491.500    0.190    0.407   85.927  170.841    3.697
  491.750    0.198    0.420   91.101  171.145    3.767
  492.000    0.192    0.424   93.501  171.961    3.846
  492.250    0.174    0.407   92.573  172.675    3.919
  492.500    0.174    0.417   92.632  173.389    3.986
  492.750    0.177    0.429   92.444  173.795    4.037
  493.000    0.175    0.427   91.702  174.201    4.100
  493.250    0.167    0.400   88.741  174.196    4.161
  493.500    0.155    0.389   89.169  174.087    4.249
  493.750    0.141    0.396   91.570  173.877    4.329
  494.000    0.146    0.404   92.922  173.871    4.361
  494.250    0.168    0.413   96.309  173.971    4.370
  494.500    0.172    0.419   93.287  173.761    4.371
  494.750    0.165    0.420   89.709  173.447    4.156
  495.000    0.161    0.413   88.597  172.620    3.935
  495.250    0.162    0.405   88.902  172.205    2.928
  495.500    0.166    0.416   89.762  171.994    2.584
  495.750    0.179    0.444   93.087  172.401    2.503
  496.000    0.212    0.502   95.487  173.012    2.569
  496.250    0.233    0.522   93.697  173.623    2.760
  496.500    0.216    0.472   92.462  173.515    2.946
  496.750    0.195    0.446   88.021  172.586    3.157
  497.000    0.216    0.434   80.438  170.424    3.371
  497.250    0.270    0.450   69.774  165.386    3.559
  497.500    0.417    0.516   57.446  161.170    3.696
  497.750    0.454    0.585   64.037  161.166    3.766
  498.000    0.368    0.518   69.087  164.139    3.759
  498.250    0.263    0.452   68.961  167.318    3.527
  498.500    0.292    0.460   66.061  164.848    3.106
  498.750    0.308    0.453   64.702  159.810    2.720
  499.000    0.324    0.423   64.083  158.470    2.477
  499.250    0.329    0.428   64.204  158.259    2.347
  499.500    0.326    0.429   64.447  157.946    2.290
  499.750    0.329    0.418   63.705  157.633    2.260
  500.000    0.337    0.428   62.654  157.218    2.244
  500.250    0.327    0.441   61.727  157.110    2.232
  500.500    0.323    0.433   59.505  156.796    2.244
  500.750    0.326    0.426   58.886  156.791    2.223
  501.000    0.329    0.428   59.807  157.094    2.190
  501.250    0.326    0.424   61.283  157.089    2.166
  501.500    0.324    0.414   62.143  156.776    2.131
  501.750    0.327    0.402   61.955  156.668    2.102
  502.000    0.339    0.419   61.521  156.767    2.072
  502.250    0.339    0.444   60.039  156.967    2.056
  502.500    0.336    0.438   59.112  157.064    2.037
  502.750    0.339    0.411   59.478  157.265    2.034
  503.000    0.332    0.404   62.002  157.569    2.030
  503.250    0.321    0.422   63.971  157.768    2.026
  503.500    0.318    0.449   64.091  157.969    2.019
  503.750    0.321    0.432   64.088  157.964    2.019
  504.000    0.328    0.422   63.900  157.960    2.027
  504.250    0.326    0.433   63.466  158.160    2.049
  504.500    0.322    0.424   62.354  158.257    2.065
  504.750    0.324    0.417   58.592  158.458    2.085
  505.000    0.324    0.408   58.650  158.761    2.101
  505.250    0.321    0.407   60.804  158.962    2.105
  505.500    0.315    0.437   62.773  159.060    2.101
  505.750    0.314    0.451   64.311  159.363    2.101
  506.000    0.318    0.440   64.555  159.460    2.094
  506.250    0.327    0.427   60.731  159.455    2.086
  506.500    0.336    0.415   59.619  159.553    2.070
  506.750    0.339    0.401   58.999  159.549    2.062
  507.000    0.345    0.407   60.291  159.544    2.051
  507.250    0.327    0.410   63.369  159.642    2.051
  507.500    0.333    0.415   63.243  159.431    2.047
  507.750    0.344    0.434   57.139  158.706    2.048
  508.000    0.352    0.427   58.800  157.367    2.064
  508.250    0.349    0.442   62.309  156.232    2.082
  508.500    0.342    0.468   62.984  155.817    2.103
  508.750    0.338    0.451   62.673  155.914    2.122
  509.000    0.335    0.434   63.163  156.525    2.138
  509.250    0.337    0.426   61.003  157.650    2.142
