~VERSION INFORMATION
 VERS.                 2.0:   CWLS LOG ASCII STANDARD -VERSION 2.0
 WRAP.                  NO:   ONE LINE PER DEPTH STEP
~WELL INFORMATION BLOCK
#MNEM.UNIT           DATA                    DESCRIPTION OF MNEMONIC
#---------    -------------------            -------------------------------
# Generated from Intellog Unique Number	CW_70_72/WELL/185
NULL.         -999.25                        : NULL_VALUE
WELL.         GLOBAL ET AL CALLS 02-22       : Well_name    - WELL              
LOC .         02-22-071-22W4                 : Location     - LOCATION          
UWI .         00/02-22-071-22W4/0            : Uwi          - UNIQUE WELL ID    
ENTR.         JAYE                           : Entered      - ENTERED BY        
SRVC.         SCHLUMBERGER                   : Scn          - SERVICE COMPANY   
DATE.         22 FEB 81                      : Date         - LOG DATE          
STRT.M        410                            : top_depth    - START DEPTH       
STOP.M        605                            : bot_depth    - STOP DEPTH        
STEP.M        0.25                           : increment    - STEP LENGTH       
~CURVE INFORMATION BLOCK
#MNEM UNIT       ERCB CURVE CODE    CURVE DESCRIPTION
#-----------   ------------------   ----------------------------------
DEPT.M        00 001 00 00         : DEPTH        - DEPTH                       
DPHI.V/V      00 890 00 00         : PHID         - DENSITY POROSITY (SANDSTONE)
NPHI.V/V      00 330 00 00         : PHIN         - NEUTRON POROSITY (SANDSTONE)
GR  .API      00 310 00 00         : GR           - GAMMA RAY                   
CALI.MM       00 280 01 00         : CAL          - CALIPER                     
ILD .OHMM     00 120 00 00         : RESD         - DEEP RESISTIVITY (DIL)      
~PARAMETER INFORMATION       
#MNEM.UNIT           DATA             DESCRIPTION OF MNEMONIC
#---------         -----------     ------------------------------
GL  .M        652.55               : gl           - GROUND LEVEL ELEVATION      
EREF.M        656.1                : kb           - ELEVATION OF DEPTH REFERENCE
DATM.M        652.55               : datum        - DATUM ELEVATION             
TDD .M        660                  : tdd          - TOTAL DEPTH DRILLER         
RUN .         ONE                  : Run          - RUN NUMBER                  
ENG .         DOWNIE               : Engineer     - RECORDING ENGINEER          
WIT .         SAUNDERS             : Witness      - WITNESSED BY                
BASE.         EDSON                : Branch       - HOME BASE OF LOGGING UNIT   
MUD .         GEL CHEM             : Mud_type     - MUD TYPE                    
MATR.         SANDSTONE            : Logunit      - NEUTRON MATRIX              
TMAX.C        31.7                 : BHT          - MAXIMUM RECORDED TEMPERATURE
BHTD.M        660                  : BHTDEP       - MAXIMUM RECORDED TEMPERATURE
RMT .C        22.2                 : MDTP         - TEMPERATURE OF MUD          
MUDD.KG/M     1060                 : MWT          - MUD DENSITY                 
NEUT.         1                    : NEUTRON      - NEUTRON TYPE                
RESI.         0                    : RESIST       - RESISTIVITY TYPE            
RM  .OHMM     5.69                 : RM           - RESISTIVITY OF MUD          
RMC .OHMM     0                    : RMC          - RESISTIVITY OF MUD CAKE     
RMF .OHMM     2.56                 : RMF          - RESISTIVITY OF MUD FILTRATE 
SUFT.C        0                    : SUFT         - SURFACE TEMPERATURE         
~A  DEPTH     PHID     PHIN       GR      CAL     RESD
# ...
  556.000    0.101    0.411  102.556  164.267    5.924
  556.250    0.137    0.409  106.149  164.266    5.978
  556.500    0.157    0.414  105.405  163.955    6.008
  556.750    0.171    0.407  100.448  163.542    5.994
  557.000    0.185    0.393   97.970  162.715    6.011
  557.250    0.181    0.370  100.819  162.404    6.032
  557.500    0.164    0.359  106.271  162.404    6.051
  557.750    0.160    0.369  101.500  162.403    6.060
  558.000    0.158    0.403   97.472  162.402    6.024
  558.250    0.156    0.421   99.393  162.402    5.996
  558.500    0.153    0.407  104.659  162.504    5.959
  558.750    0.149    0.387  105.774  162.813    5.935
  559.000    0.144    0.381  102.242  163.123    5.953
  559.250    0.140    0.393  101.250  163.535    6.018
  559.500    0.137    0.399  102.117  163.844    6.083
  559.750    0.138    0.396  105.896  164.257    6.115
  560.000    0.139    0.399  111.596  164.875    6.239
  560.250    0.141    0.406  111.905  165.185    6.451
  560.500    0.142    0.368  100.566  163.945    6.848
  560.750    0.128    0.359   92.388  159.091    7.422
  561.000    0.084    0.306   85.820  157.231    8.013
  561.250    0.067    0.300   81.296  156.818    9.019
  561.500    0.070    0.318   81.296  156.507    9.903
  561.750    0.071    0.329   79.994  156.507   11.271
  562.000    0.045    0.269   73.488  156.506   12.376
  562.250    0.036    0.237   66.239  156.505   10.967
  562.500    0.029    0.279   59.733  156.505    9.410
  562.750    0.069    0.349   80.922  156.504    7.939
  563.000    0.114    0.369   92.756  156.606    6.723
  563.250    0.147    0.380   94.800  156.812    6.339
  563.500    0.143    0.391   96.225  157.225    6.289
  563.750    0.125    0.383   95.481  157.740    6.333
  564.000    0.102    0.365   93.312  158.256    6.451
  564.250    0.125    0.377   94.427  158.668    6.544
  564.500    0.149    0.373   96.657  159.184    6.766
  564.750    0.160    0.385   99.630  159.390    7.089
  565.000    0.135    0.403   98.576  159.596    7.454
  565.250    0.110    0.367   94.115  159.595    7.795
  565.500    0.082    0.332   89.034  159.491    7.835
  565.750    0.048    0.317   86.246  159.491    7.699
  566.000    0.080    0.334   91.326  159.696    7.385
  566.250    0.125    0.349   97.893  159.799    7.093
  566.500    0.124    0.366   97.025  159.798    6.790
  566.750    0.120    0.384   95.600  159.798    6.634
  567.000    0.117    0.402   96.343  160.830    6.619
  567.250    0.121    0.394   97.829  161.862    6.805
  567.500    0.129    0.379  100.369  163.100    7.211
  567.750    0.125    0.371  100.865  164.339    7.624
  568.000    0.114    0.363   94.792  165.680    8.170
  568.250    0.099    0.356   86.490  166.093    8.706
  568.500    0.080    0.334   79.674  163.304    9.120
  568.750    0.062    0.298   84.506  159.792    9.341
  569.000    0.048    0.291   89.215  157.210    8.775
  569.250    0.078    0.312   93.118  156.797    7.878
  569.500    0.121    0.340   96.215  156.589    7.127
  569.750    0.139    0.349   99.189  156.485    6.885
  570.000    0.133    0.341  101.914  156.588    6.817
  570.250    0.128    0.332  106.313  157.000    6.852
  570.500    0.133    0.335  114.987  157.309    6.862
  570.750    0.133    0.346  112.012  157.928    6.898
  571.000    0.128    0.340  106.002  158.341    6.868
  571.250    0.136    0.346  104.700  158.650    6.824
  571.500    0.144    0.362  103.337  159.062    6.808
  571.750    0.145    0.376   99.495  159.268    6.819
  572.000    0.140    0.369   94.104  159.474    6.841
  572.250    0.133    0.359   89.085  159.680    6.877
  572.500    0.122    0.348   84.686  159.989    6.885
  572.750    0.110    0.354   86.792  160.298    6.881
  573.000    0.090    0.336   88.155  160.298    6.800
  573.250    0.045    0.304   81.463  160.297    6.151
  573.500    0.030    0.327   98.501  161.122    4.895
  573.750    0.158    0.375  110.335  162.774    3.889
  574.000    0.220    0.442  116.158  164.632    3.136
  574.250    0.215    0.495  118.017  166.077    2.763
  574.500    0.221    0.515  117.706  165.560    2.788
  574.750    0.194    0.514  113.741  164.630    3.055
  575.000    0.156    0.482  106.863  164.423    3.701
  575.250    0.136    0.391   98.746  164.009    4.220
  575.500    0.118    0.374   91.868  163.492    4.940
  575.750    0.096    0.353   92.550  163.078    5.548
  576.000    0.057    0.338   97.010  162.665    6.174
  576.250    0.061    0.323  101.161  162.354    6.408
  576.500    0.104    0.340  104.444  161.940    6.030
  576.750    0.103    0.350  108.037  161.940    5.486
  577.000    0.110    0.363  112.002  162.042    5.310
  577.250    0.133    0.412  113.737  171.232    5.257
  577.500    0.165    0.414  108.408  168.856    5.635
  577.750    0.133    0.403  100.353  164.002    6.083
  578.000    0.010    0.388   92.236  161.523    6.858
  578.250   -0.011    0.294   83.252  160.490    7.894
  578.500   -0.003    0.245   78.791  160.180    8.224
  578.750    0.038    0.315   94.651  160.179    8.159
  579.000    0.081    0.353  101.838  160.488    7.765
  579.250    0.114    0.374  105.245  160.074    6.551
  579.500    0.136    0.378  107.847  159.764    6.062
  579.750    0.150    0.386  107.227  159.867    5.856
  580.000    0.147    0.403  104.439  159.866    5.637
  580.250    0.139    0.390  101.031  159.865    5.550
  580.500    0.120    0.387  100.658  160.071    5.485
  580.750    0.123    0.419   99.357  160.587    5.471
  581.000    0.134    0.416   91.612  161.206    5.511
  581.250    0.050    0.384   91.178  161.515    5.518
  581.500    0.071    0.384   98.736  161.824    5.536
  581.750    0.114    0.387  105.799  161.410    5.501
  582.000    0.156    0.397  108.215  160.790    5.406
  582.250    0.136    0.436  104.807  160.273    5.263
  582.500    0.098    0.420  103.196  160.169    5.142
  582.750    0.094    0.400  105.612  163.679    4.988
  583.000    0.147    0.392  111.435  167.396    4.892
  583.250    0.158    0.390  113.789  171.010    4.844
  583.500    0.142    0.395  104.805  172.661    4.831
  583.750    0.135    0.407  101.397  172.248    4.884
  584.000    0.129    0.418  101.520  167.910    5.117
  584.250    0.125    0.420  100.343  161.197    5.813
  584.500    0.136    0.401   97.678  159.338    6.743
  584.750    0.092    0.368   94.394  159.234    7.320
  585.000    0.054    0.312   90.924  159.646    7.627
  585.250    0.068    0.306  102.138  159.749    7.426
  585.500    0.108    0.350  110.130  159.748    7.187
  585.750    0.127    0.382  113.661  160.161    6.878
  586.000    0.147    0.402  114.714  160.883    6.424
  586.250    0.139    0.385  112.731  162.121    5.978
  586.500    0.086    0.378  106.721  162.843    5.700
  586.750    0.065    0.378  103.127  163.462    5.497
  587.000    0.074    0.384  105.109  163.771    5.431
  587.250    0.103    0.410  107.587  163.771    5.480
  587.500    0.133    0.455  109.569  163.667    5.634
  587.750    0.130    0.477  104.922  163.253    5.836
  588.000    0.079    0.445  102.939  162.736    6.302
  588.250    0.087    0.406  107.647  162.529    6.895
  588.500    0.107    0.383  110.931  162.115    7.359
  588.750    0.100    0.363  110.559  161.908    7.800
  589.000    0.103    0.355  107.460  161.701    7.974
  589.250    0.130    0.380   94.325  161.597    7.953
  589.500    0.159    0.394   72.206  161.183    7.802
  589.750    0.180    0.361   58.451  160.666    7.666
  590.000    0.170    0.291   51.449  160.253    7.407
  590.250    0.155    0.274   49.652  160.149    7.102
  590.500    0.144    0.280   51.944  159.735    6.849
  590.750    0.147    0.283   58.015  159.115    6.668
  591.000    0.144    0.276   66.627  159.011    6.589
  591.250    0.139    0.268   68.795  158.597    6.536
  591.500    0.136    0.261   69.228  158.390    6.532
  591.750    0.130    0.263   69.414  158.183    6.518
  592.000    0.121    0.272   71.706  158.285    6.564
  592.250    0.111    0.288   73.254  158.698    6.634
