~VERSION INFORMATION
 VERS.                 2.0:   CWLS LOG ASCII STANDARD -VERSION 2.0
 WRAP.                  NO:   ONE LINE PER DEPTH STEP
~WELL INFORMATION BLOCK
#MNEM.UNIT           DATA                    DESCRIPTION OF MNEMONIC
#---------    -------------------            -------------------------------
# Generated from Intellog Unique Number	CS_73_76/WELL/783
WELL.         SULPETRO BRENDA CLYDE LAKE     : Well_name    - WELL
LOC .         00/08-08-073-09W4/2            : Location     - LOCATION
UWI .         00/08-08-073-09W4/2            : Uwi          - UNIQUE WELL ID
ENTR.         SP                             : Entered      - ENTERED BY
SRVC.         SCHLUMBERGER                   : Scn          - SERVICE COMPANY
STRT.M        290                            : top_depth    - START DEPTH
STOP.M        485                            : bot_depth    - STOP DEPTH
STEP.M        0.25                           : increment    - STEP LENGTH
 NULL. -999.2500:NULL Value
~CURVE INFORMATION BLOCK
#MNEM UNIT       ERCB CURVE CODE    CURVE DESCRIPTION
#-----------   ------------------   ----------------------------------
DEPT.M        00 001 00 00         : DEPTH        - DEPTH
ILD .OHMM     00 120 00 00         : RESD         - DEEP RESISTIVITY (DIL)
DPHI.V/V      00 890 00 00         : PHID         - DENSITY POROSITY (LIMESTONE)
NPHI.V/V      00 330 00 00         : PHIN         - NEUTRON POROSITY (LIMESTONE)
GR  .API      00 310 00 00         : GR           - GAMMA RAY
~PARAMETER INFORMATION
#MNEM.UNIT           DATA             DESCRIPTION OF MNEMONIC
#---------         -----------     ------------------------------
GL  .M        662.52               : gl           - GROUND LEVEL ELEVATION
EREF.M        666.7                : kb           - ELEVATION OF DEPTH REFERENCE
DATM.M        662.52               : datum        - DATUM ELEVATION
TDD .M        497.8                : tdd          - TOTAL DEPTH DRILLER
RUN .         ONE                  : Run          - RUN NUMBER
ENG .         BILL                 : Engineer     - RECORDING ENGINEER
WIT .         JIM                  : Witness      - WITNESSED BY
MUD .         GEL                  : Mud_type     - MUD TYPE
MATR.         LIMESTONE            : Logunit      - NEUTRON MATRIX
TMAX.C        21                   : BHT          - MAXIMUM RECORDED TEMPERATURE
BHTD.M        497.8                : BHTDEP       - MAXIMUM RECORDED TEMPERATURE
MATR.         1                    : LOGUNIT      - NEUTRON MATRIX
RMT .C        25                   : MDTP         - TEMPERATURE OF MUD
NEUT.         1                    : NEUTRON      - NEUTRON TYPE
RESI.         0                    : RESIST       - RESISTIVITY TYPE
RMC .OHMM     0.25                 : RMC          - RESISTIVITY OF MUD CAKE
RMF .OHMM     0.25                 : RMF          - RESISTIVITY OF MUD FILTRATE
SUFT.C        15                   : SUFT         - SURFACE TEMPERATURE
~A  DEPTH     RESD     PHID     PHIN       GR
# ...
  377.000   13.590    0.329    0.404   77.195
  377.250   13.338    0.331    0.421   78.980
  377.500   13.332    0.317    0.432   78.354
  377.750   13.330    0.317    0.413   75.307
  378.000   13.575    0.311    0.404   72.863
  378.250   13.570    0.303    0.409   71.633
  378.500   13.567    0.297    0.400   71.611
  378.750   12.834    0.291    0.407   71.590
  379.000   11.701    0.288    0.399   72.777
  379.250   10.669    0.285    0.419   76.381
  379.500    9.375    0.282    0.436   83.006
  379.750    8.392    0.278    0.437   86.008
  380.000    7.794    0.261    0.434   87.196
  380.250    7.509    0.255    0.422   88.379
  380.500    7.508    0.246    0.401   90.162
  380.750    7.645    0.240    0.384   90.149
  381.000    8.077    0.232    0.369   88.917
  381.250    8.533    0.234    0.377   86.475
  381.500    8.689    0.238    0.391   82.825
  381.750    8.528    0.245    0.404   77.352
  382.000    7.920    0.248    0.431   81.556
  382.250    7.632    0.237    0.440   83.959
  382.500    7.490    0.235    0.452   86.958
  382.750    7.769    0.241    0.461   87.547
  383.000    8.361    0.252    0.468   83.896
  383.250    9.508    0.255    0.445   80.239
  383.500    8.831    0.255    0.411   79.614
  383.750    6.822    0.250    0.387   82.611
  384.000    5.269    0.246    0.398   89.245
  384.250    4.071    0.232    0.501  102.522
  384.500    3.448    0.227    0.536  108.552
  384.750    3.143    0.226    0.512  114.575
  385.000    3.029    0.252    0.487  106.684
  385.250    2.973    0.267    0.453  102.431
  385.500    2.972    0.256    0.454  106.635
  385.750    3.083    0.240    0.486  107.827
  386.000    3.506    0.239    0.504  100.546
  386.250    3.773    0.247    0.488   89.036
  386.500    4.452    0.253    0.483   82.355
  386.750    5.157    0.258    0.493   82.942
  387.000    5.550    0.262    0.503   81.101
  387.250    6.670    0.260    0.497   81.076
  387.500    7.312    0.258    0.482   82.267
  387.750    7.870    0.251    0.479   83.445
  388.000    7.866    0.241    0.464   82.826
  388.250    7.865    0.245    0.432   81.585
  388.500    7.718    0.257    0.418   79.751
  388.750    7.717    0.260    0.432   78.522
  389.000    7.574    0.250    0.428   79.710
  389.250    7.571    0.227    0.446   82.097
  389.500    7.710    0.223    0.461   82.688
  389.750    7.852    0.214    0.401   80.848
  390.000    8.606    0.175    0.333   74.779
  390.250    8.927    0.093    0.292   65.676
  390.500    9.259    0.048    0.276   60.823
  390.750    9.604    0.149    0.343   65.633
  391.000   10.146    0.204    0.383   73.473
  391.250   10.333    0.252    0.406   79.495
  391.500    9.775    0.278    0.397   82.502
  391.750    8.432    0.272    0.396   83.686
  392.000    7.977    0.268    0.407   84.262
  392.250    7.408    0.251    0.389   86.044
  392.500    7.138    0.239    0.393   87.239
  392.750    6.877    0.229    0.383   89.638
  393.000    6.750    0.221    0.379   91.429
  393.250    6.626    0.206    0.388   92.604
  393.500    6.502    0.196    0.396   93.795
  393.750    6.500    0.190    0.411   94.380
  394.000    6.499    0.188    0.417   94.960
  394.250    6.497    0.194    0.427   93.735
  394.500    6.495    0.217    0.404   90.686
  394.750    6.494    0.225    0.392   90.052
  395.000    6.491    0.212    0.391   90.644
  395.250    6.489    0.195    0.392   93.039
  395.500    6.488    0.190    0.407   95.430
  395.750    6.486    0.192    0.433   96.620
  396.000    6.604    0.187    0.451   96.593
  396.250    6.851    0.177    0.459   91.733
  396.500    7.792    0.168    0.256   82.037
  396.750    8.541    0.129    0.220   69.310
  397.000    8.538    0.007    0.183   60.824
  397.250    8.380    0.070    0.266   65.028
  397.500    8.378    0.132    0.367   78.913
  397.750    7.638    0.158    0.385   87.969
  398.000    7.360    0.170    0.383   99.436
  398.250    6.961    0.180    0.368   99.403
  398.500    6.833    0.184    0.388  100.595
  398.750    6.707    0.190    0.401  102.385
  399.000    6.582    0.194    0.414  104.784
  399.250    6.581    0.186    0.412  105.366
  399.500    6.459    0.180    0.402  104.126
  399.750    6.339    0.189    0.393  102.294
  400.000    6.337    0.196    0.372  100.450
  400.250    6.336    0.187    0.364   99.828
  400.500    6.333    0.173    0.375  100.405
  400.750    6.217    0.167    0.388  102.802
  401.000    5.881    0.163    0.399  106.410
  401.250    4.627    0.178    0.411  110.620
  401.500    3.574    0.200    0.416  113.624
  401.750    3.027    0.219    0.440  116.019
  402.000    2.660    0.238    0.448  115.993
  402.250    2.471    0.227    0.463  114.764
  402.500    2.295    0.224    0.475  111.095
  402.750    2.424    0.229    0.461  108.651
  403.000    2.514    0.234    0.456  107.425
  403.250    2.859    0.216    0.459  105.595
  403.500    3.135    0.209    0.436  103.764
  403.750    3.837    0.200    0.436  100.711
  404.000    4.055    0.197    0.423   98.269
  404.250    4.697    0.197    0.406   97.639
  404.500    5.055    0.201    0.407   96.400
  404.750    5.243    0.208    0.410   95.781
  405.000    5.339    0.220    0.417   95.157
  405.250    5.337    0.232    0.420   96.338
  405.500    5.335    0.241    0.422   96.318
  405.750    5.335    0.227    0.421   92.058
  406.000    5.432    0.221    0.418   88.408
  406.250    5.738    0.201    0.410   89.592
  406.500    5.844    0.200    0.404   90.775
  406.750    5.951    0.212    0.395   91.362
  407.000    5.949    0.235    0.412   91.341
  407.250    5.948    0.247    0.431   90.106
  407.500    5.837    0.264    0.433   88.871
  407.750    5.835    0.268    0.438   88.844
  408.000    5.834    0.257    0.440   89.428
  408.250    5.832    0.247    0.444   90.008
  408.500    5.939    0.230    0.442   91.203
  408.750    5.938    0.218    0.422   92.386
  409.000    6.045    0.212    0.401   91.763
  409.250    6.044    0.224    0.389   90.531
  409.500    6.042    0.232    0.380   88.084
  409.750    6.040    0.244    0.386   84.430
  410.000    6.039    0.258    0.392   80.170
  410.250    6.038    0.262    0.400   78.341
  410.500    5.926    0.261    0.415   75.898
  410.750    5.924    0.260    0.429   77.685
  411.000    5.923    0.254    0.428   79.479
  411.250    5.920    0.250    0.436   80.062
  411.500    5.811    0.247    0.454   84.266
  411.750    5.809    0.238    0.433   90.892
  412.000    5.808    0.225    0.417   94.506
  412.250    5.700    0.209    0.389   98.718
  412.500    5.698    0.202    0.372   98.689
  412.750    5.593    0.203    0.365   96.242
  413.000    5.591    0.206    0.364   95.017
  413.250    5.488    0.202    0.368   94.991
  413.500    5.386    0.199    0.380   95.569
  413.750    5.190    0.202    0.386   94.951
  414.000    5.001    0.218    0.385   93.109
  414.250    5.000    0.233    0.402   90.671
  414.500    5.186    0.241    0.422   86.409
  414.750    5.378    0.247    0.438   85.784
  415.000    5.477    0.234    0.450   88.782
  415.250    5.475    0.228    0.465   91.782
  415.500    5.474    0.251    0.466   91.153
  415.750    5.472    0.262    0.464   88.108
  416.000    5.571    0.269    0.438   82.638
  416.250    5.673    0.255    0.415   81.414
  416.500    5.672    0.250    0.405   82.594
  416.750    5.776    0.249    0.397   83.181
  417.000    5.775    0.260    0.391   81.947
  417.250    5.773    0.260    0.401   79.507
  417.500    5.772    0.255    0.413   80.087
  417.750    5.877    0.253    0.412   81.867
  418.000    5.875    0.252    0.404   83.058
  418.250    5.874    0.250    0.395   84.250
  418.500    5.981    0.244    0.395   85.425
  418.750    5.979    0.244    0.407   85.413
  419.000    6.089    0.244    0.419   83.577
  419.250    6.201    0.243    0.412   81.739
  419.500    6.314    0.239    0.389   83.529
  419.750    6.429    0.236    0.374   84.711
  420.000    6.428    0.230    0.369   85.295
  420.250    6.546    0.227    0.390   85.269
