~VERSION INFORMATION
 VERS.                 2.0:   CWLS LOG ASCII STANDARD -VERSION 2.0
 WRAP.                  NO:   ONE LINE PER DEPTH STEP
~WELL INFORMATION BLOCK
#MNEM.UNIT           DATA                    DESCRIPTION OF MNEMONIC
#---------    -------------------            -------------------------------
# Generated from Intellog Unique Number	CX_WELLS/WELL/3294
WELL.         NEWBY                          : Well_name    - WELL
LOC .         00/09-32-084-05W4/0            : Location     - LOCATION
UWI .         00/09-32-084-05W400            : Uwi          - UNIQUE WELL ID
ENTR.         T                              : Entered      - ENTERED BY
SRVC.         SCHLUMBERGER                   : Scn          - SERVICE COMPANY
STRT.M        80                             : top_depth    - START DEPTH
STOP.M        280                            : bot_depth    - STOP DEPTH
STEP.M        0.25                           : increment    - STEP LENGTH
 NULL. -999.2500:NULL Value
~CURVE INFORMATION BLOCK
#MNEM UNIT       ERCB CURVE CODE    CURVE DESCRIPTION
#-----------   ------------------   ----------------------------------
DEPT.M        00 001 00 00         : DEPTH        - DEPTH
GR  .API      00 310 00 00         : GR           - GAMMA RAY
NPHI.V/V      00 330 00 00         : PHIN         - NEUTRON POROSITY (SANDSTONE)
DPHI.V/V      00 890 00 00         : PHID         - DENSITY POROSITY (SANDSTONE)
ILD .OHMM     00 120 00 00         : RESD         - DEEP RESISTIVITY (DIL)
~PARAMETER INFORMATION
#MNEM.UNIT           DATA             DESCRIPTION OF MNEMONIC
#---------         -----------     ------------------------------
GL  .M        454.8                : gl           - GROUND LEVEL ELEVATION
EREF.M        458.3                : kb           - ELEVATION OF DEPTH REFERENCE
DATM.M        458.3                : datum        - DATUM ELEVATION
TDD .M        294                  : tdd          - TOTAL DEPTH DRILLER
RUN .         ONE                  : Run          - RUN NUMBER
ENG .         BILL                 : Engineer     - RECORDING ENGINEER
WIT .         JIM                  : Witness      - WITNESSED BY
MUD .         GEL                  : Mud_type     - MUD TYPE
MATR.         SANDSTONE            : Logunit      - NEUTRON MATRIX
TMAX.C        26                   : BHT          - MAXIMUM RECORDED TEMPERATURE
BHTD.M        294                  : BHTDEP       - MAXIMUM RECORDED TEMPERATURE
MATR.         1                    : LOGUNIT      - NEUTRON MATRIX
RMT .C        16                   : MDTP         - TEMPERATURE OF MUD
NEUT.         1                    : NEUTRON      - NEUTRON TYPE
RESI.         4.8                  : RESIST       - RESISTIVITY TYPE
RMC .OHMM     4                    : RMC          - RESISTIVITY OF MUD CAKE
RMF .OHMM     3.5                  : RMF          - RESISTIVITY OF MUD FILTRATE
SUFT.C        4                    : SUFT         - SURFACE TEMPERATURE
~A  DEPTH       GR     PHIN     PHID     RESD
# ...
  167.000   97.248    0.384    0.269    6.694
  167.250   95.591    0.364    0.265    6.834
  167.500   95.047    0.351    0.264    7.115
  167.750   93.981    0.359    0.274    7.264
  168.000   92.892    0.368    0.291    7.708
  168.250   92.963    0.356    0.381    8.337
  168.500   92.490    0.278    0.410    9.730
  168.750   92.560    0.215    0.447   17.270
  169.000   92.063    0.174    0.396   20.543
  169.250   90.383    0.170    0.285   21.388
  169.500   86.336    0.218    0.281   19.875
  169.750   80.514    0.261    0.281   17.760
  170.000   78.881    0.289    0.277   14.165
  170.250   80.135    0.300    0.273   11.291
  170.500   80.797    0.332    0.273    9.005
  170.750   79.732    0.344    0.291    7.461
  171.000   76.253    0.308    0.286    6.304
  171.250   71.615    0.303    0.270    6.192
  171.500   65.201    0.303    0.263    6.704
  171.750   61.770    0.303    0.302    7.114
  172.000   61.864    0.295    0.331    7.126
  172.250   62.550    0.269    0.348    7.146
  172.500   64.419    0.255    0.345    7.023
  172.750   66.856    0.257    0.314    6.775
  173.000   76.440    0.271    0.296    6.662
  173.250   81.267    0.295    0.258    6.428
  173.500   80.226    0.330    0.241    6.205
  173.750   77.338    0.352    0.222    6.215
  174.000   72.700    0.370    0.212    6.108
  174.250   69.221    0.394    0.212    6.007
  174.500   73.457    0.432    0.211    5.906
  174.750   80.697    0.453    0.214    5.808
  175.000   81.951    0.454    0.225    5.821
  175.250   78.496    0.451    0.224    5.834
  175.500   75.064    0.450    0.224    5.850
  175.750   76.342    0.449    0.228    5.750
  176.000   78.188    0.449    0.230    5.772
  176.250   90.161    0.448    0.229    5.669
  176.500   91.439    0.434    0.225    5.679
  176.750   93.923    0.413    0.220    5.584
  177.000   96.975    0.395    0.216    5.391
  177.250   98.821    0.380    0.213    5.298
  177.500   98.347    0.380    0.212    4.923
  177.750   96.099    0.380    0.211    4.747
  178.000   95.555    0.377    0.212    4.244
  178.250   95.105    0.372    0.213    3.870
  178.500   95.199    0.367    0.216    3.460
  178.750   94.725    0.363    0.219    3.211
  179.000   94.181    0.364    0.220    2.871
  179.250   93.683    0.364    0.228    2.567
  179.500   94.393    0.367    0.240    2.430
  179.750   95.647    0.368    0.262    2.303
  180.000   96.925    0.369    0.290    2.304
  180.250   98.226    0.368    0.302    2.354
  180.500   97.729    0.365    0.291    2.597
  180.750   97.870    0.355    0.277    2.755
  181.000   97.917    0.345    0.251    3.093
  181.250   98.035    0.351    0.230    3.616
  181.500   98.130    0.363    0.229    3.764
  181.750   97.632    0.372    0.226    3.843
  182.000   95.928    0.362    0.223    4.001
  182.250   78.866    0.351    0.230    4.010
  182.500   71.246    0.343    0.229    4.017
  182.750   63.650    0.336    0.227    4.026
  183.000   59.579    0.340    0.231    4.039
  183.250   72.121    0.348    0.240    4.044
  183.500   80.521    0.358    0.243    4.053
  183.750   86.555    0.366    0.243    3.987
  184.000   86.058    0.370    0.240    3.921
  184.250   83.171    0.373    0.235    3.927
  184.500   77.373    0.378    0.230    3.938
  184.750   80.401    0.383    0.223    3.945
  185.000   84.661    0.388    0.213    3.958
  185.250   83.572    0.389    0.207    3.965
  185.500   81.891    0.387    0.210    3.971
  185.750   80.211    0.381    0.229    3.834
  186.000   80.329    0.377    0.239    3.697
  186.250   80.423    0.368    0.243    3.567
  186.500   79.311    0.368    0.243    3.441
  186.750   78.246    0.368    0.240    3.384
  187.000   81.322    0.364    0.237    3.266
  187.250   84.350    0.362    0.245    3.212
  187.500   89.769    0.365    0.273    3.155
  187.750   96.395    0.367    0.284    3.044
  188.000   98.879    0.370    0.268    2.937
  188.250   85.934    0.352    0.254    2.833
  188.500   83.047    0.351    0.254    2.733
  188.750   77.841    0.356    0.267    2.637
  189.000   74.977    0.362    0.282    2.499
  189.250   76.278    0.361    0.299    2.455
  189.500   77.532    0.357    0.309    2.324
  189.750   79.449    0.352    0.301    2.242
  190.000   80.087    0.343    0.293    2.163
  190.250   76.632    0.340    0.289    2.087
  190.500   70.219    0.335    0.288    1.975
  190.750   74.478    0.335    0.288    1.942
  191.000   71.591    0.333    0.291    1.840
  191.250   62.788    0.333    0.305    1.810
  191.500   52.825    0.337    0.309    1.779
  191.750   46.980    0.340    0.302    1.818
  192.000   44.731    0.347    0.292    1.821
  192.250   48.375    0.351    0.283    1.861
  192.500   53.794    0.353    0.270    1.863
  192.750   61.626    0.358    0.266    1.870
  193.000   59.354    0.358    0.276    1.872
  193.250   57.650    0.358    0.286    1.841
  193.500   53.627    0.357    0.305    1.845
  193.750   51.355    0.357    0.319    1.849
  194.000   50.242    0.358    0.314    1.819
  194.250   49.745    0.362    0.304    1.788
  194.500   52.206    0.363    0.295    1.758
  194.750   55.258    0.363    0.285    1.696
  195.000   56.536    0.360    0.277    1.668
  195.250   56.038    0.356    0.272    1.671
  195.500   53.767    0.351    0.282    1.809
  195.750   51.494    0.346    0.294    1.812
  196.000   52.204    0.346    0.284    1.887
  196.250   55.848    0.345    0.272    1.857
  196.500   60.675    0.344    0.278    1.859
  196.750   65.549    0.344    0.303    1.761
  197.000   67.419    0.342    0.311    1.636
  197.250   69.879    0.342    0.324    1.607
  197.500   73.547    0.342    0.328    1.550
  197.750   68.861    0.343    0.323    1.525
  198.000   55.941    0.344    0.316    1.528
  198.250   53.100    0.346    0.304    1.531
  198.500   53.195    0.346    0.295    1.564
  198.750   50.331    0.345    0.279    1.599
  199.000   45.078    0.341    0.285    1.602
  199.250   41.599    0.336    0.312    1.635
  199.500   41.693    0.332    0.327    1.639
  199.750   43.586    0.329    0.317    1.642
  200.000   46.047    0.333    0.289    1.646
  200.250   47.324    0.337    0.273    1.651
  200.500   46.850    0.341    0.296    1.654
  200.750   45.170    0.343    0.299    1.658
  201.000   40.508    0.343    0.295    1.629
  201.250   35.870    0.345    0.298    1.574
  201.500   35.964    0.347    0.313    1.576
  201.750   41.406    0.351    0.315    1.549
  202.000   47.440    0.354    0.316    1.468
  202.250   51.061    0.356    0.316    1.470
  202.500   55.320    0.360    0.314    1.418
  202.750   57.781    0.368    0.312    1.368
  203.000   56.692    0.377    0.304    1.321
  203.250   51.485    0.377    0.305    1.323
  203.500   48.006    0.368    0.317    1.326
  203.750   45.758    0.361    0.326    1.354
  204.000   45.237    0.357    0.326    1.358
  204.250   44.195    0.355    0.327    1.387
  204.500   44.266    0.356    0.328    1.417
  204.750   43.745    0.356    0.329    1.447
  205.000   42.704    0.362    0.330    1.479
  205.250   42.183    0.369    0.330    1.481
  205.500   41.070    0.372    0.331    1.514
  205.750   39.414    0.365    0.332    1.516
  206.000   37.733    0.358    0.333    1.492
  206.250   36.668    0.352    0.334    1.494
  206.500   36.123    0.356    0.335    1.499
  206.750   35.650    0.363    0.331    1.503
  207.000   35.768    0.360    0.323    1.535
  207.250   35.247    0.359    0.305    1.566
  207.500   35.389    0.356    0.273    1.600
  207.750   35.436    0.355    0.236    1.700
  208.000   35.554    0.353    0.196    1.703
  208.250   37.446    0.348    0.247    1.644
  208.500   38.085    0.347    0.275    1.615
  208.750   41.138    0.345    0.268    1.587
  209.000   46.580    0.351    0.278    1.531
  209.250   50.839    0.361    0.296    1.450
  209.500   52.708    0.373    0.311    1.426
  209.750   46.271    0.379    0.309    1.375
  210.000   43.408    0.383    0.311    1.379
  210.250   50.625    0.384    0.321    1.383
