~VERSION INFORMATION
 VERS.                 2.0:   CWLS LOG ASCII STANDARD -VERSION 2.0
 WRAP.                  NO:   ONE LINE PER DEPTH STEP
~WELL INFORMATION BLOCK
#MNEM.UNIT           DATA                    DESCRIPTION OF MNEMONIC
#---------    -------------------            -------------------------------
# Generated from Intellog Unique Number	CW_70_72/WELL/3305
NULL.         -999.25                        : NULL_VALUE
WELL.         CHEVRON MGSU1 MITSUE           : Well_name    - WELL              
LOC .         08-24-070-04W5                 : Location     - LOCATION          
UWI .         00/08-24-070-04W5/0            : Uwi          - UNIQUE WELL ID    
ENTR.         CAMPBELL                       : Entered      - ENTERED BY        
SRVC.         WESTERN ATLAS                  : Scn          - SERVICE COMPANY   
DATE.         18 DEC. 1983                   : Date         - LOG DATE          
STRT.M        655                            : top_depth    - START DEPTH       
STOP.M        815                            : bot_depth    - STOP DEPTH        
STEP.M        0.25                           : increment    - STEP LENGTH       
~CURVE INFORMATION BLOCK
#MNEM UNIT       ERCB CURVE CODE    CURVE DESCRIPTION
#-----------   ------------------   ----------------------------------
DEPT.M        00 001 00 00         : DEPTH        - DEPTH                       
CALI.MM       00 280 01 00         : CAL          - CALIPER                     
DELT.US/F     00 520 00 00         : DELT         - SONIC TRAVEL TIME           
GR  .API      00 310 00 00         : GR           - GAMMA RAY                   
ILD .OHMM     00 120 00 00         : RESD         - DEEP RESISTIVITY (DIL)      
~PARAMETER INFORMATION       
#MNEM.UNIT           DATA             DESCRIPTION OF MNEMONIC
#---------         -----------     ------------------------------
GL  .M        132                  : gl           - GROUND LEVEL ELEVATION      
EREF.M        138.15               : kb           - ELEVATION OF DEPTH REFERENCE
DATM.M        138.15               : datum        - DATUM ELEVATION             
TDD .M        1852.3               : tdd          - TOTAL DEPTH DRILLER         
RUN .         ONE                  : Run          - RUN NUMBER                  
ENG .         ILAMBORN             : Engineer     - RECORDING ENGINEER          
WIT .         HALAB                : Witness      - WITNESSED BY                
MUD .         GEL                  : Mud_type     - MUD TYPE                    
MATR.         SANDSTONE            : Logunit      - NEUTRON MATRIX              
TMAX.C        40                   : BHT          - MAXIMUM RECORDED TEMPERATURE
BHTD.M        1852.3               : BHTDEP       - MAXIMUM RECORDED TEMPERATURE
RMT .C        15                   : MDTP         - TEMPERATURE OF MUD          
MUDD.KG/M     1125                 : MWT          - MUD DENSITY                 
NEUT.         1                    : NEUTRON      - NEUTRON TYPE                
RESI.         0                    : RESIST       - RESISTIVITY TYPE            
RM  .OHMM     0.9                  : RM           - RESISTIVITY OF MUD          
RMC .OHMM     1.3                  : RMC          - RESISTIVITY OF MUD CAKE     
RMF .OHMM     0.75                 : RMF          - RESISTIVITY OF MUD FILTRATE 
SUFT.C        -4                   : SUFT         - SURFACE TEMPERATURE         
~A  DEPTH      CAL     DELT       GR     RESD
# ...
  785.500  279.822  343.959   72.311    5.443
  785.750  269.813  395.627   69.930    5.550
  786.000  279.420  412.014   67.846    5.403
  786.250  296.076  418.782   68.185    4.887
  786.500  313.732  400.702   70.029    4.180
  786.750  320.328  375.000   74.886    3.851
  787.000  314.839  367.340   74.928    3.819
  787.250  307.848  377.715   71.637    4.078
  787.500  301.863  394.503   70.161    4.477
  787.750  298.392  407.289   69.288    4.826
  788.000  304.988  410.049   68.714    4.742
  788.250  314.596  401.588   71.773    4.249
  788.500  320.192  385.900   73.609    3.842
  788.750  316.207  380.651   75.457    3.539
  789.000  305.191  379.002   73.985    3.382
  789.250  298.194  365.725   72.806    3.579
  789.500  288.688  340.825   74.353    4.039
  789.750  279.685  308.711   75.895    4.517
  790.000  275.208  279.725   77.739    5.390
  790.250  275.769  286.409   78.677    6.141
  790.500  276.322  264.209   77.205    6.498
  790.750  276.367  266.871   74.514    6.625
  791.000  278.436  278.760   71.529    6.632
  791.250  281.504  300.295   68.552    6.700
  791.500  286.585  312.184   68.279    6.463
  791.750  291.666  314.846   69.817    6.065
  792.000  297.249  307.479   73.472    5.850
  792.250  302.839  305.336   75.919    5.098
  792.500  305.399  308.015   75.353    4.610
  792.750  310.989  319.104   74.178    4.287
  793.000  313.058  336.216   75.117    4.173
  793.250  312.606  343.700   76.357    4.026
  793.500  309.135  362.415   78.503    4.068
  793.750  301.635  324.963   82.157    4.383
  794.000  292.625  291.534   84.605    5.182
  794.250  283.119  277.342   84.642    5.689
  794.500  268.583  269.940   73.203    6.189
  794.750  255.053  271.454   69.010    7.181
  795.000  224.642  277.720   57.438   10.605
  795.250  216.730  289.626   49.891   12.742
  795.500  211.800  300.297   43.249   13.585
  795.750  207.871  300.156   39.657   13.834
  796.000  205.455  298.030   38.179   13.831
  796.250  206.065  293.867   37.023   13.828
  796.500  207.644  290.522   36.451   13.450
  796.750  209.244  286.324   34.985   12.844
  797.000  210.355  286.218   32.900   12.041
  797.250  210.409  287.696   33.864   11.498
  797.500  210.508  290.741   35.132   10.681
  797.750  209.583  293.037   35.477    9.831
  798.000  209.169  294.898   34.929    9.049
  798.250  209.768  295.558   34.970    8.177
  798.500  211.358  296.600   35.631    7.737
  798.750  213.448  296.859   36.274    7.388
  799.000  215.549  296.736   38.763    7.120
  799.250  217.628  295.376   40.627    6.799
  799.500  220.230  292.449   42.807    6.552
  799.750  222.810  288.304   44.671    6.373
  800.000  225.400  284.523    6.000    6.085
  800.250  228.503  288.021   50.846    5.758
  800.500  232.595  290.666   54.539    5.398
  800.750  237.189  290.524   59.149    5.299
  801.000  244.285  287.981   61.322    5.249
  801.250  252.895  284.636   61.673    5.297
  801.500  261.504  282.057   60.511    5.344
  801.750  266.109  280.349   59.343    5.393
  802.000  267.208  278.188   58.789    5.441
  802.250  268.297  278.430   59.140    5.541
  802.500  269.386  280.709   59.485    5.694
  802.750  270.486  281.787   58.323    5.799
  803.000  271.552  281.663   56.840    5.851
  803.250  272.630  284.325   53.855    5.744
  803.500  275.232  298.216   51.776    5.238
  803.750  284.331  340.608   52.430    4.605
  804.000  300.951  356.520   57.338    4.200
  804.250  288.522  367.608   66.808    3.902
  804.500  272.600  378.296   70.501    3.795
  804.750  264.654  379.756   67.212    4.009
  805.000  256.220  377.631   62.697    4.354
  805.250  246.294  339.779   57.270    4.950
  805.500  237.870  308.316   52.153    5.840
  805.750  235.454  308.976   46.428    9.501
  806.000  235.542  299.625   37.970   12.983
  806.250  236.141  279.810   33.454   15.174
  806.500  237.730  282.089   39.279   15.884
  806.750  239.820  269.116   41.149   15.881
  807.000  242.922  254.542   42.411   15.878
  807.250  245.992  248.760   47.325   14.749
  807.500  250.596  258.665   53.150   13.329
  807.750  254.188  268.151   57.146   11.610
  808.000  258.292  288.485   59.927   10.021
  808.250  261.383  302.376   62.107    8.570
  808.500  265.977  302.635   64.281    7.262
  808.750  271.071  250.751   67.366    5.932
  809.000  289.694  154.714   71.362    4.890
  809.250  283.773  149.750   78.092    4.182
  809.500  268.830  151.628   76.930    4.626
  809.750  252.896  158.312   54.790    5.558
  810.000  239.476  165.797   41.465   10.475
  810.250  238.062  176.485   22.672   24.165
  810.500  238.138  183.569   11.479   35.866
  810.750  238.726  191.436   11.830   33.318
  811.000  239.804  199.721   16.434   27.213
  811.250  240.893  208.808   22.259   21.824
  811.500  241.514  217.912   25.040   18.157
  811.750  241.601  221.357   26.916   15.961
  812.000  241.166  221.616   27.874   15.525
  812.250  240.252  221.092   28.237   15.521
  812.500  238.838  219.749   28.880   16.099
  812.750  237.434  218.790   30.142   17.645
  813.000  236.019  218.248   31.404   18.812
  813.250  234.605  217.288   32.971   19.694
  813.500  232.701  216.782   32.416   20.616
  813.750  231.765  216.240   30.939   21.381
  814.000  230.862  216.082   29.467   21.575
  814.250  230.449  215.157   29.824   21.769
  814.500  230.525  213.397   32.301   21.966
  814.750  231.113  214.056   33.260   22.165
  815.000  232.213  215.534   33.009   21.957
