~VERSION INFORMATION
 VERS.                 2.0:   CWLS LOG ASCII STANDARD -VERSION 2.0
 WRAP.                  NO:   ONE LINE PER DEPTH STEP
~WELL INFORMATION BLOCK
#MNEM.UNIT           DATA                    DESCRIPTION OF MNEMONIC
#---------    -------------------            -------------------------------
# Generated from Intellog Unique Number	CS_73_76/WELL/771
WELL.         BOW VALLEY EXPLORATION         : Well_name    - WELL
LOC .         00/07-21-073-16W4/0            : Location     - LOCATION
UWI .         00/07-21-073-16W4/0            : Uwi          - UNIQUE WELL ID
ENTR.         SP                             : Entered      - ENTERED BY
SRVC.         SCHLUMBERGER                   : Scn          - SERVICE COMPANY
STRT.M        235                            : top_depth    - START DEPTH
STOP.M        439.5                          : bot_depth    - STOP DEPTH
STEP.M        0.25                           : increment    - STEP LENGTH
 NULL. -999.2500:NULL Value
~CURVE INFORMATION BLOCK
#MNEM UNIT       ERCB CURVE CODE    CURVE DESCRIPTION
#-----------   ------------------   ----------------------------------
DEPT.M        00 001 00 00         : DEPTH        - DEPTH
ILD .OHMM     00 120 00 00         : RESD         - DEEP RESISTIVITY (DIL)
DPHI.V/V      00 890 00 00         : PHID         - DENSITY POROSITY (LIMESTONE)
NPHI.V/V      00 330 00 00         : PHIN         - NEUTRON POROSITY (LIMESTONE)
GR  .API      00 310 00 00         : GR           - GAMMA RAY
~PARAMETER INFORMATION
#MNEM.UNIT           DATA             DESCRIPTION OF MNEMONIC
#---------         -----------     ------------------------------
GL  .M        570.65               : gl           - GROUND LEVEL ELEVATION
EREF.M        574.2                : kb           - ELEVATION OF DEPTH REFERENCE
DATM.M        570.65               : datum        - DATUM ELEVATION
TDD .M        448                  : tdd          - TOTAL DEPTH DRILLER
RUN .         ONE                  : Run          - RUN NUMBER
ENG .         BILL                 : Engineer     - RECORDING ENGINEER
WIT .         JIM                  : Witness      - WITNESSED BY
MUD .         GEL                  : Mud_type     - MUD TYPE
MATR.         LIMESTONE            : Logunit      - NEUTRON MATRIX
TMAX.C        21                   : BHT          - MAXIMUM RECORDED TEMPERATURE
BHTD.M        448                  : BHTDEP       - MAXIMUM RECORDED TEMPERATURE
MATR.         1                    : LOGUNIT      - NEUTRON MATRIX
RMT .C        25                   : MDTP         - TEMPERATURE OF MUD
NEUT.         1                    : NEUTRON      - NEUTRON TYPE
RESI.         0                    : RESIST       - RESISTIVITY TYPE
RMC .OHMM     0.25                 : RMC          - RESISTIVITY OF MUD CAKE
RMF .OHMM     0.25                 : RMF          - RESISTIVITY OF MUD FILTRATE
SUFT.C        15                   : SUFT         - SURFACE TEMPERATURE
~A  DEPTH     RESD     PHID     PHIN       GR
  235.000    3.429    0.188    0.461   93.978
  235.250    3.493    0.183    0.461   96.395
  235.500    3.493    0.235    0.455  100.619
  235.750    3.428    0.245    0.465  104.240
  236.000    3.302    0.229    0.474  106.057
  236.250    3.301    0.227    0.482  107.269
  236.500    3.180    0.236    0.469  108.479
  236.750    3.007    0.246    0.485  110.294
  237.000    2.951    0.255    0.486  108.494
  237.250    2.950    0.267    0.473  106.694
  237.500    2.950    0.282    0.464  112.726
  237.750    3.006    0.258    0.471  113.938
  238.000    3.062    0.214    0.475  109.729
  238.250    3.119    0.199    0.472  114.556
  238.500    3.178    0.195    0.483  117.577
  238.750    3.178    0.197    0.499  115.776
  239.000    3.177    0.206    0.466  110.360
  239.250    3.177    0.214    0.464  109.165
  239.500    3.177    0.224    0.472  109.772
  239.750    3.176    0.244    0.484  110.384
  240.000    3.236    0.255    0.490  104.366
  240.250    3.297    0.264    0.466  101.360
  240.500    3.359    0.263    0.457   97.754
  240.750    3.421    0.269    0.455   95.356
  241.000    3.486    0.290    0.451   94.758
  241.250    3.551    0.311    0.444   97.776
  241.500    3.686    0.313    0.474  102.000
  241.750    3.826    0.298    0.512  101.406
  242.000    4.122    0.285    0.495   95.391
  242.250    4.359    0.273    0.425   92.987
  242.500    4.967    0.259    0.407   90.585
  242.750    5.453    0.254    0.398   91.799
  243.000    6.098    0.258    0.392   93.612
  243.250    6.330    0.279    0.423   96.629
  243.500    6.448    0.307    0.440  100.250
  243.750    6.448    0.341    0.452   89.415
  244.000    6.447    0.378    0.465   82.796
  244.250    6.447    0.317    0.414   81.600
  244.500    6.327    0.331    0.399   79.801
  244.750    6.209    0.340    0.387   77.998
  245.000    5.981    0.345    0.378   74.995
  245.250    5.981    0.354    0.380   73.194
  245.500    5.869    0.351    0.385   71.998
  245.750    5.869    0.342    0.388   72.003
  246.000    5.868    0.335    0.393   80.446
  246.250    5.868    0.327    0.402   83.463
  246.500    5.978    0.318    0.409   88.895
  246.750    6.090    0.296    0.412   93.118
  247.000    6.204    0.277    0.415   99.149
  247.250    6.321    0.287    0.403   96.748
  247.500    6.560    0.287    0.388   90.731
  247.750    6.683    0.283    0.392   87.725
  248.000    6.808    0.285    0.405   91.956
  248.250    6.936    0.288    0.409   94.973
  248.500    6.558    0.282    0.405   96.181
  248.750    6.557    0.271    0.393   98.598
  249.000    6.557    0.259    0.382   99.208
  249.250    6.680    0.252    0.382  101.025
  249.500    6.679    0.244    0.389  102.235
  249.750    6.678    0.258    0.388  101.037
  250.000    6.554    0.278    0.381   97.430
  250.250    6.432    0.289    0.392   92.019
  250.500    6.313    0.277    0.396   90.215
  250.750    6.196    0.266    0.380   85.403
  251.000    6.081    0.253    0.361   76.978
  251.250    5.968    0.269    0.350   73.972
  251.500    5.748    0.266    0.355   72.775
  251.750    5.641    0.260    0.356   75.193
  252.000    5.537    0.242    0.372   80.021
  252.250    5.333    0.226    0.395   84.244
  252.500    5.234    0.215    0.411   87.262
  252.750    5.137    0.205    0.404   91.488
  253.000    4.856    0.161    0.401   93.906
  253.250    4.766    0.112    0.419   95.718
  253.500    4.591    0.165    0.427  102.351
  253.750    4.422    0.198    0.443  108.986
  254.000    4.260    0.226    0.455  115.622
  254.250    4.104    0.251    0.464  118.640
  254.500    3.953    0.245    0.472  122.264
  254.750    3.879    0.254    0.479  124.079
  255.000    3.737    0.276    0.490  124.685
  255.250    3.667    0.283    0.501  123.487
  255.500    3.667    0.195    0.496  119.882
  255.750    3.667    0.177    0.479  117.478
  256.000    3.599    0.193    0.473  113.873
  256.250    3.532    0.218    0.463  121.110
  256.500    3.531    0.244    0.476  126.537
  256.750    3.665    0.268    0.488  124.136
  257.000    3.805    0.271    0.483  120.528
  257.250    4.335    0.294    0.487  123.548
  257.500    4.584    0.321    0.462  124.759
  257.750    4.848    0.324    0.429  122.357
  258.000    5.422    0.280    0.411  118.749
  258.250    6.179    0.229    0.384  113.938
  258.500    6.534    0.229    0.390  109.730
  258.750    6.910    0.235    0.399  105.520
  259.000    7.172    0.240    0.401  101.913
  259.250    7.444    0.243    0.388   99.508
  259.500    7.727    0.240    0.407   94.699
  259.750    8.020    0.235    0.397   91.092
  260.000    8.019    0.247    0.380   88.687
  260.250    7.871    0.264    0.386   92.309
  260.500    7.303    0.279    0.399  106.172
  260.750    6.905    0.299    0.414  112.204
  261.000    6.289    0.312    0.428  109.202
  261.250    5.946    0.303    0.441  106.194
  261.500    5.621    0.294    0.447   99.576
  261.750    5.415    0.290    0.453   95.968
  262.000    5.216    0.262    0.466   98.386
  262.250    5.024    0.270    0.466  105.621
  262.500    5.024    0.301    0.480  111.050
  262.750    5.023    0.339    0.485  110.457
  263.000    5.312    0.327    0.445  105.644
  263.250    5.724    0.318    0.427   99.025
  263.500    5.941    0.305    0.413   94.213
  263.750    6.770    0.292    0.407   91.207
  264.000    7.572    0.292    0.405   96.035
  264.250    8.468    0.287    0.414   98.450
  264.500    8.790    0.285    0.419  100.265
  264.750    9.123    0.286    0.415   97.261
  265.000    9.294    0.285    0.407   96.064
  265.250    9.293    0.285    0.401   95.467
  265.500    8.786    0.285    0.411   96.077
  265.750    8.307    0.276    0.412   98.497
  266.000    7.708    0.261    0.407  100.309
  266.250    7.426    0.241    0.403  106.945
  266.500    6.890    0.232    0.398  111.774
  266.750    6.763    0.240    0.393  114.791
  267.000    6.514    0.245    0.403  119.017
  267.250    6.393    0.249    0.418  122.637
  267.500    6.274    0.248    0.434  128.067
  267.750    6.760    0.245    0.419  131.686
  268.000    6.887    0.237    0.414  125.669
  268.250    7.016    0.234    0.409  116.037
  268.500    7.148    0.241    0.406  100.984
  268.750    7.419    0.247    0.399   91.956
  269.000    7.418    0.238    0.392   95.580
  269.250    7.699    0.230    0.377  100.410
  269.500    7.844    0.220    0.374  101.621
  269.750    7.698    0.208    0.366  102.227
  270.000    7.555    0.196    0.381   99.221
  270.250    7.415    0.187    0.393  101.639
  270.500    6.753    0.171    0.382  108.277
  270.750    6.505    0.155    0.385  113.704
  271.000    5.925    0.163    0.393  117.323
  271.250    5.396    0.202    0.402  121.547
  271.500    5.198    0.252    0.418  120.351
  271.750    5.007    0.297    0.432  120.359
  272.000    5.101    0.319    0.457  110.125
  272.250    5.705    0.297    0.455  101.097
  272.500    5.812    0.261    0.439   93.874
  272.750    6.033    0.271    0.430   89.063
  273.000    6.379    0.274    0.442   88.466
  273.250    6.379    0.260    0.432   88.474
  273.500    6.498    0.263    0.427   90.289
  273.750    6.498    0.260    0.420   96.925
  274.000    6.497    0.253    0.422   99.943
  274.250    6.376    0.249    0.427  104.170
  274.500    6.258    0.239    0.436  106.587
  274.750    6.142    0.238    0.419  107.798
  275.000    6.028    0.243    0.403  109.008
  275.250    5.916    0.238    0.393  107.811
  275.500    5.806    0.242    0.401  107.817
  275.750    5.489    0.256    0.405  109.030
  276.000    5.489    0.256    0.400  109.640
  276.250    5.386    0.240    0.419  108.441
  276.500    5.488    0.260    0.439  106.644
  276.750    5.696    0.281    0.428  104.843
  277.000    6.137    0.286    0.415  102.441
  277.250    6.490    0.225    0.426  100.639
  277.500    6.611    0.170    0.432   97.636
  277.750    6.735    0.134    0.443   97.641
  278.000    6.735    0.142    0.423  105.483
  278.250    6.734    0.177    0.420  106.090
