~VERSION INFORMATION
 VERS.                 2.0:   CWLS LOG ASCII STANDARD -VERSION 2.0
 WRAP.                  NO:   ONE LINE PER DEPTH STEP
~WELL INFORMATION BLOCK
#MNEM.UNIT           DATA                    DESCRIPTION OF MNEMONIC
#---------    -------------------            -------------------------------
# Generated from Intellog Unique Number	CW_70_72/WELL/992
NULL.         -999.25                        : NULL_VALUE
WELL.         CNW FRANCIS SOUTH 07-34        : Well_name    - WELL              
LOC .         07-34-072-21W4                 : Location     - LOCATION          
UWI .         00/07-34-072-21W4/0            : Uwi          - UNIQUE WELL ID    
ENTR.         JAYE                           : Entered      - ENTERED BY        
SRVC.         COMPUTALOG                     : Scn          - SERVICE COMPANY   
DATE.         26 JULY 88                     : Date         - LOG DATE          
STRT.M        355                            : top_depth    - START DEPTH       
STOP.M        555                            : bot_depth    - STOP DEPTH        
STEP.M        0.25                           : increment    - STEP LENGTH       
~CURVE INFORMATION BLOCK
#MNEM UNIT       ERCB CURVE CODE    CURVE DESCRIPTION
#-----------   ------------------   ----------------------------------
DEPT.M        00 001 00 00         : DEPTH        - DEPTH                       
DPHI.V/V      00 890 00 00         : PHID         - DENSITY POROSITY (SANDSTONE)
NPHI.V/V      00 330 00 00         : PHIN         - NEUTRON POROSITY (SANDSTONE)
GR  .API      00 310 00 00         : GR           - GAMMA RAY                   
CALI.MM       00 280 01 00         : CAL          - CALIPER                     
ILD .OHMM     00 120 00 00         : RESD         - DEEP RESISTIVITY (DIL)      
~PARAMETER INFORMATION       
#MNEM.UNIT           DATA             DESCRIPTION OF MNEMONIC
#---------         -----------     ------------------------------
GL  .M        642                  : gl           - GROUND LEVEL ELEVATION      
EREF.M        645.4                : kb           - ELEVATION OF DEPTH REFERENCE
DATM.M        642                  : datum        - DATUM ELEVATION             
TDD .M        561                  : tdd          - TOTAL DEPTH DRILLER         
RUN .         ONE                  : Run          - RUN NUMBER                  
ENG .         GAIR/OSYPCHUK        : Engineer     - RECORDING ENGINEER          
WIT .         TOPIC                : Witness      - WITNESSED BY                
BASE.         R.D.                 : Branch       - HOME BASE OF LOGGING UNIT   
MUD .         GEL CHEM             : Mud_type     - MUD TYPE                    
MATR.         SANDSTONE            : Logunit      - NEUTRON MATRIX              
TMAX.C        25                   : BHT          - MAXIMUM RECORDED TEMPERATURE
BHTD.M        560.1                : BHTDEP       - MAXIMUM RECORDED TEMPERATURE
RMT .C        25                   : MDTP         - TEMPERATURE OF MUD          
MUDD.KG/M     1110                 : MWT          - MUD DENSITY                 
NEUT.         1                    : NEUTRON      - NEUTRON TYPE                
RESI.         0                    : RESIST       - RESISTIVITY TYPE            
RM  .OHMM     3.3                  : RM           - RESISTIVITY OF MUD          
RMC .OHMM     4                    : RMC          - RESISTIVITY OF MUD CAKE     
RMF .OHMM     3                    : RMF          - RESISTIVITY OF MUD FILTRATE 
SUFT.C        0                    : SUFT         - SURFACE TEMPERATURE         
~A  DEPTH     PHID     PHIN       GR      CAL     RESD
  355.000    0.241    0.492  101.695  208.168    3.215
  355.250    0.237    0.502  103.719  207.266    3.364
  355.500    0.245    0.515  107.209  203.210    3.404
  355.750    0.254    0.526  105.567  201.694    3.464
  356.000    0.250    0.526  104.965  200.589    3.487
  356.250    0.245    0.504  106.806  199.993    3.489
  356.500    0.239    0.479  106.020  199.700    3.486
  356.750    0.232    0.480  102.363  199.103    3.432
  357.000    0.234    0.493  100.783  199.015    3.354
  357.250    0.252    0.499  101.280  199.232    3.230
  357.500    0.266    0.494  102.083  199.551    3.185
  357.750    0.266    0.484  103.801  199.769    3.165
  358.000    0.257    0.470  108.024  199.886    3.146
  358.250    0.248    0.456  103.573  199.697    3.136
  358.500    0.240    0.448   98.207  198.996    3.133
  358.750    0.229    0.437   96.932  198.805    3.177
  359.000    0.224    0.456   98.712  200.347    3.251
  359.250    0.224    0.475  101.529  200.974    3.389
  359.500    0.218    0.469  103.859  200.578    3.460
  359.750    0.210    0.457   99.042  199.677    3.614
  360.000    0.213    0.470   91.781  199.587    3.739
  360.250    0.215    0.485   89.286  199.093    3.883
  360.500    0.213    0.486   95.951  198.902    4.017
  360.750    0.203    0.474  107.564  199.425    4.203
  361.000    0.186    0.456  112.398  199.948    4.380
  361.250    0.244    0.431  102.573  199.961    4.583
  361.500    0.276    0.402   91.464  199.975    4.690
  361.750    0.292    0.392   80.601  199.887    4.677
  362.000    0.306    0.391   70.714  199.799    4.421
  362.250    0.317    0.395   58.324  199.099    4.312
  362.500    0.328    0.396   45.139  197.180    4.413
  362.750    0.327    0.392   48.201  194.851    4.763
  363.000    0.294    0.385   57.310  192.218    5.199
  363.250    0.266    0.376   69.901  190.909    5.581
  363.500    0.237    0.382   77.849  190.718    6.035
  363.750    0.196    0.391   81.278  190.734    6.443
  364.000    0.190    0.397   84.340  191.462    6.629
  364.250    0.198    0.402   88.745  192.289    6.772
  364.500    0.195    0.406   94.129  193.218    6.715
  364.750    0.167    0.411   97.008  194.757    6.349
  365.000    0.145    0.416   99.459  197.318    6.069
  365.250    0.187    0.415  102.277  199.469    5.769
  365.500    0.209    0.419  104.972  201.314    5.753
  365.750    0.223    0.418  107.118  203.669    5.780
  366.000    0.231    0.409  108.837  204.598    5.827
  366.250    0.224    0.398  101.760  204.410    6.153
  366.500    0.215    0.390   93.828  204.830    6.331
  366.750    0.212    0.399   87.179  204.339    6.478
  367.000    0.219    0.411   84.928  203.842    6.193
  367.250    0.215    0.419   86.340  203.243    5.812
  367.500    0.206    0.425   90.501  202.645    5.454
  367.750    0.202    0.430   94.908  201.846    5.252
  368.000    0.223    0.442  100.902  201.451    5.218
  368.250    0.230    0.449  102.620  201.263    5.281
  368.500    0.225    0.451   99.025  201.172    5.454
  368.750    0.225    0.447   97.323  200.781    5.758
  369.000    0.229    0.427   97.270  200.285    6.080
  369.250    0.237    0.408   95.140  199.382    6.455
  369.500    0.232    0.419   95.027  196.851    6.790
  369.750    0.222    0.426   94.791  194.217    7.090
  370.000    0.216    0.415   97.486  192.096    7.445
  370.250    0.213    0.410   94.929  190.988    7.535
  370.500    0.217    0.403   90.174  189.984    7.431
  370.750    0.228    0.393   89.998  189.793    7.078
  371.000    0.227    0.380   90.251  190.011    6.803
  371.250    0.210    0.380   92.030  190.330    6.859
  371.500    0.191    0.400   95.092  191.463    7.189
  371.750    0.169    0.423  100.658  192.902    7.733
  372.000    0.145    0.409   99.079  194.443    8.088
  372.250    0.163    0.406   91.330  195.779    8.699
  372.500    0.218    0.405   81.994  197.121    9.304
  372.750    0.243    0.401   79.986  197.945    9.914
  373.000    0.255    0.396   77.002  198.671   10.411
  373.250    0.241    0.386   72.246  199.399   10.613
  373.500    0.239    0.373   80.927  199.921   10.372
  373.750    0.251    0.380   92.906  199.934    9.970
  374.000    0.253    0.390   99.938  198.931    9.184
  374.250    0.260    0.398   95.549  195.892    7.978
  374.500    0.270    0.382   81.693  194.172    6.891
  374.750    0.283    0.362   76.938  193.577    6.142
  375.000    0.295    0.362   74.625  193.491    5.586
  375.250    0.292    0.369   70.907  194.112    5.099
  375.500    0.287    0.375   59.677  195.349    4.786
  375.750    0.285    0.375   48.447  196.787    4.608
  376.000    0.288    0.372   43.874  198.430    4.520
  376.250    0.293    0.363   38.508  198.952    4.574
  376.500    0.298    0.354   34.913  198.559    4.690
  376.750    0.304    0.340   30.523  197.863    4.817
  377.000    0.309    0.342   27.722  197.059    4.983
  377.250    0.309    0.351   30.112  196.054    5.389
  377.500    0.286    0.354   57.910  195.457    5.325
  377.750    0.249    0.364   72.211  194.759    4.942
  378.000    0.220    0.384   86.695  193.960    4.405
  378.250    0.209    0.419   98.796  193.666    3.919
  378.500    0.220    0.472  107.844  193.274    3.597
  378.750    0.227    0.500  115.915  193.696    3.369
  379.000    0.207    0.501  121.725  193.911    3.257
  379.250    0.158    0.507  118.251  194.332    3.284
  379.500    0.109    0.521  116.672  195.569    3.499
  379.750    0.095    0.539  120.590  196.701    3.969
  380.000    0.157    0.543  123.468  197.834    4.317
  380.250    0.216    0.502  125.858  199.273    4.781
  380.500    0.210    0.475  127.149  201.323    5.484
  380.750    0.208    0.440  121.478  201.744    6.030
  381.000    0.211    0.422  116.111  200.129    6.485
  381.250    0.212    0.415  112.454  197.598    6.479
  381.500    0.209    0.424  109.836  195.984    6.069
  381.750    0.196    0.443  111.127  195.184    5.823
  382.000    0.201    0.449  116.876  194.790    5.535
  382.250    0.211    0.452  120.793  192.766    5.310
  382.500    0.225    0.464  122.451  191.457    5.454
  382.750    0.234    0.462  115.069  191.879    5.942
  383.000    0.236    0.442  108.664  193.216    6.521
  383.250    0.238    0.428  102.198  194.246    7.452
  383.500    0.242    0.415   94.449  195.076    8.803
  383.750    0.248    0.417   87.678  195.602   10.931
  384.000    0.258    0.423   81.701  195.814   13.348
  384.250    0.268    0.421   77.250  195.828   17.226
  384.500    0.277    0.425   71.945  195.845   22.068
  384.750    0.284    0.427   66.456  195.550   26.701
  385.000    0.282    0.424   62.738  194.445   26.926
  385.250    0.260    0.417   59.570  193.033   23.217
  385.500    0.234    0.408   59.212  190.399   19.257
  385.750    0.230    0.402   60.198  186.954   14.703
  386.000    0.265    0.407   60.389  185.542   12.084
  386.250    0.288    0.435   62.779  184.641   10.362
  386.500    0.269    0.450   70.056  184.449    8.984
  386.750    0.249    0.427   76.600  184.667    8.307
  387.000    0.228    0.417   79.234  185.596    7.725
  387.250    0.223    0.427   73.806  186.935    7.276
  387.500    0.243    0.437   75.097  188.678    6.930
  387.750    0.253    0.439   81.091  192.967    6.600
  388.000    0.258    0.442   87.024  198.375    6.390
  388.250    0.258    0.446   90.697  199.508    6.200
  388.500    0.256    0.457   88.629  198.709    6.102
  388.750    0.265    0.464   87.537  199.333    6.008
  389.000    0.276    0.451   91.271  200.976    5.947
  389.250    0.266    0.432  100.991  203.025    5.931
  389.500    0.250    0.423  107.534  204.871    5.948
  389.750    0.238    0.413  115.788  201.932    5.997
  390.000    0.240    0.412  108.223  198.281    6.058
  390.250    0.237    0.406   88.197  195.854    6.120
  390.500    0.227    0.404   77.395  196.071    6.182
  390.750    0.244    0.431   67.997  197.205    6.256
  391.000    0.263    0.438   68.494  198.949    6.461
  391.250    0.257    0.427   75.832  199.979    6.962
