~VERSION INFORMATION
 VERS.                 2.0:   CWLS LOG ASCII STANDARD -VERSION 2.0
 WRAP.                  NO:   ONE LINE PER DEPTH STEP
~WELL INFORMATION BLOCK
#MNEM.UNIT           DATA                    DESCRIPTION OF MNEMONIC
#---------    -------------------            -------------------------------
# Generated from Intellog Unique Number	CS_67_68/WELL/2162
WELL.         GLOBAL ATMORE                  : Well_name    - WELL
LOC .         00/03-20-067-16W4/0            : Location     - LOCATION
UWI .         00/03-20-067-16W4/0            : Uwi          - UNIQUE WELL ID
ENTR.         SP                             : Entered      - ENTERED BY
SRVC.         SCHLUMBERGER                   : Scn          - SERVICE COMPANY
STRT.M        370                            : top_depth    - START DEPTH
STOP.M        537                            : bot_depth    - STOP DEPTH
STEP.M        0.25                           : increment    - STEP LENGTH
 NULL. -999.2500:NULL Value
~CURVE INFORMATION BLOCK
#MNEM UNIT       ERCB CURVE CODE    CURVE DESCRIPTION
#-----------   ------------------   ----------------------------------
DEPT.M        00 001 00 00         : DEPTH        - DEPTH
ILD .OHMM     00 120 00 00         : RESD         - DEEP RESISTIVITY (DIL)
DPHI.V/V      00 890 00 00         : PHID         - DENSITY POROSITY (LIMESTONE)
NPHI.V/V      00 330 00 00         : PHIN         - NEUTRON POROSITY (LIMESTONE)
GR  .API      00 310 00 00         : GR           - GAMMA RAY
~PARAMETER INFORMATION
#MNEM.UNIT           DATA             DESCRIPTION OF MNEMONIC
#---------         -----------     ------------------------------
GL  .M        627.39               : gl           - GROUND LEVEL ELEVATION
EREF.M        630.39               : kb           - ELEVATION OF DEPTH REFERENCE
DATM.M        630.39               : datum        - DATUM ELEVATION
TDD .M        546                  : tdd          - TOTAL DEPTH DRILLER
RUN .         ONE                  : Run          - RUN NUMBER
ENG .         BILL                 : Engineer     - RECORDING ENGINEER
WIT .         JIM                  : Witness      - WITNESSED BY
MUD .         GEL                  : Mud_type     - MUD TYPE
MATR.         LIMESTONE            : Logunit      - NEUTRON MATRIX
TMAX.C        23                   : BHT          - MAXIMUM RECORDED TEMPERATURE
BHTD.M        543.8                : BHTDEP       - MAXIMUM RECORDED TEMPERATURE
MATR.         1                    : LOGUNIT      - NEUTRON MATRIX
RMT .C        25                   : MDTP         - TEMPERATURE OF MUD
NEUT.         1                    : NEUTRON      - NEUTRON TYPE
RESI.         0                    : RESIST       - RESISTIVITY TYPE
RMC .OHMM     0.25                 : RMC          - RESISTIVITY OF MUD CAKE
RMF .OHMM     0.25                 : RMF          - RESISTIVITY OF MUD FILTRATE
SUFT.C        15                   : SUFT         - SURFACE TEMPERATURE
~A  DEPTH     RESD     PHID     PHIN       GR
  370.000    2.740    0.196    0.444  117.044
  370.250    2.807    0.204    0.433  117.835
  370.500    2.875    0.192    0.450  119.233
  370.750    2.889    0.198    0.475  120.509
  371.000    2.861    0.206    0.446  119.059
  371.250    2.802    0.183    0.431  117.488
  371.500    2.688    0.156    0.428  118.159
  371.750    2.612    0.160    0.443  119.010
  372.000    2.562    0.193    0.450  120.771
  372.250    2.557    0.203    0.463  119.018
  372.500    2.541    0.208    0.478  113.570
  372.750    2.550    0.205    0.489  111.454
  373.000    2.587    0.199    0.484  113.154
  373.250    2.640    0.198    0.481  113.885
  373.500    2.674    0.193    0.494  116.130
  373.750    2.693    0.178    0.490  119.951
  374.000    2.672    0.204    0.481  121.712
  374.250    2.656    0.223    0.496  118.626
  374.500    2.654    0.217    0.504  116.691
  374.750    2.668    0.202    0.528  119.543
  375.000    2.667    0.204    0.550  120.213
  375.250    2.681    0.205    0.511  116.522
  375.500    2.685    0.196    0.488  114.345
  375.750    2.649    0.188    0.476  118.772
  376.000    2.594    0.180    0.462  121.501
  376.250    2.526    0.214    0.459  112.722
  376.500    2.441    0.237    0.445  107.757
  376.750    2.444    0.213    0.429  107.761
  377.000    2.434    0.200    0.453  109.583
  377.250    2.540    0.200    0.485  110.435
  377.500    2.651    0.191    0.490  109.530
  377.750    2.746    0.256    0.505  105.778
  378.000    2.855    0.274    0.473  102.632
  378.250    2.963    0.259    0.453  101.485
  378.500    3.069    0.245    0.436  104.154
  378.750    3.138    0.234    0.422  110.216
  379.000    3.184    0.226    0.424  114.886
  379.250    3.159    0.223    0.427  117.009
  379.500    3.070    0.280    0.427  119.012
  379.750    2.868    0.306    0.452   84.546
  380.000    2.606    0.328    0.480   67.890
  380.250    2.399    0.334    0.508   61.472
  380.500    2.216    0.322    0.445   55.963
  380.750    2.118    0.316    0.407   52.454
  381.000    2.024    0.304    0.387   49.307
  381.250    1.974    0.301    0.372   44.646
  381.500    1.915    0.304    0.367   45.680
  381.750    1.933    0.287    0.370   51.076
  382.000    1.994    0.274    0.365   57.199
  382.250    2.157    0.268    0.374   61.504
  382.500    2.359    0.284    0.378   64.597
  382.750    2.551    0.286    0.379   66.419
  383.000    2.779    0.285    0.374   72.966
  383.250    3.039    0.264    0.372   81.815
  383.500    3.184    0.223    0.369   88.241
  383.750    3.329    0.208    0.350   91.213
  384.000    3.410    0.207    0.360   92.186
  384.250    3.434    0.217    0.366   92.251
  384.500    3.362    0.235    0.366   96.132
  384.750    3.268    0.207    0.369   98.620
  385.000    3.117    0.189    0.374   96.079
  385.250    2.918    0.193    0.377   87.057
  385.500    2.696    0.230    0.382   83.668
  385.750    2.514    0.266    0.394   83.672
  386.000    2.385    0.287    0.413   86.826
  386.250    2.292    0.315    0.431   86.830
  386.500    2.207    0.334    0.451   79.625
  386.750    2.133    0.340    0.441   74.116
  387.000    2.081    0.331    0.421   69.879
  387.250    2.000    0.326    0.413   68.672
  387.500    1.954    0.330    0.423   73.583
  387.750    1.942    0.323    0.428   76.253
  388.000    1.960    0.312    0.435   75.832
  388.250    2.023    0.304    0.446   70.626
  388.500    2.155    0.316    0.463   68.389
  388.750    2.295    0.312    0.468   73.239
  389.000    2.450    0.304    0.452   75.788
  389.250    2.547    0.296    0.439   74.398
  389.500    2.663    0.285    0.430   77.735
  389.750    2.743    0.271    0.442   81.797
  390.000    2.773    0.270    0.465   86.466
  390.250    2.741    0.278    0.480   92.831
  390.500    2.689    0.284    0.461   98.287
  390.750    2.609    0.290    0.451  101.684
  391.000    2.530    0.287    0.452  103.323
  391.250    2.455    0.273    0.436   96.725
  391.500    2.413    0.266    0.410   90.368
  391.750    2.389    0.271    0.410   85.525
  392.000    2.375    0.282    0.435   81.288
  392.250    2.414    0.275    0.450   77.415
  392.500    2.440    0.264    0.452   83.961
  392.750    2.476    0.253    0.445   89.963
  393.000    2.555    0.245    0.427   95.117
  393.250    2.657    0.240    0.425   95.848
  393.500    2.830    0.241    0.432   91.853
  393.750    3.015    0.256    0.434   87.919
  394.000    3.182    0.266    0.430   96.284
  394.250    3.334    0.245    0.429  102.831
  394.500    3.492    0.229    0.429  103.925
  394.750    3.590    0.224    0.422  103.383
  395.000    3.670    0.217    0.410  105.387
  395.250    3.710    0.206    0.412  104.966
  395.500    3.599    0.203    0.425  100.548
  395.750    3.459    0.181    0.431   98.977
  396.000    3.393    0.158    0.439  113.217
  396.250    3.418    0.168    0.456  122.248
  396.500    3.553    0.152    0.469  128.613
  396.750    3.722    0.135    0.482  133.342
  397.000    3.855    0.188    0.463  132.559
  397.250    3.971    0.211    0.432  122.930
  397.500    4.014    0.219    0.417  116.755
  397.750    3.990    0.215    0.403  114.396
  398.000    3.922    0.202    0.394  115.491
  398.250    3.876    0.194    0.378  116.828
  398.500    3.860    0.200    0.369  113.379
  398.750    3.880    0.210    0.377  106.355
  399.000    3.879    0.212    0.380  102.724
  399.250    3.848    0.221    0.392  107.696
  399.500    3.782    0.223    0.402  110.850
  399.750    3.649    0.217    0.417  114.731
  400.000    3.493    0.222    0.417  117.279
  400.250    3.369    0.231    0.411  115.648
  400.500    3.318    0.222    0.407  112.018
  400.750    3.329    0.204    0.410  113.838
  401.000    3.391    0.186    0.427  121.234
  401.250    3.440    0.203    0.437  125.175
  401.500    3.465    0.212    0.435  126.633
  401.750    3.483    0.216    0.442  124.759
  402.000    3.561    0.223    0.428  117.554
  402.250    3.675    0.232    0.416  116.225
  402.500    3.771    0.221    0.407  121.924
  402.750    3.755    0.193    0.394  120.232
  403.000    3.489    0.182    0.385  117.691
  403.250    3.242    0.181    0.377  117.816
  403.500    3.069    0.193    0.396  122.364
  403.750    2.895    0.201    0.416  126.911
  404.000    2.829    0.184    0.429  130.975
  404.250    2.744    0.174    0.440  133.159
  404.500    2.628    0.180    0.449  134.617
  404.750    2.428    0.197    0.443  132.501
  405.000    2.264    0.212    0.427  123.902
  405.250    2.144    0.226    0.414  127.723
  405.500    2.143    0.230    0.413  124.577
  405.750    2.203    0.228    0.425  114.100
  406.000    2.312    0.231    0.428  106.834
  406.250    2.449    0.240    0.431  101.567
  406.500    2.561    0.237    0.446  100.542
  406.750    2.633    0.229    0.463  101.030
  407.000    2.686    0.232    0.474   99.822
  407.250    2.741    0.256    0.468   93.647
  407.500    2.813    0.273    0.450   92.318
  407.750    2.925    0.271    0.435   96.260
  408.000    2.984    0.260    0.429   91.721
  408.250    2.955    0.271    0.431   84.334
  408.500    2.829    0.286    0.425   80.460
  408.750    2.791    0.297    0.418   78.526
  409.000    2.941    0.307    0.408   82.710
  409.250    3.252    0.278    0.401   88.711
  409.500    3.356    0.259    0.423   94.955
  409.750    3.470    0.223    0.436   77.815
  410.000    3.200    0.092    0.383   65.642
  410.250    2.790    0.057    0.330   56.922
  410.500    2.441    0.065    0.346   64.499
  410.750    2.235    0.219    0.390   72.257
  411.000    2.042    0.273    0.424   79.955
  411.250    1.984    0.295    0.450   84.746
  411.500    2.032    0.304    0.454   85.536
  411.750    2.121    0.315    0.439   89.721
  412.000    2.197    0.303    0.440   97.903
  412.250    2.237    0.294    0.454   98.756
  412.500    2.257    0.280    0.443   92.641
  412.750    2.378    0.259    0.430   88.343
  413.000    2.606    0.238    0.429   82.531
  413.250    2.947    0.255    0.438   75.084
