~VERSION INFORMATION
 VERS.                 2.0:   CWLS LOG ASCII STANDARD -VERSION 2.0
 WRAP.                  NO:   ONE LINE PER DEPTH STEP
~WELL INFORMATION BLOCK
#MNEM.UNIT           DATA                    DESCRIPTION OF MNEMONIC
#---------    -------------------            -------------------------------
# Generated from Intellog Unique Number	CS_69_70/WELL/608
WELL.         08-11-069-08W4                 : Well_name    - WELL
LOC .         00/08-11-069-08W4/0            : Location     - LOCATION
UWI .         00/08-11-069-08W4/0            : Uwi          - UNIQUE WELL ID
ENTR.         ANDERSEN                       : Entered      - ENTERED BY
SRVC.         SCHLUMBERGER                   : Scn          - SERVICE COMPANY
STRT.M        345                            : top_depth    - START DEPTH
STOP.M        505                            : bot_depth    - STOP DEPTH
STEP.M        0.25                           : increment    - STEP LENGTH
 NULL. -999.2500:NULL Value
~CURVE INFORMATION BLOCK
#MNEM UNIT       ERCB CURVE CODE    CURVE DESCRIPTION
#-----------   ------------------   ----------------------------------
DEPT.M        00 001 00 00         : DEPTH        - DEPTH
GR  .API      00 310 00 00         : GR           - GAMMA RAY
CALI.MM       00 280 01 00         : CAL          - CALIPER
NPHI.V/V      00 330 00 00         : PHIN         - NEUTRON POROSITY (SANDSTONE)
DPHI.V/V      00 890 00 00         : PHID         - DENSITY POROSITY (SANDSTONE)
ILD .OHMM     00 120 00 00         : RESD         - DEEP RESISTIVITY (DIL)
~PARAMETER INFORMATION
#MNEM.UNIT           DATA             DESCRIPTION OF MNEMONIC
#---------         -----------     ------------------------------
GL  .M        615.3                : gl           - GROUND LEVEL ELEVATION
EREF.M        618                  : kb           - ELEVATION OF DEPTH REFERENCE
DATM.M        618                  : datum        - DATUM ELEVATION
TDD .M        511                  : tdd          - TOTAL DEPTH DRILLER
RUN .         ONE                  : Run          - RUN NUMBER
ENG .         BILL                 : Engineer     - RECORDING ENGINEER
WIT .         JIM                  : Witness      - WITNESSED BY
MUD .         GEL                  : Mud_type     - MUD TYPE
MATR.         SANDSTONE            : Logunit      - NEUTRON MATRIX
TMAX.C        24                   : BHT          - MAXIMUM RECORDED TEMPERATURE
BHTD.M        511                  : BHTDEP       - MAXIMUM RECORDED TEMPERATURE
RMT .C        17                   : MDTP         - TEMPERATURE OF MUD
MUDD.KG/M     1100                 : MWT          - MUD DENSITY
NEUT.         1                    : NEUTRON      - NEUTRON TYPE
RESI.         0                    : RESIST       - RESISTIVITY TYPE
RM  .OHMM     4.64                 : RM           - RESISTIVITY OF MUD
RMC .OHMM     0                    : RMC          - RESISTIVITY OF MUD CAKE
RMF .OHMM     6.14                 : RMF          - RESISTIVITY OF MUD FILTRATE
SUFT.C        15                   : SUFT         - SURFACE TEMPERATURE
~A  DEPTH       GR      CAL     PHIN     PHID     RESD
# ...
  418.000   82.501  152.701    0.466    0.267    7.508
  418.250   73.906  152.697    0.438    0.269    6.729
  418.500   64.738  152.695    0.376    0.209    5.499
  418.750   54.998  152.692    0.263    0.035    4.929
  419.000   57.860  152.689    0.259    0.054    4.937
  419.250   63.587  151.730    0.299    0.163    5.223
  419.500   71.032  151.727    0.356    0.247    5.528
  419.750   73.894  151.724    0.380    0.288    5.964
  420.000   75.038  151.721    0.390    0.278    6.081
  420.250   72.744  150.762    0.384    0.276    6.203
  420.500   71.024  150.759    0.367    0.304    6.095
  420.750   69.304  149.800    0.341    0.332    5.776
  421.000   75.031  149.797    0.335    0.330    5.470
  421.250   85.341  149.795    0.359    0.310    5.182
  421.500   93.931  148.837    0.377    0.284    4.911
  421.750   91.065  148.834    0.384    0.258    4.652
  422.000   90.491  148.831    0.411    0.258    4.407
  422.250   90.488  148.827    0.417    0.251    4.333
  422.500   89.340  148.824    0.416    0.251    4.340
  422.750   86.475  148.820    0.422    0.256    4.344
  423.000   81.890  149.772    0.446    0.260    4.115
  423.250   77.877  150.724    0.470    0.265    3.621
  423.500   76.730  150.721    0.470    0.266    3.127
  423.750   76.728  150.717    0.435    0.270    2.603
  424.000   72.143  149.759    0.410    0.275    2.207
  424.250   66.985  149.756    0.390    0.260    2.015
  424.500   64.692  149.753    0.383    0.229    1.909
  424.750   69.846  150.704    0.407    0.259    1.876
  425.000   75.572  150.701    0.437    0.284    1.879
  425.250   79.581  151.653    0.472    0.298    1.917
  425.500   80.724  152.604    0.503    0.317    1.920
  425.750   78.431  154.511    0.522    0.334    1.957
  426.000   78.430  154.508    0.571    0.335    1.961
  426.250   78.427  154.504    0.562    0.322    1.963
  426.500   77.279  154.501    0.538    0.310    2.078
  426.750   81.861  155.453    0.519    0.301    2.241
  427.000   87.015  156.404    0.532    0.297    2.327
  427.250   90.450  157.356    0.528    0.291    2.653
  427.500   91.020  157.353    0.518    0.284    3.023
  427.750   88.728  159.260    0.510    0.284    3.258
  428.000   85.861  163.075    0.520    0.282    3.513
  428.250   80.130  162.116    0.532    0.277    3.722
  428.500   76.118  159.249    0.531    0.264    3.525
  428.750   74.398  156.382    0.427    0.230    3.340
  429.000   77.260  155.423    0.383    0.165    3.105
  429.250   80.696  155.420    0.390    0.192    3.109
  429.500   85.276  155.417    0.419    0.244    3.351
  429.750   85.275  155.414    0.440    0.263    3.820
  430.000   85.273  155.411    0.455    0.264    4.118
  430.250   86.416  155.408    0.467    0.265    4.439
  430.500   88.133  155.404    0.479    0.265    4.787
  430.750   90.422  156.355    0.478    0.265    5.066
  431.000   89.275  156.353    0.453    0.262    5.169
  431.250   85.836  157.305    0.412    0.254    5.271
  431.500   84.688  158.256    0.383    0.243    5.280
  431.750   85.832  158.253    0.363    0.215    5.285
  432.000   89.267  160.159    0.380    0.204    5.292
  432.250   89.838  161.111    0.396    0.212    4.921
  432.500   87.545  162.062    0.400    0.204    4.493
  432.750   85.824  162.058    0.387    0.182    4.105
  433.000   89.832  162.055    0.395    0.176    3.886
  433.250   88.112  161.097    0.400    0.196    3.484
  433.500   83.527  160.139    0.396    0.230    3.123
  433.750   86.963  159.182    0.409    0.225    2.850
  434.000   93.262  159.178    0.430    0.232    2.603
  434.250   93.260  158.220    0.448    0.243    2.421
  434.500   93.831  157.262    0.472    0.250    2.379
  434.750   97.266  157.259    0.483    0.255    2.518
  435.000   99.556  157.256    0.496    0.254    2.817
  435.250   98.981  157.252    0.501    0.250    3.269
  435.500  100.125  157.250    0.506    0.251    3.867
  435.750  104.706  157.247    0.517    0.254    4.487
  436.000  105.850  157.242    0.528    0.257    5.508
  436.250   97.827  157.239    0.521    0.255    6.393
  436.500   84.650  157.236    0.492    0.250    6.893
  436.750   74.909  156.278    0.461    0.241    7.431
  437.000   71.469  156.275    0.417    0.178    8.014
  437.250   74.332  154.362    0.353    0.127    8.324
  437.500   76.048  153.404    0.347    0.149    8.649
  437.750   72.610  152.447    0.373    0.178    8.660
  438.000   65.733  151.488    0.388    0.236    8.674
  438.250   60.575  151.485    0.357    0.257    8.371
  438.500   64.584  151.481    0.311    0.229    7.930
  438.750   63.436  151.479    0.320    0.278    7.112
  439.000   62.288  151.476    0.346    0.274    6.859
  439.250   60.568  151.472    0.339    0.251    6.619
  439.500   61.138  151.468    0.310    0.209    6.508
  439.750   63.428  151.467    0.344    0.194    6.638
  440.000   65.145  151.463    0.389    0.229    6.771
  440.250   62.851  151.460    0.401    0.264    7.038
  440.500   60.557  151.456    0.386    0.295    7.310
  440.750   62.275  152.408    0.361    0.315    7.453
  441.000   70.866  152.404    0.367    0.307    7.744
  441.250   77.738  152.401    0.381    0.293    8.666
  441.500   78.882  153.353    0.389    0.282    9.340
  441.750   76.588  153.350    0.396    0.280   10.845
  442.000   77.732  154.300    0.403    0.282   13.306
  442.250   73.147  154.298    0.409    0.282   18.580
  442.500   74.864  154.293    0.408    0.289   27.430
  442.750   76.008  154.292    0.405    0.291   39.014
  443.000   71.423  153.334    0.393    0.284   58.652
  443.250   61.682  152.376    0.352    0.277   98.543
  443.500   45.640  151.418    0.304    0.301  102.421
  443.750   34.181  150.459    0.156    0.320   95.252
  444.000   27.877  149.501    0.171    0.336   88.556
  444.250   29.021  149.498    0.240    0.341   77.918
  444.500   33.029  148.540    0.253    0.339   69.835
  444.750   27.298  148.537    0.256    0.332   64.947
  445.000   23.859  148.533    0.263    0.337   61.568
  445.250   26.149  148.531    0.306    0.341   60.481
  445.500   34.740  148.528    0.327    0.337   59.472
  445.750   39.321  147.570    0.361    0.328   59.571
  446.000   40.465  147.567    0.374    0.315   58.519
  446.250   34.161  146.608    0.372    0.310   57.524
  446.500   27.284  146.605    0.369    0.317   54.531
  446.750   25.564  146.602    0.383    0.327   53.569
  447.000   25.562  145.644    0.379    0.328   51.711
  447.250   24.415  145.641    0.360    0.320   48.988
  447.500   20.402  145.637    0.345    0.308   45.544
  447.750   19.255  145.634    0.328    0.309   37.913
  448.000   18.680  146.586    0.327    0.314   21.413
  448.250   18.678  147.536    0.323    0.317   12.544
  448.500   20.968  147.534    0.312    0.317   11.670
  448.750   43.308  148.485    0.299    0.316   11.904
  449.000   63.356  149.437    0.358    0.302   11.701
  449.250  106.320  150.389    0.380    0.283   10.882
  449.500  117.776  151.341    0.400    0.238   10.117
  449.750  126.367  152.292    0.371    0.273    9.237
  450.000  120.063  152.289    0.365    0.296    9.958
  450.250  106.885  153.240    0.372    0.270   12.222
  450.500   91.415  153.237    0.353    0.238   14.452
  450.750   90.840  154.189    0.380    0.207   19.091
  451.000   85.683  154.185    0.393    0.220   24.305
  451.250   75.370  153.227    0.386    0.289   26.212
  451.500   69.066  152.270    0.396    0.320   23.056
  451.750   67.918  150.356    0.407    0.336   17.499
  452.000   68.489  150.353    0.400    0.330   14.567
  452.250   70.779  150.350    0.386    0.322   12.352
  452.500   78.797  150.345    0.389    0.309   10.868
  452.750   85.097  150.344    0.395    0.295    9.741
  453.000   84.522  150.341    0.393    0.285    8.731
  453.250   80.509  150.337    0.385    0.276    7.828
  453.500   81.081  150.334    0.384    0.267    7.415
  453.750   84.516  150.330    0.381    0.256    7.156
  454.000   90.243  150.327    0.375    0.249    7.034
  454.250   93.678  150.323    0.366    0.237    7.306
