~VERSION INFORMATION
 VERS.                 2.0:   CWLS LOG ASCII STANDARD -VERSION 2.0
 WRAP.                  NO:   ONE LINE PER DEPTH STEP
~WELL INFORMATION BLOCK
#MNEM.UNIT           DATA                    DESCRIPTION OF MNEMONIC
#---------    -------------------            -------------------------------
# Generated from Intellog Unique Number	CS_77_79/WELL/891
WELL.         BVX MERLAND DUNCAN             : Well_name    - WELL
LOC .         00/07-03-078-15W4/0            : Location     - LOCATION
UWI .         00/07-03-078-15W4/0            : Uwi          - UNIQUE WELL ID
ENTR.         JHS                            : Entered      - ENTERED BY
SRVC.         SCHLUMBERGER                   : Scn          - SERVICE COMPANY
STRT.M        180                            : top_depth    - START DEPTH
STOP.M        430                            : bot_depth    - STOP DEPTH
STEP.M        0.25                           : increment    - STEP LENGTH
 NULL. -999.2500:NULL Value
~CURVE INFORMATION BLOCK
#MNEM UNIT       ERCB CURVE CODE    CURVE DESCRIPTION
#-----------   ------------------   ----------------------------------
DEPT.M        00 001 00 00         : DEPTH        - DEPTH
DPHI.V/V      00 890 00 00         : PHID         - DENSITY POROSITY (LIMESTONE)
NPHI.V/V      00 330 00 00         : PHIN         - NEUTRON POROSITY (LIMESTONE)
GR  .API      00 310 00 00         : GR           - GAMMA RAY
ILD .OHMM     00 120 00 00         : RESD         - DEEP RESISTIVITY (DIL)
~PARAMETER INFORMATION
#MNEM.UNIT           DATA             DESCRIPTION OF MNEMONIC
#---------         -----------     ------------------------------
GL  .M        581.32               : gl           - GROUND LEVEL ELEVATION
EREF.M        584.77               : kb           - ELEVATION OF DEPTH REFERENCE
DATM.M        584.77               : datum        - DATUM ELEVATION
TDD .M        430                  : tdd          - TOTAL DEPTH DRILLER
RUN .         ONE                  : Run          - RUN NUMBER
ENG .         BILL                 : Engineer     - RECORDING ENGINEER
WIT .         JIM                  : Witness      - WITNESSED BY
MUD .         GEL                  : Mud_type     - MUD TYPE
MATR.         LIMESTONE            : Logunit      - NEUTRON MATRIX
TMAX.C        23                   : BHT          - MAXIMUM RECORDED TEMPERATURE
BHTD.M        430                  : BHTDEP       - MAXIMUM RECORDED TEMPERATURE
MATR.         1                    : LOGUNIT      - NEUTRON MATRIX
RMT .C        25                   : MDTP         - TEMPERATURE OF MUD
NEUT.         1                    : NEUTRON      - NEUTRON TYPE
RESI.         0                    : RESIST       - RESISTIVITY TYPE
RMC .OHMM     0.25                 : RMC          - RESISTIVITY OF MUD CAKE
RMF .OHMM     0.25                 : RMF          - RESISTIVITY OF MUD FILTRATE
SUFT.C        15                   : SUFT         - SURFACE TEMPERATURE
~A  DEPTH     PHID     PHIN       GR     RESD
# ...
  223.500    0.257    0.394   94.656   10.517
  223.750    0.258    0.388   95.267   10.130
  224.000    0.270    0.394  100.797    9.943
  224.250    0.276    0.409  108.170    9.759
  224.500    0.258    0.405  113.085    9.581
  224.750    0.247    0.401  111.852    9.767
  225.000    0.258    0.401  103.856    9.956
  225.250    0.266    0.408   98.934   10.151
  225.500    0.261    0.410   91.554   10.349
  225.750    0.263    0.396   76.797   10.550
  226.000    0.288    0.390   65.728   11.171
  226.250    0.315    0.403   61.421   11.388
  226.500    0.325    0.413   62.032   12.058
  226.750    0.329    0.405   63.258   12.528
  227.000    0.331    0.401   62.640   13.264
  227.250    0.330    0.392   57.104   13.782
  227.500    0.331    0.379   56.485   14.048
  227.750    0.332    0.401   62.629   13.790
  228.000    0.316    0.420   67.543   13.284
  228.250    0.289    0.429   68.154   12.794
  228.500    0.236    0.422   64.463   12.093
  228.750    0.193    0.383   60.770   11.216
  229.000    0.198    0.355   66.299   10.601
  229.250    0.265    0.378   69.983   10.019
  229.500    0.270    0.419   71.824    9.469
  229.750    0.272    0.426   72.436    8.949
  230.000    0.272    0.426   80.424    8.145
  230.250    0.251    0.421   91.486    7.698
  230.500    0.222    0.409  105.006    7.139
  230.750    0.209    0.397  111.150    6.256
  231.000    0.215    0.402  112.990    5.693
  231.250    0.227    0.464  108.684    5.588
  231.500    0.245    0.466  100.074    5.697
  231.750    0.259    0.462   96.382    5.919
  232.000    0.256    0.451   96.993    6.034
  232.250    0.244    0.437   94.530    6.511
  232.500    0.243    0.459   93.913    7.159
  232.750    0.271    0.490  100.670    7.725
  233.000    0.277    0.461  100.667    8.180
  233.250    0.269    0.442   92.671    8.029
  233.500    0.267    0.445   93.898    7.447
  233.750    0.264    0.455   97.582    6.650
  234.000    0.255    0.462   96.349    6.285
  234.250    0.250    0.488   92.042    6.408
  234.500    0.257    0.453   88.351    6.657
  234.750    0.282    0.423   85.273    7.320
  235.000    0.294    0.399   85.270    8.520
  235.250    0.273    0.388   84.037    9.730
  235.500    0.265    0.382   80.960   10.499
  235.750    0.285    0.386   87.718    9.738
  236.000    0.290    0.410   92.017    8.696
  236.250    0.276    0.429   93.859    7.913
  236.500    0.274    0.457   94.469    7.066
  236.750    0.269    0.477   90.777    6.431
  237.000    0.258    0.461   87.085    6.194
  237.250    0.245    0.458   90.155    6.436
  237.500    0.230    0.477   91.381    6.560
  237.750    0.225    0.460   89.533    7.492
  238.000    0.258    0.477   79.079    9.956
  238.250    0.308    0.447   63.707   12.981
  238.500    0.344    0.429   56.941   15.991
  238.750    0.363    0.450   52.635   18.967
  239.000    0.339    0.424   45.869   21.660
  239.250    0.317    0.388   47.095   23.372
  239.500    0.322    0.416   49.550   23.384
  239.750    0.341    0.419   49.546   23.393
  240.000    0.359    0.404   48.313   23.400
  240.250    0.362    0.400   48.924   23.854
  240.500    0.359    0.413   49.536   24.317
  240.750    0.361    0.425   48.917   26.240
  241.000    0.359    0.430   45.840   27.785
  241.250    0.357    0.447   43.377   27.794
  241.500    0.361    0.421   41.529   27.802
  241.750    0.364    0.402   42.756   31.158
  242.000    0.364    0.389   44.596   39.116
  242.250    0.367    0.399   43.978   52.969
  242.500    0.366    0.431   42.745   62.825
  242.750    0.362    0.444   44.586   70.406
  243.000    0.359    0.439   48.885   71.785
  243.250    0.356    0.438   51.340   67.839
  243.500    0.335    0.446   49.493   54.078
  243.750    0.300    0.457   47.030   50.159
  244.000    0.301    0.465   45.797   48.315
  244.250    0.349    0.474   47.023   46.534
  244.500    0.371    0.466   48.248   43.153
  244.750    0.372    0.461   48.860   39.271
  245.000    0.375    0.456   49.471   35.738
  245.250    0.373    0.461   47.623   29.587
  245.500    0.366    0.446   50.078   20.272
  245.750    0.364    0.439   47.616   18.101
  246.000    0.369    0.446   41.464   16.473
  246.250    0.374    0.451   43.920   15.869
  246.500    0.375    0.454   50.064   15.578
  246.750    0.372    0.452   53.749   15.582
  247.000    0.370    0.455   51.901   15.296
  247.250    0.364    0.446   46.979   15.592
  247.500    0.366    0.438   45.131   15.598
  247.750    0.369    0.433   49.430   16.206
  248.000    0.367    0.440   50.042   15.908
  248.250    0.364    0.435   47.580   15.912
  248.500    0.369    0.423   47.575   15.329
  248.750    0.375    0.413   48.802   14.489
  249.000    0.375    0.433   51.871   13.693
  249.250    0.382    0.439   53.098   12.699
  249.500    0.385    0.439   53.095   12.004
  249.750    0.380    0.439   51.246   11.781
  250.000    0.366    0.441   52.472   11.787
  250.250    0.360    0.436   53.083   11.791
  250.500    0.367    0.430   51.235   11.795
  250.750    0.382    0.427   50.003   12.024
  251.000    0.377    0.432   49.384   12.258
  251.250    0.376    0.439   49.995   12.265
  251.500    0.376    0.430   48.762   12.502
  251.750    0.371    0.420   46.914   12.272
  252.000    0.359    0.417   46.296   12.510
  252.250    0.350    0.435   46.908   12.515
  252.500    0.354    0.443   51.207   12.286
  252.750    0.367    0.424   52.433   12.290
  253.000    0.367    0.414   51.200   12.295
  253.250    0.363    0.427   51.195   12.067
  253.500    0.359    0.444   50.577   12.072
  253.750    0.359    0.445   48.730   11.851
  254.000    0.360    0.428   46.267   11.856
  254.250    0.361    0.419   44.419   11.859
  254.500    0.358    0.432   46.875   11.863
  254.750    0.355    0.441   48.715   11.645
  255.000    0.358    0.443   48.096   11.648
  255.250    0.363    0.440   48.094   11.436
  255.500    0.377    0.429   51.779   11.438
  255.750    0.381    0.422   49.930   11.443
  256.000    0.375    0.421   45.624   11.446
  256.250    0.366    0.423   47.464   11.450
  256.500    0.371    0.434   48.690   11.455
  256.750    0.374    0.443   46.842   11.244
  257.000    0.374    0.425   49.298   11.248
  257.250    0.369    0.421   51.138   11.252
  257.500    0.369    0.421   49.906   11.473
  257.750    0.368    0.433   43.140   11.476
  258.000    0.363    0.430   46.209   11.481
  258.250    0.369    0.423   48.050   11.485
  258.500    0.376    0.429   47.432   11.489
  258.750    0.370    0.445   45.584   11.494
  259.000    0.360    0.429   44.966   11.717
  259.250    0.359    0.417   46.806   11.721
  259.500    0.370    0.416   47.417   11.725
  259.750    0.373    0.427   44.340   11.954
  260.000    0.365    0.424   47.411   11.959
  260.250    0.359    0.421   49.251   11.963
  260.500    0.357    0.419   48.017   11.966
  260.750    0.359    0.419   46.784   11.970
  261.000    0.365    0.423   47.395   12.203
  261.250    0.369    0.427   47.392   12.209
  261.500    0.371    0.426   46.774   12.214
  261.750    0.371    0.428   45.541   11.987
  262.000    0.368    0.423   47.381   11.992
  262.250    0.362    0.418   48.608   11.996
  262.500    0.359    0.429   47.374   12.000
  262.750    0.364    0.448   45.527   12.005
  263.000    0.375    0.434   48.596   12.010
  263.250    0.364    0.431   48.593   12.015
  263.500    0.358    0.419   46.130   12.018
  263.750    0.370    0.403   43.667   12.023
  264.000    0.370    0.406   43.049   12.027
  264.250    0.357    0.411   48.579   12.030
  264.500    0.353    0.418   51.034   11.810
  264.750    0.374    0.408   45.498   11.815
  265.000    0.371    0.396   42.420   11.820
  265.250    0.369    0.397   46.105   11.822
  265.500    0.370    0.416   47.945   11.828
  265.750    0.376    0.422   48.557   11.832
  266.000    0.383    0.434   47.938   11.836
  266.250    0.388    0.432   46.705   11.841
  266.500    0.386    0.413   45.472   11.845
  266.750    0.373    0.415   44.239   11.848
