~VERSION INFORMATION
 VERS.                 2.0:   CWLS LOG ASCII STANDARD -VERSION 2.0
 WRAP.                  NO:   ONE LINE PER DEPTH STEP
~WELL INFORMATION BLOCK
#MNEM.UNIT           DATA                    DESCRIPTION OF MNEMONIC
#---------    -------------------            -------------------------------
# Generated from Intellog Unique Number	CS_73_76/WELL/784
WELL.         ANR PRODUCTION COMPANY         : Well_name    - WELL
LOC .         00/09-17-073-18W4/0            : Location     - LOCATION
UWI .         00/09-17-073-18W4/0            : Uwi          - UNIQUE WELL ID
ENTR.         SP                             : Entered      - ENTERED BY
SRVC.         SCHLUMBERGER                   : Scn          - SERVICE COMPANY
STRT.M        225                            : top_depth    - START DEPTH
STOP.M        480                            : bot_depth    - STOP DEPTH
STEP.M        0.25                           : increment    - STEP LENGTH
 NULL. -999.2500:NULL Value
~CURVE INFORMATION BLOCK
#MNEM UNIT       ERCB CURVE CODE    CURVE DESCRIPTION
#-----------   ------------------   ----------------------------------
DEPT.M        00 001 00 00         : DEPTH        - DEPTH
ILD .OHMM     00 120 00 00         : RESD         - DEEP RESISTIVITY (DIL)
DPHI.V/V      00 890 00 00         : PHID         - DENSITY POROSITY (LIMESTONE)
NPHI.V/V      00 330 00 00         : PHIN         - NEUTRON POROSITY (LIMESTONE)
GR  .API      00 310 00 00         : GR           - GAMMA RAY
~PARAMETER INFORMATION
#MNEM.UNIT           DATA             DESCRIPTION OF MNEMONIC
#---------         -----------     ------------------------------
GL  .M        595.3                : gl           - GROUND LEVEL ELEVATION
EREF.M        599.2                : kb           - ELEVATION OF DEPTH REFERENCE
DATM.M        595.3                : datum        - DATUM ELEVATION
TDD .M        485                  : tdd          - TOTAL DEPTH DRILLER
RUN .         ONE                  : Run          - RUN NUMBER
ENG .         BILL                 : Engineer     - RECORDING ENGINEER
WIT .         JIM                  : Witness      - WITNESSED BY
MUD .         GEL                  : Mud_type     - MUD TYPE
MATR.         LIMESTONE            : Logunit      - NEUTRON MATRIX
TMAX.C        18                   : BHT          - MAXIMUM RECORDED TEMPERATURE
BHTD.M        485                  : BHTDEP       - MAXIMUM RECORDED TEMPERATURE
MATR.         1                    : LOGUNIT      - NEUTRON MATRIX
RMT .C        25                   : MDTP         - TEMPERATURE OF MUD
NEUT.         1                    : NEUTRON      - NEUTRON TYPE
RESI.         0                    : RESIST       - RESISTIVITY TYPE
RMC .OHMM     0.25                 : RMC          - RESISTIVITY OF MUD CAKE
RMF .OHMM     0.25                 : RMF          - RESISTIVITY OF MUD FILTRATE
SUFT.C        15                   : SUFT         - SURFACE TEMPERATURE
~A  DEPTH     RESD     PHID     PHIN       GR
# ...
  312.000    4.202    0.157    0.363   67.764
  312.250    3.620    0.154    0.379   73.268
  312.500    3.361    0.158    0.390   75.714
  312.750    3.762    0.185    0.396   77.548
  313.000    4.453    0.222    0.380   79.380
  313.250    4.891    0.225    0.367   75.701
  313.500    5.473    0.233    0.360   71.412
  313.750    5.899    0.238    0.358   66.510
  314.000    6.602    0.228    0.353   60.996
  314.250    6.985    0.222    0.347   58.544
  314.500    7.255    0.214    0.347   55.479
  314.750    7.258    0.240    0.352   53.638
  315.000    7.128    0.257    0.348   54.247
  315.250    6.742    0.254    0.341   52.405
  315.500    5.919    0.244    0.338   53.012
  315.750    5.599    0.232    0.351   54.845
  316.000    5.199    0.213    0.350   57.903
  316.250    5.502    0.201    0.345   61.573
  316.500    5.713    0.190    0.341   66.466
  316.750    6.516    0.204    0.334   65.850
  317.000    6.894    0.248    0.335   64.622
  317.250    7.293    0.275    0.339   62.781
  317.500    7.574    0.293    0.351   57.879
  317.750    8.015    0.285    0.354   52.363
  318.000    8.170    0.279    0.347   49.910
  318.250    8.173    0.284    0.346   49.295
  318.500    8.027    0.281    0.348   48.677
  318.750    8.030    0.276    0.352   48.675
  319.000    8.033    0.269    0.354   49.281
  319.250    7.888    0.265    0.362   49.891
  319.500    7.324    0.254    0.369   50.497
  319.750    6.675    0.247    0.355   49.883
  320.000    6.084    0.242    0.334   48.654
  320.250    5.863    0.229    0.332   46.202
  320.500    5.757    0.219    0.342   49.871
  320.750    6.092    0.218    0.356   55.376
  321.000    6.326    0.229    0.340   59.047
  321.250    6.820    0.253    0.335   65.165
  321.500    7.217    0.280    0.334   55.365
  321.750    7.356    0.305    0.331   44.952
  322.000    7.360    0.307    0.324   32.092
  322.250    7.501    0.296    0.314   29.639
  322.500    7.648    0.290    0.312   29.635
  322.750    7.651    0.287    0.312   31.466
  323.000    7.798    0.283    0.317   32.075
  323.250    7.802    0.287    0.319   32.072
  323.500    7.954    0.288    0.323   30.229
  323.750    7.958    0.283    0.322   30.227
  324.000    7.961    0.284    0.325   31.446
  324.250    7.963    0.287    0.330   33.279
  324.500    7.968    0.284    0.330   35.112
  324.750    7.972    0.283    0.323   35.721
  325.000    7.977    0.283    0.323   36.328
  325.250    8.130    0.279    0.328   34.487
  325.500    8.133    0.278    0.319   32.646
  325.750    8.139    0.277    0.314   32.030
  326.000    8.142    0.277    0.334   32.637
  326.250    8.145    0.277    0.338   33.247
  326.500    8.150    0.286    0.336   34.465
  326.750    8.306    0.291    0.328   35.076
  327.000    8.159    0.291    0.327   34.460
  327.250    8.162    0.287    0.324   34.455
  327.500    8.319    0.287    0.316   34.451
  327.750    8.322    0.287    0.316   35.060
  328.000    8.328    0.290    0.318   37.504
  328.250    8.176    0.295    0.312   37.499
  328.500    8.179    0.299    0.307   37.496
  328.750    8.184    0.288    0.316   38.103
  329.000    8.188    0.286    0.321   38.100
  329.250    8.040    0.287    0.324   38.096
  329.500    7.895    0.285    0.319   36.866
  329.750    7.900    0.285    0.319   36.252
  330.000    7.756    0.292    0.329   35.023
  330.250    7.762    0.300    0.335   34.406
  330.500    7.764    0.297    0.340   35.014
  330.750    7.769    0.299    0.355   35.623
  331.000    7.771    0.306    0.367   33.781
  331.250    7.775    0.310    0.356   33.777
  331.500    7.925    0.319    0.339   35.610
  331.750    7.929    0.319    0.340   37.442
  332.000    7.932    0.313    0.344   39.274
  332.250    7.937    0.310    0.337   39.272
  332.500    7.941    0.306    0.333   39.880
  332.750    7.798    0.304    0.332   39.263
  333.000    7.657    0.302    0.333   39.259
  333.250    7.660    0.303    0.338   39.256
  333.500    7.383    0.304    0.337   38.639
  333.750    7.250    0.307    0.329   38.635
  334.000    7.253    0.311    0.323   39.242
  334.250    7.125    0.316    0.319   39.239
  334.500    6.997    0.323    0.321   38.623
  334.750    7.541    0.330    0.328   38.617
  335.000    7.404    0.327    0.332   38.615
  335.250    7.408    0.321    0.327   38.610
  335.500    7.412    0.316    0.329   34.933
  335.750    7.415    0.311    0.332   33.703
  336.000    7.419    0.308    0.334   33.087
  336.250    7.285    0.308    0.338   33.083
  336.500    7.289    0.309    0.344   32.466
  336.750    7.292    0.319    0.340   32.463
  337.000    7.296    0.314    0.333   32.458
  337.250    7.163    0.305    0.323   32.456
  337.500    7.167    0.305    0.320   32.451
  337.750    7.171    0.315    0.321   32.446
  338.000    7.174    0.318    0.333   33.055
  338.250    7.046    0.319    0.347   31.826
  338.500    7.048    0.314    0.355   30.597
  338.750    7.052    0.306    0.360   30.593
  339.000    7.055    0.304    0.336   30.589
  339.250    7.058    0.304    0.317   31.197
  339.500    6.933    0.311    0.328   31.805
  339.750    6.935    0.312    0.337   32.415
  340.000    6.809    0.313    0.342   32.410
  340.250    6.812    0.317    0.334   32.407
  340.500    6.817    0.322    0.334   31.790
  340.750    6.821    0.332    0.343   31.174
  341.000    6.824    0.332    0.342   30.557
  341.250    6.826    0.330    0.336   29.941
  341.500    6.829    0.326    0.331   29.938
  341.750    6.832    0.323    0.334   30.544
  342.000    6.710    0.320    0.344   31.153
  342.250    6.712    0.317    0.352   32.372
  342.500    6.717    0.311    0.353   33.594
  342.750    6.718    0.307    0.350   34.813
  343.000    6.598    0.314    0.345   36.035
  343.250    6.601    0.323    0.343   37.255
  343.500    6.603    0.331    0.336   36.639
  343.750    6.606    0.338    0.334   36.634
  344.000    6.735    0.337    0.343   37.242
  344.250    6.737    0.336    0.342   37.852
  344.500    6.740    0.335    0.336   39.070
  344.750    6.871    0.328    0.327   39.679
  345.000    6.875    0.314    0.337   40.900
  345.250    6.877    0.306    0.361   42.120
  345.500    6.882    0.303    0.371   42.729
  345.750    6.885    0.307    0.365   42.112
  346.000    6.887    0.318    0.350   42.108
  346.250    6.891    0.332    0.353   42.717
  346.500    6.895    0.329    0.365   43.324
  346.750    6.897    0.324    0.371   42.708
  347.000    6.902    0.318    0.376   41.479
  347.250    6.905    0.315    0.368   42.088
  347.500    6.908    0.309    0.346   43.308
  347.750    6.910    0.308    0.332   43.304
  348.000    6.915    0.306    0.343   43.300
  348.250    6.917    0.303    0.353   42.072
  348.500    6.922    0.302    0.363   42.068
  348.750    6.925    0.303    0.358   42.675
  349.000    7.058    0.306    0.353   43.284
  349.250    7.060    0.307    0.347   43.891
  349.500    7.197    0.307    0.343   43.276
  349.750    7.475    0.303    0.342   43.272
  350.000    8.210    0.305    0.349   42.655
  350.250    9.188    0.313    0.353   42.038
  350.500   10.281    0.318    0.345   42.035
  350.750   11.943    0.290    0.319   42.031
  351.000   13.874    0.252    0.281   41.413
  351.250   15.239    0.181    0.206   40.798
  351.500   14.416    0.105    0.216   38.346
  351.750   12.420    0.169    0.264   34.668
  352.000   11.110    0.230    0.299   32.828
  352.250   11.115    0.249    0.329   36.495
  352.500   11.123    0.251    0.356   37.105
  352.750   10.922    0.234    0.375   36.487
  353.000   10.526    0.261    0.384   36.485
  353.250    9.956    0.287    0.367   37.091
  353.500    8.742    0.300    0.354   37.701
  353.750    8.424    0.303    0.346   38.920
  354.000    7.678    0.299    0.338   39.529
  354.250    7.539    0.304    0.332   40.747
  354.500    7.266    0.311    0.334   41.357
  354.750    6.876    0.315    0.337   42.576
  355.000    6.752    0.300    0.345   43.186
  355.250    6.630    0.297    0.351   43.795
