~VERSION INFORMATION
 VERS.                 2.0:   CWLS LOG ASCII STANDARD -VERSION 2.0
 WRAP.                  NO:   ONE LINE PER DEPTH STEP
~WELL INFORMATION BLOCK
#MNEM.UNIT           DATA                    DESCRIPTION OF MNEMONIC
#---------    -------------------            -------------------------------
# Generated from Intellog Unique Number	CS_67_68/WELL/781
WELL.         SUNDANCE OIL CANADA LTD        : Well_name    - WELL
LOC .         00/07-29-068-16W4/0            : Location     - LOCATION
UWI .         00/07-29-068-16W4/0            : Uwi          - UNIQUE WELL ID
ENTR.         SP                             : Entered      - ENTERED BY
SRVC.         SCHLUMBERGER                   : Scn          - SERVICE COMPANY
STRT.M        292.608                        : top_depth    - START DEPTH
STOP.M        511.858                        : bot_depth    - STOP DEPTH
STEP.M        0.25                           : increment    - STEP LENGTH
 NULL. -999.2500:NULL Value
~CURVE INFORMATION BLOCK
#MNEM UNIT       ERCB CURVE CODE    CURVE DESCRIPTION
#-----------   ------------------   ----------------------------------
DEPT.M        00 001 00 00         : DEPTH        - DEPTH
GR  .API      00 310 00 00         : GR           - GAMMA RAY
DPHI.V/V      00 890 00 00         : PHID         - DENSITY POROSITY (SANDSTONE)
NPHI.V/V      00 330 00 00         : PHIN         - NEUTRON POROSITY (SANDSTONE)
ILD .OHMM     00 120 00 00         : RESD         - DEEP RESISTIVITY (DIL)
~PARAMETER INFORMATION
#MNEM.UNIT           DATA             DESCRIPTION OF MNEMONIC
#---------         -----------     ------------------------------
GL  .M        563.575              : gl           - GROUND LEVEL ELEVATION
EREF.M        567.111              : kb           - ELEVATION OF DEPTH REFERENCE
DATM.M        563.575              : datum        - DATUM ELEVATION
TDD .M        514.502              : tdd          - TOTAL DEPTH DRILLER
RUN .         ONE                  : Run          - RUN NUMBER
ENG .         BILL                 : Engineer     - RECORDING ENGINEER
WIT .         JIM                  : Witness      - WITNESSED BY
MUD .         GEL                  : Mud_type     - MUD TYPE
MATR.         SANDSTONE            : Logunit      - NEUTRON MATRIX
TMAX.C        23.8889              : BHT          - MAXIMUM RECORDED TEMPERATURE
BHTD.M        514.502              : BHTDEP       - MAXIMUM RECORDED TEMPERATURE
MATR.         1                    : LOGUNIT      - NEUTRON MATRIX
RMT .C        25                   : MDTP         - TEMPERATURE OF MUD
NEUT.         1                    : NEUTRON      - NEUTRON TYPE
RESI.         0                    : RESIST       - RESISTIVITY TYPE
RMC .OHMM     0.25                 : RMC          - RESISTIVITY OF MUD CAKE
RMF .OHMM     0.25                 : RMF          - RESISTIVITY OF MUD FILTRATE
SUFT.C        15                   : SUFT         - SURFACE TEMPERATURE
~A  DEPTH       GR     PHID     PHIN     RESD
# ...
  423.108   99.625    0.182    0.428    2.701
  423.358  101.451    0.194    0.449    2.797
  423.608  101.660    0.189    0.468    2.828
  423.858   99.199    0.202    0.481    2.878
  424.108  100.320    0.208    0.473    2.949
  424.358  100.183    0.191    0.457    3.073
  424.608   95.881    0.176    0.438    3.212
  424.858   89.619    0.182    0.426    3.379
  425.108   84.779    0.201    0.414    3.557
  425.358   81.320    0.198    0.424    3.634
  425.608   78.105    0.200    0.422    3.568
  425.858   76.023    0.223    0.411    3.457
  426.108   80.774    0.240    0.404    3.387
  426.358   84.794    0.217    0.410    3.375
  426.608   85.509    0.215    0.420    3.378
  426.858   84.205    0.229    0.420    3.406
  427.108   83.097    0.231    0.410    3.428
  427.358   87.151    0.193    0.394    3.506
  427.608   87.599    0.152    0.393    3.594
  427.858   83.423    0.172    0.404    3.651
  428.108   81.084    0.207    0.380    3.646
  428.358   85.383    0.215    0.361    3.530
  428.608   90.964    0.174    0.340    3.325
  428.858   94.440    0.150    0.370    3.277
  429.108   96.650    0.189    0.396    3.294
  429.358   96.891    0.216    0.406    3.410
  429.608   98.354    0.210    0.396    3.524
  429.858   97.826    0.187    0.392    3.664
  430.108   94.706    0.166    0.401    3.817
  430.358   92.519    0.170    0.411    3.996
  430.608   91.941    0.177    0.408    4.178
  430.858   89.299    0.159    0.400    4.232
  431.108   85.962    0.145    0.389    4.219
  431.358   82.600    0.131    0.361    4.132
  431.608   86.400    0.112    0.331    4.013
  431.858   94.609    0.096    0.299    3.928
  432.108  101.794    0.102    0.365    3.877
  432.358  100.922    0.149    0.389    3.834
  432.608  102.229    0.166    0.401    3.821
  432.858  104.939    0.181    0.408    3.844
  433.108  106.157    0.168    0.424    3.883
  433.358  104.873    0.154    0.413    3.926
  433.608  102.981    0.152    0.405    3.994
  433.858  100.895    0.162    0.403    4.031
  434.108   97.098    0.152    0.398    4.082
  434.358   98.183    0.142    0.393    4.106
  434.608   99.778    0.137    0.399    4.115
  434.858   98.088    0.159    0.408    4.139
  435.108   97.125    0.165    0.407    4.171
  435.358   97.057    0.160    0.416    4.203
  435.608   99.573    0.191    0.394    4.246
  435.858  103.540    0.180    0.374    4.274
  436.108  106.178    0.156    0.356    4.352
  436.358  109.065    0.155    0.358    4.435
  436.608  109.655    0.138    0.366    4.458
  436.858  109.640    0.127    0.375    4.405
  437.108  105.614    0.145    0.388    3.998
  437.358   94.754    0.143    0.395    3.557
  437.608   87.799    0.125    0.382    2.968
  437.858   86.319    0.109    0.373    2.843
  438.108   87.949    0.150    0.398    2.521
  438.358   89.892    0.238    0.436    2.273
  438.608   92.707    0.255    0.487    2.152
  438.858   94.470    0.281    0.512    2.164
  439.108   95.306    0.288    0.494    2.384
  439.358   95.702    0.289    0.502    2.680
  439.608   95.521    0.280    0.516    3.037
  439.858   94.963    0.294    0.535    3.295
  440.108   92.514    0.280    0.508    3.692
  440.358   90.216    0.258    0.439    4.240
  440.608   90.307    0.233    0.431    4.664
  440.858   90.171    0.272    0.438    4.814
  441.108   88.571    0.283    0.435    4.760
  441.358   85.812    0.266    0.417    4.599
  441.608   83.020    0.172    0.384    4.385
  441.858   83.803    0.115    0.364    4.205
  442.108   88.345    0.104    0.359    4.041
  442.358   90.972    0.133    0.372    3.888
  442.608   93.199    0.143    0.381    3.764
  442.858   95.891    0.130    0.390    3.672
  443.108   97.571    0.205    0.389    3.596
  443.358   98.614    0.210    0.386    3.537
  443.608   98.792    0.198    0.405    3.450
  443.858   98.046    0.222    0.423    3.321
  444.108   96.695    0.225    0.423    3.186
  444.358   94.803    0.208    0.412    3.116
  444.608   92.233    0.237    0.405    3.072
  444.858   90.026    0.266    0.424    3.073
  445.108   88.172    0.222    0.447    3.072
  445.358   89.139    0.216    0.456    3.057
  445.608   92.694    0.233    0.468    3.008
  445.858   92.909    0.243    0.458    2.940
  446.108   93.975    0.220    0.451    2.878
  446.358   96.828    0.222    0.468    2.820
  446.608  100.489    0.232    0.453    2.805
  446.858  102.277    0.133    0.471    2.589
  447.108   99.867    0.193    0.467    2.627
  447.358   97.828    0.220    0.462    2.663
  447.608  103.366    0.208    0.464    2.734
  447.858  107.336    0.222    0.475    2.820
  448.108  109.278    0.215    0.492    2.915
  448.358  109.524    0.207    0.506    3.019
  448.608  109.214    0.197    0.480    3.289
  448.858  108.571    0.190    0.462    3.599
  449.108  108.219    0.184    0.451    3.815
  449.358  104.778    0.191    0.460    3.485
  449.608   99.727    0.202    0.454    3.169
  449.858   97.495    0.164    0.417    2.842
  450.108  104.472    0.112    0.380    2.579
  450.358  110.896    0.086    0.354    2.451
  450.608  113.370    0.105    0.398    2.510
  450.858  114.192    0.179    0.433    2.607
  451.108  113.210    0.224    0.462    2.920
  451.358  109.453    0.216    0.489    3.208
  451.608  103.881    0.227    0.486    3.514
  451.858  100.598    0.250    0.468    4.057
  452.108   97.022    0.218    0.446    4.817
  452.358   91.882    0.189    0.409    5.336
  452.608   87.242    0.158    0.358    5.692
  452.858   85.765    0.140    0.340    5.620
  453.108   90.739    0.121    0.344    5.429
  453.358   92.762    0.100    0.368    5.475
  453.608   93.771    0.176    0.377    6.009
  453.858   89.138    0.174    0.366    6.916
  454.108   75.028    0.155    0.348    8.188
  454.358   67.570    0.140    0.329    9.236
  454.608   61.416    0.157    0.292   10.439
  454.858   59.164    0.169    0.281   11.805
  455.108   63.490    0.185    0.287   13.170
  455.358   67.523    0.197    0.294   15.719
  455.608   60.277    0.215    0.298   18.476
  455.858   49.380    0.232    0.293   21.109
  456.108   44.651    0.245    0.298   23.758
  456.358   40.370    0.226    0.306   22.627
  456.608   36.463    0.075    0.276   13.602
  456.858   47.153    0.016    0.230   10.082
  457.108   59.390   -0.014    0.181    8.690
  457.358   77.545   -0.022    0.221    7.101
  457.608   92.278   -0.017    0.311    6.186
  457.858   94.828    0.007    0.350    5.842
  458.108   95.947    0.042    0.368    6.143
  458.358   96.543    0.169    0.384    7.561
  458.608   94.929    0.148    0.401    9.956
  458.858   85.650    0.128    0.423   14.621
  459.108   70.986    0.136    0.439   17.930
  459.358   61.796    0.165    0.401   20.755
  459.608   51.552    0.128    0.318   23.015
  459.858   39.502   -0.014    0.216   22.818
  460.108   45.788   -0.023    0.194   16.607
  460.358   43.666   -0.025    0.206   12.748
  460.608   42.365   -0.025    0.236   10.856
  460.858   49.679   -0.026    0.247    9.082
  461.108   56.734   -0.026    0.227    9.121
  461.358   65.848   -0.019    0.217   10.336
  461.608   73.357   -0.002    0.256   11.606
  461.858   76.872    0.019    0.303   12.235
  462.108   57.068    0.053    0.345   12.216
  462.358   48.354    0.031    0.354    9.534
  462.608   47.459    0.036    0.268    7.884
  462.858   72.191    0.059    0.229    6.917
  463.108   95.881    0.041    0.194    6.141
  463.358  110.248    0.003    0.227    5.905
  463.608  114.216    0.042    0.274    6.480
  463.858  111.388    0.078    0.370    7.357
  464.108  101.246    0.094    0.395    8.295
  464.358   90.415    0.100    0.383    9.181
  464.608   84.199    0.146    0.374   10.112
  464.858   81.871    0.114    0.373   11.053
  465.108   80.633    0.049    0.357   11.657
  465.358   69.880    0.096    0.359   12.259
  465.608   66.007    0.136    0.331   12.032
  465.858   73.871    0.084    0.307   10.769
  466.108   79.054    0.060    0.331    9.696
  466.358   80.131    0.092    0.353    8.778
