~VERSION INFORMATION
 VERS.                 2.0:   CWLS LOG ASCII STANDARD -VERSION 2.0
 WRAP.                  NO:   ONE LINE PER DEPTH STEP
~WELL INFORMATION BLOCK
#MNEM.UNIT           DATA                    DESCRIPTION OF MNEMONIC
#---------    -------------------            -------------------------------
# Generated from Intellog Unique Number	CW_70_72/WELL/928
NULL.         -999.25                        : NULL_VALUE
WELL.         SUNDANCE MCMORAN SMITH 07-30   : Well_name    - WELL              
LOC .         07-30-072-24W4                 : Location     - LOCATION          
UWI .         00/07-30-072-24W4/0            : Uwi          - UNIQUE WELL ID    
ENTR.         JAYE                           : Entered      - ENTERED BY        
SRVC.         SCHLUMBERGER                   : Scn          - SERVICE COMPANY   
DATE.         17 JAN 75                      : Date         - LOG DATE          
STRT.M        411.48                         : top_depth    - START DEPTH       
STOP.M        624.73                         : bot_depth    - STOP DEPTH        
STEP.M        0.25                           : increment    - STEP LENGTH       
~CURVE INFORMATION BLOCK
#MNEM UNIT       ERCB CURVE CODE    CURVE DESCRIPTION
#-----------   ------------------   ----------------------------------
DEPT.M        00 001 00 00         : DEPTH        - DEPTH                       
DPHI.V/V      00 890 00 00         : PHID         - DENSITY POROSITY (SANDSTONE)
NPHI.V/V      00 330 00 00         : PHIN         - NEUTRON POROSITY (SANDSTONE)
GR  .API      00 310 00 00         : GR           - GAMMA RAY                   
CALI.MM       00 280 01 00         : CAL          - CALIPER                     
ILD .OHMM     00 120 00 00         : RESD         - DEEP RESISTIVITY (DIL)      
~PARAMETER INFORMATION       
#MNEM.UNIT           DATA             DESCRIPTION OF MNEMONIC
#---------         -----------     ------------------------------
GL  .M        633.984              : gl           - GROUND LEVEL ELEVATION      
EREF.M        642.518              : kb           - ELEVATION OF DEPTH REFERENCE
DATM.M        633.984              : datum        - DATUM ELEVATION             
TDD .M        624.84               : tdd          - TOTAL DEPTH DRILLER         
RUN .         ONE                  : Run          - RUN NUMBER                  
ENG .         JENSEN               : Engineer     - RECORDING ENGINEER          
WIT .         COPLAND/RUDD         : Witness      - WITNESSED BY                
BASE.         EDM                  : Branch       - HOME BASE OF LOGGING UNIT   
MUD .         GEL CHEM             : Mud_type     - MUD TYPE                    
MATR.         SANDSTONE            : Logunit      - NEUTRON MATRIX              
TMAX.C        25.5556              : BHT          - MAXIMUM RECORDED TEMPERATURE
BHTD.M        624.84               : BHTDEP       - MAXIMUM RECORDED TEMPERATURE
RMT .C        15.5556              : MDTP         - TEMPERATURE OF MUD          
MUDD.KG/M     1104                 : MWT          - MUD DENSITY                 
NEUT.         1                    : NEUTRON      - NEUTRON TYPE                
RESI.         0                    : RESIST       - RESISTIVITY TYPE            
RM  .OHMM     7.26                 : RM           - RESISTIVITY OF MUD          
RMC .OHMM     0                    : RMC          - RESISTIVITY OF MUD CAKE     
RMF .OHMM     8.24                 : RMF          - RESISTIVITY OF MUD FILTRATE 
SUFT.C        0                    : SUFT         - SURFACE TEMPERATURE         
~A  DEPTH     PHID     PHIN       GR      CAL     RESD
# ...
  593.980    0.119    0.306   90.631  181.401    8.601
  594.230    0.127    0.323   94.366  181.547    8.476
  594.480    0.135    0.317   99.280  181.581    8.323
  594.730    0.129    0.329  104.993  181.522    8.232
  594.980    0.121    0.342  110.397  181.141    8.128
  595.230    0.114    0.330  114.998  180.558    8.055
  595.480    0.102    0.324  120.593  180.393    8.100
  595.730    0.121    0.329  126.861  180.222    8.468
  595.980    0.128    0.320  137.586  180.575    9.408
  596.230    0.139    0.310  190.366  180.722   10.965
  596.480    0.173    0.285  214.821  177.727   12.362
  596.730    0.252    0.248   95.726  176.515   13.709
  596.980    0.288    0.202   66.682  176.136   14.760
  597.230    0.282    0.196   50.070  176.491   15.863
  597.480    0.288    0.199   48.364  176.639   17.111
  597.730    0.285    0.197   48.017  176.366   17.855
  597.980    0.286    0.194   44.949  176.093   16.345
  598.230    0.279    0.200   42.313  176.034   13.079
  598.480    0.280    0.215   45.183  175.756   11.020
  598.730    0.276    0.226   49.350  174.996    8.867
  598.980    0.261    0.241   53.830  175.528    7.540
  599.230    0.225    0.264   61.462  175.673    6.864
  599.480    0.183    0.276   80.164  176.341    6.703
  599.730    0.149    0.281   95.650  179.317    7.447
  599.980    0.125    0.296  115.528  182.188    8.003
  600.230    0.104    0.313  133.674  183.063    8.335
  600.480    0.100    0.327  142.668  182.895    8.508
  600.730    0.126    0.341  126.672  180.844    8.369
  600.980    0.143    0.329  111.236  178.371    7.876
  601.230    0.145    0.337   93.200  176.636    7.263
  601.480    0.195    0.412   94.463  175.532    6.723
  601.730    0.221    0.393   96.713  175.144    6.110
  601.980    0.243    0.339   81.276  174.357    5.846
  602.230    0.246    0.329   61.075  173.976    5.645
  602.480    0.239    0.382   67.534  174.228    5.462
  602.730    0.261    0.400   73.185  174.162    5.343
  602.980    0.248    0.333   78.033  172.845    5.227
  603.230    0.255    0.302   70.946  171.941    5.114
  603.480    0.253    0.288   61.322  171.358    4.993
  603.730    0.254    0.305   58.935  172.129    4.867
  603.980    0.241    0.328   69.102  172.803    4.796
  604.230    0.253    0.323   75.561  172.214    4.832
  604.480    0.234    0.321   81.460  171.421    4.950
  604.730    0.215    0.318   83.834  171.248    5.137
  604.980    0.203    0.301   77.055  170.977    5.243
  605.230    0.232    0.275   76.585  170.914    5.196
  605.480    0.219    0.300   81.435  170.537    4.467
  605.730    0.198    0.331   87.458  170.263    4.008
  605.980    0.207    0.352   93.172  170.519    3.622
  606.230    0.224    0.381  101.856  170.552    3.340
  606.480    0.247    0.360  101.202  170.391    3.041
  606.730    0.239    0.315   91.453  170.013    2.841
  606.980    0.216    0.312  103.167  169.738    2.867
  607.230    0.198    0.328  130.837  170.199    3.133
  607.480    0.147    0.344  149.664  172.438    3.552
  607.730    0.103    0.358  172.201  174.996    3.839
  607.980    0.098    0.362  186.575  177.026    4.058
  608.230    0.098    0.370  199.651  176.228    4.157
  608.480    0.081    0.387  201.529  174.594    4.142
  608.730    0.106    0.375  179.907  173.483    3.848
  608.980    0.137    0.360  155.068  173.108    3.595
  609.230    0.120    0.383  111.614  170.843    3.421
  609.480    0.202    0.387   77.376  169.629    3.291
  609.730    0.243    0.326   55.815  170.091    3.184
  609.980    0.239    0.283   39.387  171.914    3.058
  610.230    0.258    0.299   38.051  173.950    2.910
  610.480    0.239    0.295   45.253  175.349    2.795
  610.730    0.212    0.284   52.325  175.183    2.863
  610.980    0.234    0.292   62.679  174.072    2.977
  611.230    0.221    0.307   74.270  172.643    3.199
  611.480    0.196    0.310   74.293  171.119    3.587
  611.730    0.227    0.284   58.917  170.953    4.014
  611.980    0.215    0.277   58.633  172.456    4.435
  612.230    0.182    0.271   73.255  174.697    4.793
  612.480    0.078    0.261   83.855  176.313    4.919
  612.730    0.110    0.254   74.664  177.296    5.123
  612.980    0.099    0.263   75.925  177.543    5.297
  613.230    0.113    0.260   75.703  177.899    5.477
  613.480    0.116    0.249  130.092  178.680    5.579
  613.730    0.098    0.256  142.797  179.450    5.590
  613.980    0.084    0.268  154.202  179.599    5.242
  614.230    0.106    0.277  159.978  179.324    4.540
  614.480    0.086    0.282  178.679  176.327    4.021
  614.730    0.063    0.300  147.532  173.965    3.554
  614.980    0.111    0.338  135.373  176.307    3.212
  615.230    0.145    0.408  125.009  175.613    2.876
  615.480    0.212    0.453   68.502  172.094    2.496
  615.730    0.261    0.434   37.974  172.139    2.166
  615.980    0.268    0.450   30.514  172.492    2.005
  616.230    0.258    0.459   40.930  172.224    1.979
  616.480    0.248    0.464   51.098  171.848    2.009
  616.730    0.237    0.451   58.853  171.677    2.054
  616.980    0.227    0.416   69.702  171.203    2.167
  617.230    0.229    0.428   78.508  170.713    2.308
  617.480    0.247    0.407   86.388  169.922    2.485
  617.730    0.248    0.386   98.411  169.641    2.700
  617.980    0.236    0.369  105.486  169.684    2.860
  618.230    0.197    0.348  103.100  170.044    3.125
  618.480    0.241    0.336   94.589  170.290    3.427
  618.730    0.237    0.335   86.450  170.546    3.793
  618.980    0.218    0.344   83.692  170.585    4.114
  619.230    0.191    0.343   78.768  170.625    4.293
  619.480    0.158    0.351   70.197  171.201    4.513
  619.730    0.136    0.343   60.570  172.704    4.700
  619.980    0.170    0.317   47.051  173.792    4.744
  620.230    0.206    0.330   35.263  174.566    4.481
  620.480    0.240    0.337   36.588  174.922    3.882
  620.730    0.186    0.330   37.850  174.435    3.567
  620.980    0.168    0.352   38.679  173.122    3.400
  621.230    0.201    0.375   39.816  171.903    3.302
  621.480    0.224    0.387   41.449  170.795    3.248
  621.730    0.211    0.402   41.472  169.788    3.291
  621.980    0.215    0.401   38.098  169.618    3.334
  622.230    0.214    0.350   35.462  169.253    3.498
  622.480    0.170    0.306   33.381  169.181    3.677
  622.730    0.154    0.292   31.677  169.009    3.802
  622.980    0.137    0.282   30.773  168.632    3.909
  623.230    0.115    0.271   30.549  168.569    4.087
  623.480    0.105    0.261   31.688  168.087    4.110
  623.730    0.146    0.256   33.259  167.499    3.889
  623.980    0.159    0.258   34.087  167.647    3.528
  624.230    0.145    0.284   33.925  168.106    3.253
  624.480    0.141    0.305   32.465  168.566    2.940
  624.730    0.179    0.314   31.131  168.821    2.782
