~VERSION INFORMATION
 VERS.                 2.0:   CWLS LOG ASCII STANDARD -VERSION 2.0
 WRAP.                  NO:   ONE LINE PER DEPTH STEP
~WELL INFORMATION BLOCK
#MNEM.UNIT           DATA                    DESCRIPTION OF MNEMONIC
#---------    -------------------            -------------------------------
# Generated from Intellog Unique Number	CW_82_90/WELL/3064
WELL.         CHEVRON ET AL WABASCA          : Well_name    - WELL
LOC .         00/07-19-085-24W4/0            : Location     - LOCATION
UWI .         00/07-19-085-24W4/0            : Uwi          - UNIQUE WELL ID
ENTR.         JAYE                           : Entered      - ENTERED BY
SRVC.         SCHLUMBERGER                   : Scn          - SERVICE COMPANY
DATE.         26 FEB 73                      : Date         - LOG DATE
STRT.M        167.64                         : top_depth    - START DEPTH
STOP.M        365.64                         : bot_depth    - STOP DEPTH
STEP.M        0.25                           : increment    - STEP LENGTH
 NULL. -999.2500:NULL Value
~CURVE INFORMATION BLOCK
#MNEM UNIT       ERCB CURVE CODE    CURVE DESCRIPTION
#-----------   ------------------   ----------------------------------
DEPT.M        00 001 00 00         : DEPTH        - DEPTH
DPHI.V/V      00 890 00 00         : PHID         - DENSITY POROSITY (SANDSTONE)
ILD .OHMM     00 120 00 00         : RESD         - DEEP RESISTIVITY (DIL)
CALI.MM       00 280 01 00         : CAL          - CALIPER
GR  .API      00 310 00 00         : GR           - GAMMA RAY
NPHI.V/V      00 330 00 00         : PHIN         - NEUTRON POROSITY (SANDSTONE)
~PARAMETER INFORMATION
#MNEM.UNIT           DATA             DESCRIPTION OF MNEMONIC
#---------         -----------     ------------------------------
GL  .M        543.794              : gl           - GROUND LEVEL ELEVATION
EREF.M        546.08               : kb           - ELEVATION OF DEPTH REFERENCE
DATM.M        543.794              : datum        - DATUM ELEVATION
TDD .M        366.979              : tdd          - TOTAL DEPTH DRILLER
RUN .         ONE                  : Run          - RUN NUMBER
ENG .         SIROIS & SIMPSON     : Engineer     - RECORDING ENGINEER
WIT .         LEWIS                : Witness      - WITNESSED BY
BASE.         EDMONTON             : Branch       - HOME BASE OF LOGGING UNIT
MUD .         FGM                  : Mud_type     - MUD TYPE
MATR.         SANDSTONE            : Logunit      - NEUTRON MATRIX
TMAX.C        18.8889              : BHT          - MAXIMUM RECORDED TEMPERATURE
BHTD.M        366.979              : BHTDEP       - MAXIMUM RECORDED TEMPERATURE
RMT .C        -17.7778             : MDTP         - TEMPERATURE OF MUD
MUDD.KG/M     9400                 : MWT          - MUD DENSITY
NEUT.         1                    : NEUTRON      - NEUTRON TYPE
RESI.         0                    : RESIST       - RESISTIVITY TYPE
RM  .OHMM     0.25                 : RM           - RESISTIVITY OF MUD
RMC .OHMM     0.25                 : RMC          - RESISTIVITY OF MUD CAKE
RMF .OHMM     5.45                 : RMF          - RESISTIVITY OF MUD FILTRATE
SUFT.C        4                    : SUFT         - SURFACE TEMPERATURE
~A  DEPTH     PHID     RESD      CAL       GR     PHIN
  167.640    0.213    3.219  209.644   90.652    0.438
  167.890    0.217    3.223  210.099   95.253    0.436
  168.140    0.200    3.190  208.984   95.312    0.419
  168.390    0.198    3.142  208.904   95.063    0.413
  168.640    0.216    3.157  208.311   97.270    0.436
  168.890    0.215    3.268  208.242   96.163    0.430
  169.140    0.207    3.510  208.270   87.506    0.422
  169.390    0.190    3.755  210.908   78.972    0.402
  169.640    0.173    4.184  226.989   70.684    0.396
  169.890    0.169    4.955  232.648   70.743    0.404
  170.140    0.210    5.988  224.760   70.126    0.423
  170.390    0.226    6.949  203.635   65.766    0.445
  170.640    0.236    8.650  200.128   66.561    0.461
  170.890    0.242   10.171  200.677   69.136    0.466
  171.140    0.244   10.528  200.088   70.791    0.466
  171.390    0.239   10.444  200.532   70.236    0.460
  171.640    0.242   10.551  199.729   69.251    0.460
  171.890    0.237   10.983  198.407   67.714    0.460
  172.140    0.207   10.479  197.500   65.686    0.437
  172.390    0.186   10.766  196.805   62.185    0.412
  172.640    0.183   11.164  196.835   63.041    0.445
  172.890    0.234   11.491  198.122   64.635    0.462
  173.140    0.250   11.548  198.670   68.622    0.464
  173.390    0.253   10.838  200.579   70.951    0.472
  173.640    0.211    9.748  201.861   79.848    0.471
  173.890    0.202    8.513  201.892   87.824    0.463
  174.140    0.207    5.443  201.090   86.287    0.427
  174.390    0.219    4.240  202.476   85.548    0.437
  174.640    0.212    3.376  205.535   84.195    0.422
  174.890    0.196    2.911  209.107   82.904    0.416
  175.140    0.190    2.855  212.784   82.533    0.416
  175.390    0.199    2.972  214.172   84.924    0.419
  175.640    0.200    3.139  213.581   87.560    0.432
  175.890    0.211    3.310  212.462   86.698    0.430
  176.140    0.199    3.522  207.391   86.021    0.412
  176.390    0.163    3.911  202.420   87.184    0.386
  176.640    0.164    4.199  204.224   89.759    0.385
  176.890    0.170    4.645  207.275   85.829    0.392
  177.140    0.168    4.933  208.667   81.162    0.417
  177.390    0.204    4.859  209.426   84.289    0.430
  177.640    0.202    4.792  209.350   86.250    0.423
  177.890    0.177    4.906  208.549   84.038    0.400
  178.140    0.180    5.172  206.184   70.287    0.400
  178.390    0.211    5.534  201.633   64.147    0.431
  178.640    0.213    6.340  198.537   63.224    0.432
  178.890    0.210    7.806  197.317   65.001    0.425
  179.140    0.229    9.733  196.932   66.287    0.442
  179.390    0.249   11.444  197.068   66.285    0.462
  179.640    0.268   13.257  197.097   62.722    0.480
  179.890    0.282   14.052  196.922   55.477    0.498
  180.140    0.290   14.599  198.308   43.690    0.508
  180.390    0.287   14.915  200.850   43.688    0.506
  180.640    0.258   15.212  202.539   45.649    0.450
  180.890    0.204   15.774  203.199   44.971    0.424
  181.140    0.242   16.477  202.916   39.752    0.435
  181.390    0.283   17.992  201.490   31.157    0.487
  181.640    0.301   21.866  200.480   29.927    0.524
  181.890    0.299   26.237  198.843   29.126    0.521
  182.140    0.295   28.700  197.735   30.780    0.517
  182.390    0.270   30.541  196.721   32.680    0.487
  182.640    0.274   31.091  195.917   32.678    0.485
  182.890    0.297   30.274  195.843   33.228    0.513
  183.140    0.291   28.728  196.089   34.943    0.506
  183.390    0.296   23.829  197.160   38.132    0.513
  183.640    0.290   19.760  200.003   48.748    0.490
  183.890    0.263   13.085  202.848   58.749    0.458
  184.140    0.228    9.767  204.862   68.874    0.435
  184.390    0.212    6.747  203.329   76.666    0.428
  184.640    0.197    6.047  200.236   70.096    0.401
  184.890    0.177    5.857  196.827   59.414    0.376
  185.140    0.139    6.420  195.503   50.389    0.352
  185.390    0.091    7.745  196.266   45.169    0.310
  185.640    0.054    9.516  197.443   38.907    0.289
  185.890    0.146   12.637  199.040   40.990    0.330
  186.140    0.225   15.273  198.652   46.941    0.488
  186.390    0.268   15.149  197.230   50.069    0.475
  186.640    0.266   13.755  197.467   45.770    0.496
  186.890    0.289   13.273  198.021   40.305    0.514
  187.140    0.311   13.762  198.472   36.435    0.541
  187.390    0.319   15.166  199.021   35.021    0.531
  187.640    0.307   19.589  199.156   34.282    0.521
  187.890    0.283   23.941  199.190   33.542    0.500
  188.140    0.290   27.478  199.327   33.111    0.506
  188.390    0.301   29.133  199.253   32.862    0.522
  188.640    0.297   29.224  198.866   33.105    0.514
  188.890    0.286   27.276  198.901   33.164    0.509
  189.140    0.275   23.558  199.350   34.450    0.500
  189.390    0.260   18.178  199.901   39.910    0.458
  189.640    0.238   14.344  200.662   47.641    0.433
  189.890    0.220   11.744  202.052   45.736    0.432
  190.140    0.240   10.981  201.870   40.823    0.469
  190.390    0.271   10.996  196.278   36.401    0.509
  190.640    0.314   12.028  196.518   34.987    0.531
  190.890    0.305   16.301  196.656   36.150    0.524
  191.140    0.298   20.822  195.849   36.209    0.522
  191.390    0.299   26.843  195.881   36.819    0.519
  191.640    0.279   29.639  196.018   37.800    0.502
  191.890    0.272   30.789  196.260   36.447    0.487
  192.140    0.284   30.770  196.705   36.198    0.497
  192.390    0.294   30.140  196.953   36.810    0.513
  192.640    0.290   28.917  197.185   38.280    0.512
  192.890    0.296   26.987  197.115   40.180    0.509
  193.140    0.291   23.056  197.249   46.377    0.516
  193.390    0.267   18.495  197.182   54.169    0.486
  193.640    0.241   14.565  197.317   63.065    0.460
  193.890    0.252   11.556  198.077   69.201    0.473
  194.140    0.274    9.017  199.564   72.696    0.494
  194.390    0.265    7.181  201.368   78.401    0.444
  194.640    0.214    6.460  199.318   82.388    0.436
  194.890    0.218    6.141  202.265   77.046    0.436
  195.140    0.234    6.026  203.032   73.790    0.453
  195.390    0.237    6.641  201.498   71.026    0.453
  195.640    0.235    7.415  200.276   69.182    0.468
  195.890    0.252    8.185  199.164   69.609    0.479
  196.140    0.257    9.256  199.193   63.714    0.474
  196.390    0.251   10.072  199.437   66.842    0.467
  196.640    0.244   10.215  199.882   73.959    0.464
  196.890    0.243   10.097  200.442   72.115    0.462
  197.140    0.238    9.942  201.094   67.632    0.460
  197.390    0.241    9.971  202.273   67.629    0.461
  197.640    0.236   10.114  202.930   65.969    0.446
  197.890    0.224   10.236  203.274   70.324    0.453
  198.140    0.241   10.345  203.099   73.145    0.466
  198.390    0.225   10.434  203.755   74.554    0.447
  198.640    0.234   10.583  203.993   77.252    0.449
  198.890    0.250   10.673  204.235   77.679    0.469
  199.140    0.235   10.823  203.953   74.853    0.450
  199.390    0.231   11.021  202.941   73.377    0.461
  199.640    0.240   11.094  200.683   71.595    0.455
  199.890    0.250   10.945  199.983   70.426    0.472
  200.140    0.263   10.083  201.474   70.669    0.483
  200.390    0.235    8.550  204.841   86.440    0.465
  200.640    0.193    6.961  211.228   95.644    0.418
  200.890    0.198    5.512  215.224   89.688    0.429
  201.140    0.219    4.841  211.711   81.951    0.437
  201.390    0.267    4.830  201.529   70.840    0.490
  201.640    0.247    5.244  197.599   68.934    0.481
  201.890    0.242    6.041  197.216   70.220    0.463
  202.140    0.235    7.155  200.267   71.323    0.464
  202.390    0.251    7.600  197.487   76.721    0.468
  202.640    0.244    7.415  197.208   75.921    0.460
  202.890    0.252    6.946  198.174   73.831    0.490
  203.140    0.286    6.458  201.543   73.399    0.508
  203.390    0.274    6.256  202.303   74.870    0.486
  203.640    0.291    6.193  200.770   76.340    0.493
  203.890    0.228    6.133  196.426   73.698    0.495
