~VERSION INFORMATION
 VERS.                 2.0:   CWLS LOG ASCII STANDARD -VERSION 2.0
 WRAP.                  NO:   ONE LINE PER DEPTH STEP
~WELL INFORMATION BLOCK
#MNEM.UNIT           DATA                    DESCRIPTION OF MNEMONIC
#---------    -------------------            -------------------------------
# Generated from Intellog Unique Number	CX_WELLS/WELL/4044
WELL.         AMOCO KERBRY                   : Well_name    - WELL
LOC .         00/07-19-074-05W4/0            : Location     - LOCATION
UWI .         00/07-19-074-05W4/0            : Uwi          - UNIQUE WELL ID
ENTR.         T                              : Entered      - ENTERED BY
SRVC.         SCHLUMBERGER                   : Scn          - SERVICE COMPANY
STRT.F        850                            : top_depth    - START DEPTH
STOP.F        1630.02                        : bot_depth    - STOP DEPTH
STEP.F        0.82                           : increment    - STEP LENGTH
 NULL. -999.2500:NULL Value
~CURVE INFORMATION BLOCK
#MNEM UNIT       ERCB CURVE CODE    CURVE DESCRIPTION
#-----------   ------------------   ----------------------------------
DEPT.F        00 001 00 00         : DEPTH        - DEPTH
GR  .API      00 310 00 00         : GR           - GAMMA RAY
NPHI.V/V      00 330 00 00         : PHIN         - NEUTRON POROSITY (SANDSTONE)
DPHI.V/V      00 890 00 00         : PHID         - DENSITY POROSITY (SANDSTONE)
ILD .OHMM     00 120 00 00         : RESD         - DEEP RESISTIVITY (DIL)
~PARAMETER INFORMATION
#MNEM.UNIT           DATA             DESCRIPTION OF MNEMONIC
#---------         -----------     ------------------------------
GL  .F        2144                 : gl           - GROUND LEVEL ELEVATION
EREF.F        2156                 : kb           - ELEVATION OF DEPTH REFERENCE
DATM.F        2156                 : datum        - DATUM ELEVATION
TDD .F        1677                 : tdd          - TOTAL DEPTH DRILLER
RUN .         ONE                  : Run          - RUN NUMBER
ENG .         BILL                 : Engineer     - RECORDING ENGINEER
WIT .         JIM                  : Witness      - WITNESSED BY
MUD .         GEL                  : Mud_type     - MUD TYPE
MATR.         SANDSTONE            : Logunit      - NEUTRON MATRIX
TMAX.F        62.6                 : BHT          - MAXIMUM RECORDED TEMPERATURE
BHTD.F        1677                 : BHTDEP       - MAXIMUM RECORDED TEMPERATURE
MATR.         1                    : LOGUNIT      - NEUTRON MATRIX
RMT .F        77                   : MDTP         - TEMPERATURE OF MUD
NEUT.         1                    : NEUTRON      - NEUTRON TYPE
RESI.         5.6                  : RESIST       - RESISTIVITY TYPE
RMC .OHMM     5.2                  : RMC          - RESISTIVITY OF MUD CAKE
RMF .OHMM     4.2                  : RMF          - RESISTIVITY OF MUD FILTRATE
SUFT.F        59                   : SUFT         - SURFACE TEMPERATURE
~A  DEPTH       GR     PHIN     PHID     RESD
# ...
 1420.870   51.983    0.336    0.317   31.213
 1421.690   50.096    0.342    0.316   31.221
 1422.510   49.475    0.345    0.305   33.002
 1423.330   49.485    0.348    0.287   35.528
 1424.150   54.579    0.350    0.270   40.412
 1424.970   61.569    0.350    0.249   45.139
 1425.790   67.928    0.348    0.250   41.952
 1426.610   74.287    0.344    0.260   36.908
 1427.430   81.916    0.339    0.272   31.881
 1428.250   88.275    0.335    0.288   27.038
 1429.070   88.926    0.328    0.299   26.073
 1429.890   87.036    0.332    0.303   26.082
 1430.710   84.508    0.334    0.303   26.091
 1431.530   81.349    0.335    0.303   26.101
 1432.350   77.559    0.335    0.302   27.088
 1433.170   75.031    0.336    0.301   28.108
 1433.990   71.875    0.338    0.300   31.393
 1434.810   69.988    0.339    0.300   35.059
 1435.630   69.360    0.342    0.302   37.742
 1436.450   66.836    0.346    0.304   42.150
 1437.270   66.215    0.351    0.309   45.375
 1438.090   66.232    0.355    0.311   47.088
 1438.910   66.249    0.357    0.309   48.870
 1439.730   66.255    0.363    0.306   50.710
 1440.550   66.269    0.368    0.304   54.591
 1441.370   66.286    0.371    0.300   56.652
 1442.190   66.299    0.371    0.299   56.672
 1443.010   66.310    0.371    0.298   53.656
 1443.830   61.250    0.371    0.294   51.741
 1444.650   59.357    0.368    0.277   49.894
 1445.470   61.912    0.367    0.266   48.113
 1446.290   64.460    0.364    0.261   44.729
 1447.110   67.015    0.366    0.258   42.341
 1447.930   68.933    0.367    0.253   37.944
 1448.750   70.850    0.367    0.247   35.268
 1449.570   71.501    0.363    0.242   31.603
 1450.390   71.508    0.359    0.231   27.300
 1451.210   73.425    0.358    0.223   24.016
 1452.030   76.612    0.357    0.217   21.520
 1452.850   80.433    0.354    0.210   18.254
 1453.670   84.888    0.353    0.207   17.280
 1454.490   88.078    0.354    0.205   15.485
 1455.310   91.268    0.355    0.205   14.931
 1456.140   92.544    0.355    0.205   13.381
 1456.960   97.009    0.355    0.205   11.774
 1457.780   98.285    0.354    0.205   11.561
 1458.600  100.202    0.353    0.207   10.946
 1459.420  100.854    0.353    0.216   10.364
 1460.240  100.236    0.355    0.223   10.178
 1461.060   98.974    0.356    0.228    9.997
 1461.880   93.277    0.356    0.229   10.001
 1462.700   86.941    0.354    0.227   10.189
 1463.520   79.340    0.345    0.222   10.575
 1464.340   74.912    0.338    0.227   10.974
 1465.160   71.118    0.339    0.241   11.599
 1465.980   68.593    0.344    0.254   12.260
 1466.800   67.338    0.346    0.260   12.492
 1467.620   64.813    0.345    0.255   12.268
 1468.440   61.026    0.341    0.246   12.272
 1469.260   59.764    0.334    0.240   12.276
 1470.080   59.146    0.328    0.235   12.741
 1470.900   60.432    0.328    0.228   12.980
 1471.720   61.074    0.325    0.225   13.225
 1472.540   63.632    0.324    0.233   13.233
 1473.360   64.274    0.323    0.246   12.996
 1474.180   66.194    0.328    0.255   12.999
 1475.000   68.112    0.333    0.256   12.769
 1475.820   69.394    0.335    0.253   12.772
 1476.640   70.677    0.331    0.247   12.778
 1477.460   70.690    0.330    0.243   13.019
 1478.280   70.701    0.325    0.242   13.265
 1479.100   71.993    0.326    0.251   13.515
 1479.920   72.635    0.331    0.266   13.519
 1480.740   73.918    0.336    0.278   14.030
 1481.560   75.204    0.337    0.298   14.560
 1482.380   76.483    0.340    0.314   14.834
 1483.200   80.304    0.338    0.311   15.680
 1484.020   84.759    0.336    0.309   16.573
 1484.840   91.118    0.336    0.305   17.841
 1485.660   98.747    0.333    0.303   19.925
 1486.480   92.415    0.332    0.302   22.252
 1487.300   79.106    0.332    0.302   24.848
 1488.120   75.950    0.330    0.302   28.266
 1488.940   74.688    0.332    0.304   32.148
 1489.760   72.170    0.335    0.301   35.905
 1490.580   71.542    0.334    0.299   39.365
 1491.400   69.021    0.336    0.295   43.966
 1492.220   66.493    0.338    0.290   46.471
 1493.040   61.433    0.341    0.287   50.027
 1493.860   60.178    0.341    0.287   53.861
 1494.690   60.188    0.341    0.286   55.884
 1495.510   59.574    0.339    0.286   60.166
 1496.330   58.946    0.338    0.284   64.777
 1497.150   57.059    0.336    0.284   69.735
 1497.970   55.804    0.332    0.282   75.072
 1498.790   54.545    0.329    0.284   79.341
 1499.610   53.927    0.330    0.286   87.002
 1500.430   54.572    0.333    0.290   95.404
 1501.250   55.220    0.337    0.297  100.821
 1502.070   56.503    0.343    0.302  106.564
 1502.890   58.423    0.337    0.304  114.719
 1503.710   58.437    0.330    0.309  123.499
 1504.530   57.185    0.325    0.314  130.546
 1505.350   56.560    0.322    0.317  132.998
 1506.170   56.574    0.327    0.318  138.043
 1506.990   55.950    0.327    0.318  138.067
 1507.810   54.694    0.323    0.313  138.129
 1508.630   54.073    0.320    0.309  138.178
 1509.450   53.452    0.324    0.308  138.227
 1510.270   52.831    0.326    0.309  135.774
 1511.090   52.848    0.330    0.312  135.810
 1511.910   52.862    0.334    0.314  135.846
 1512.730   53.513    0.337    0.315  133.435
 1513.550   53.520    0.339    0.316  131.068
 1514.370   53.534    0.340    0.316  131.091
 1515.190   52.913    0.339    0.315  126.412
 1516.010   52.926    0.339    0.313  124.158
 1516.830   52.309    0.340    0.310  124.202
 1517.650   51.684    0.341    0.308  124.257
 1518.470   50.432    0.342    0.306  126.614
 1519.290   49.811    0.341    0.304  128.993
 1520.110   49.187    0.338    0.301  133.874
 1520.930   49.200    0.340    0.298  136.377
 1521.750   49.221    0.345    0.295  138.952
 1522.570   49.227    0.353    0.309  141.587
 1523.390   49.241    0.362    0.314  141.638
 1524.210   48.623    0.364    0.311  136.583
 1525.030   47.999    0.368    0.305  131.708
 1525.850   46.109    0.362    0.301  131.743
 1526.670   44.853    0.353    0.295  131.790
 1527.490   43.601    0.344    0.300  131.837
 1528.310   42.980    0.342    0.315  131.883
 1529.130   42.363    0.343    0.313  120.376
 1529.950   41.738    0.343    0.312  109.854
 1530.770   41.748    0.342    0.308   91.471
 1531.590   43.031    0.342    0.299   81.965
 1532.410   46.855    0.344    0.290   73.459
 1533.230   50.042    0.344    0.286   72.143
 1534.060   51.962    0.344    0.286   72.175
 1534.880   53.238    0.340    0.285   70.875
 1535.700   55.159    0.333    0.286   70.913
 1536.520   58.345    0.327    0.291   70.945
 1537.340   60.897    0.327    0.292   70.963
 1538.160   61.542    0.328    0.295   70.989
 1538.980   61.559    0.328    0.297   65.989
 1539.800   61.569    0.329    0.298   58.050
 1540.620   60.952    0.329    0.299   36.036
 1541.440   59.696    0.330    0.301   29.460
 1542.260   57.806    0.332    0.301   21.574
 1543.080   56.550    0.333    0.301   16.693
 1543.900   56.560    0.332    0.292   14.420
 1544.720   56.574    0.324    0.286   13.403
 1545.540   59.126    0.320    0.277   12.233
 1546.360   64.219    0.322    0.270   11.165
 1547.180   66.768    0.324    0.267   10.767
 1548.000   67.416    0.329    0.263   10.382
 1548.820   67.433    0.335    0.262    9.830
 1549.640   66.812    0.338    0.262    9.654
 1550.460   67.460    0.339    0.262    9.309
 1551.280   67.474    0.337    0.261    9.313
 1552.100   67.487    0.336    0.258    9.489
 1552.920   66.863    0.335    0.257    9.493
 1553.740   66.242    0.334    0.264    9.672
 1554.560   66.255    0.335    0.268    9.675
 1555.380   66.269    0.341    0.268    9.678
 1556.200   66.282    0.346    0.267    9.333
 1557.020   68.838    0.348    0.264    9.167
 1557.840   72.662    0.345    0.262    8.840
 1558.660   75.210    0.341    0.256    8.682
 1559.480   77.759    0.336    0.251    8.528
 1560.300   81.587    0.332    0.246    8.375
 1561.120   82.862    0.332    0.241    8.227
 1561.940   82.876    0.336    0.238    8.081
 1562.760   79.717    0.341    0.235    7.937
