~VERSION INFORMATION
 VERS.                 2.0:   CWLS LOG ASCII STANDARD -VERSION 2.0
 WRAP.                  NO:   ONE LINE PER DEPTH STEP
~WELL INFORMATION BLOCK
#MNEM.UNIT           DATA                    DESCRIPTION OF MNEMONIC
#---------    -------------------            -------------------------------
# Generated from Intellog Unique Number	CW_76_78/WELL/199
WELL.         SULPETRO MARTEN HILLS 04-29    : Well_name    - WELL
LOC .         00/04-29-076-23W4/0            : Location     - LOCATION
UWI .         00/04-29-076-23W4/0            : Uwi          - UNIQUE WELL ID
ENTR.         JAYE                           : Entered      - ENTERED BY
SRVC.         SCHLUMBERGER                   : Scn          - SERVICE COMPANY
DATE.         4 MAR 84                       : Date         - LOG DATE
STRT.M        640                            : top_depth    - START DEPTH
STOP.M        891                            : bot_depth    - STOP DEPTH
STEP.M        0.25                           : increment    - STEP LENGTH
 NULL. -999.2500:NULL Value
~CURVE INFORMATION BLOCK
#MNEM UNIT       ERCB CURVE CODE    CURVE DESCRIPTION
#-----------   ------------------   ----------------------------------
DEPT.M        00 001 00 00         : DEPTH        - DEPTH
ILD .OHMM     00 120 00 00         : RESD         - DEEP RESISTIVITY (DIL)
NPHI.V/V      00 330 00 00         : PHIN         - NEUTRON POROSITY (SANDSTONE)
DPHI.V/V      00 890 00 00         : PHID         - DENSITY POROSITY (SANDSTONE)
GR  .API      00 310 00 00         : GR           - GAMMA RAY
CALI.MM       00 280 01 00         : CAL          - CALIPER
~PARAMETER INFORMATION
#MNEM.UNIT           DATA             DESCRIPTION OF MNEMONIC
#---------         -----------     ------------------------------
GL  .M        935.93               : gl           - GROUND LEVEL ELEVATION
EREF.M        939.4                : kb           - ELEVATION OF DEPTH REFERENCE
DATM.M        935.93               : datum        - DATUM ELEVATION
TDD .M        896                  : tdd          - TOTAL DEPTH DRILLER
RUN .         ONE                  : Run          - RUN NUMBER
MUD .         GEL CHEM             : Mud_type     - MUD TYPE
MATR.         SANDSTONE            : Logunit      - NEUTRON MATRIX
TMAX.C        24                   : BHT          - MAXIMUM RECORDED TEMPERATURE
BHTD.M        891                  : BHTDEP       - MAXIMUM RECORDED TEMPERATURE
RMT .C        14                   : MDTP         - TEMPERATURE OF MUD
MUDD.KG/M     1170                 : MWT          - MUD DENSITY
NEUT.         1                    : NEUTRON      - NEUTRON TYPE
RESI.         0                    : RESIST       - RESISTIVITY TYPE
RM  .OHMM     1.374                : RM           - RESISTIVITY OF MUD
RMC .OHMM     0                    : RMC          - RESISTIVITY OF MUD CAKE
RMF .OHMM     1.642                : RMF          - RESISTIVITY OF MUD FILTRATE
SUFT.C        0                    : SUFT         - SURFACE TEMPERATURE
~A  DEPTH     RESD     PHIN     PHID       GR      CAL
# ...
  713.000    6.653    0.470    0.371   62.109  147.220
  713.250    6.788    0.463    0.354   64.834  148.342
  713.500    6.699    0.458    0.344   67.867  149.046
  713.750    6.488    0.464    0.333   69.846  149.652
  714.000    6.415    0.462    0.313   72.569  149.947
  714.250    6.473    0.465    0.282   74.610  150.345
  714.500    6.690    0.472    0.309   73.668  150.327
  714.750    6.928    0.477    0.329   72.973  150.207
  715.000    7.161    0.488    0.333   74.454  149.982
  715.250    6.950    0.477    0.297   76.246  150.172
  715.500    6.535    0.443    0.269   78.784  151.708
  715.750    6.123    0.443    0.241   82.253  155.109
  716.000    5.736    0.459    0.223   89.264  160.269
  716.250    5.295    0.464    0.218   93.168  163.566
  716.500    4.933    0.461    0.213   93.034  164.583
  716.750    4.753    0.477    0.206   91.345  164.568
  717.000    4.699    0.483    0.219   90.216  163.514
  717.250    4.767    0.472    0.232   89.647  159.353
  717.500    5.048    0.464    0.233   89.387  154.678
  717.750    5.444    0.454    0.221   88.693  152.070
  718.000    5.797    0.447    0.218   88.187  151.639
  718.250    6.161    0.462    0.228   87.368  152.348
  718.500    6.584    0.476    0.245   86.489  153.468
  718.750    6.972    0.471    0.257   84.553  154.074
  719.000    7.355    0.475    0.242   80.131  155.092
  719.250    7.831    0.505    0.167   72.726  156.214
  719.500    8.170    0.313    0.091   71.411  157.956
  719.750    8.167    0.274    0.066   80.970  159.490
  720.000    7.539    0.352    0.155   87.981  160.409
  720.250    6.743    0.432    0.190   92.444  161.839
  720.500    6.076    0.433    0.186   93.615  162.962
  720.750    5.486    0.425    0.182   94.847  164.086
  721.000    5.064    0.438    0.178   97.198  165.932
  721.250    4.709    0.454    0.184   98.927  167.054
  721.500    4.486    0.478    0.211   96.121  167.866
  721.750    4.402    0.495    0.229   91.264  168.574
  722.000    4.500    0.484    0.223   86.718  166.795
  722.250    4.617    0.487    0.209   87.142  164.086
  722.500    4.728    0.479    0.196   88.188  163.964
  722.750    4.815    0.453    0.203   92.466  165.293
  723.000    4.725    0.462    0.218   96.556  167.038
  723.250    4.330    0.474    0.220   93.501  166.916
  723.500    3.866    0.462    0.226   87.650  165.553
  723.750    3.228    0.480    0.235   84.223  164.293
  724.000    2.898    0.500    0.243   86.759  163.655
  724.250    2.685    0.501    0.240   88.241  164.051
  724.500    2.554    0.494    0.230   89.286  165.898
  724.750    2.451    0.481    0.222   89.773  168.575
  725.000    2.352    0.479    0.231   90.757  171.456
  725.250    2.228    0.513    0.242   93.108  170.507
  725.500    2.143    0.522    0.235   93.906  168.316
  725.750    2.206    0.506    0.222   89.980  166.228
  726.000    2.302    0.503    0.220   90.405  165.382
  726.250    2.483    0.501    0.228   88.282  165.780
  726.500    3.060    0.471    0.230   88.893  166.175
  726.750    3.588    0.508    0.236   91.369  165.331
  727.000    4.009    0.526    0.260   81.479  153.610
  727.250    4.521    0.506    0.297   76.622  146.550
  727.500    4.959    0.492    0.314   70.957  147.673
  727.750    5.320    0.496    0.321   69.455  150.865
  728.000    5.611    0.497    0.260   76.031  153.749
  728.250    5.854    0.493    0.231   82.980  155.077
  728.500    5.918    0.488    0.223   86.388  154.335
  728.750    5.949    0.487    0.261   91.659  153.387
  729.000    5.948    0.485    0.295   91.835  152.540
  729.250    6.012    0.474    0.305   84.679  151.588
  729.500    6.100    0.436    0.283   76.778  151.159
  729.750    6.167    0.439    0.272   73.038  150.625
  730.000    6.222    0.457    0.287   72.221  150.399
  730.250    6.267    0.474    0.300   70.781  150.589
  730.500    6.299    0.481    0.308   69.218  150.467
  730.750    6.274    0.470    0.322   68.400  150.350
  731.000    6.226    0.461    0.311   66.401  150.228
  731.250    6.190    0.471    0.303   69.248  149.901
  731.500    6.130    0.469    0.304   73.340  149.880
  731.750    6.106    0.453    0.305   77.306  150.072
  732.000    6.082    0.484    0.296   71.081  150.263
  732.250    6.046    0.487    0.308   64.423  150.658
  732.500    6.044    0.470    0.321   65.966  150.845
  732.750    6.064    0.452    0.328   69.436  151.034
  733.000    6.074    0.442    0.315   72.222  151.334
  733.250    6.095    0.463    0.308   70.223  151.005
  733.500    6.138    0.461    0.302   65.799  150.365
  733.750    6.159    0.453    0.304   62.807  149.003
  734.000    6.181    0.458    0.308   61.244  148.365
  734.250    6.190    0.463    0.314   67.136  148.244
  734.500    6.188    0.457    0.323   69.985  148.642
  734.750    6.175    0.458    0.314   64.133  149.660
  735.000    6.116    0.480    0.300   59.650  151.403
  735.250    6.058    0.497    0.292   62.310  152.941
  735.500    5.978    0.484    0.301   70.503  153.853
  735.750    5.899    0.463    0.295   76.022  152.906
  736.000    5.735    0.454    0.270   77.876  149.781
  736.250    5.587    0.444    0.254   81.656  146.552
  736.500    5.392    0.453    0.269   79.161  144.775
  736.750    5.301    0.470    0.286   81.325  145.691
  737.000    5.270    0.455    0.284   85.230  148.884
  737.250    5.297    0.425    0.277   80.870  150.938
  737.500    5.375    0.445    0.269   77.442  151.543
  737.750    5.535    0.491    0.277   75.940  152.043
  738.000    5.732    0.505    0.306   73.568  152.747
  738.250    6.369    0.440    0.294   67.531  153.459
  738.500    8.223    0.333    0.215   64.662  154.475
  738.750   11.956    0.263    0.072   60.613  155.698
  739.000   16.656    0.213    0.040   53.706  156.410
  739.250   30.586    0.182    0.010   50.651  156.392
  739.500   33.422    0.169    0.013   58.096  154.717
  739.750   29.951    0.194    0.067   66.972  151.595
  740.000   23.355    0.376    0.207   71.995  148.678
  740.250   15.243    0.417    0.228   75.898  147.831
  740.500   10.537    0.423    0.245   78.435  147.709
  740.750    7.801    0.419    0.256   80.228  148.004
  741.000    6.661    0.425    0.270   81.212  148.817
  741.250    5.903    0.444    0.272   81.264  149.730
  741.500    5.369    0.453    0.264   81.750  150.438
  741.750    5.105    0.460    0.254   83.356  151.249
  742.000    5.001    0.470    0.248   85.707  151.957
  742.250    4.971    0.480    0.244   86.628  152.666
  742.500    4.924    0.474    0.245   85.810  153.167
  742.750    4.868    0.476    0.245   83.873  154.183
  743.000    4.894    0.489    0.244   80.198  155.100
  743.250    4.920    0.483    0.245   78.199  156.013
  743.500    4.891    0.478    0.247   82.290  156.308
  743.750    4.826    0.480    0.245   86.752  156.185
  744.000    4.745    0.482    0.236   89.788  155.963
  744.250    4.656    0.473    0.224   90.523  155.947
  744.500    4.561    0.450    0.201   87.654  155.930
  744.750    4.435    0.458    0.216   88.763  156.429
  745.000    4.264    0.457    0.240   92.107  157.136
  745.250    4.153    0.456    0.217   93.526  158.363
  745.500    4.091    0.484    0.199   88.732  159.485
  745.750    4.052    0.496    0.194   83.999  158.535
  746.000    4.036    0.489    0.214   87.344  156.241
  746.250    4.057    0.471    0.237   88.949  155.602
  746.500    4.124    0.457    0.220   90.864  157.965
  746.750    4.138    0.459    0.211   92.719  160.331
  747.000    4.129    0.477    0.202   94.635  162.487
  747.250    4.120    0.478    0.213   91.021  162.988
  747.500    4.081    0.473    0.221   93.060  163.490
  747.750    4.065    0.476    0.225   92.366  165.855
  748.000    4.034    0.488    0.239   86.516  166.770
  748.250    4.010    0.501    0.249   81.969  160.539
  748.500    4.009    0.482    0.258   79.784  152.238
  748.750    4.008    0.463    0.261   82.135  151.804
  749.000    4.029    0.448    0.242   85.791  153.548
  749.250    4.141    0.450    0.224   82.985  157.053
