~VERSION INFORMATION
 VERS.                 2.0:   CWLS LOG ASCII STANDARD -VERSION 2.0
 WRAP.                  NO:   ONE LINE PER DEPTH STEP
~WELL INFORMATION BLOCK
#MNEM.UNIT           DATA                    DESCRIPTION OF MNEMONIC
#---------    -------------------            -------------------------------
# Generated from Intellog Unique Number	CS_67_68/WELL/2160
WELL.         02-29-067-06W4                 : Well_name    - WELL
LOC .         00/02-29-067-06W4/0            : Location     - LOCATION
UWI .         00/02-29-067-06W4/0            : Uwi          - UNIQUE WELL ID
ENTR.         SP                             : Entered      - ENTERED BY
SRVC.         SCHLUMBERGER                   : Scn          - SERVICE COMPANY
STRT.M        335                            : top_depth    - START DEPTH
STOP.M        545                            : bot_depth    - STOP DEPTH
STEP.M        0.25                           : increment    - STEP LENGTH
 NULL. -999.2500:NULL Value
~CURVE INFORMATION BLOCK
#MNEM UNIT       ERCB CURVE CODE    CURVE DESCRIPTION
#-----------   ------------------   ----------------------------------
DEPT.M        00 001 00 00         : DEPTH        - DEPTH
ILD .OHMM     00 120 00 00         : RESD         - DEEP RESISTIVITY (DIL)
DPHI.V/V      00 890 00 00         : PHID         - DENSITY POROSITY (LIMESTONE)
NPHI.V/V      00 330 00 00         : PHIN         - NEUTRON POROSITY (LIMESTONE)
GR  .API      00 310 00 00         : GR           - GAMMA RAY
CALI.MM       00 280 01 00         : CAL          - CALIPER
~PARAMETER INFORMATION
#MNEM.UNIT           DATA             DESCRIPTION OF MNEMONIC
#---------         -----------     ------------------------------
GL  .M        659.3                : gl           - GROUND LEVEL ELEVATION
EREF.M        662.17               : kb           - ELEVATION OF DEPTH REFERENCE
DATM.M        662.17               : datum        - DATUM ELEVATION
TDD .M        558                  : tdd          - TOTAL DEPTH DRILLER
RUN .         ONE                  : Run          - RUN NUMBER
ENG .         BILL                 : Engineer     - RECORDING ENGINEER
WIT .         JIM                  : Witness      - WITNESSED BY
MUD .         GEL                  : Mud_type     - MUD TYPE
MATR.         LIMESTONE            : Logunit      - NEUTRON MATRIX
TMAX.C        23                   : BHT          - MAXIMUM RECORDED TEMPERATURE
BHTD.M        558.7                : BHTDEP       - MAXIMUM RECORDED TEMPERATURE
MATR.         1                    : LOGUNIT      - NEUTRON MATRIX
RMT .C        25                   : MDTP         - TEMPERATURE OF MUD
NEUT.         1                    : NEUTRON      - NEUTRON TYPE
RESI.         0                    : RESIST       - RESISTIVITY TYPE
RMC .OHMM     0.25                 : RMC          - RESISTIVITY OF MUD CAKE
RMF .OHMM     0.25                 : RMF          - RESISTIVITY OF MUD FILTRATE
SUFT.C        15                   : SUFT         - SURFACE TEMPERATURE
~A  DEPTH     RESD     PHID     PHIN       GR      CAL
# ...
  371.500    6.236    0.203    0.322   70.811  153.486
  371.750    5.962    0.166    0.385   69.835  153.079
  372.000    5.731    0.269    0.431   71.298  151.961
  372.250    5.499    0.299    0.459   75.261  151.351
  372.500    5.327    0.310    0.472   79.651  151.249
  372.750    5.287    0.295    0.462   81.724  152.569
  373.000    5.288    0.283    0.472   81.541  154.398
  373.250    5.299    0.273    0.491   85.626  155.617
  373.500    5.309    0.264    0.499   88.797  156.938
  373.750    5.290    0.261    0.488   89.650  157.750
  374.000    5.290    0.266    0.485   89.650  158.055
  374.250    5.271    0.268    0.496   90.869  158.461
  374.500    5.164    0.269    0.480   92.088  159.172
  374.750    4.983    0.270    0.471   94.588  160.594
  375.000    4.754    0.277    0.484   96.966  163.134
  375.250    4.693    0.282    0.508   98.490  164.963
  375.500    4.685    0.278    0.523   97.331  164.962
  375.750    4.676    0.274    0.519   95.135  161.710
  376.000    4.686    0.276    0.500   93.672  158.762
  376.250    4.775    0.279    0.484   92.086  156.729
  376.500    4.922    0.296    0.450   86.598  155.001
  376.750    5.025    0.317    0.428   84.647  154.289
  377.000    5.112    0.324    0.439   85.134  153.476
  377.250    5.220    0.310    0.444   86.841  153.069
  377.500    5.270    0.299    0.455   83.304  152.154
  377.750    5.231    0.306    0.462   78.792  150.832
  378.000    5.172    0.318    0.454   77.145  149.714
  378.250    5.105    0.324    0.457   81.352  149.205
  378.500    5.144    0.328    0.466   82.998  149.001
  378.750    5.283    0.333    0.467   76.474  149.001
  379.000    5.486    0.341    0.477   70.254  149.305
  379.250    5.654    0.186    0.484   66.961  149.406
  379.500    5.773    0.172    0.425   66.107  150.016
  379.750    5.720    0.162    0.343   70.070  151.235
  380.000    5.561    0.189    0.385   72.753  152.149
  380.250    5.448    0.217    0.433   74.582  151.539
  380.500    5.418    0.264    0.462   76.472  150.725
  380.750    5.553    0.319    0.442   78.666  149.912
  381.000    5.943    0.316    0.445   79.581  149.708
  381.250    6.506    0.109    0.459   80.495  149.707
  381.500    7.285    0.038    0.417   78.056  150.520
  381.750    7.915    0.027    0.253   70.799  151.637
  382.000    8.282    0.021    0.234   66.043  153.771
  382.250    8.440    0.069    0.282   67.140  155.193
  382.500    7.019    0.175    0.345   72.750  155.599
  382.750    5.782    0.253    0.388   78.908  154.887
  383.000    5.204    0.281    0.450   82.566  152.753
  383.250    4.782    0.276    0.479   86.041  150.821
  383.500    4.503    0.270    0.479   82.809  150.719
  383.750    4.403    0.270    0.470   75.248  150.617
  384.000    4.445    0.299    0.461   67.565  150.820
  384.250    4.454    0.328    0.449   61.894  150.921
  384.500    4.522    0.343    0.438   58.967  151.124
  384.750    4.574    0.352    0.432   59.272  151.225
  385.000    4.670    0.350    0.432   63.783  151.733
  385.250    4.751    0.348    0.433   66.588  152.139
  385.500    4.814    0.348    0.446   66.649  152.646
  385.750    4.870    0.470    0.503   59.270  154.069
  386.000    4.925    0.506    0.574   63.294  156.304
  386.250    4.973    0.343    0.581   67.867  157.726
  386.500    5.020    0.322    0.498   71.587  155.185
  386.750    5.049    0.313    0.473   74.635  152.542
  387.000    5.079    0.306    0.460   76.281  149.900
  387.250    5.089    0.308    0.456   76.281  148.680
  387.500    5.128    0.310    0.464   75.488  148.679
  387.750    5.138    0.311    0.472   74.756  148.679
  388.000    5.119    0.310    0.463   74.268  148.780
  388.250    5.053    0.301    0.455   73.475  148.779
  388.500    4.885    0.319    0.462   71.035  148.677
  388.750    4.574    0.346    0.474   67.011  148.372
  389.000    4.372    0.364    0.481   65.364  147.965
  389.250    4.275    0.365    0.481   66.888  147.863
  389.500    4.276    0.357    0.474   67.864  147.557
  389.750    4.301    0.353    0.473   65.607  147.557
  390.000    4.317    0.349    0.470   62.253  147.556
  390.250    4.351    0.348    0.460   64.143  147.556
  390.500    4.392    0.332    0.450   68.411  147.657
  390.750    4.468    0.321    0.445   72.130  147.555
  391.000    4.631    0.309    0.452   66.764  147.758
  391.250    4.746    0.335    0.460   64.508  148.164
  391.500    4.855    0.352    0.453   65.300  148.366
  391.750    4.920    0.359    0.462   67.373  148.671
  392.000    4.921    0.361    0.471   68.165  148.975
  392.250    4.758    0.361    0.461   68.714  149.381
  392.500    4.363    0.362    0.455   68.775  149.482
  392.750    4.117    0.363    0.464   69.506  149.584
  393.000    4.086    0.362    0.464   70.481  149.583
  393.250    4.196    0.359    0.465   72.127  149.379
  393.500    4.284    0.352    0.475   74.566  149.074
  393.750    4.391    0.343    0.470   77.432  148.667
  394.000    4.525    0.330    0.452   80.419  148.158
  394.250    4.665    0.319    0.448   82.309  147.853
  394.500    4.736    0.311    0.468   80.358  147.548
  394.750    4.781    0.305    0.480   79.016  147.852
  395.000    4.809    0.300    0.479   78.284  147.852
  395.250    4.837    0.294    0.468   77.735  147.851
  395.500    4.865    0.298    0.461   77.491  147.851
  395.750    4.865    0.305    0.460   77.551  147.545
  396.000    4.866    0.310    0.465   77.795  147.545
  396.250    4.866    0.310    0.470   77.978  147.341
  396.500    4.867    0.302    0.474   77.612  147.137
  396.750    4.904    0.301    0.467   77.306  147.035
  397.000    4.933    0.304    0.458   77.550  146.831
  397.250    4.933    0.304    0.453   78.525  146.729
  397.500    4.943    0.304    0.479   79.745  146.627
  397.750    4.953    0.302    0.488   81.330  146.627
  398.000    4.944    0.300    0.481   80.841  146.524
  398.250    4.926    0.298    0.478   79.378  146.727
  398.500    4.899    0.307    0.481   79.134  146.829
  398.750    4.845    0.316    0.485   79.743  147.133
  399.000    4.746    0.315    0.477   79.682  147.336
  399.250    4.684    0.316    0.468   78.889  147.437
  399.500    4.580    0.324    0.463   78.218  147.538
  399.750    4.564    0.331    0.472   77.303  147.436
  400.000    4.616    0.336    0.488   77.059  147.435
  400.250    4.687    0.332    0.492   77.790  147.130
  400.500    4.758    0.319    0.480   79.802  146.825
  400.750    4.795    0.304    0.469   82.058  146.723
  401.000    4.814    0.302    0.465   78.887  145.198
  401.250    4.850    0.316    0.471   76.508  143.978
  401.500    4.906    0.314    0.479   77.911  144.282
  401.750    4.953    0.305    0.481   79.922  144.586
  402.000    4.991    0.300    0.474   81.203  144.891
  402.250    5.001    0.297    0.472   82.056  144.992
  402.500    4.983    0.296    0.487   81.141  145.296
  402.750    4.937    0.293    0.474   78.397  145.296
  403.000    4.882    0.311    0.454   69.982  145.194
  403.250    4.837    0.333    0.436   60.957  144.584
  403.500    4.792    0.345    0.424   58.823  144.583
  403.750    4.775    0.334    0.415   61.810  144.176
  404.000    4.784    0.318    0.421   64.676  143.871
  404.250    4.794    0.313    0.421   66.627  144.277
  404.500    4.794    0.320    0.419   67.236  144.073
  404.750    4.795    0.323    0.419   68.395  144.276
  405.000    4.778    0.326    0.425   72.175  144.580
  405.250    4.787    0.325    0.434   75.589  144.580
  405.500    4.788    0.315    0.441   79.247  144.579
  405.750    4.761    0.303    0.444   81.259  144.680
  406.000    4.699    0.293    0.445   82.296  144.883
  406.250    4.612    0.286    0.443   81.747  145.187
  406.500    4.426    0.288    0.444   81.868  145.390
  406.750    4.090    0.291    0.450   83.087  145.898
  407.000    3.765    0.303    0.451   84.368  146.101
  407.250    3.606    0.312    0.461   86.136  146.811
  407.500    3.599    0.310    0.481   85.709  147.116
  407.750    3.648    0.308    0.499   80.830  147.522
