~VERSION INFORMATION
 VERS.                 2.0:   CWLS LOG ASCII STANDARD -VERSION 2.0
 WRAP.                  NO:   ONE LINE PER DEPTH STEP
~WELL INFORMATION BLOCK
#MNEM.UNIT           DATA                    DESCRIPTION OF MNEMONIC
#---------    -------------------            -------------------------------
# Generated from Intellog Unique Number	CC_88_90/WELL/1069
WELL.         COSEKA BCRIC MCKAY R           : Well_name    - WELL
LOC .         00/07-17-090-17W4/0            : Location     - LOCATION
UWI .         00/07-17-090-17W400            : Uwi          - UNIQUE WELL ID
ENTR.         RJA                            : Entered      - ENTERED BY
SRVC.         SCHLUMBERGER                   : Scn          - SERVICE COMPANY
STRT.M        90.000                         : top_depth    - START DEPTH
STOP.M        223.750                        : bot_depth    - STOP DEPTH
STEP.M        0.25                           : increment    - STEP LENGTH
 NULL. -999.2500:NULL Value
~CURVE INFORMATION BLOCK
#MNEM UNIT       ERCB CURVE CODE    CURVE DESCRIPTION
#-----------   ------------------   ----------------------------------
DEPT.M        00 001 00 00         : DEPTH        - DEPTH
GR  .API      00 310 00 00         : GR           - GAMMA RAY
DPHI.V/V      00 890 00 00         : PHID         - DENSITY POROSITY (SANDSTONE)
NPHI.V/V      00 330 00 00         : PHIN         - NEUTRON POROSITY (SANDSTONE)
ILD .OHMM     00 120 00 00         : RESD         - DEEP RESISTIVITY (DIL)
~PARAMETER INFORMATION
#MNEM.UNIT           DATA             DESCRIPTION OF MNEMONIC
#---------         -----------     ------------------------------
GL  .M        480.575              : gl           - GROUND LEVEL ELEVATION
EREF.M        483.475              : kb           - ELEVATION OF DEPTH REFERENCE
DATM.M        483.475              : datum        - DATUM ELEVATION
TDD .M        225                  : tdd          - TOTAL DEPTH DRILLER
RUN .         ONE                  : Run          - RUN NUMBER
ENG .         BILL                 : Engineer     - RECORDING ENGINEER
WIT .         JIM                  : Witness      - WITNESSED BY
MUD .         GEL                  : Mud_type     - MUD TYPE
MATR.         SANDSTONE            : Logunit      - NEUTRON MATRIX
TMAX.C        16.7                 : BHT          - MAXIMUM RECORDED TEMPERATURE
BHTD.M        225                  : BHTDEP       - MAXIMUM RECORDED TEMPERATURE
MATR.         1                    : LOGUNIT      - NEUTRON MATRIX
RMT .C        25                   : MDTP         - TEMPERATURE OF MUD
NEUT.         1                    : NEUTRON      - NEUTRON TYPE
RESI.         0                    : RESIST       - RESISTIVITY TYPE
RMC .OHMM     0.25                 : RMC          - RESISTIVITY OF MUD CAKE
RMF .OHMM     0.25                 : RMF          - RESISTIVITY OF MUD FILTRATE
SUFT.C        15                   : SUFT         - SURFACE TEMPERATURE
~A  DEPTH       GR     PHID     PHIN     RESD
# ...
  133.500   71.813    0.241    0.433   15.503
  133.750   75.715    0.265    0.424   14.438
  134.000   78.314    0.265    0.415   13.639
  134.250   79.741    0.272    0.416   13.052
  134.500   79.466    0.275    0.422   12.791
  134.750   78.036    0.257    0.431   12.826
  135.000   77.036    0.254    0.437   13.020
  135.250   76.489    0.251    0.431   13.705
  135.500   77.192    0.254    0.420   14.089
  135.750   78.904    0.263    0.411   14.476
  136.000   81.273    0.254    0.414   14.887
  136.250   82.781    0.234    0.421   14.724
  136.500   81.261    0.227    0.410   13.761
  136.750   79.196    0.178    0.396   12.461
  137.000   84.104    0.163    0.392   11.677
  137.250   90.735    0.199    0.405   11.089
  137.500   89.441    0.240    0.420   10.618
  137.750   83.059    0.250    0.422   10.559
  138.000   81.886    0.239    0.416   10.748
  138.250   82.315    0.235    0.408   10.871
  138.500   81.980    0.230    0.401   11.043
  138.750   79.420    0.233    0.421   11.460
  139.000   75.208    0.238    0.445   12.064
  139.250   71.207    0.230    0.452   12.421
  139.500   68.472    0.214    0.446   12.125
  139.750   68.234    0.201    0.417   10.995
  140.000   75.050    0.197    0.426    7.970
  140.250   83.887    0.203    0.464    5.832
  140.500   90.672    0.215    0.498    4.566
  140.750   94.071    0.241    0.524    3.276
  141.000   92.040    0.271    0.549    3.249
  141.250   86.870    0.261    0.562    3.195
  141.500   82.469    0.256    0.570    4.131
  141.750   77.468    0.256    0.543    5.622
  142.000   73.903    0.240    0.504    7.230
  142.250   77.049    0.192    0.478    9.170
  142.500   84.593    0.135    0.444   10.800
  142.750   86.388    0.164    0.443   10.721
  143.000   89.188    0.208    0.451   10.400
  143.250   91.578    0.227    0.452   10.273
  143.500   91.806    0.228    0.447   10.190
  143.750   91.328    0.222    0.435   10.400
  144.000   89.734    0.212    0.422   11.156
  144.250   86.320    0.209    0.433   12.194
  144.500   81.983    0.185    0.443   13.399
  144.750   82.653    0.139    0.413   14.593
  145.000   85.834    0.140    0.376   15.534
  145.250   84.794    0.193    0.373   15.669
  145.500   80.047    0.217    0.381   14.821
  145.750   75.989    0.232    0.397   14.216
  146.000   75.087    0.243    0.414   13.856
  146.250   75.594    0.243    0.431   13.693
  146.500   74.085    0.246    0.449   13.771
  146.750   71.091    0.251    0.452   14.050
  147.000   70.147    0.234    0.428   14.642
  147.250   69.835    0.213    0.422   15.762
  147.500   68.007    0.221    0.419   16.484
  147.750   65.462    0.183    0.412   16.524
  148.000   65.389    0.179    0.402   16.314
  148.250   66.808    0.250    0.410   16.230
  148.500   65.367    0.264    0.439   16.396
  148.750   63.344    0.275    0.431   17.002
  149.000   62.330    0.293    0.423   17.663
  149.250   61.793    0.283    0.419   18.399
  149.500   60.064    0.259    0.420   20.507
  149.750   57.124    0.216    0.394   24.135
  150.000   55.172    0.127    0.314   29.160
  150.250   55.334    0.084    0.282   37.270
  150.500   57.252    0.083    0.284   39.057
  150.750   62.373    0.084    0.286   34.604
  151.000   65.074    0.121    0.314   28.710
  151.250   61.816    0.160    0.372   26.855
  151.500   58.167    0.106    0.372   31.611
  151.750   56.321    0.070    0.280   35.678
  152.000   60.026    0.076    0.247   35.702
  152.250   66.021    0.094    0.273   31.981
  152.500   70.551    0.117    0.323   25.939
  152.750   72.782    0.163    0.381   20.840
  153.000   72.027    0.222    0.413   19.700
  153.250   68.096    0.239    0.423   20.367
  153.500   66.201    0.233    0.411   22.297
  153.750   63.125    0.165    0.381   23.844
  154.000   62.733    0.094    0.331   22.084
  154.250   70.732    0.092    0.293   18.193
  154.500   80.322    0.135    0.323   16.207
  154.750   81.943    0.191    0.395   14.350
  155.000   80.611    0.192    0.432   13.277
  155.250   79.621    0.162    0.434   12.887
  155.500   81.506    0.161    0.429   12.707
  155.750   85.649    0.192    0.424   12.722
  156.000   87.797    0.211    0.426   12.750
  156.250   88.105    0.227    0.443   12.248
  156.500   84.799    0.236    0.470   12.298
  156.750   83.095    0.195    0.469   13.113
  157.000   84.113    0.152    0.458   14.013
  157.250   83.603    0.153    0.448   14.451
  157.500   81.405    0.157    0.417   14.464
  157.750   82.205    0.186    0.411   14.324
  158.000   82.421    0.201    0.421   14.022
  158.250   81.188    0.194    0.427   13.669
  158.500   82.589    0.182    0.421   13.266
  158.750   86.492    0.183    0.413   12.963
  159.000   87.803    0.201    0.414   12.917
  159.250   87.939    0.214    0.426   12.593
  159.500   87.002    0.224    0.434   12.190
  159.750   85.497    0.232    0.441   11.935
  160.000   85.707    0.218    0.440   11.840
  160.250   87.059    0.187    0.439   11.999
  160.500   85.028    0.173    0.457   12.380
  160.750   80.163    0.150    0.468   12.330
  161.000   81.800    0.117    0.454   11.920
  161.250   86.887    0.153    0.430   11.264
  161.500   92.331    0.207    0.436   10.812
  161.750   96.108    0.211    0.450   10.687
  162.000   93.364    0.220    0.430   10.680
  162.250   86.461    0.224    0.450   11.276
  162.500   82.736    0.194    0.471   11.526
  162.750   85.057    0.161    0.454   11.609
  163.000   90.430    0.189    0.430   11.678
  163.250   93.780    0.233    0.423   11.527
  163.500   92.423    0.201    0.407   11.354
  163.750   89.022    0.187    0.398   11.480
  164.000   90.645    0.194    0.420   11.803
  164.250   91.819    0.209    0.438   12.340
  164.500   88.114    0.184    0.446   13.027
  164.750   85.640    0.132    0.430   13.479
  165.000   89.594    0.150    0.377   13.440
  165.250   92.519    0.218    0.386   13.303
  165.500   96.987    0.218    0.413   13.138
  165.750   97.621    0.201    0.426   13.421
  166.000   95.109    0.202    0.418   14.162
  166.250   92.084    0.201    0.400   15.056
  166.500   86.582    0.190    0.399   16.331
  166.750   85.027    0.136    0.408   18.003
  167.000   89.246    0.084    0.373   17.760
  167.250   97.968    0.072    0.347   16.236
  167.500  103.356    0.130    0.374   14.505
  167.750  100.351    0.198    0.418   12.776
  168.000   96.819    0.188    0.433   11.529
  168.250  102.088    0.208    0.427   11.402
  168.500  103.602    0.208    0.421   12.128
  168.750   97.787    0.201    0.422   12.443
  169.000   93.586    0.196    0.424   11.799
  169.250   98.131    0.197    0.410   10.471
  169.500  106.500    0.213    0.393    8.902
  169.750  108.600    0.202    0.419    7.881
  170.000  107.758    0.197    0.446    7.942
  170.250  106.424    0.203    0.457    8.933
  170.500   99.513    0.202    0.468    9.946
  170.750   89.094    0.179    0.458   10.471
  171.000   88.226    0.138    0.408   10.794
  171.250   97.556    0.120    0.389   10.708
  171.500  103.356    0.180    0.414    9.851
  171.750  103.639    0.214    0.448    9.005
  172.000  102.593    0.211    0.454    8.545
  172.250  101.153    0.213    0.442    8.304
  172.500   97.653    0.194    0.443    8.364
  172.750   93.445    0.189    0.445    8.665
  173.000   94.189    0.177    0.440    8.751
  173.250   98.148    0.118    0.415    8.502
  173.500   99.736    0.136    0.417    8.389
  173.750  100.752    0.227    0.452    8.488
  174.000  106.194    0.200    0.450    8.318
  174.250  109.309    0.179    0.432    8.158
  174.500  110.671    0.194    0.438    8.166
  174.750  105.445    0.171    0.405    8.359
  175.000   98.533    0.111    0.363   10.667
  175.250   96.451    0.109    0.373   14.057
  175.500   95.008    0.171    0.394   14.216
  175.750   92.599    0.149    0.387   12.664
  176.000   91.397    0.106    0.353   11.527
  176.250   97.558    0.134    0.362   10.625
  176.500  105.143    0.184    0.406    9.879
  176.750  105.661    0.198    0.435    9.577
