~VERSION INFORMATION
 VERS.                 2.0:   CWLS LOG ASCII STANDARD -VERSION 2.0
 WRAP.                  NO:   ONE LINE PER DEPTH STEP
~WELL INFORMATION BLOCK
#MNEM.UNIT           DATA                    DESCRIPTION OF MNEMONIC
#---------    -------------------            -------------------------------
# Generated from Intellog Unique Number	CS_73_76/WELL/2213
WELL.         PRECAMBRIAN SHIELD RESOURC     : Well_name    - WELL
LOC .         00/07-20-076-09W4/0            : Location     - LOCATION
UWI .         00/07-20-076-09W4/0            : Uwi          - UNIQUE WELL ID
ENTR.         SP                             : Entered      - ENTERED BY
SRVC.         SCHLUMBERGER                   : Scn          - SERVICE COMPANY
STRT.M        245                            : top_depth    - START DEPTH
STOP.M        495                            : bot_depth    - STOP DEPTH
STEP.M        0.25                           : increment    - STEP LENGTH
 NULL. -999.2500:NULL Value
~CURVE INFORMATION BLOCK
#MNEM UNIT       ERCB CURVE CODE    CURVE DESCRIPTION
#-----------   ------------------   ----------------------------------
DEPT.M        00 001 00 00         : DEPTH        - DEPTH
ILD .OHMM     00 120 00 00         : RESD         - DEEP RESISTIVITY (DIL)
DPHI.V/V      00 890 00 00         : PHID         - DENSITY POROSITY (LIMESTONE)
NPHI.V/V      00 330 00 00         : PHIN         - NEUTRON POROSITY (LIMESTONE)
GR  .API      00 310 00 00         : GR           - GAMMA RAY
~PARAMETER INFORMATION
#MNEM.UNIT           DATA             DESCRIPTION OF MNEMONIC
#---------         -----------     ------------------------------
GL  .M        677.49               : gl           - GROUND LEVEL ELEVATION
EREF.M        681.99               : kb           - ELEVATION OF DEPTH REFERENCE
DATM.M        677.49               : datum        - DATUM ELEVATION
TDD .M        498                  : tdd          - TOTAL DEPTH DRILLER
RUN .         ONE                  : Run          - RUN NUMBER
ENG .         BILL                 : Engineer     - RECORDING ENGINEER
WIT .         JIM                  : Witness      - WITNESSED BY
MUD .         GEL                  : Mud_type     - MUD TYPE
MATR.         LIMESTONE            : Logunit      - NEUTRON MATRIX
TMAX.C        20                   : BHT          - MAXIMUM RECORDED TEMPERATURE
BHTD.M        498                  : BHTDEP       - MAXIMUM RECORDED TEMPERATURE
MATR.         1                    : LOGUNIT      - NEUTRON MATRIX
RMT .C        25                   : MDTP         - TEMPERATURE OF MUD
NEUT.         1                    : NEUTRON      - NEUTRON TYPE
RESI.         0                    : RESIST       - RESISTIVITY TYPE
RMC .OHMM     0.25                 : RMC          - RESISTIVITY OF MUD CAKE
RMF .OHMM     0.25                 : RMF          - RESISTIVITY OF MUD FILTRATE
SUFT.C        15                   : SUFT         - SURFACE TEMPERATURE
~A  DEPTH     RESD     PHID     PHIN       GR
  245.000   43.582    1.061    1.053   39.185
  245.250   41.204    0.287    0.322   45.929
  245.500   38.222    0.273    0.334   49.610
  245.750   32.882    0.267    0.350   53.901
  246.000   28.827    0.288    0.360   50.849
  246.250   28.302    0.307    0.357   44.123
  246.500   29.965    0.325    0.355   40.455
  246.750   32.946    0.340    0.365   35.565
  247.000   38.334    0.335    0.365   33.123
  247.250   40.586    0.254    0.337   38.028
  247.500   28.911    0.211    0.312   55.790
  247.750   18.045    0.198    0.313   73.552
  248.000   11.696    0.228    0.416   83.969
  248.250    7.581    0.265    0.442   87.040
  248.500    5.824    0.260    0.457   87.045
  248.750    5.203    0.261    0.464   86.440
  249.000    4.919    0.275    0.475   91.347
  249.250    4.829    0.283    0.485   93.802
  249.500    4.832    0.292    0.486   92.584
  249.750    5.021    0.293    0.470   88.307
  250.000    5.023    0.290    0.458   87.703
  250.250    5.121    0.287    0.472   87.710
  250.500    5.124    0.285    0.483   88.329
  250.750    5.126    0.283    0.489   88.948
  251.000    5.033    0.285    0.480   90.180
  251.250    4.941    0.285    0.474   91.413
  251.500    4.851    0.282    0.469   87.134
  251.750    4.673    0.276    0.474   90.205
  252.000    4.588    0.274    0.468   93.276
  252.250    4.421    0.280    0.464   94.504
  252.500    4.340    0.284    0.475   93.898
  252.750    4.260    0.288    0.490   90.845
  253.000    4.344    0.290    0.516   89.627
  253.250    4.429    0.288    0.507   88.412
  253.500    4.348    0.275    0.502   88.420
  253.750    4.269    0.268    0.484   90.878
  254.000    4.036    0.273    0.474   92.719
  254.250    3.888    0.287    0.507   99.462
  254.500    3.676    0.293    0.525  103.755
  254.750    3.609    0.294    0.529  105.600
  255.000    3.543    0.289    0.535  104.381
  255.250    3.478    0.290    0.534   98.880
  255.500    3.415    0.294    0.529   96.437
  255.750    3.417    0.300    0.544   98.894
  256.000    3.418    0.300    0.556  102.575
  256.250    3.420    0.299    0.560  100.133
  256.500    3.358    0.297    0.575   95.855
  256.750    3.360    0.286    0.580   90.353
  257.000    3.361    0.285    0.566   90.360
  257.250    3.300    0.289    0.524   97.101
  257.500    3.179    0.288    0.524   97.111
  257.750    3.122    0.288    0.541   95.893
  258.000    3.122    0.292    0.539   95.290
  258.250    3.124    0.297    0.534   94.684
  258.500    3.126    0.299    0.556   92.855
  258.750    3.187    0.278    0.567   91.636
  259.000    3.188    0.244    0.553   94.707
  259.250    3.251    0.246    0.536   95.325
  259.500    3.252    0.265    0.549   95.334
  259.750    3.379    0.282    0.539   95.954
  260.000    3.380    0.269    0.531   97.796
  260.250    3.383    0.275    0.525   97.804
  260.500    3.384    0.286    0.530   95.363
  260.750    3.322    0.291    0.545   92.921
  261.000    3.324    0.284    0.531   92.315
  261.250    3.325    0.291    0.508   93.547
  261.500    3.390    0.286    0.519   99.678
  261.750    3.457    0.271    0.530  100.909
  262.000    3.458    0.272    0.516   99.081
  262.250    3.460    0.286    0.520   96.639
  262.500    3.528    0.292    0.524   96.033
  262.750    3.463    0.297    0.513   96.653
  263.000    3.465    0.281    0.510   93.601
  263.250    3.467    0.285    0.510   91.158
  263.500    3.404    0.288    0.510   88.718
  263.750    3.279    0.283    0.505   88.725
  264.000    3.159    0.291    0.513   89.344
  264.250    3.102    0.303    0.522   92.414
  264.500    3.045    0.291    0.535   91.809
  264.750    3.046    0.290    0.526   91.202
  265.000    2.992    0.301    0.533   89.986
  265.250    2.993    0.307    0.543   91.830
  265.500    2.994    0.292    0.549   93.673
  265.750    2.996    0.291    0.560   90.008
  266.000    2.997    0.301    0.568   86.955
  266.250    2.999    0.307    0.558   85.125
  266.500    3.000    0.310    0.533   87.582
  266.750    3.002    0.309    0.518   88.203
  267.000    3.060    0.302    0.544   84.536
  267.250    3.120    0.307    0.537   78.421
  267.500    3.181    0.304    0.516   79.655
  267.750    3.243    0.299    0.505   82.724
  268.000    3.244    0.289    0.504   86.404
  268.250    3.185    0.268    0.517   88.859
  268.500    3.127    0.260    0.526   91.314
  268.750    3.129    0.267    0.534   90.709
  269.000    3.190    0.276    0.543   87.656
  269.250    3.314    0.279    0.499   90.112
  269.500    3.444    0.262    0.486   92.571
  269.750    3.646    0.247    0.496   92.576
  270.000    3.788    0.258    0.511   91.973
  270.250    3.862    0.270    0.521   90.755
  270.500    3.937    0.266    0.518   90.764
  270.750    4.015    0.250    0.501   90.769
  271.000    4.017    0.247    0.494   92.614
  271.250    4.018    0.250    0.484   90.786
  271.500    4.020    0.251    0.482   92.016
  271.750    4.022    0.261    0.497   93.248
  272.000    3.949    0.262    0.514   90.194
  272.250    3.951    0.247    0.508   85.917
  272.500    3.952    0.237    0.501   83.477
  272.750    4.030    0.232    0.492   84.707
  273.000    4.109    0.231    0.491   89.612
  273.250    4.189    0.245    0.491   95.130
  273.500    4.271    0.255    0.496   93.300
  273.750    4.273    0.253    0.500   92.695
  274.000    4.195    0.252    0.504   93.317
  274.250    4.197    0.253    0.495   92.711
  274.500    4.279    0.257    0.467   89.659
  274.750    4.362    0.258    0.459   89.052
  275.000    4.448    0.253    0.451   86.611
  275.250    4.450    0.251    0.449   86.618
  275.500    4.452    0.248    0.456   87.849
  275.750    4.539    0.229    0.464   76.837
  276.000    5.086    0.187    0.477   63.988
  276.250    6.145    0.058    0.262   51.137
  276.500    7.710    0.180    0.252   43.185
  276.750   10.238    0.350    0.237   45.029
  277.000   14.118    0.350    0.247   46.264
  277.250   18.396    0.342    0.259   45.047
  277.500   21.006    0.371    0.238   45.666
  277.750   22.662    0.377    0.229   45.671
  278.000   23.105    0.381    0.229   43.844
  278.250   24.007    0.389    0.226   42.626
  278.500   25.416    0.411    0.216   43.248
  278.750   28.482    0.428    0.201   43.869
  279.000   30.729    0.438    0.184   44.484
  279.250   31.327    0.430    0.184   48.165
  279.500   29.619    0.403    0.217   54.296
  279.750   27.999    0.391    0.247   50.630
  280.000   25.491    0.404    0.243   48.189
  280.250   25.026    0.406    0.231   43.911
  280.500   27.002    0.411    0.224   41.468
  280.750   27.530    0.398    0.238   38.413
  281.000   25.065    0.374    0.274   42.707
  281.250   24.146    0.351    0.308   44.553
  281.500   22.828    0.355    0.318   42.723
  281.750   21.581    0.365    0.315   39.670
  282.000   20.793    0.375    0.310   36.616
  282.250   21.198    0.371    0.304   35.399
  282.500   21.209    0.339    0.294   39.079
  282.750   20.823    0.309    0.324   45.822
  283.000   20.449    0.308    0.335   45.828
  283.250   20.073    0.330    0.335   44.612
  283.500   19.707    0.348    0.326   44.619
  283.750   19.348    0.354    0.313   45.240
  284.000   19.357    0.338    0.309   47.082
  284.250   18.646    0.313    0.333   48.926
  284.500   16.975    0.303    0.367   58.118
  284.750   15.455    0.298    0.397   64.860
  285.000   14.339    0.282    0.397   63.643
  285.250   13.303    0.275    0.378   64.263
  285.500   12.110    0.264    0.397   71.617
  285.750   11.236    0.244    0.425   68.563
  286.000   11.672    0.244    0.447   56.325
  286.250   13.330    0.297    0.421   41.027
  286.500   14.111    0.322    0.393   38.587
  286.750   16.111    0.324    0.373   44.104
  287.000   18.748    0.313    0.359   50.235
  287.250   20.227    0.301    0.347   52.689
  287.500   20.237    0.291    0.362   45.964
  287.750   19.495    0.291    0.361   42.909
  288.000   18.090    0.249    0.330   48.427
  288.250   17.101    0.170    0.321   55.170
