~VERSION INFORMATION
 VERS.                 2.0:   CWLS LOG ASCII STANDARD -VERSION 2.0
 WRAP.                  NO:   ONE LINE PER DEPTH STEP
~WELL INFORMATION BLOCK
#MNEM.UNIT           DATA                    DESCRIPTION OF MNEMONIC
#---------    -------------------            -------------------------------
# Generated from Intellog Unique Number	CW_70_72/WELL/2901
NULL.         -999.25                        : NULL_VALUE
COMP .        HOME OIL CO LTD                :  COMPANY
WELL.         SCURRY ET AL DOUCETTE          : Well_name    - WELL              
LOC .         06-29-077-02W5                 : Location     - LOCATION          
UWI .         00/06-29-077-02W5/0            : Uwi          - UNIQUE WELL ID    
ENTR.         MAX                            : Entered      - ENTERED BY        
SRVC.         COMPUTALOG                     : Scn          - SERVICE COMPANY   
DATE.         24 NOV 77                      : Date         - LOG DATE
STRT.M        375                            : top_depth    - START DEPTH       
STOP.M        625                            : bot_depth    - STOP DEPTH        
STEP.M        0.25                           : increment    - STEP LENGTH       
~CURVE INFORMATION BLOCK
#MNEM UNIT       ERCB CURVE CODE    CURVE DESCRIPTION
#-----------   ------------------   ----------------------------------
DEPT.M        00 001 00 00         : DEPTH        - DEPTH                       
ILD .OHMM     00 120 00 00         : RESD         - DEEP RESISTIVITY (DIL)      
NPHI.V/V      00 330 00 00         : PHIN         - NEUTRON POROSITY (SANDSTONE)
DPHI.V/V      00 890 00 00         : PHID         - DENSITY POROSITY (SANDSTONE)
CALI.MM       00 280 01 00         : CAL          - CALIPER                     
GR  .API      00 310 00 00         : GR           - GAMMA RAY                   
~PARAMETER INFORMATION       
#MNEM.UNIT           DATA             DESCRIPTION OF MNEMONIC
#---------         -----------     ------------------------------
GL  .M        678.3                : gl           - GROUND LEVEL ELEVATION      
EREF.M        683.7                : kb           - ELEVATION OF DEPTH REFERENCE
DATM.M        678.3                : datum        - DATUM ELEVATION             
TDD .M        639                  : tdd          - TOTAL DEPTH DRILLER         
RUN .         ONE                  : Run          - RUN NUMBER                  
ENG .         BILL                 : Engineer     - RECORDING ENGINEER          
WIT .         JIM                  : Witness      - WITNESSED BY                
MUD .         GEL                  : Mud_type     - MUD TYPE                    
MATR.         SANDSTONE            : Logunit      - NEUTRON MATRIX              
TMAX.C        36                   : BHT          - MAXIMUM RECORDED TEMPERATURE
BHTD.M        639                  : BHTDEP       - MAXIMUM RECORDED TEMPERATURE
RMT .C        12.5                 : MDTP         - TEMPERATURE OF MUD          
MUDD.KG/M     1160                 : MWT          - MUD DENSITY                 
NEUT.         1                    : NEUTRON      - NEUTRON TYPE                
RESI.         0                    : RESIST       - RESISTIVITY TYPE            
RM  .OHMM     5.1                  : RM           - RESISTIVITY OF MUD          
RMC .OHMM     5                    : RMC          - RESISTIVITY OF MUD CAKE     
RMF .OHMM     4                    : RMF          - RESISTIVITY OF MUD FILTRATE 
SUFT.C        -10                  : SUFT         - SURFACE TEMPERATURE         
~A  DEPTH     RESD     PHIN     PHID      CAL       GR
# ...
  411.500   10.647    0.416    0.353  204.494   51.475
  411.750    9.820    0.416    0.345  204.487   52.643
  412.000    9.138    0.416    0.342  205.945   54.692
  412.250    8.129    0.416    0.342  207.890   56.448
  412.500    6.849    0.416    0.338  207.884   59.377
  412.750    5.566    0.419    0.334  208.853   64.066
  413.000    4.402    0.430    0.314  210.801   80.198
  413.250    3.450    0.447    0.294  213.725   88.702
  413.500    2.804    0.470    0.274  218.119   94.858
  413.750    2.681    0.494    0.282  223.979   91.626
  414.000    3.518    0.507    0.306  222.013   77.244
  414.250    6.627    0.491    0.327  217.604   63.448
  414.500    8.696    0.440    0.328  215.150   53.761
  414.750   11.515    0.412    0.330  215.630   47.300
  415.000   13.194    0.395    0.334  215.133   48.761
  415.250   14.450    0.396    0.338  214.636   48.170
  415.500   16.259    0.402    0.341  216.583   46.992
  415.750   18.133    0.415    0.344  218.041   45.812
  416.000   19.324    0.421    0.350  219.989   45.220
  416.250   20.783    0.422    0.355  222.426   44.922
  416.500   22.968    0.425    0.360  223.884   45.797
  416.750   25.156    0.432    0.361  224.364   48.727
  417.000   26.810    0.436    0.355  223.866   51.069
  417.250   27.808    0.434    0.355  222.879   49.302
  417.500   28.590    0.436    0.358  220.913   48.417
  417.750   28.604    0.438    0.365  219.440   47.238
  418.000   28.101    0.439    0.370  212.585   48.701
  418.250   26.392    0.429    0.371  205.730   52.215
  418.500   24.783    0.424    0.367  202.297   53.091
  418.750   22.047    0.418    0.363  201.312   52.793
  419.000   19.789    0.414    0.360  200.813   52.201
  419.250   18.088    0.409    0.364  200.805   52.195
  419.500   16.834    0.403    0.371  200.797   51.604
  419.750   16.097    0.401    0.379  200.788   48.958
  420.000   16.097    0.404    0.387  200.780   47.780
  420.250   15.681    0.410    0.391  200.769   49.242
  420.500   15.130    0.415    0.387  200.763   52.757
  420.750   14.732    0.421    0.386  200.265   53.925
  421.000   14.345    0.424    0.383  199.767   50.105
  421.250   13.843    0.426    0.387  199.271   47.166
  421.500   13.356    0.427    0.390  199.750   47.161
  421.750   12.658    0.423    0.389  200.232   48.037
  422.000   12.664    0.413    0.384  200.222   50.672
  422.250   12.670    0.407    0.378  199.235   52.721
  422.500   12.676    0.406    0.380  200.204   51.248
  422.750   12.681    0.410    0.383  199.708   51.536
  423.000   12.573    0.412    0.383  198.720   53.291
  423.250   12.466    0.417    0.388  197.245   53.287
  423.500   12.472    0.411    0.385  197.725   54.749
  423.750   12.478    0.408    0.380  199.673   50.929
  424.000   12.485    0.399    0.377  199.664   48.577
  424.250   12.604    0.392    0.375  199.657   47.105
  424.500   12.608    0.395    0.375  200.136   48.566
  424.750   12.615    0.397    0.375  201.106   52.083
  425.000   12.622    0.395    0.374  200.607   54.718
  425.250   12.513    0.387    0.362  199.622   56.473
  425.500   12.406    0.386    0.355  201.569   57.641
  425.750   12.300    0.393    0.361  205.962   59.983
  426.000   12.195    0.419    0.371  206.443   61.446
  426.250   12.200    0.424    0.373  207.412   59.681
  426.500   12.207    0.422    0.371  208.382   58.795
  426.750   12.436    0.419    0.367  211.306   62.017
  427.000   12.669    0.423    0.364  211.297   62.892
  427.250   12.905    0.428    0.355  210.801   61.127
  427.500   13.266    0.430    0.353  211.279   57.014
  427.750   13.761    0.429    0.355  211.270   51.140
  428.000   14.275    0.420    0.358  211.264   48.495
  428.250   14.675    0.419    0.361  210.765   47.316
  428.500   14.950    0.417    0.360  211.247   46.430
  428.750   15.228    0.421    0.360  211.726   44.958
  429.000   15.374    0.423    0.359  211.718   44.073
  429.250   15.805    0.425    0.359  212.687   44.068
  429.500   16.100    0.428    0.359  212.679   44.062
  429.750   16.852    0.432    0.358  212.671   44.351
  430.000   18.127    0.434    0.358  213.150   43.758
  430.250   19.495    0.429    0.359  214.609   43.459
  430.500   21.544    0.418    0.357  214.600   44.042
  430.750   23.806    0.391    0.351  214.104   44.622
  431.000   27.776    0.346    0.230  212.629   44.912
  431.250   32.699    0.228    0.130  209.684   44.321
  431.500   36.798    0.203    0.040  207.721   43.435
  431.750   35.504    0.185    0.038  203.800   44.016
  432.000   32.159    0.212    0.070  200.856   45.771
  432.250   26.611    0.252    0.156  205.739   48.701
  432.500   22.019    0.323    0.329  211.109   48.696
  432.750   18.552    0.369    0.336  211.102   47.810
  433.000   16.653    0.401    0.341  206.691   46.045
  433.250   15.358    0.412    0.350  201.303   46.332
  433.500   14.555    0.414    0.357  200.317   46.328
  433.750   14.172    0.413    0.357  200.307   45.148
  434.000   14.179    0.410    0.357  200.789   43.383
  434.250   14.187    0.412    0.357  200.779   42.204
  434.500   14.193    0.417    0.359  200.770   42.199
  434.750   14.072    0.424    0.361  201.739   42.487
  435.000   13.950    0.427    0.365  202.709   44.830
  435.250   13.832    0.423    0.369  204.169   45.411
  435.500   13.591    0.423    0.368  206.116   45.700
  435.750   13.354    0.424    0.365  205.619   44.521
  436.000   13.240    0.421    0.364  202.676   42.462
  436.250   13.127    0.416    0.362  199.732   40.403
  436.500   13.014    0.411    0.363  199.724   41.865
  436.750   12.788    0.405    0.365  200.204   44.500
  437.000   12.563    0.403    0.368  200.195   45.082
  437.250   12.233    0.405    0.373  200.678   45.077
  437.500   12.019    0.407    0.375  201.646   45.951
  437.750   11.704    0.408    0.370  203.106   46.826
  438.000   11.294    0.412    0.370  206.519   46.234
  438.250   11.095    0.414    0.374  209.445   43.883
  438.500   10.707    0.412    0.376  214.327   44.170
  438.750   10.521    0.414    0.375  213.828   45.340
  439.000   10.431    0.416    0.368  211.376   47.388
  439.250   10.344    0.413    0.370  209.411   45.916
  439.500   10.252    0.416    0.377  206.468   46.791
  439.750   10.165    0.421    0.382  203.035   47.079
  440.000   10.079    0.424    0.381  201.070   47.660
  440.250    9.994    0.419    0.379  200.575   49.416
  440.500    9.908    0.415    0.376  200.077   49.704
  440.750    9.735    0.415    0.372  199.580   49.406
  441.000    9.565    0.419    0.378  200.057   49.401
  441.250    9.397    0.422    0.377  201.517   48.515
  441.500    9.150    0.420    0.378  202.487   49.096
  441.750    8.991    0.422    0.386  202.479   50.852
  442.000    8.834    0.417    0.393  203.938   57.889
  442.250    8.758    0.417    0.392  202.949   57.883
  442.500    8.606    0.421    0.392  202.943   54.065
  442.750    8.612    0.429    0.393  202.932   53.766
  443.000    8.536    0.428    0.393  202.436   55.520
  443.250    8.463    0.422    0.393  202.427   57.863
  443.500    8.241    0.418    0.392  201.930   58.151
  443.750    8.024    0.417    0.390  200.943   59.027
  444.000    7.813    0.417    0.389  200.934   59.609
  444.250    7.404    0.422    0.385  200.926   59.896
  444.500    6.828    0.422    0.380  201.405   59.599
  444.750    6.413    0.417    0.373  200.908   60.179
  445.000    6.132    0.398    0.355  200.901   61.934
  445.250    6.080    0.341    0.325  202.359   63.103
  445.500    6.084    0.306    0.172  203.818   63.979
  445.750    6.086    0.324    0.137  205.766   68.962
  446.000    6.089    0.402    0.172  205.267   76.879
  446.250    6.092    0.433    0.267  203.303   80.101
  446.500    5.985    0.441    0.280  201.338   78.334
  446.750    5.934    0.438    0.280  197.904   75.395
  447.000    5.830    0.431    0.277  197.896   74.217
  447.250    5.830    0.434    0.267  198.378   75.386
  447.500    5.733    0.437    0.260  199.836   78.608
  447.750    5.683    0.438    0.260  203.740   80.657
