~VERSION INFORMATION
 VERS.                 2.0:   CWLS LOG ASCII STANDARD -VERSION 2.0
 WRAP.                  NO:   ONE LINE PER DEPTH STEP
~WELL INFORMATION BLOCK
#MNEM.UNIT           DATA                    DESCRIPTION OF MNEMONIC
#---------    -------------------            -------------------------------
# Generated from Intellog Unique Number	CS_73_76/WELL/1042
WELL.         DOME PETROLEUM                 : Well_name    - WELL
LOC .         00/06-17-076-10W4/0            : Location     - LOCATION
UWI .         00/06-17-076-10W4/0            : Uwi          - UNIQUE WELL ID
ENTR.         SP                             : Entered      - ENTERED BY
SRVC.         SCHLUMBERGER                   : Scn          - SERVICE COMPANY
STRT.M        270.25                         : top_depth    - START DEPTH
STOP.M        505.00                         : bot_depth    - STOP DEPTH
STEP.M        0.25                           : increment    - STEP LENGTH
 NULL. -999.2500:NULL Value
~CURVE INFORMATION BLOCK
#MNEM UNIT       ERCB CURVE CODE    CURVE DESCRIPTION
#-----------   ------------------   ----------------------------------
DEPT.M        00 001 00 00         : DEPTH        - DEPTH
ILD .OHMM     00 120 00 00         : RESD         - DEEP RESISTIVITY (DIL)
DPHI.V/V      00 890 00 00         : PHID         - DENSITY POROSITY (LIMESTONE)
NPHI.V/V      00 330 00 00         : PHIN         - NEUTRON POROSITY (LIMESTONE)
GR  .API      00 310 00 00         : GR           - GAMMA RAY
~PARAMETER INFORMATION
#MNEM.UNIT           DATA             DESCRIPTION OF MNEMONIC
#---------         -----------     ------------------------------
GL  .M        668.26               : gl           - GROUND LEVEL ELEVATION
EREF.M        672.39               : kb           - ELEVATION OF DEPTH REFERENCE
DATM.M        668.26               : datum        - DATUM ELEVATION
TDD .M        517                  : tdd          - TOTAL DEPTH DRILLER
RUN .         ONE                  : Run          - RUN NUMBER
ENG .         BILL                 : Engineer     - RECORDING ENGINEER
WIT .         JIM                  : Witness      - WITNESSED BY
MUD .         GEL                  : Mud_type     - MUD TYPE
MATR.         LIMESTONE            : Logunit      - NEUTRON MATRIX
TMAX.C        23                   : BHT          - MAXIMUM RECORDED TEMPERATURE
BHTD.M        517                  : BHTDEP       - MAXIMUM RECORDED TEMPERATURE
MATR.         1                    : LOGUNIT      - NEUTRON MATRIX
RMT .C        25                   : MDTP         - TEMPERATURE OF MUD
NEUT.         1                    : NEUTRON      - NEUTRON TYPE
RESI.         0                    : RESIST       - RESISTIVITY TYPE
RMC .OHMM     0.25                 : RMC          - RESISTIVITY OF MUD CAKE
RMF .OHMM     0.25                 : RMF          - RESISTIVITY OF MUD FILTRATE
SUFT.C        15                   : SUFT         - SURFACE TEMPERATURE
~A  DEPTH     RESD     PHID     PHIN       GR
# ...
  400.750    6.272    0.313    0.447   62.751
  401.000    6.156    0.328    0.446   60.924
  401.250    6.156    0.328    0.441   62.146
  401.500    6.274    0.327    0.425   63.367
  401.750    6.274    0.328    0.424   64.589
  402.000    6.275    0.323    0.437   65.202
  402.250    6.276    0.321    0.443   65.203
  402.500    6.276    0.327    0.437   65.205
  402.750    6.277    0.332    0.432   64.598
  403.000    6.277    0.335    0.432   63.381
  403.250    6.278    0.339    0.435   62.163
  403.500    6.278    0.338    0.435   59.727
  403.750    6.279    0.335    0.431   59.119
  404.000    6.280    0.329    0.420   59.122
  404.250    6.280    0.317    0.415   60.344
  404.500    6.400    0.313    0.411   61.565
  404.750    6.401    0.323    0.415   62.177
  405.000    6.282    0.319    0.424   62.789
  405.250    6.283    0.319    0.432   64.010
  405.500    6.283    0.327    0.426   65.232
  405.750    6.284    0.337    0.424   64.015
  406.000    6.284    0.345    0.421   62.188
  406.250    6.285    0.345    0.420   60.972
  406.500    6.285    0.340    0.421   61.583
  406.750    6.286    0.335    0.437   62.804
  407.000    6.406    0.330    0.452   64.636
  407.250    6.407    0.333    0.454   65.857
  407.500    6.407    0.337    0.457   65.861
  407.750    6.529    0.339    0.453   65.252
  408.000    6.909    0.340    0.442   64.646
  408.250    7.175    0.338    0.431   64.038
  408.500    7.592    0.330    0.429   64.650
  408.750    8.187    0.323    0.436   64.652
  409.000    8.502    0.294    0.432   64.044
  409.250    8.188    0.241    0.391   58.559
  409.500    7.887    0.207    0.332   54.902
  409.750    7.740    0.156    0.231   51.246
  410.000    7.180    0.186    0.288   50.029
  410.250    6.660    0.324    0.422   56.129
  410.500    6.414    0.337    0.441   59.790
  410.750    6.063    0.341    0.435   63.450
  411.000    5.950    0.344    0.431   64.671
  411.250    5.951    0.344    0.430   64.674
  411.500    5.840    0.343    0.429   64.676
  411.750    5.841    0.341    0.440   65.899
  412.000    5.841    0.339    0.435   65.901
  412.250    5.953    0.335    0.425   66.512
  412.500    5.953    0.340    0.414   65.905
  412.750    5.954    0.339    0.425   64.077
  413.000    5.954    0.341    0.452   65.300
  413.250    6.068    0.343    0.463   65.912
  413.500    5.845    0.339    0.453   67.133
  413.750    5.845    0.338    0.438   67.135
  414.000    5.845    0.337    0.445   65.309
  414.250    5.846    0.335    0.449   64.701
  414.500    5.958    0.343    0.443   65.312
  414.750    5.959    0.335    0.429   65.925
  415.000    5.959    0.326    0.424   65.927
  415.250    5.959    0.326    0.431   66.538
  415.500    5.960    0.319    0.435   67.760
  415.750    5.961    0.323    0.424   68.983
  416.000    5.961    0.328    0.420   68.984
  416.250    5.850    0.329    0.418   66.548
  416.500    5.851    0.328    0.431   64.111
  416.750    5.851    0.324    0.436   62.894
  417.000    5.963    0.322    0.440   63.506
  417.250    5.964    0.317    0.448   64.117
  417.500    5.965    0.314    0.451   65.949
  417.750    5.965    0.317    0.451   66.562
  418.000    5.854    0.323    0.436   67.174
  418.250    5.855    0.329    0.427   67.176
  418.500    5.855    0.341    0.437   67.177
  418.750    5.856    0.350    0.446   67.180
  419.000    5.967    0.354    0.446   67.182
  419.250    5.968    0.356    0.447   65.965
  419.500    5.969    0.357    0.470   64.748
  419.750    5.969    0.361    0.473   63.530
  420.000    5.970    0.362    0.453   62.313
  420.250    6.084    0.359    0.456   62.925
  420.500    6.084    0.348    0.440   62.927
  420.750    6.200    0.341    0.421   64.149
  421.000    6.201    0.344    0.427   64.761
  421.250    6.202    0.349    0.446   64.153
  421.500    6.320    0.349    0.453   62.326
  421.750    6.320    0.346    0.441   59.890
  422.000    6.321    0.352    0.462   58.672
  422.250    6.442    0.332    0.444   57.455
  422.500    6.443    0.318    0.440   56.238
  422.750    6.443    0.335    0.443   56.239
  423.000    6.090    0.341    0.444   56.242
  423.250    6.324    0.334    0.435   56.854
  423.500    6.207    0.338    0.424   58.686
  423.750    6.091    0.333    0.429   60.517
  424.000    5.978    0.324    0.436   62.959
  424.250    5.545    0.323    0.444   66.620
  424.500    5.442    0.318    0.462   68.450
  424.750    5.341    0.278    0.458   73.940
  425.000    5.342    0.253    0.447   82.479
  425.250    5.243    0.249    0.460   91.628
  425.500    5.243    0.243    0.467   95.898
  425.750    5.343    0.229    0.471   98.339
  426.000    5.446    0.238    0.471   96.513
  426.250    5.550    0.243    0.463   97.125
  426.500    5.550    0.243    0.465   98.956
  426.750    5.764    0.237    0.459   97.740
  427.000    5.873    0.242    0.447   97.132
  427.250    5.985    0.244    0.446   97.134
  427.500    6.216    0.229    0.464   98.356
  427.750    6.455    0.222    0.485  100.797
  428.000    6.578    0.205    0.458  103.238
  428.250    6.704    0.209    0.435  105.679
  428.500    6.579    0.210    0.420  106.291
  428.750    6.337    0.217    0.415  105.683
  429.000    6.103    0.230    0.415  106.296
  429.250    5.990    0.231    0.415  105.688
  429.500    5.662    0.230    0.415  100.203
  429.750    5.154    0.228    0.424   97.156
  430.000    5.058    0.226    0.447   96.548
  430.250    5.058    0.224    0.471   95.332
  430.500    4.964    0.217    0.470   95.333
  430.750    4.435    0.209    0.455   94.116
  431.000    4.037    0.225    0.452   92.289
  431.250    3.161    0.233    0.473   92.901
  431.500    2.339    0.270    0.492   93.513
  431.750    2.211    0.295    0.522   93.515
  432.000    2.170    0.296    0.592   90.469
  432.250    2.170    0.281    0.598   88.642
  432.500    2.170    0.257    0.581   88.035
  432.750    2.170    0.254    0.544   88.036
  433.000    2.212    0.264    0.559   89.868
  433.250    2.254    0.270    0.568   92.919
  433.500    2.297    0.273    0.568   97.190
  433.750    2.297    0.271    0.551   99.021
  434.000    2.386    0.258    0.549  100.852
  434.250    2.431    0.255    0.539  102.684
  434.500    2.672    0.253    0.565  102.686
  434.750    2.935    0.252    0.566  101.469
  435.000    3.349    0.251    0.571  102.081
  435.250    3.894    0.236    0.561  101.473
  435.500    4.443    0.219    0.489   99.037
  435.750    5.069    0.214    0.458   99.648
  436.000    5.893    0.200    0.452  101.480
  436.250    6.119    0.187    0.462  100.872
  436.500    6.355    0.187    0.460   99.655
  436.750    6.599    0.149    0.444   95.998
  437.000    6.477    0.116    0.416   94.172
  437.250    6.122    0.109    0.377   94.174
  437.500    5.468    0.187    0.412   96.005
  437.750    4.794    0.195    0.454   97.837
  438.000    4.047    0.193    0.468   99.669
  438.250    3.898    0.203    0.478  101.501
  438.500    3.898    0.212    0.482  102.113
  438.750    3.899    0.220    0.476  102.724
  439.000    3.899    0.228    0.463  103.337
  439.250    3.900    0.222    0.464  103.338
  439.500    3.900    0.221    0.481  103.340
  439.750    3.686    0.219    0.492  104.563
  440.000    3.686    0.203    0.506  104.564
  440.250    3.687    0.172    0.498  104.566
  440.500    3.829    0.189    0.489  102.739
  440.750    3.829    0.204    0.506  102.132
  441.000    3.902    0.205    0.516  102.744
  441.250    3.902    0.208    0.496  102.137
  441.500    3.830    0.217    0.492  100.309
  441.750    3.830    0.208    0.502  100.311
  442.000    3.689    0.201    0.518  101.533
  442.250    3.553    0.199    0.528  103.365
  442.500    3.358    0.205    0.529  104.587
  442.750    3.235    0.216    0.529  105.198
  443.000    3.175    0.222    0.530  106.421
  443.250    3.297    0.230    0.538  106.422
  443.500    3.622    0.237    0.540  105.815
  443.750    3.906    0.241    0.544  102.768
  444.000    4.292    0.246    0.544   97.282
