~VERSION INFORMATION
 VERS.                 2.0:   CWLS LOG ASCII STANDARD -VERSION 2.0
 WRAP.                  NO:   ONE LINE PER DEPTH STEP
~WELL INFORMATION BLOCK
#MNEM.UNIT           DATA                    DESCRIPTION OF MNEMONIC
#---------    -------------------            -------------------------------
# Generated from Intellog Unique Number	CC_84_87/WELL/1149
NULL.         -999.25                        : NULL_VALUE
WELL.         PEX PCEJ HANGST OV             : Well_name    - WELL              
LOC .         07-20-084-09W4                 : Location     - LOCATION          
UWI .         00/07-20-084-09W400            : Uwi          - UNIQUE WELL ID    
ENTR.         JHS                            : Entered      - ENTERED BY        
SRVC.         DRESSER ATLAS                  : Scn          - SERVICE COMPANY   
DATE.         06 FEB 80                      : Date         - LOG DATE
STRT.M        220                            : top_depth    - START DEPTH       
STOP.M        459.992                        : bot_depth    - STOP DEPTH        
STEP.M        0.3                            : increment    - STEP LENGTH       
~CURVE INFORMATION BLOCK
#MNEM UNIT       ERCB CURVE CODE    CURVE DESCRIPTION
#-----------   ------------------   ----------------------------------
DEPT.M        00 001 00 00         : DEPTH        - DEPTH                       
DPHI.V/V      00 890 00 00         : PHID         - DENSITY POROSITY (LIMESTONE)
NPHI.V/V      00 330 00 00         : PHIN         - NEUTRON POROSITY (LIMESTONE)
GR  .API      00 310 00 00         : GR           - GAMMA RAY                   
ILD .OHMM     00 120 00 00         : RESD         - DEEP RESISTIVITY (DIL)      
~PARAMETER INFORMATION       
#MNEM.UNIT           DATA             DESCRIPTION OF MNEMONIC
#---------         -----------     ------------------------------
GL  .M        698.35               : gl           - GROUND LEVEL ELEVATION      
EREF.M        701.95               : kb           - ELEVATION OF DEPTH REFERENCE
DATM.M        701.95               : datum        - DATUM ELEVATION             
TDD .M        477                  : tdd          - TOTAL DEPTH DRILLER         
RUN .         ONE                  : Run          - RUN NUMBER                  
ENG .         BILL                 : Engineer     - RECORDING ENGINEER          
WIT .         JIM                  : Witness      - WITNESSED BY                
MUD .         GEL                  : Mud_type     - MUD TYPE                    
MATR.         LIMESTONE            : Logunit      - NEUTRON MATRIX              
TMAX.C        17                   : BHT          - MAXIMUM RECORDED TEMPERATURE
BHTD.M        477                  : BHTDEP       - MAXIMUM RECORDED TEMPERATURE
MATR.         1                    : LOGUNIT      - NEUTRON MATRIX              
RMT .C        25                   : MDTP         - TEMPERATURE OF MUD          
NEUT.         1                    : NEUTRON      - NEUTRON TYPE                
RESI.         0                    : RESIST       - RESISTIVITY TYPE            
RMC .OHMM     0.25                 : RMC          - RESISTIVITY OF MUD CAKE     
RMF .OHMM     0.25                 : RMF          - RESISTIVITY OF MUD FILTRATE 
SUFT.C        15                   : SUFT         - SURFACE TEMPERATURE         
~A  DEPTH     PHID     PHIN       GR     RESD
# ...
  376.595    0.238    0.367  100.926   11.228
  376.895    0.241    0.371  104.599   11.453
  377.195    0.238    0.380  105.842    9.885
  377.495    0.245    0.418  111.950    8.070
  377.795    0.247    0.436  110.760    6.712
  378.095    0.250    0.455  122.327    5.279
  378.395    0.242    0.449  129.038    4.076
  378.695    0.226    0.447  125.426    3.861
  378.995    0.219    0.435  130.310    4.013
  379.295    0.209    0.418  124.873    4.493
  379.595    0.205    0.407  114.578    4.844
  379.895    0.210    0.385  107.926    5.950
  380.195    0.210    0.374  100.071    7.041
  380.495    0.201    0.354   97.661    9.315
  380.795    0.199    0.354   93.441   10.235
  381.095    0.217    0.339   98.935   10.839
  381.395    0.196    0.317  105.045   11.473
  381.695    0.157    0.295  100.208   13.083
  381.995    0.086    0.248   89.307   15.205
  382.295    0.143    0.273   92.980   15.512
  382.595    0.194    0.359  109.405   14.685
  382.895    0.203    0.368  121.581   12.442
  383.195    0.206    0.381  111.894   10.942
  383.495    0.198    0.390  110.708    9.623
  383.795    0.192    0.403  124.705    8.784
  384.095    0.195    0.408  118.057    8.165
  384.395    0.192    0.384  119.297    7.878
  384.695    0.202    0.380  124.793    7.600
  384.995    0.222    0.429  124.823    6.681
  385.295    0.232    0.443  118.173    5.159
  385.595    0.261    0.458  116.985    4.291
  385.895    0.255    0.450  107.908    3.635
  386.195    0.234    0.436  103.686    3.379
  386.495    0.228    0.380   98.854    3.384
  386.795    0.233    0.373   96.455    4.157
  387.095    0.240    0.375  100.734    4.739
  387.395    0.234    0.369   99.551    5.506
  387.695    0.224    0.383   93.510    6.279
  387.995    0.224    0.393   91.109    6.173
  388.295    0.234    0.380   91.745    5.531
  388.595    0.239    0.406  106.956    4.954
  388.895    0.235    0.419  113.057    4.520
  389.195    0.226    0.396  111.872    4.280
  389.495    0.216    0.377  109.474    4.286
  389.795    0.185    0.367  105.255    4.980
  390.095    0.149    0.372  101.639    5.894
  390.395    0.143    0.372   97.413    7.106
  390.695    0.212    0.392   94.411    7.664
  390.995    0.235    0.440  105.983    6.739
  391.295    0.239    0.470  103.575    5.015
  391.595    0.244    0.494  128.509    4.409
  391.895    0.254    0.499  126.711    3.949
  392.195    0.260    0.474  121.278    3.473
  392.495    0.269    0.490  124.946    3.289
  392.795    0.268    0.496  122.549    3.549
  393.095    0.228    0.463  129.863    3.827
  393.395    0.208    0.466  122.607    4.284
  393.695    0.197    0.465  117.776    4.621
  393.995    0.192    0.443  117.807    4.890
  394.295    0.186    0.428  114.800    5.084
  394.595    0.157    0.421  103.896    5.091
  394.895    0.205    0.399  105.751    4.822
  395.195    0.223    0.428  113.672    4.482
  395.495    0.222    0.448  125.849    4.166
  395.795    0.227    0.458  134.383    3.802
  396.095    0.226    0.411  127.729    3.737
  396.395    0.220    0.385  135.045    3.884
  396.695    0.219    0.377  129.005    4.513
  396.995    0.236    0.359  115.063    5.144
  397.295    0.249    0.347  105.380    5.978
  397.595    0.244    0.360  106.623    6.447
  397.895    0.242    0.356  108.470    6.826
  398.195    0.262    0.312   97.568    7.226
  398.495    0.276    0.269   91.524    8.088
  398.795    0.269    0.277   97.023    8.887
  399.095    0.254    0.305  106.164   10.915
  399.395    0.250    0.315  102.545   13.659
  399.695    0.243    0.319  103.790   13.428
  399.995    0.210    0.336  130.497   11.453
  400.294    0.139    0.330  115.877   11.673
  400.594    0.157    0.322  104.916   11.466
  400.894    0.193    0.365  120.786   10.854
  401.194    0.202    0.370  139.095   10.086
  401.494    0.205    0.363  139.720    9.373
  401.794    0.204    0.353  128.148    8.872
  402.094    0.201    0.336  136.090    8.399
  402.394    0.203    0.319  128.788    8.721
  402.694    0.201    0.309  131.851    9.569
  402.994    0.202    0.290  111.744   10.500
  403.294    0.209    0.294  105.051   11.524
  403.594    0.230    0.292  102.628   11.964
  403.894    0.254    0.288   92.886   12.652
  404.194    0.250    0.296   83.754   13.628
  404.494    0.233    0.318   86.819   13.890
  404.794    0.231    0.329   91.103   13.645
  405.094    0.248    0.319   83.189   13.404
  405.394    0.256    0.329   88.083   12.924
  405.694    0.251    0.315   78.951   12.234
  405.994    0.256    0.324   87.503   11.795
  406.294    0.263    0.345   78.984   10.762
  406.594    0.263    0.328   75.947   10.376
  406.894    0.258    0.322   86.940   10.006
  407.194    0.256    0.315   77.808   10.011
  407.494    0.247    0.292   65.017   10.017
  407.794    0.232    0.279   58.324   10.210
  408.094    0.213    0.275   74.193   10.407
  408.394    0.213    0.282   88.236   11.005
  408.694    0.240    0.298   94.957   11.424
  408.994    0.273    0.343   71.189   12.770
  409.294    0.259    0.349   88.279   14.540
  409.594    0.244    0.361  107.807   15.665
  409.894    0.235    0.373  106.603   15.965
  410.194    0.268    0.369   88.325   17.519
  410.494    0.276    0.355   73.705   22.285
  410.794    0.269    0.346   81.040   31.092
  411.094    0.254    0.329   82.883   42.587
  411.394    0.219    0.329   74.971   56.213
  411.694    0.208    0.335   71.936   68.915
  411.994    0.246    0.345   75.611   66.457
  412.294    0.271    0.362   81.113   60.624
  412.594    0.275    0.340   70.152   54.298
  412.894    0.282    0.329   65.898   60.692
  413.194    0.275    0.338   64.700   81.605
  413.494    0.272    0.353   89.710   89.561
  413.794    0.266    0.341   98.873   84.776
  414.094    0.213    0.319  108.035   71.825
  414.394    0.190    0.317  110.490   35.618
  414.694    0.180    0.321  108.674   21.643
  414.994    0.179    0.325  122.105   17.350
  415.294    0.181    0.318  133.097   14.432
  415.594    0.183    0.325  128.843   12.925
  415.894    0.175    0.360  145.932   11.364
  416.194    0.150    0.358  141.681    9.629
  416.494    0.190    0.353  146.572    8.623
  416.794    0.218    0.371  141.099    7.867
  417.094    0.231    0.357  114.284    7.872
  417.394    0.265    0.349   91.737    8.172
  417.694    0.237    0.331   86.266    8.642
  417.994    0.217    0.319   99.086    9.660
  418.294    0.214    0.328   99.099   11.844
  418.594    0.228    0.346  119.238   13.994
  418.894    0.245    0.350  124.742   16.533
  419.194    0.269    0.354   93.046   20.269
  419.494    0.286    0.342   82.696   27.252
  419.794    0.275    0.344   74.784   49.241
  420.094    0.273    0.335   72.973   92.323
  420.394    0.263    0.329   78.473   94.097
  420.694    0.252    0.321   89.464   75.433
  420.994    0.255    0.335   89.479   50.269
  421.294    0.260    0.338   87.055   40.298
  421.594    0.267    0.351   80.364   36.765
  421.894    0.276    0.364   73.061   41.868
  422.194    0.269    0.364   71.248   48.556
  422.494    0.270    0.348   79.798   62.920
  422.794    0.274    0.354   79.204   70.335
  423.094    0.273    0.360   73.121   67.821
  423.394    0.264    0.337   79.234   56.408
  423.694    0.264    0.328   78.640   45.219
  423.994    0.248    0.313   87.802   39.028
  424.294    0.227    0.319   94.523   32.467
  424.594    0.234    0.321   99.420   27.004
  424.893    0.241    0.314   97.604   22.464
  425.193    0.245    0.326   92.133   21.661
  425.493    0.251    0.334   86.657   23.771
  425.793    0.271    0.341   82.403   27.573
  426.093    0.276    0.327   77.541   30.815
  426.393    0.271    0.318   76.339   37.779
  426.693    0.272    0.329   86.108   43.819
  426.993    0.292    0.346   77.586   50.824
  427.293    0.286    0.350   78.821   57.873
  427.593    0.286    0.350   84.325   65.908
  427.893    0.282    0.341   84.949   70.999
  428.193    0.284    0.345   85.573   77.904
  428.493    0.290    0.349   61.807   90.362
