~VERSION INFORMATION
 VERS.                 2.0:   CWLS LOG ASCII STANDARD -VERSION 2.0
 WRAP.                  NO:   ONE LINE PER DEPTH STEP
~WELL INFORMATION BLOCK
#MNEM.UNIT           DATA                    DESCRIPTION OF MNEMONIC
#---------    -------------------            -------------------------------
# Generated from Intellog Unique Number	CS_73_76/WELL/3219
WELL.         BOW VALLEY INDUSTRIES          : Well_name    - WELL
LOC .         00/08-32-076-16W4/0            : Location     - LOCATION
UWI .         00/08-32-076-16W4/0            : Uwi          - UNIQUE WELL ID
ENTR.         SP                             : Entered      - ENTERED BY
SRVC.         SCHLUMBERGER                   : Scn          - SERVICE COMPANY
STRT.M        305                            : top_depth    - START DEPTH
STOP.M        555                            : bot_depth    - STOP DEPTH
STEP.M        0.25                           : increment    - STEP LENGTH
 NULL. -999.2500:NULL Value
~CURVE INFORMATION BLOCK
#MNEM UNIT       ERCB CURVE CODE    CURVE DESCRIPTION
#-----------   ------------------   ----------------------------------
DEPT.M        00 001 00 00         : DEPTH        - DEPTH
NPHI.V/V      00 330 00 00         : PHIN         - NEUTRON POROSITY (LIMESTONE)
DPHI.V/V      00 890 00 00         : PHID         - DENSITY POROSITY (LIMESTONE)
GR  .API      00 310 00 00         : GR           - GAMMA RAY
ILD .OHMM     00 120 00 00         : RESD         - DEEP RESISTIVITY (DIL)
~PARAMETER INFORMATION
#MNEM.UNIT           DATA             DESCRIPTION OF MNEMONIC
#---------         -----------     ------------------------------
GL  .M        680.5                : gl           - GROUND LEVEL ELEVATION
EREF.M        683.97               : kb           - ELEVATION OF DEPTH REFERENCE
DATM.M        680.5                : datum        - DATUM ELEVATION
TDD .M        642                  : tdd          - TOTAL DEPTH DRILLER
RUN .         ONE                  : Run          - RUN NUMBER
ENG .         BILL                 : Engineer     - RECORDING ENGINEER
WIT .         JIM                  : Witness      - WITNESSED BY
MUD .         GEL                  : Mud_type     - MUD TYPE
MATR.         LIMESTONE            : Logunit      - NEUTRON MATRIX
TMAX.C        17                   : BHT          - MAXIMUM RECORDED TEMPERATURE
BHTD.M        642                  : BHTDEP       - MAXIMUM RECORDED TEMPERATURE
MATR.         1                    : LOGUNIT      - NEUTRON MATRIX
RMT .C        25                   : MDTP         - TEMPERATURE OF MUD
NEUT.         1                    : NEUTRON      - NEUTRON TYPE
RESI.         0                    : RESIST       - RESISTIVITY TYPE
RMC .OHMM     0.25                 : RMC          - RESISTIVITY OF MUD CAKE
RMF .OHMM     0.25                 : RMF          - RESISTIVITY OF MUD FILTRATE
SUFT.C        15                   : SUFT         - SURFACE TEMPERATURE
~A  DEPTH     PHIN     PHID       GR     RESD
# ...
  479.000    0.374    0.213   74.933    5.953
  479.250    0.378    0.225   81.751    5.628
  479.500    0.414    0.237   82.992    5.320
  479.750    0.440    0.246   81.133    5.126
  480.000    0.429    0.251   83.614    5.032
  480.250    0.446    0.246   85.474    5.035
  480.500    0.461    0.234   84.855    5.039
  480.750    0.460    0.226   85.475    4.948
  481.000    0.435    0.225   86.096    4.859
  481.250    0.425    0.226   84.857    4.769
  481.500    0.411    0.232   82.379    4.597
  481.750    0.385    0.245   80.520    4.513
  482.000    0.396    0.219   77.421    4.431
  482.250    0.386    0.203   73.703    4.433
  482.500    0.393    0.201   74.324    4.352
  482.750    0.406    0.215   78.044    4.274
  483.000    0.421    0.220   82.383    3.964
  483.250    0.415    0.219   87.963    3.818
  483.500    0.408    0.246   85.484    2.928
  483.750    0.410    0.276   83.625    2.516
  484.000    0.434    0.296   83.626    2.204
  484.250    0.457    0.301   80.528    1.930
  484.500    0.492    0.301   78.049    1.756
  484.750    0.493    0.297   76.191    1.629
  485.000    0.485    0.292   76.811    1.540
  485.250    0.504    0.283   78.671    1.512
  485.500    0.517    0.280   76.193    1.602
  485.750    0.507    0.270   76.194    1.698
  486.000    0.497    0.262   80.533    1.731
  486.250    0.480    0.254   83.633    2.056
  486.500    0.461    0.245   81.155    2.488
  486.750    0.415    0.235   79.296    2.956
  487.000    0.404    0.226   78.677    3.380
  487.250    0.395    0.213   81.157    3.864
  487.500    0.388    0.200   82.398    4.417
  487.750    0.379    0.188   79.919    4.770
  488.000    0.369    0.181   77.440    5.053
  488.250    0.358    0.186   76.202    5.354
  488.500    0.372    0.199   77.442    5.783
  488.750    0.384    0.188   73.104    6.011
  489.000    0.370    0.160   67.526    6.130
  489.250    0.350    0.111   68.767    6.253
  489.500    0.352    0.108   71.867    6.257
  489.750    0.376    0.171   73.727    5.804
  490.000    0.369    0.201   74.968    4.988
  490.250    0.369    0.205   74.969    4.454
  490.500    0.383    0.206   77.448    4.289
  490.750    0.401    0.206   78.689    4.132
  491.000    0.415    0.209   75.591    3.981
  491.250    0.421    0.212   73.112    3.763
  491.500    0.426    0.215   73.113    3.557
  491.750    0.440    0.216   76.833    3.363
  492.000    0.445    0.219   78.693    3.238
  492.250    0.431    0.222   81.173    3.061
  492.500    0.434    0.231   85.513    2.839
  492.750    0.432    0.239   84.274    2.583
  493.000    0.429    0.240   84.275    2.489
  493.250    0.442    0.246   86.755    2.443
  493.500    0.471    0.247   86.755    2.399
  493.750    0.491    0.240   84.277    2.495
  494.000    0.481    0.216   84.898    2.642
  494.250    0.466    0.204   86.758    3.079
  494.500    0.455    0.199   86.139    3.520
  494.750    0.442    0.194   86.759    4.025
  495.000    0.419    0.185   92.339    4.690
  495.250    0.409    0.189   95.439    5.162
  495.500    0.395    0.224   88.002    5.902
  495.750    0.388    0.239   79.325    6.373
  496.000    0.378    0.246   45.854    6.377
  496.250    0.370    0.255   40.277    4.707
  496.500    0.394    0.257   43.377    3.894
  496.750    0.429    0.261   54.534    3.543
  497.000    0.466    0.256   79.948    3.975
  497.250    0.461    0.242   75.610    5.095
  497.500    0.432    0.235   70.653    6.654
  497.750    0.399    0.239   63.215    8.527
  498.000    0.366    0.242   58.877    9.209
  498.250    0.369    0.231   64.457    9.216
  498.500    0.368    0.212   74.375    9.222
  498.750    0.366    0.214   87.392    9.229
  499.000    0.365    0.205   92.971    8.724
  499.250    0.364    0.198   95.451    8.404
  499.500    0.360    0.215   97.931    8.737
  499.750    0.352    0.256   94.833   11.630
  500.000    0.294    0.286   48.763   25.896
  500.250    0.260    0.316   31.507   54.398
  500.500    0.257    0.336   30.920   64.565
  500.750    0.260    0.338   30.330   69.679
  501.000    0.280    0.331   29.742   68.371
  501.250    0.323    0.318   28.534   63.364
  501.500    0.336    0.308   29.181   67.093
  501.750    0.337    0.307   29.830   73.797
  502.000    0.336    0.311   30.469   84.319
  502.250    0.329    0.319   28.033   96.342
  502.500    0.324    0.335   24.971  105.968
  502.750    0.319    0.328   23.147  110.089
  503.000    0.318    0.322   22.559  112.215
  503.250    0.323    0.311   24.439  114.379
  503.500    0.338    0.309   26.935  141.024
  503.750    0.346    0.315   28.198  155.115
  504.000    0.348    0.326   26.373  173.892
  504.250    0.357    0.331   25.786  187.661
  504.500    0.357    0.334   24.576  198.704
  504.750    0.341    0.334   23.987  194.973
  505.000    0.337    0.332   23.401  184.170
  505.250    0.339    0.329   22.809  173.966
  505.500    0.345    0.327   23.454  164.327
  505.750    0.357    0.326   25.337  158.204
  506.000    0.355    0.325   25.365  155.236
  506.250    0.331    0.321   25.394  152.324
  506.500    0.326    0.319   24.801  152.335
  506.750    0.331    0.316   24.831  149.476
  507.000    0.328    0.315   24.239  149.489
  507.250    0.333    0.315   26.121  146.683
  507.500    0.344    0.315   27.385  141.217
  507.750    0.344    0.315   26.795  130.880
  508.000    0.342    0.318   25.587  110.287
  508.250    0.342    0.323   28.086   71.200
  508.500    0.345    0.323   34.900   33.900
  508.750    0.338    0.304   40.484   17.752
  509.000    0.338    0.280   51.621   13.601
  509.250    0.349    0.258   61.527   11.682
  509.500    0.355    0.231   86.861   10.033
  509.750    0.354    0.229   86.890   10.034
  510.000    0.344    0.220   83.215   10.424
  510.250    0.340    0.207   80.776   11.038
  510.500    0.333    0.195   77.715   11.250
  510.750    0.339    0.191   72.808   11.912
  511.000    0.345    0.205   68.511   12.375
  511.250    0.347    0.226   61.751   12.614
  511.500    0.341    0.238   58.075   12.615
  511.750    0.339    0.246   58.106   12.145
  512.000    0.342    0.249   55.664   11.693
  512.250    0.346    0.254   51.992   11.257
  512.500    0.350    0.259   48.928   11.474
  512.750    0.361    0.275   44.017   12.383
  513.000    0.374    0.286   44.045   13.364
  513.250    0.383    0.289   41.604   14.698
  513.500    0.370    0.289   39.782   18.123
  513.750    0.369    0.286   42.279   23.211
  514.000    0.374    0.281   43.544   25.530
  514.250    0.368    0.274   45.420   26.523
  514.500    0.352    0.264   47.303   25.535
  514.750    0.353    0.259   47.329   25.056
  515.000    0.363    0.265   45.503   25.059
  515.250    0.364    0.277   45.532   25.061
  515.500    0.360    0.286   48.646   24.590
  515.750    0.358    0.277   51.144   23.673
  516.000    0.358    0.271   51.787   22.362
  516.250    0.359    0.268   49.349   21.942
  516.500    0.359    0.267   48.757   22.366
  516.750    0.366    0.274   48.170   22.797
  517.000    0.376    0.288   46.962   24.604
  517.250    0.376    0.292   46.992   25.078
  517.500    0.372    0.294   48.869   26.052
  517.750    0.363    0.293   52.600   26.054
  518.000    0.353    0.290   53.863   25.565
  518.250    0.347    0.288   53.275   26.059
  518.500    0.364    0.293   48.985   27.072
  518.750    0.384    0.296   44.688   28.125
  519.000    0.375    0.300   42.250   27.077
  519.250    0.341    0.297   49.069   25.095
  519.500    0.343    0.286   52.180   23.257
  519.750    0.344    0.272   52.828   22.390
  520.000    0.339    0.275   47.916   23.261
  520.250    0.338    0.280   45.474   23.710
  520.500    0.348    0.286   46.118   25.588
  520.750    0.371    0.292   47.998   27.093
  521.000    0.386    0.295   47.410   28.687
  521.250    0.363    0.296   47.438   27.619
  521.500    0.355    0.292   48.699   26.589
  521.750    0.372    0.287   50.582   23.723
  522.000    0.372    0.282   53.077   22.408
  522.250    0.372    0.278   54.340   19.992
