~VERSION INFORMATION
 VERS.                 2.0:   CWLS LOG ASCII STANDARD -VERSION 2.0
 WRAP.                  NO:   ONE LINE PER DEPTH STEP
~WELL INFORMATION BLOCK
#MNEM.UNIT           DATA                    DESCRIPTION OF MNEMONIC
#---------    -------------------            -------------------------------
# Generated from Intellog Unique Number	CW_70_72/WELL/642
NULL.         -999.25                        : NULL_VALUE
WELL.         MIDAS AMOCO MEYER 06-21        : Well_name    - WELL              
LOC .         06-21-071-25W4                 : Location     - LOCATION          
UWI .         00/06-21-071-25W4/0            : Uwi          - UNIQUE WELL ID    
ENTR.         JAYE                           : Entered      - ENTERED BY        
SRVC.         SCHLUMBERGER                   : Scn          - SERVICE COMPANY   
DATE.         4 FEB 73                       : Date         - LOG DATE          
STRT.M        402.336                        : top_depth    - START DEPTH       
STOP.M        624.836                        : bot_depth    - STOP DEPTH        
STEP.M        0.25                           : increment    - STEP LENGTH       
~CURVE INFORMATION BLOCK
#MNEM UNIT       ERCB CURVE CODE    CURVE DESCRIPTION
#-----------   ------------------   ----------------------------------
DEPT.M        00 001 00 00         : DEPTH        - DEPTH                       
DPHI.V/V      00 890 00 00         : PHID         - DENSITY POROSITY (SANDSTONE)
NPHI.V/V      00 330 00 00         : PHIN         - NEUTRON POROSITY (SANDSTONE)
GR  .API      00 310 00 00         : GR           - GAMMA RAY                   
CALI.MM       00 280 01 00         : CAL          - CALIPER                     
ILD .OHMM     00 120 00 00         : RESD         - DEEP RESISTIVITY (DIL)      
~PARAMETER INFORMATION       
#MNEM.UNIT           DATA             DESCRIPTION OF MNEMONIC
#---------         -----------     ------------------------------
GL  .M        598.322              : gl           - GROUND LEVEL ELEVATION      
EREF.M        601.37               : kb           - ELEVATION OF DEPTH REFERENCE
DATM.M        598.322              : datum        - DATUM ELEVATION             
TDD .M        628.802              : tdd          - TOTAL DEPTH DRILLER         
RUN .         ONE                  : Run          - RUN NUMBER                  
ENG .         LEWIS                : Engineer     - RECORDING ENGINEER          
WIT .         JAMES                : Witness      - WITNESSED BY                
BASE.         LLOYD                : Branch       - HOME BASE OF LOGGING UNIT   
MUD .         GEL                  : Mud_type     - MUD TYPE                    
MATR.         SANDSTONE            : Logunit      - NEUTRON MATRIX              
TMAX.C        25.5556              : BHT          - MAXIMUM RECORDED TEMPERATURE
BHTD.M        627.583              : BHTDEP       - MAXIMUM RECORDED TEMPERATURE
RMT .C        15                   : MDTP         - TEMPERATURE OF MUD          
MUDD.KG/M     1116                 : MWT          - MUD DENSITY                 
NEUT.         1                    : NEUTRON      - NEUTRON TYPE                
RESI.         0                    : RESIST       - RESISTIVITY TYPE            
RM  .OHMM     8.41                 : RM           - RESISTIVITY OF MUD          
RMC .OHMM     5                    : RMC          - RESISTIVITY OF MUD CAKE     
RMF .OHMM     3.96                 : RMF          - RESISTIVITY OF MUD FILTRATE 
SUFT.C        -17.7778             : SUFT         - SURFACE TEMPERATURE         
~A  DEPTH     PHID     PHIN       GR      CAL     RESD
  402.336    0.120    0.535  127.523  203.635    2.266
  402.586    0.128    0.582  123.731  206.229    2.272
  402.836    0.137    0.594  114.986  204.206    2.278
  403.086    0.144    0.607  107.480  203.257    2.301
  403.336    0.169    0.619  110.746  204.367    2.295
  403.586    0.211    0.620  111.597  206.642    2.306
  403.836    0.235    0.619  108.731  211.343    2.320
  404.086    0.210    0.600  100.362  214.344    2.327
  404.336    0.269    0.551   92.666  210.335    2.267
  404.586    0.287    0.497   83.178  171.517    2.229
  404.836    0.268    0.532   88.239  176.520    2.231
  405.086    0.308    0.581   96.334  213.920    2.274
  405.336    0.293    0.605   96.936  223.747    2.309
  405.586    0.374    0.542   96.799  209.673    2.400
  405.836    0.328    0.520   95.612  203.358    2.639
  406.086    0.292    0.499   94.602  191.380    2.773
  406.336    0.224    0.522   93.838  183.802    2.555
  406.586    0.234    0.574   95.121  185.768    2.337
  406.836    0.260    0.601  102.535  187.944    2.245
  407.086    0.261    0.605  111.559  192.745    2.384
  407.336    0.303    0.566  103.063  195.013    2.593
  407.586    0.318    0.506   94.443  185.767    2.992
  407.836    0.215    0.460   90.221  172.114    3.580
  408.086    0.179    0.461   85.680  167.468    4.138
  408.336    0.194    0.471   76.812  167.236    4.616
  408.586    0.170    0.427   65.157  168.680    4.894
  408.836    0.081    0.384   62.232  170.116    5.097
  409.086    0.047    0.413   69.401  171.148    5.102
  409.336    0.113    0.399   76.191  171.647    4.821
  409.586    0.173    0.426   74.319  171.296    4.498
  409.836    0.191    0.426   71.454  170.652    4.273
  410.086    0.236    0.422   76.455  169.983    4.068
  410.336    0.236    0.430   83.686  169.217    3.850
  410.586    0.216    0.467   91.094  167.629    3.586
  410.836    0.189    0.481  101.352  167.610    3.389
  411.086    0.185    0.474  110.070  171.026    3.320
  411.336    0.180    0.465  116.174  176.560    3.323
  411.586    0.221    0.494  120.865  178.414    3.479
  411.836    0.281    0.489  116.082  177.028    3.750
  412.086    0.249    0.464  105.110  174.690    3.962
  412.336    0.210    0.418  109.984  173.402    4.075
  412.586    0.202    0.403  119.128  172.447    4.056
  412.836    0.173    0.396  122.088  173.245    3.875
  413.086    0.155    0.479  118.356  180.774    3.615
  413.336    0.211    0.510  122.613  187.656    3.435
  413.586    0.261    0.506  122.407  198.319    3.311
  413.836    0.290    0.483  117.382  217.587    3.356
  414.086    0.302    0.452  111.728  183.180    3.401
  414.336    0.245    0.434  104.284  174.129    3.387
  414.586    0.175    0.462  103.468  174.630    3.317
  414.836    0.148    0.545  108.710  182.260    3.186
  415.086    0.160    0.600  112.842  193.553    3.116
  415.336    0.205    0.575  112.205  205.369    3.085
  415.586    0.246    0.509  105.384  209.739    3.110
  415.836    0.228    0.468  107.594  178.893    3.204
  416.086    0.194    0.448  105.968  172.268    3.541
  416.336    0.176    0.456  100.818  168.895    3.782
  416.586    0.129    0.470   96.403  167.396    4.010
  416.836    0.139    0.483   95.580  166.115    4.029
  417.086    0.136    0.478   93.212  165.865    4.018
  417.336    0.154    0.463   92.827  167.318    3.972
  417.586    0.158    0.420   86.805  169.700    3.898
  417.836    0.178    0.404   86.542  172.498    3.644
  418.086    0.161    0.458   85.041  176.240    3.381
  418.336    0.132    0.467   69.486  175.169    3.127
  418.586    0.202    0.439   57.460  166.126    2.840
  418.836    0.233    0.372   63.449  161.797    2.645
  419.086    0.231    0.361   78.537  160.214    2.667
  419.336    0.196    0.363   85.829  160.810    3.006
  419.586    0.198    0.364   90.515  163.608    3.305
  419.836    0.190    0.362   98.182  169.034    3.549
  420.086    0.174    0.369  102.058  173.614    3.838
  420.336    0.143    0.428  106.933  176.428    3.962
  420.586    0.171    0.476  100.913  178.178    4.023
  420.836    0.212    0.469   92.975  178.043    3.474
  421.086    0.233    0.408   78.040  173.510    2.995
  421.336    0.209    0.375   60.874  168.758    2.577
  421.586    0.237    0.373   50.895  165.279    2.319
  421.836    0.243    0.371   46.548  164.528    2.087
  422.086    0.245    0.376   45.166  165.429    1.923
  422.336    0.225    0.370   43.974  167.082    1.801
  422.586    0.211    0.365   43.401  167.057    1.758
  422.836    0.254    0.362   46.045  166.819    1.728
  423.086    0.269    0.360   47.331  165.753    1.771
  423.336    0.255    0.365   46.200  164.768    1.815
  423.586    0.238    0.360   49.898  163.188    1.893
  423.836    0.240    0.355   58.426  164.522    2.048
  424.086    0.223    0.358   78.898  167.945    2.292
  424.336    0.195    0.369   89.036  170.326    2.579
  424.586    0.169    0.378   97.251  171.239    2.805
  424.836    0.163    0.387  106.213  170.796    3.018
  425.086    0.161    0.407  102.357  170.040    3.143
  425.336    0.188    0.418  102.467  169.493    3.237
  425.586    0.170    0.410  107.344  169.247    3.359
  425.836    0.155    0.409  111.413  169.326    3.537
  426.086    0.155    0.426  115.234  172.344    3.710
  426.336    0.176    0.465  118.317  179.119    3.843
  426.586    0.156    0.471  119.724  188.631    3.938
  426.836    0.210    0.433  119.889  181.059    3.741
  427.086    0.204    0.394  118.947  177.167    3.331
  427.336    0.199    0.406  115.028  177.130    2.977
  427.586    0.230    0.554  111.483  177.843    2.665
  427.836    0.299    0.597  111.348  182.000    2.343
  428.086    0.350    0.617  107.365  194.970    2.151
  428.336    0.300    0.631  100.665  177.960    1.993
  428.586    0.238    0.610  108.328  181.395    2.024
  428.836    0.300    0.577  119.020  226.654    2.092
  429.086    0.326    0.514  127.051  251.463    2.304
  429.336    0.306    0.498  127.472  241.487    2.593
  429.586    0.242    0.479  120.644  209.271    3.003
  429.836    0.224    0.488  112.454  178.636    3.331
  430.086    0.203    0.529  104.144  177.460    3.564
  430.336    0.282    0.481   86.732  168.938    3.536
  430.586    0.281    0.437   74.275  163.043    3.470
  430.836    0.265    0.428   69.429  163.439    3.405
  431.086    0.254    0.436   68.734  163.408    3.359
  431.336    0.271    0.450   71.006  164.326    3.256
  431.586    0.269    0.467   74.457  164.305    3.190
  431.836    0.253    0.450   75.123  164.688    3.130
  432.086    0.203    0.444   71.026  163.618    3.071
  432.336    0.204    0.490   68.591  163.060    2.971
  432.586    0.239    0.467   68.574  163.881    2.884
  432.836    0.267    0.441   69.548  163.113    2.810
  433.086    0.254    0.432   72.194  161.209    2.743
  433.336    0.245    0.424   73.354  159.717    2.697
  433.586    0.247    0.441   75.011  159.158    2.680
  433.836    0.254    0.437   72.707  158.606    2.707
  434.086    0.259    0.440   73.988  157.965    2.734
  434.336    0.253    0.482   80.540  158.138    2.761
  434.586    0.250    0.470   85.159  159.264    2.814
  434.836    0.232    0.467   82.667  161.451    3.060
  435.086    0.215    0.467   76.091  162.346    3.275
  435.336    0.199    0.466   70.319  162.950    3.548
  435.586    0.217    0.410   65.907  163.346    3.858
  435.836    0.231    0.351   71.957  163.536    4.226
  436.086    0.252    0.327   67.051  163.288    4.489
  436.336    0.258    0.342   65.178  163.484    4.786
  436.586    0.267    0.400   67.703  163.977    4.073
  436.836    0.265    0.430   71.650  164.893    3.582
  437.086    0.260    0.441   74.600  166.118    3.230
  437.336    0.258    0.455   78.300  165.670    2.938
  437.586    0.249    0.473   82.494  160.933    2.654
  437.836    0.236    0.465   86.996  159.321    2.477
  438.086    0.268    0.469   91.933  166.744    2.323
  438.336    0.289    0.509   97.115  178.447    2.176
  438.586    0.313    0.574  105.333  203.164    2.147
