~VERSION INFORMATION
 VERS.                 2.0:   CWLS LOG ASCII STANDARD -VERSION 2.0
 WRAP.                  NO:   ONE LINE PER DEPTH STEP
~WELL INFORMATION BLOCK
#MNEM.UNIT           DATA                    DESCRIPTION OF MNEMONIC
#---------    -------------------            -------------------------------
# Generated from Intellog Unique Number	CX_WELLS/WELL/3000
WELL.         BRENDA ET AL DIVIDE            : Well_name    - WELL
LOC .         00/03-18-082-12W4/0            : Location     - LOCATION
UWI .         00/03-18-082-12W400            : Uwi          - UNIQUE WELL ID
ENTR.         T                              : Entered      - ENTERED BY
SRVC.         SCHLUMBERGER                   : Scn          - SERVICE COMPANY
STRT.M        225                            : top_depth    - START DEPTH
STOP.M        465                            : bot_depth    - STOP DEPTH
STEP.M        0.25                           : increment    - STEP LENGTH
 NULL. -999.2500:NULL Value
~CURVE INFORMATION BLOCK
#MNEM UNIT       ERCB CURVE CODE    CURVE DESCRIPTION
#-----------   ------------------   ----------------------------------
DEPT.M        00 001 00 00         : DEPTH        - DEPTH
GR  .API      00 310 00 00         : GR           - GAMMA RAY
NPHI.V/V      00 330 00 00         : PHIN         - NEUTRON POROSITY (SANDSTONE)
DPHI.V/V      00 890 00 00         : PHID         - DENSITY POROSITY (SANDSTONE)
ILD .OHMM     00 120 00 00         : RESD         - DEEP RESISTIVITY (OTHER)
~PARAMETER INFORMATION
#MNEM.UNIT           DATA             DESCRIPTION OF MNEMONIC
#---------         -----------     ------------------------------
GL  .M        677.8                : gl           - GROUND LEVEL ELEVATION
EREF.M        681.2                : kb           - ELEVATION OF DEPTH REFERENCE
DATM.M        681.2                : datum        - DATUM ELEVATION
TDD .M        474                  : tdd          - TOTAL DEPTH DRILLER
RUN .         ONE                  : Run          - RUN NUMBER
ENG .         BILL                 : Engineer     - RECORDING ENGINEER
WIT .         JIM                  : Witness      - WITNESSED BY
MUD .         GEL                  : Mud_type     - MUD TYPE
MATR.         SANDSTONE            : Logunit      - NEUTRON MATRIX
TMAX.C        21.1111              : BHT          - MAXIMUM RECORDED TEMPERATURE
BHTD.M        474                  : BHTDEP       - MAXIMUM RECORDED TEMPERATURE
MATR.         1                    : LOGUNIT      - NEUTRON MATRIX
RMT .C        22                   : MDTP         - TEMPERATURE OF MUD
NEUT.         1                    : NEUTRON      - NEUTRON TYPE
RESI.         3.8                  : RESIST       - RESISTIVITY TYPE
RMC .OHMM     4.68                 : RMC          - RESISTIVITY OF MUD CAKE
RMF .OHMM     4.68                 : RMF          - RESISTIVITY OF MUD FILTRATE
SUFT.C        4                    : SUFT         - SURFACE TEMPERATURE
~A  DEPTH       GR     PHIN     PHID     RESD
# ...
  399.000   93.676    0.401    0.256    3.853
  399.250   96.640    0.463    0.256    3.258
  399.500   95.454    0.493    0.256    3.321
  399.750   93.083    0.504    0.256    3.581
  400.000   89.526    0.469    0.251    4.240
  400.250   87.154    0.442    0.243    4.658
  400.500   85.968    0.411    0.235    5.119
  400.750   85.968    0.401    0.222    5.316
  401.000   86.561    0.394    0.211    5.221
  401.250   87.747    0.393    0.204    4.758
  401.500   91.304    0.435    0.228    4.501
  401.750   95.454    0.445    0.237    4.338
  402.000   99.605    0.446    0.242    4.340
  402.250  100.791    0.448    0.235    4.424
  402.500  100.198    0.478    0.235    4.428
  402.750   99.012    0.494    0.248    4.347
  403.000   99.012    0.493    0.254    4.189
  403.250   99.012    0.467    0.251    4.038
  403.500  101.976    0.460    0.246    3.965
  403.750  103.755    0.448    0.242    3.968
  404.000  107.312    0.449    0.243    3.971
  404.250  110.870    0.460    0.246    3.973
  404.500  112.055    0.475    0.248    4.127
  404.750  109.684    0.491    0.252    4.533
  405.000  106.719    0.498    0.254    5.368
  405.250  103.755    0.446    0.248    6.599
  405.500   99.012    0.417    0.217    7.527
  405.750   93.676    0.385    0.207    9.255
  406.000   84.783    0.369    0.198    9.612
  406.250   74.704    0.396    0.247    9.442
  406.500   74.704    0.419    0.261    9.444
  406.750   80.040    0.408    0.258    9.276
  407.000   81.818    0.394    0.247    9.110
  407.250   84.190    0.388    0.249    8.779
  407.500   80.040    0.406    0.260    8.622
  407.750   73.518    0.408    0.269    8.787
  408.000   67.589    0.401    0.275    9.478
  408.250   66.403    0.378    0.273   10.031
  408.500   71.739    0.379    0.265    9.852
  408.750   74.704    0.388    0.254    9.673
  409.000   72.332    0.395    0.244    9.498
  409.250   74.111    0.394    0.236    9.503
  409.500   77.075    0.388    0.232   10.249
  409.750   83.004    0.383    0.240   10.847
  410.000   92.490    0.389    0.254   11.269
  410.250   96.047    0.393    0.259   11.703
  410.500   97.826    0.388    0.252   12.388
  410.750   98.419    0.383    0.247   12.867
  411.000  100.198    0.377    0.243   13.874
  411.250  100.791    0.373    0.243   15.825
  411.500  101.976    0.381    0.240   19.453
  411.750  103.755    0.384    0.232   27.781
  412.000  106.126    0.382    0.226   38.932
  412.250   78.854    0.384    0.220   54.559
  412.500   60.474    0.382    0.228   79.376
  412.750   50.395    0.371    0.278   99.434
  413.000   41.502    0.364    0.289  115.560
  413.250   42.095    0.371    0.306  124.613
  413.500   43.873    0.374    0.317   85.759
  413.750   47.431    0.377    0.315   79.617
  414.000   53.360    0.373    0.311   60.160
  414.250   61.660    0.367    0.299   56.898
  414.500   65.810    0.364    0.290   42.196
  414.750   70.553    0.355    0.288   30.143
  415.000   74.111    0.344    0.282   28.513
  415.250   77.668    0.320    0.256   24.109
  415.500   80.632    0.344    0.231   17.220
  415.750   87.154    0.368    0.188   16.293
  416.000   90.119    0.377    0.147   15.408
  416.250   94.862    0.388    0.203   13.781
  416.500   99.012    0.391    0.203   13.034
  416.750  101.976    0.395    0.202   14.056
  417.000   98.419    0.391    0.205   16.962
  417.250   93.083    0.365    0.214   18.290
  417.500   85.376    0.354    0.230   18.644
  417.750   81.225    0.339    0.232   19.009
  418.000   79.447    0.327    0.232   19.022
  418.250   89.526    0.313    0.229   18.677
  418.500   93.083    0.321    0.205   18.685
  418.750   90.712    0.331    0.203   18.354
  419.000   83.597    0.349    0.235   18.021
  419.250   77.075    0.371    0.282   18.031
  419.500   71.146    0.385    0.288   17.708
  419.750   53.360    0.390    0.303   18.053
  420.000   50.395    0.390    0.326   18.402
  420.250   42.688    0.389    0.338   19.117
  420.500   40.316    0.379    0.342   19.486
  420.750   41.502    0.360    0.339   19.497
  421.000   46.245    0.344    0.336   21.829
  421.250   50.395    0.347    0.326   23.984
  421.500   52.174    0.347    0.320   24.913
  421.750   58.696    0.348    0.319   23.568
  422.000   71.739    0.347    0.315   22.291
  422.250   73.518    0.341    0.313   20.694
  422.500   63.439    0.337    0.312   19.575
  422.750   55.731    0.336    0.312   18.519
  423.000   71.146    0.343    0.312   18.188
  423.250   89.526    0.354    0.312   18.198
  423.500   86.561    0.381    0.310   18.900
  423.750   76.482    0.385    0.312   19.632
  424.000   71.146    0.378    0.318   21.169
  424.250   64.032    0.375    0.321   28.047
  424.500   55.731    0.375    0.322   40.048
  424.750   52.174    0.384    0.320   70.257
  425.000   50.988    0.385    0.315  260.627
  425.250   46.838    0.389    0.316  275.833
  425.500   46.245    0.395    0.328  281.239
  425.750   48.024    0.404    0.339  286.711
  426.000   48.617    0.402    0.344  292.289
  426.250   49.209    0.398    0.350  303.606
  426.500   49.209    0.399    0.348  315.404
  426.750   49.209    0.418    0.349  327.661
  427.000   49.209    0.415    0.351  333.944
  427.250   48.617    0.396    0.355  346.921
  427.500   48.617    0.383    0.356  347.160
  427.750   48.617    0.381    0.357  340.817
  428.000   48.617    0.396    0.356  316.449
  428.250   49.802    0.410    0.356  310.838
  428.500   50.395    0.407    0.355  305.158
  428.750   50.988    0.398    0.354  305.326
  429.000   52.174    0.401    0.350  288.853
  429.250   52.174    0.398    0.349  278.354
  429.500   50.988    0.393    0.349  239.776
  429.750   49.209    0.390    0.348  191.644
  430.000   46.838    0.390    0.345  165.083
  430.250   45.059    0.389    0.343  142.223
  430.500   47.431    0.385    0.342  134.513
  430.750   50.395    0.377    0.336  118.075
  431.000   61.660    0.361    0.316  107.571
  431.250   65.810    0.352    0.292   96.196
  431.500   72.332    0.362    0.263   37.053
  431.750   87.747    0.368    0.244   26.969
  432.000   92.490    0.378    0.245   24.121
  432.250   96.640    0.372    0.246   21.567
  432.500   98.419    0.362    0.249   19.651
  432.750   98.419    0.354    0.245   17.910
  433.000   97.233    0.350    0.232   16.939
  433.250   96.640    0.350    0.210   16.025
  433.500   95.454    0.350    0.192   15.159
  433.750   95.454    0.355    0.181   14.886
  434.000   97.826    0.370    0.172   14.620
  434.250   98.419    0.376    0.164   14.355
  434.500   99.605    0.379    0.156   14.096
  434.750   99.605    0.380    0.160   14.102
  435.000  100.198    0.385    0.174   13.593
  435.250  100.791    0.390    0.174   13.103
  435.500  100.198    0.393    0.174   13.106
  435.750   98.419    0.387    0.176   12.399
  436.000   96.640    0.381    0.181   12.178
  436.250   96.047    0.368    0.184   11.960
  436.500   93.676    0.364    0.185   11.967
  436.750   93.083    0.366    0.182   11.972
  437.000  101.383    0.372    0.168   11.977
  437.250  103.162    0.382    0.160   12.210
  437.500  101.976    0.385    0.149   12.682
  437.750   98.419    0.384    0.146   12.931
  438.000   96.640    0.384    0.160   13.181
  438.250   95.454    0.386    0.168   13.695
  438.500   95.454    0.382    0.178   13.959
  438.750   94.269    0.385    0.184   13.969
  439.000   90.712    0.391    0.196   13.977
  439.250   84.190    0.394    0.220   13.984
  439.500   81.225    0.390    0.220   13.990
  439.750   84.190    0.380    0.204   14.000
  440.000   87.747    0.372    0.184   14.272
  440.250   91.897    0.374    0.182   14.280
  440.500   94.862    0.378    0.186   14.560
  440.750   93.676    0.376    0.187   14.843
  441.000   91.897    0.375    0.187   14.849
  441.250   91.304    0.375    0.185   15.138
  441.500   91.304    0.374    0.185   15.146
  441.750   90.712    0.370    0.182   15.159
  442.000   88.933    0.368    0.181   15.163
  442.250   86.561    0.368    0.179   15.176
