~VERSION INFORMATION
 VERS.                 2.0:   CWLS LOG ASCII STANDARD -VERSION 2.0
 WRAP.                  NO:   ONE LINE PER DEPTH STEP
~WELL INFORMATION BLOCK
#MNEM.UNIT           DATA                    DESCRIPTION OF MNEMONIC
#---------    -------------------            -------------------------------
# Generated from Intellog Unique Number	CS_67_68/WELL/2166
WELL.         MURPHY ET AL ATMORE            : Well_name    - WELL
LOC .         00/06-11-067-17W4/0            : Location     - LOCATION
UWI .         00/06-11-067-17W4/0            : Uwi          - UNIQUE WELL ID
ENTR.         SP                             : Entered      - ENTERED BY
SRVC.         SCHLUMBERGER                   : Scn          - SERVICE COMPANY
STRT.M        381                            : top_depth    - START DEPTH
STOP.M        554.50                         : bot_depth    - STOP DEPTH
STEP.M        0.25                           : increment    - STEP LENGTH
 NULL. -999.2500:NULL Value
~CURVE INFORMATION BLOCK
#MNEM UNIT       ERCB CURVE CODE    CURVE DESCRIPTION
#-----------   ------------------   ----------------------------------
DEPT.M        00 001 00 00         : DEPTH        - DEPTH
CALI.MM       00 280 01 00         : CAL          - CALIPER
GR  .API      00 310 00 00         : GR           - GAMMA RAY
DPHI.V/V      00 890 00 00         : PHID         - DENSITY POROSITY (SANDSTONE)
NPHI.V/V      00 330 00 00         : PHIN         - NEUTRON POROSITY (SANDSTONE)
ILD .OHMM     00 120 00 00         : RESD         - DEEP RESISTIVITY (DIL)
~PARAMETER INFORMATION
#MNEM.UNIT           DATA             DESCRIPTION OF MNEMONIC
#---------         -----------     ------------------------------
GL  .M        608.076              : gl           - GROUND LEVEL ELEVATION
EREF.M        611.124              : kb           - ELEVATION OF DEPTH REFERENCE
DATM.M        611.124              : datum        - DATUM ELEVATION
TDD .M        566.928              : tdd          - TOTAL DEPTH DRILLER
RUN .         `                    : Run          - RUN NUMBER
ENG .         BILL                 : Engineer     - RECORDING ENGINEER
WIT .         JIM                  : Witness      - WITNESSED BY
MUD .         GEL                  : Mud_type     - MUD TYPE
MATR.         SANDSTONE            : Logunit      - NEUTRON MATRIX
TMAX.C        24.4444              : BHT          - MAXIMUM RECORDED TEMPERATURE
BHTD.M        567.538              : BHTDEP       - MAXIMUM RECORDED TEMPERATURE
MATR.         1                    : LOGUNIT      - NEUTRON MATRIX
RMT .C        25                   : MDTP         - TEMPERATURE OF MUD
NEUT.         1                    : NEUTRON      - NEUTRON TYPE
RESI.         0                    : RESIST       - RESISTIVITY TYPE
RMC .OHMM     0.25                 : RMC          - RESISTIVITY OF MUD CAKE
RMF .OHMM     0.25                 : RMF          - RESISTIVITY OF MUD FILTRATE
SUFT.C        15                   : SUFT         - SURFACE TEMPERATURE
~A  DEPTH      CAL       GR     PHID     PHIN     RESD
# ...
  454.000  161.958   90.602    0.236    0.460    2.091
  454.250  161.959   89.413    0.239    0.469    2.024
  454.500  161.928   88.437    0.259    0.464    2.028
  454.750  161.948   88.140    0.258    0.449    2.117
  455.000  161.889   91.536    0.263    0.462    2.221
  455.250  161.978   95.394    0.257    0.475    2.340
  455.500  163.789   98.858    0.234    0.486    2.395
  455.750  168.322  101.488    0.211    0.501    2.298
  456.000  165.076  103.303    0.194    0.512    2.077
  456.250  162.358   94.638    0.205    0.489    1.928
  456.500  160.382   89.410    0.221    0.450    1.814
  456.750  160.206   89.006    0.236    0.456    1.750
  457.000  159.772   87.840    0.260    0.457    1.788
  457.250  159.851   86.133    0.248    0.439    1.920
  457.500  160.017   81.826    0.236    0.417    2.205
  457.750  159.902   80.158    0.224    0.403    2.360
  458.000  160.122   79.684    0.214    0.417    2.434
  458.250  160.012   80.746    0.244    0.448    2.421
  458.500  159.912   81.230    0.256    0.462    2.074
  458.750  164.395   81.543    0.262    0.450    1.976
  459.000  164.091   81.386    0.268    0.437    2.070
  459.250  164.052   80.903    0.279    0.459    2.206
  459.500  163.698   80.607    0.288    0.469    2.286
  459.750  163.081   79.409    0.282    0.465    2.277
  460.000  162.547   76.731    0.277    0.464    1.989
  460.250  161.974   75.869    0.276    0.471    1.663
  460.500  161.532   77.233    0.301    0.475    1.470
  460.750  160.771   75.714    0.303    0.469    1.396
  461.000  160.537   72.434    0.294    0.460    1.329
  461.250  160.772   70.727    0.285    0.456    1.350
  461.500  161.589   70.084    0.281    0.466    1.560
  461.750  162.231   72.742    0.301    0.473    2.195
  462.000  163.118   75.077    0.302    0.449    2.865
  462.250  163.753   76.411    0.154    0.420    3.981
  462.500  164.316   74.018    0.122    0.400    5.539
  462.750  165.157   69.062    0.076    0.304    6.684
  463.000  165.597   69.193    0.058    0.237    6.954
  463.250  165.613   72.596    0.108    0.258    3.960
  463.500  165.693   76.059    0.147    0.313    2.568
  463.750  165.391   79.483    0.200    0.359    2.166
  464.000  164.737   83.887    0.247    0.401    2.043
  464.250  164.201   87.170    0.265    0.435    2.040
  464.500  163.183   88.932    0.272    0.452    2.057
  464.750  162.762   89.661    0.271    0.469    2.147
  465.000  162.519   89.281    0.248    0.480    2.298
  465.250  162.526   92.272    0.230    0.481    2.459
  465.500  162.516   94.710    0.220    0.468    2.594
  465.750  163.172   96.464    0.224    0.458    2.685
  466.000  164.014   93.495    0.220    0.449    2.812
  466.250  164.879   88.698    0.199    0.444    2.929
  466.500  166.017   85.000    0.183    0.453    2.927
  466.750  166.950   81.706    0.180    0.440    2.841
  467.000  167.358   79.335    0.183    0.435    2.695
  467.250  167.361   81.152    0.197    0.448    2.569
  467.500  167.037   83.500    0.215    0.475    2.518
  467.750  166.739   85.074    0.238    0.475    2.485
  468.000  166.457   85.288    0.224    0.469    2.487
  468.250  166.451   84.961    0.203    0.471    2.499
  468.500  166.325   84.435    0.211    0.478    2.529
  468.750  166.086   86.205    0.209    0.486    2.597
  469.000  165.730   89.960    0.191    0.495    2.748
  469.250  165.702   94.929    0.189    0.503    2.892
  469.500  165.334   99.423    0.197    0.485    2.991
  469.750  165.390  101.215    0.199    0.465    3.142
  470.000  165.300   99.746    0.187    0.455    3.263
  470.250  165.107   98.677    0.187    0.457    3.354
  470.500  165.003  100.475    0.187    0.453    3.414
  470.750  164.991  102.852    0.177    0.451    3.422
  471.000  165.189  104.517    0.179    0.454    3.420
  471.250  165.646  106.223    0.184    0.475    3.401
  471.500  166.255  107.685    0.174    0.476    3.396
  471.750  166.410  108.503    0.165    0.464    3.408
  472.000  165.986  108.250    0.181    0.455    3.438
  472.250  165.256  107.893    0.176    0.463    3.487
  472.500  165.014  107.544    0.161    0.477    3.545
  472.750  165.108  107.059    0.168    0.481    3.580
  473.000  165.594  107.457    0.184    0.485    3.589
  473.250  166.559  108.792    0.166    0.487    3.552
  473.500  167.643  110.588    0.158    0.483    3.489
  473.750  168.631  111.800    0.159    0.487    3.412
  474.000  169.236  112.924    0.165    0.503    3.369
  474.250  169.751  113.815    0.177    0.512    3.321
  474.500  169.780  115.023    0.176    0.500    3.297
  474.750  169.419  116.867    0.171    0.485    3.297
  475.000  169.387  118.309    0.162    0.470    3.432
  475.250  169.236  115.451    0.155    0.473    3.458
  475.500  169.559  114.073    0.149    0.488    3.527
  475.750  169.844  113.138    0.160    0.501    3.596
  476.000  170.222  113.683    0.167    0.494    3.658
  476.250  170.372  113.034    0.154    0.481    3.709
  476.500  170.259  112.904    0.177    0.471    3.729
  476.750  170.268  112.798    0.165    0.465    3.737
  477.000  170.275  112.767    0.157    0.472    3.698
  477.250  170.115  113.168    0.152    0.463    3.655
  477.500  169.803  115.600    0.149    0.442    3.558
  477.750  169.391  117.873    0.142    0.445    3.473
  478.000  169.015  111.898    0.159    0.461    3.282
  478.250  168.265  105.861    0.168    0.475    3.147
  478.500  167.708  100.971    0.167    0.464    3.083
  478.750  166.991   99.931    0.165    0.455    3.081
  479.000  166.768  102.004    0.172    0.449    3.215
  479.250  166.456  105.460    0.176    0.444    3.339
  479.500  166.187  107.284    0.168    0.453    3.403
  479.750  165.859  107.572    0.172    0.461    3.463
  480.000  165.644  107.453    0.182    0.465    3.469
  480.250  165.384  107.907    0.186    0.469    3.471
  480.500  165.661  109.230    0.170    0.458    3.442
  480.750  166.700  110.452    0.186    0.450    3.404
  481.000  167.337  111.189    0.190    0.455    3.384
  481.250  167.589  110.944    0.187    0.465    3.352
  481.500  167.577  110.444    0.207    0.468    3.315
  481.750  167.163  110.682    0.198    0.456    3.317
  482.000  166.719  110.906    0.180    0.449    3.303
  482.250  166.149  110.932    0.163    0.440    3.329
  482.500  166.161  111.393    0.170    0.448    3.366
  482.750  166.403  112.280    0.157    0.457    3.426
  483.000  166.633  112.471    0.157    0.463    3.467
  483.250  167.274  111.227    0.175    0.463    3.464
  483.500  167.470  110.013    0.178    0.466    3.359
  483.750  167.373  108.811    0.173    0.468    3.177
  484.000  166.873  107.646    0.183    0.473    2.981
  484.250  166.121  106.842    0.192    0.480    2.802
  484.500  165.522  105.949    0.219    0.476    2.696
  484.750  164.974  103.260    0.250    0.466    2.591
  485.000  164.378  100.891    0.217    0.466    2.534
  485.250  164.637   99.241    0.200    0.460    2.522
  485.500  165.251   97.371    0.203    0.452    2.564
  485.750  165.713   93.506    0.193    0.461    2.977
  486.000  165.764   85.922    0.207    0.412    3.709
  486.250  165.883   82.054    0.194    0.369    4.785
  486.500  166.112   77.904    0.134    0.339    6.194
  486.750  166.451   74.226    0.087    0.286    7.296
  487.000  166.818   73.892    0.061    0.252    8.577
  487.250  166.778   73.810    0.042    0.272    6.524
  487.500  166.361   76.687    0.028    0.283    5.078
  487.750  165.272   83.784    0.047    0.315    4.292
  488.000  163.857   90.067    0.079    0.375    3.523
  488.250  162.920   97.795    0.121    0.411    3.071
  488.500  162.058  101.675    0.157    0.435    2.714
  488.750  161.749  102.888    0.189    0.447    2.608
  489.000  162.958  101.612    0.204    0.445    2.833
  489.250  163.846  100.603    0.186    0.436    3.187
  489.500  164.793  101.769    0.180    0.428    3.493
  489.750  165.428  102.914    0.169    0.417    3.677
  490.000  165.843  103.827    0.159    0.415    3.895
  490.250  166.331  104.344    0.158    0.412    3.939
