~VERSION INFORMATION
 VERS.                 2.0:   CWLS LOG ASCII STANDARD -VERSION 2.0
 WRAP.                  NO:   ONE LINE PER DEPTH STEP
~WELL INFORMATION BLOCK
#MNEM.UNIT           DATA                    DESCRIPTION OF MNEMONIC
#---------    -------------------            -------------------------------
# Generated from Intellog Unique Number	CN_94_101/WELL/3416
WELL.         PACIFIC PETROLEUM LTD.         : Well_name    - WELL
LOC .         00/07-06-095-21W4/0            : Location     - LOCATION
UWI .         00/07-06-095-21W4/0            : Uwi          - UNIQUE WELL ID
ENTR.         JOETTE                         : Entered      - ENTERED BY
SRVC.         COMPUTALOG                     : Scn          - SERVICE COMPANY
DATE.         07\27\92                       : Date         - LOG DATE
STRT.M        360                            : top_depth    - START DEPTH
STOP.M        505                            : bot_depth    - STOP DEPTH
STEP.M        0.25                           : increment    - STEP LENGTH
 NULL. -999.2500:NULL Value
~CURVE INFORMATION BLOCK
#MNEM UNIT       ERCB CURVE CODE    CURVE DESCRIPTION
#-----------   ------------------   ----------------------------------
DEPT.M        00 001 00 00         : DEPTH        - DEPTH
ILD .OHMM     00 120 00 00         : RESD         - DEEP RESISTIVITY (DIL)
GR  .API      00 310 00 00         : GR           - GAMMA RAY
NPHI.V/V      00 330 00 00         : PHIN         - NEUTRON POROSITY (SANDSTONE)
DPHI.V/V      00 890 00 00         : PHID         - DENSITY POROSITY (SANDSTONE)
~PARAMETER INFORMATION
#MNEM.UNIT           DATA             DESCRIPTION OF MNEMONIC
#---------         -----------     ------------------------------
GL  .M        807                  : gl           - GROUND LEVEL ELEVATION
EREF.M        810                  : kb           - ELEVATION OF DEPTH REFERENCE
DATM.M        810                  : datum        - DATUM ELEVATION
TDD .M        504.9                : tdd          - TOTAL DEPTH DRILLER
RUN .         ONE                  : Run          - RUN NUMBER
ENG .         JO                   : Engineer     - RECORDING ENGINEER
WIT .         TIM                  : Witness      - WITNESSED BY
MUD .         GEL                  : Mud_type     - MUD TYPE
MATR.         SANDSTONE            : Logunit      - NEUTRON MATRIX
TMAX.C        22                   : BHT          - MAXIMUM RECORDED TEMPERATURE
BHTD.M        504.9                : BHTDEP       - MAXIMUM RECORDED TEMPERATURE
RMT .C        12.2                 : MDTP         - TEMPERATURE OF MUD
MUDD.KG/M     1120                 : MWT          - MUD DENSITY
NEUT.         1                    : NEUTRON      - NEUTRON TYPE
RESI.         0                    : RESIST       - RESISTIVITY TYPE
RM  .OHMM     3.3                  : RM           - RESISTIVITY OF MUD
RMC .OHMM     3.3                  : RMC          - RESISTIVITY OF MUD CAKE
RMF .OHMM     2.2                  : RMF          - RESISTIVITY OF MUD FILTRATE
SUFT.C        4                    : SUFT         - SURFACE TEMPERATURE
~A  DEPTH     RESD       GR     PHIN     PHID
  360.000    6.760   69.281    0.502    0.214
  360.250    6.641   69.352    0.503    0.223
  360.500    6.284   71.869    0.500    0.220
  360.750    6.059   71.941    0.539    0.211
  361.000    5.842   73.833    0.545    0.214
  361.250    5.848   73.279    0.477    0.220
  361.500    6.077   75.172    0.485    0.223
  361.750    6.314   78.904    0.482    0.220
  362.000    7.075   77.761    0.442    0.219
  362.250    7.212   74.189    0.429    0.208
  362.500    7.360   71.207    0.414    0.178
  362.750    7.227   67.029    0.424    0.108
  363.000    6.838   63.458    0.408    0.070
  363.250    6.471   65.368    0.478    0.220
  363.500    6.010   66.653    0.511    0.234
  363.750    5.687   72.206    0.559    0.237
  364.000    5.693   74.688    0.536    0.239
  364.250    5.809   74.760    0.504    0.237
  364.500    6.152   73.010    0.493    0.227
  364.750    6.273   73.081    0.467    0.222
  365.000    6.163   74.366    0.449    0.218
  365.250    5.941   76.866    0.444    0.213
  365.500    5.416   78.758    0.445    0.207
  365.750    5.030   78.830    0.481    0.212
  366.000    4.942   75.276    0.501    0.214
  366.250    4.945   72.294    0.517    0.211
  366.500    4.953   74.794    0.544    0.212
  366.750    5.049   77.293    0.506    0.212
  367.000    5.248   71.901    0.477    0.216
  367.250    5.558   71.990    0.468    0.219
  367.500    5.774   73.865    0.458    0.224
  367.750    5.999   67.276    0.438    0.218
  368.000    6.474   64.901    0.436    0.215
  368.250    7.251   68.615    0.462    0.217
  368.500    8.123   73.560    0.460    0.225
  368.750    8.599   74.239    0.437    0.227
  369.000    9.816   67.632    0.358    0.226
  369.250   10.198   62.828    0.335    0.218
  369.500   10.800   65.935    0.325    0.212
  369.750   11.015   72.113    0.327    0.214
  370.000   10.822   70.952    0.355    0.218
  370.250   10.835   69.220    0.386    0.218
  370.500   10.647   72.327    0.394    0.216
  370.750   10.652   73.005    0.381    0.215
  371.000   10.663   71.237    0.369    0.213
  371.250   10.875   67.684    0.360    0.211
  371.500   11.091   65.309    0.342    0.210
  371.750   11.312   61.130    0.333    0.207
  372.000   12.210   58.791    0.344    0.217
  372.250   12.450   61.898    0.348    0.224
  372.500   12.938   66.826    0.340    0.226
  372.750   13.195   62.023    0.339    0.227
  373.000   13.205   53.005    0.347    0.228
  373.250   13.218   54.273    0.366    0.233
  373.500   13.231   59.201    0.367    0.237
  373.750   13.501   64.736    0.354    0.236
  374.000   13.011   62.379    0.362    0.234
  374.250   12.319   63.057    0.368    0.237
  374.500   12.096   64.950    0.361    0.227
  374.750   12.108   61.379    0.353    0.222
  375.000   11.895   59.039    0.352    0.259
  375.250   11.469   63.360    0.380    0.268
  375.500   10.651   62.824    0.404    0.257
  375.750    9.709   62.896    0.394    0.247
  376.000    8.366   67.217    0.383    0.237
  376.250    7.626   72.752    0.384    0.226
  376.500    6.951   71.609    0.400    0.218
  376.750    6.581   72.287    0.420    0.219
  377.000    6.463   72.376    0.440    0.222
  377.250    6.350   68.805    0.454    0.224
  377.500    6.237   64.609    0.470    0.227
  377.750    6.128   61.037    0.465    0.228
  378.000    6.134   67.180    0.452    0.229
  378.250    6.375   70.304    0.450    0.230
  378.500    6.877   69.143    0.459    0.237
  378.750    7.703   63.751    0.480    0.254
  379.000    9.474   57.144    0.413    0.289
  379.250   13.537   49.930    0.382    0.306
  379.500   15.740   45.144    0.358    0.325
  379.750   20.866   47.037    0.380    0.268
  380.000   22.105   53.179    0.428    0.225
  380.250   20.143   56.304    0.425    0.218
  380.500   17.353   57.589    0.430    0.252
  380.750   14.676   62.499    0.423    0.276
  381.000   12.889   63.214    0.389    0.290
  381.250   12.196   60.214    0.408    0.302
  381.500   11.982   54.232    0.435    0.290
  381.750   11.553   56.106    0.445    0.259
  382.000   10.727   49.500    0.454    0.248
  382.250    9.243   47.160    0.430    0.237
  382.500    8.749   52.678    0.396    0.223
  382.750    9.439   61.284    0.368    0.201
  383.000    8.764   63.766    0.390    0.214
  383.250    7.695   64.462    0.406    0.226
  383.500    6.758   63.926    0.416    0.234
  383.750    6.396   61.569    0.431    0.240
  384.000    6.399   59.194    0.437    0.248
  384.250    6.290   56.230    0.444    0.243
  384.500    6.296   57.515    0.444    0.235
  384.750    6.301   61.247    0.434    0.229
  385.000    6.673   59.479    0.440    0.233
  385.250    7.197   54.086    0.448    0.242
  385.500    8.216   56.604    0.442    0.250
  385.750    9.202   58.479    0.409    0.257
  386.000    9.209   58.550    0.433    0.247
  386.250    8.396   61.657    0.429    0.231
  386.500    7.799   62.335    0.446    0.235
  386.750    7.658   55.139    0.479    0.234
  387.000    7.811   58.853    0.501    0.214
  387.250    8.588   58.317    0.425    0.222
  387.500    9.091   59.584    0.322    0.141
  387.750   12.055   54.799    0.229    0.101
  388.000   12.527   42.121    0.204    0.079
  388.250   13.515   45.835    0.245    0.131
  388.500    9.839   59.887    0.277    0.209
  388.750    8.481   67.851    0.311    0.235
  389.000    8.331   66.708    0.337    0.230
  389.250    8.497   63.137    0.363    0.236
  389.500    8.506   61.994    0.351    0.246
  389.750    8.839   64.493    0.342    0.250
  390.000    8.845   61.547    0.366    0.245
  390.250    9.022   55.529    0.404    0.244
  390.500    8.863   47.084    0.412    0.251
  390.750    7.782   45.333    0.401    0.258
  391.000    6.705   50.886    0.376    0.261
  391.250    5.567   57.636    0.434    0.248
  391.500    5.073   60.135    0.516    0.236
  391.750    4.984   55.350    0.550    0.231
  392.000    5.377   48.136    0.426    0.181
  392.250    6.252   41.529    0.349    0.100
  392.500    6.620   36.744    0.309    0.093
  392.750    5.922   42.886    0.280    0.164
  393.000    6.886   52.064    0.405    0.214
  393.250    5.935   47.885    0.522    0.266
  393.500    5.512   49.778    0.522    0.265
  393.750    5.316   56.545    0.540    0.260
  394.000    5.319   60.276    0.522    0.254
  394.250    5.225   61.562    0.518    0.249
  394.500    5.039   64.062    0.436    0.229
  394.750    4.951   65.954    0.400    0.212
  395.000    5.241   61.758    0.428    0.213
  395.250    5.150   60.008    0.463    0.219
  395.500    4.965   67.972    0.492    0.227
  395.750    5.160   70.489    0.481    0.232
  396.000    5.463   68.721    0.466    0.238
  396.250    5.896   59.686    0.472    0.229
  396.500    6.242   57.936    0.522    0.227
  396.750    6.365   59.239    0.530    0.235
  397.000    6.616   58.703    0.477    0.238
  397.250    6.746   52.079    0.448    0.235
  397.500    7.278   53.971    0.444    0.225
  397.750    7.563   64.399    0.442    0.185
  398.000    7.571   61.399    0.446    0.182
  398.250    6.647   55.399    0.427    0.203
  398.500    6.781   59.720    0.431    0.222
  398.750    6.788   63.470    0.417    0.223
  399.000    6.668   64.130    0.433    0.225
  399.250    6.428   66.023    0.452    0.226
  399.500    6.198   72.165    0.468    0.218
  399.750    5.977   72.843    0.505    0.215
  400.000    5.875   68.058    0.476    0.204
  400.250    5.878   65.111    0.448    0.172
  400.500    5.883   65.165    0.424    0.167
  400.750    5.889   67.664    0.405    0.199
  401.000    5.897   70.182    0.428    0.209
  401.250    5.902   70.860    0.452    0.215
  401.500    5.907   72.771    0.473    0.212
  401.750    5.915   69.789    0.486    0.205
  402.000    5.920   65.592    0.481    0.202
  402.250    6.038   63.235    0.469    0.199
  402.500    6.045   69.413    0.475    0.200
  402.750    6.048   71.288    0.485    0.166
  403.000    6.055   75.002    0.484    0.133
  403.250    6.060   73.252    0.451    0.163
