~VERSION INFORMATION
 VERS.                 2.0:   CWLS LOG ASCII STANDARD -VERSION 2.0
 WRAP.                  NO:   ONE LINE PER DEPTH STEP
~WELL INFORMATION BLOCK
#MNEM.UNIT           DATA                    DESCRIPTION OF MNEMONIC
#---------    -------------------            -------------------------------
# Generated from Intellog Unique Number	CS_69_70/WELL/714
NULL.         -999.25                        : NULL_VALUE
WELL.         ET AL TWEEDIE                  : Well_name    - WELL              
LOC .         00/06-05-070-13W4/0            : Location     - LOCATION          
UWI .         00/06-05-070-13W4/0            : Uwi          - UNIQUE WELL ID    
ENTR.         SP                             : Entered      - ENTERED BY        
SRVC.         SCHLUMBERGER                   : Scn          - SERVICE COMPANY   
STRT.M        275                            : top_depth    - START DEPTH       
STOP.M        520                            : bot_depth    - STOP DEPTH        
STEP.M        0.25                           : increment    - STEP LENGTH       
~CURVE INFORMATION BLOCK
#MNEM UNIT       ERCB CURVE CODE    CURVE DESCRIPTION
#-----------   ------------------   ----------------------------------
DEPT.M        00 001 00 00         : DEPTH        - DEPTH                       
ILD .OHMM     00 120 00 00         : RESD         - DEEP RESISTIVITY (DIL)      
DPHI.V/V      00 890 00 00         : PHID         - DENSITY POROSITY (LIMESTONE)
NPHI.V/V      00 330 00 00         : PHIN         - NEUTRON POROSITY (LIMESTONE)
GR  .API      00 310 00 00         : GR           - GAMMA RAY                   
~PARAMETER INFORMATION       
#MNEM.UNIT           DATA             DESCRIPTION OF MNEMONIC
#---------         -----------     ------------------------------
GL  .M        577.2                : gl           - GROUND LEVEL ELEVATION      
EREF.M        581.1                : kb           - ELEVATION OF DEPTH REFERENCE
DATM.M        577.2                : datum        - DATUM ELEVATION             
TDD .M        528                  : tdd          - TOTAL DEPTH DRILLER         
RUN .         ONE                  : Run          - RUN NUMBER                  
ENG .         BILL                 : Engineer     - RECORDING ENGINEER          
WIT .         JIM                  : Witness      - WITNESSED BY                
MUD .         GEL                  : Mud_type     - MUD TYPE                    
MATR.         LIMESTONE            : Logunit      - NEUTRON MATRIX              
TMAX.C        23                   : BHT          - MAXIMUM RECORDED TEMPERATURE
BHTD.M        528                  : BHTDEP       - MAXIMUM RECORDED TEMPERATURE
MATR.         1                    : LOGUNIT      - NEUTRON MATRIX              
RMT .C        25                   : MDTP         - TEMPERATURE OF MUD          
NEUT.         1                    : NEUTRON      - NEUTRON TYPE                
RESI.         0                    : RESIST       - RESISTIVITY TYPE            
RMC .OHMM     0.25                 : RMC          - RESISTIVITY OF MUD CAKE     
RMF .OHMM     0.25                 : RMF          - RESISTIVITY OF MUD FILTRATE 
SUFT.C        15                   : SUFT         - SURFACE TEMPERATURE         
~A  DEPTH     RESD     PHID     PHIN       GR
# ...
  318.500    3.295    0.337    0.372   67.756
  318.750    3.267    0.336    0.381   70.282
  319.000    3.286    0.339    0.380   72.687
  319.250    3.350    0.343    0.366   73.954
  319.500    3.440    0.339    0.361   72.823
  319.750    3.526    0.310    0.363   67.135
  320.000    3.815    0.133    0.367   64.265
  320.250    4.221    0.083    0.332   57.498
  320.500    4.532    0.104    0.281   52.949
  320.750    4.822    0.163    0.248   57.094
  321.000    4.970    0.220    0.288   65.374
  321.250    5.085    0.249    0.325   72.816
  321.500    4.929    0.259    0.369   79.299
  321.750    4.426    0.264    0.397   82.424
  322.000    4.035    0.270    0.417   83.871
  322.250    3.782    0.268    0.394   84.717
  322.500    3.687    0.261    0.376   86.164
  322.750    3.634    0.258    0.379   88.210
  323.000    3.690    0.269    0.385   87.858
  323.250    3.790    0.275    0.389   86.906
  323.500    3.856    0.265    0.390   90.512
  323.750    4.011    0.258    0.394   92.557
  324.000    3.918    0.256    0.383   92.925
  324.250    3.898    0.252    0.370   91.435
  324.500    3.929    0.257    0.371   90.063
  324.750    4.072    0.265    0.366   87.913
  325.000    4.205    0.275    0.364   85.700
  325.250    4.343    0.269    0.375   82.470
  325.500    4.435    0.257    0.382   82.298
  325.750    4.331    0.249    0.381   86.383
  326.000    4.159    0.245    0.367   88.668
  326.250    3.913    0.250    0.369   90.055
  326.500    3.843    0.248    0.392   91.621
  326.750    3.969    0.247    0.408   88.812
  327.000    4.121    0.235    0.403   85.342
  327.250    4.425    0.229    0.388   86.789
  327.500    4.656    0.235    0.369   87.995
  327.750    4.799    0.245    0.357   85.966
  328.000    4.855    0.258    0.356   82.556
  328.250    4.876    0.262    0.356   81.664
  328.500    4.806    0.256    0.359   85.809
  328.750    4.659    0.256    0.375   88.513
  329.000    4.466    0.268    0.393   89.360
  329.250    4.377    0.277    0.380   84.031
  329.500    4.340    0.288    0.364   79.243
  329.750    4.349    0.278    0.356   75.353
  330.000    4.491    0.254    0.349   80.937
  330.250    4.725    0.233    0.339   85.861
  330.500    4.999    0.213    0.338   90.305
  330.750    5.289    0.194    0.346   87.916
  331.000    5.483    0.207    0.352   85.944
  331.250    5.567    0.220    0.345   86.971
  331.500    5.643    0.233    0.346   90.635
  331.750    5.667    0.228    0.357   93.222
  332.000    5.628    0.226    0.368   94.248
  332.250    5.496    0.228    0.375   94.675
  332.500    5.239    0.233    0.363   95.042
  332.750    4.938    0.244    0.357   97.927
  333.000    4.707    0.248    0.364   99.495
  333.250    4.412    0.248    0.373   94.406
  333.500    4.190    0.302    0.383   83.922
  333.750    3.972    0.319    0.392   74.457
  334.000    3.793    0.331    0.381   65.651
  334.250    3.629    0.343    0.363   62.602
  334.500    3.571    0.354    0.358   61.770
  334.750    3.559    0.338    0.357   64.596
  335.000    3.608    0.317    0.359   66.521
  335.250    3.753    0.290    0.354   69.947
  335.500    3.934    0.280    0.351   70.793
  335.750    4.101    0.275    0.356   69.842
  336.000    4.227    0.277    0.360   65.832
  336.250    4.292    0.291    0.364   62.722
  336.500    4.327    0.301    0.366   65.728
  336.750    4.369    0.298    0.366   70.412
  337.000    4.388    0.298    0.361   73.718
  337.250    4.301    0.304    0.360   74.504
  337.500    4.100    0.304    0.361   70.255
  337.750    3.879    0.300    0.361   61.269
  338.000    3.732    0.296    0.357   56.420
  338.250    3.611    0.294    0.355   57.928
  338.500    3.586    0.295    0.353   61.532
  338.750    3.574    0.301    0.353   65.136
  339.000    3.603    0.309    0.353   70.061
  339.250    3.797    0.314    0.354   75.167
  339.500    3.965    0.307    0.357   78.050
  339.750    4.164    0.284    0.359   82.554
  340.000    4.333    0.272    0.363   86.339
  340.250    4.627    0.262    0.356   88.145
  340.500    4.823    0.256    0.351   88.392
  340.750    4.888    0.248    0.352   88.160
  341.000    5.058    0.244    0.369   88.527
  341.250    5.157    0.255    0.371   88.415
  341.500    5.187    0.267    0.358   86.624
  341.750    5.200    0.265    0.350   82.555
  342.000    5.162    0.262    0.344   79.746
  342.250    4.995    0.265    0.341   76.995
  342.500    4.761    0.285    0.341   73.286
  342.750    4.480    0.300    0.350   68.137
  343.000    4.223    0.312    0.362   61.370
  343.250    4.025    0.325    0.364   58.499
  343.500    3.865    0.333    0.356   59.467
  343.750    3.775    0.334    0.357   60.133
  344.000    3.700    0.334    0.359   60.082
  344.250    3.688    0.337    0.359   58.710
  344.500    3.690    0.343    0.357   58.178
  344.750    3.706    0.350    0.358   58.546
  345.000    3.708    0.362    0.365   59.512
  345.250    3.709    0.369    0.370   59.160
  345.500    3.684    0.359    0.371   65.822
  345.750    3.584    0.336    0.371   77.341
  346.000    3.480    0.314    0.378   84.483
  346.250    3.324    0.299    0.387   97.680
  346.500    3.283    0.288    0.390  102.424
  346.750    3.321    0.281    0.384   90.862
  347.000    3.429    0.276    0.384   79.478
  347.250    3.595    0.275    0.406   78.647
  347.500    3.712    0.273    0.426   82.552
  347.750    3.877    0.260    0.410   84.657
  348.000    3.900    0.255    0.416   85.743
  348.250    3.953    0.258    0.412   79.695
  348.500    4.037    0.282    0.382   72.270
  348.750    4.233    0.305    0.371   66.882
  349.000    4.322    0.323    0.367   64.131
  349.250    4.372    0.329    0.372   63.779
  349.500    4.423    0.330    0.383   63.786
  349.750    4.467    0.324    0.379   63.435
  350.000    4.444    0.315    0.365   62.303
  350.250    4.397    0.312    0.362   60.631
  350.500    4.375    0.317    0.365   62.679
  350.750    4.393    0.323    0.363   63.945
  351.000    4.429    0.320    0.367   64.732
  351.250    4.439    0.318    0.372   64.380
  351.500    4.475    0.321    0.361   63.728
  351.750    4.501    0.327    0.355   63.376
  352.000    4.537    0.334    0.352   63.684
  352.250    4.582    0.336    0.354   64.470
  352.500    4.619    0.325    0.358   66.097
  352.750    4.604    0.315    0.363   66.643
  353.000    4.581    0.309    0.357   65.512
  353.250    4.557    0.312    0.356   63.181
  353.500    4.501    0.317    0.361   64.568
  353.750    4.461    0.309    0.358   67.635
  354.000    4.254    0.302    0.357   68.600
  354.250    4.191    0.297    0.357   69.507
  354.500    4.033    0.291    0.358   72.213
  354.750    3.823    0.281    0.367   74.738
  355.000    3.671    0.274    0.370   77.084
  355.250    3.565    0.282    0.367   78.950
  355.500    3.507    0.291    0.380   86.212
  355.750    3.470    0.286    0.394   91.555
  356.000    3.517    0.278    0.398   93.722
  356.250    3.666    0.269    0.403   92.890
  356.500    3.814    0.276    0.395   85.343
  356.750    3.998    0.302    0.376   74.080
  357.000    4.121    0.321    0.365   67.612
  357.250    4.154    0.325    0.359   64.263
  357.500    4.148    0.325    0.357   67.028
  357.750    4.120    0.323    0.361   68.954
  358.000    4.076    0.323    0.374   68.123
  358.250    4.003    0.323    0.383   66.933
  358.500    3.938    0.327    0.393   68.678
  358.750    3.889    0.336    0.399   70.485
  359.000    3.869    0.330    0.389   70.911
  359.250    3.886    0.323    0.378   67.262
  359.500    3.917    0.320    0.373   62.414
  359.750    3.955    0.323    0.372   62.361
  360.000    3.987    0.330    0.367   62.847
  360.250    4.019    0.345    0.365   62.377
  360.500    4.081    0.346    0.367   60.225
  360.750    4.191    0.328    0.376   55.677
  361.000    4.525    0.157    0.379   49.449
  361.250    5.547    0.067    0.333   43.582
  361.500    6.698    0.143    0.201   40.531
  361.750    7.382    0.210    0.179   38.021
