~VERSION INFORMATION
 VERS.                 2.0:   CWLS LOG ASCII STANDARD -VERSION 2.0
 WRAP.                  NO:   ONE LINE PER DEPTH STEP
~WELL INFORMATION BLOCK
#MNEM.UNIT           DATA                    DESCRIPTION OF MNEMONIC
#---------    -------------------            -------------------------------
# Generated from Intellog Unique Number	CS_77_79/WELL/3293
WELL.         SCURRY                         : Well_name    - WELL
LOC .         00/06-20-078-02W5/0            : Location     - LOCATION
UWI .         00/06-20-078-02W5/0            : Uwi          - UNIQUE WELL ID
ENTR.         TIM                            : Entered      - ENTERED BY
SRVC.         COMPUTALOG                     : Scn          - SERVICE COMPANY
STRT.M        320.04                         : top_depth    - START DEPTH
STOP.M        573.04                         : bot_depth    - STOP DEPTH
STEP.M        0.25                           : increment    - STEP LENGTH
 NULL. -999.2500:NULL Value
~CURVE INFORMATION BLOCK
#MNEM UNIT       ERCB CURVE CODE    CURVE DESCRIPTION
#-----------   ------------------   ----------------------------------
DEPT.M        00 001 00 00         : DEPTH        - DEPTH
ILD .OHMM     00 120 00 00         : RESD         - DEEP RESISTIVITY (DIL)
GR  .API      00 310 00 00         : GR           - GAMMA RAY
DELT.US/F     00 520 00 00         : DELT         - SONIC TRAVEL TIME
~PARAMETER INFORMATION
#MNEM.UNIT           DATA             DESCRIPTION OF MNEMONIC
#---------         -----------     ------------------------------
GL  .M        641.635              : gl           - GROUND LEVEL ELEVATION
EREF.M        645.262              : kb           - ELEVATION OF DEPTH REFERENCE
DATM.M        645.262              : datum        - DATUM ELEVATION
TDD .M        575.158              : tdd          - TOTAL DEPTH DRILLER
RUN .         ONE                  : Run          - RUN NUMBER
ENG .         BILL                 : Engineer     - RECORDING ENGINEER
WIT .         JIM                  : Witness      - WITNESSED BY
MUD .         GEL                  : Mud_type     - MUD TYPE
MATR.         SANDSTONE            : Logunit      - NEUTRON MATRIX
TMAX.C        27.7778              : BHT          - MAXIMUM RECORDED TEMPERATURE
BHTD.M        573.024              : BHTDEP       - MAXIMUM RECORDED TEMPERATURE
MATR.         1                    : LOGUNIT      - NEUTRON MATRIX
RMT .C        18.8889              : MDTP         - TEMPERATURE OF MUD
NEUT.         1                    : NEUTRON      - NEUTRON TYPE
RESI.         0                    : RESIST       - RESISTIVITY TYPE
RMC .OHMM     4                    : RMC          - RESISTIVITY OF MUD CAKE
RMF .OHMM     13.1                 : RMF          - RESISTIVITY OF MUD FILTRATE
SUFT.C        5                    : SUFT         - SURFACE TEMPERATURE
~A  DEPTH     RESD       GR     DELT
# ...
  428.540    5.068   93.517  380.517
  428.790    5.073  100.563  378.592
  429.040    5.075  104.076  382.511
  429.290    5.078  104.065  387.091
  429.540    5.082  101.701  385.166
  429.790    5.087   96.981  383.887
  430.040    4.891   94.620  386.505
  430.290    4.894   96.373  392.386
  430.540    4.898   98.125  395.009
  430.790    4.701   99.290  396.982
  431.040    4.705  102.215  396.353
  431.290    4.709  105.144  394.423
  431.540    4.514  106.896  397.052
  431.790    4.518  105.708  393.165
  432.040    4.323  103.927  386.682
  432.290    4.327  103.921  388.010
  432.540    4.130  105.082  389.978
  432.790    4.133  106.835  393.913
  433.040    4.137  105.644  395.880
  433.290    4.140  103.871  397.208
  433.540    4.143  100.331  401.137
  433.790    4.147   96.202  403.099
  434.040    4.151   92.071  407.029
  434.290    4.153   94.412  407.701
  434.540    4.357   98.516  408.373
  434.790    4.361  100.857  409.701
  435.040    4.562  102.606  407.766
  435.290    4.963  103.771  391.526
  435.540    5.563  102.583  373.335
  435.790    6.361   99.043  365.551
  436.040    7.955   95.505  357.767
  436.290    8.953   88.434  349.983
  436.540    8.163   81.954  348.704
  436.790    7.767   77.825  357.832
  437.040    7.373   76.049  368.916
  437.290    6.582   81.327  363.734
  437.540    6.187   78.960  352.698
  437.790    5.791   77.775  354.020
  438.040    5.399   77.175  355.993
  438.290    5.601   78.925  340.404
  438.540    5.802   79.504  297.490
  438.790    6.801   77.728  254.582
  439.040    7.400   75.361  239.643
  439.290    8.000   78.290  232.515
  439.540    7.805   82.395  257.254
  439.790    6.814   80.031  284.594
  440.040    5.625   68.257  343.161
  440.290    5.031   64.129  385.467
  440.540    4.239   66.470  356.213
  440.790    3.844   87.629  366.648
  441.040    3.849   97.611  381.629
  441.290    3.851   92.898  390.107
  441.540    3.855   85.238  392.735
  441.790    4.058   83.462  391.456
  442.040    4.061   81.686  391.477
  442.290    4.066   89.319  391.499
  442.540    4.066   93.418  393.477
  442.790    5.068   92.236  394.800
  443.040    5.068   89.281  382.457
  443.290    5.671   88.093  381.834
  443.540    5.276   88.079  392.262
  443.790    5.278   88.658  394.886
  444.040    5.281   89.228  391.004
  444.290    5.087   89.222  387.779
  444.540    5.089   88.032  387.801
  444.790    5.094   88.608  389.773
  445.040    5.097   90.360  389.139
  445.290    4.901   93.289  384.613
  445.540    4.706   93.277  370.969
  445.790    4.709   88.558  393.112
  446.040    4.514   84.430  398.993
  446.290    4.318   83.830  395.762
  446.540    4.322   86.168  391.875
  446.790    4.325   87.923  386.043
  447.040    4.329   89.675  373.711
  447.290    4.331   86.723  384.140
  447.540    4.534   83.771  388.064
  447.790    4.737   83.168  385.484
  448.040    4.940   84.330  379.651
  448.290    4.944   84.912  373.824
  448.540    4.946   86.662  376.442
  448.790    5.149   88.999  396.633
  449.040    5.151   90.755  405.760
  449.290    5.155   93.092  413.593
  449.540    5.356   96.609  413.609
  449.790    5.560   97.185  414.281
  450.040    5.761   93.648  411.706
  450.290    5.963   89.520  407.180
  450.540    6.166   85.977  403.943
  450.790    6.369   85.377  392.907
  451.040    6.570   84.186  381.221
  451.290    6.772   83.586  377.340
  451.540    6.975   82.989  374.109
  451.790    6.978   82.389  368.282
  452.040    6.982   80.608  363.094
  452.290    6.787   79.423  359.218
  452.540    6.591   77.058  359.235
  452.790    6.396   74.692  360.562
  453.040    6.200   74.095  358.632
  453.290    6.204   72.904  354.101
  453.540    6.207   72.301  343.065
  453.790    6.608   72.289  356.095
  454.040    6.412   72.281  368.475
  454.290    5.620   74.030  382.807
  454.540    4.431   76.962  384.785
  454.790    3.043   82.240  369.846
  455.040    2.847   85.756  352.305
  455.290    3.250   88.100  323.051
  455.540    3.849   88.088  302.909
  455.790    4.848   85.721  317.896
  456.040    5.447   82.181  354.993
  456.290    6.046   78.641  390.144
  456.540    5.851   75.097  396.670
  456.790    5.060   74.498  399.299
  457.040    4.665   78.017  399.966
  457.290    4.270   89.767  399.992
  457.540    3.678   93.281  400.014
  457.790    3.482   95.615  400.041
  458.040    3.485   95.607  400.062
  458.290    3.489   96.183  396.832
  458.540    3.890   97.935  392.295
  458.790    4.092   99.103  384.516
  459.040    4.095  101.443  382.581
  459.290    4.099  102.605  381.963
  459.540    4.102  100.829  382.624
  459.790    4.305   97.289  387.854
  460.040    4.508   93.748  395.031
  460.290    4.709   90.205  402.863
  460.540    5.112   88.429  402.229
  460.790    5.115   89.591  398.998
  461.040    5.117   90.170  392.515
  461.290    5.120   84.278  373.673
  461.540    5.123   83.084  358.084
  461.790    5.328   86.018  347.698
  462.040    5.330   96.586  339.264
  462.290    5.333   97.756  337.990
  462.540    5.337   97.745  345.172
  462.790    5.340   86.556  348.446
  463.040    5.343   80.664  366.024
  463.290    5.348   81.234  379.710
  463.540    5.151   83.578  384.290
  463.790    5.155   86.507  385.613
  464.040    4.960   89.438  384.978
  464.290    4.963   91.191  381.748
  464.540    4.768   93.522  378.517
  464.790    4.771   93.513  376.587
  465.040    4.775   92.328  377.915
  465.290    4.779   91.141  381.199
  465.540    4.781   89.950  382.516
  465.790    4.784   89.941  383.183
  466.040    4.787   89.923  383.860
  466.290    4.792   88.144  383.882
  466.540    4.795   86.959  385.204
  466.790    4.997   84.590  391.085
  467.040    5.598   84.584  387.849
  467.290    6.197   83.984  367.056
  467.540    7.195   83.975  383.339
  467.790    8.391   83.375  389.865
  468.040    9.389   82.184  389.886
  468.290    9.194   79.232  389.257
  468.540    8.999   73.928  384.081
  468.790    8.604   69.797  372.394
  469.040    8.210   72.725  362.664
  469.290    8.212   75.069  359.433
  469.540    8.414   76.818  356.859
  469.790    8.617   79.156  355.568
  470.040    9.018   80.908  356.246
  470.290    9.221   78.544  357.563
  470.540    9.622   76.180  360.186
  470.790    9.227   75.583  361.514
  471.040    8.435   76.157  358.939
  471.290    7.643   76.733  356.359
  471.540    6.653   76.133  353.778
  471.790    5.861   83.766  350.542
  472.040    5.070   91.988  343.409
  472.290    4.676   96.092  320.665
  472.540    4.678   98.433  301.823
  472.790    5.079   97.245  264.119
  473.040    6.077   94.293  248.524
  473.290    7.074   88.398  212.120
  473.540   11.254   82.505  206.938
  473.790   11.456   77.201  211.513
  474.040   12.056   71.308  215.442
  474.290   13.054   67.177  216.770
  474.540   13.852   64.813  218.093
  474.790   16.044   64.213  220.711
  475.040   15.052   64.196  236.993
  475.290   10.085   64.187  263.038
  475.540    8.895   64.172  287.126
  475.790    7.506   65.339  349.596
  476.040    6.515   66.507  353.526
  476.290    5.725   68.844  353.547
  476.540    5.329   72.952  350.322
  476.790    4.936   88.224  348.387
  477.040    4.740   89.977  347.758
  477.290    4.744   91.726  354.284
  477.540    4.548   91.717  358.858
  477.790    4.153   92.294  361.487
  478.040    3.959   92.285  366.712
  478.290    3.962   92.267  368.685
  478.540    3.967   92.850  370.007
  478.790    3.969   92.835  374.582
  479.040    4.171   92.820  377.205
  479.290    4.373   92.811  377.888
  479.540    4.775   92.797  378.560
  479.790    5.175   92.788  380.538
  480.040    5.973   92.773  384.452
  480.290    6.775   92.176  393.579
  480.540    6.976   89.803  386.446
  480.790    7.178   89.797  379.963
  481.040    7.182   89.198  374.136
  481.290    7.185   89.771  367.008
  481.540    7.188   90.344  357.272
  481.790    7.192   90.339  352.735
  482.040    7.195   87.972  341.049
  482.290    7.199   85.017  315.047
  482.540    7.202   83.829  292.953
