~VERSION INFORMATION
 VERS.                 2.0:   CWLS LOG ASCII STANDARD -VERSION 2.0
 WRAP.                  NO:   ONE LINE PER DEPTH STEP
~WELL INFORMATION BLOCK
#MNEM.UNIT           DATA                    DESCRIPTION OF MNEMONIC
#---------    -------------------            -------------------------------
# Generated from Intellog Unique Number	CN_91_93/WELL/3007
WELL.         05-25-093-20W4                 : Well_name    - WELL
LOC .         00/05-25-093-20W4/0            : Location     - LOCATION
UWI .         00/05-25-093-20W4/0            : Uwi          - UNIQUE WELL ID
ENTR.         JOETTE                         : Entered      - ENTERED BY
SRVC.         SCHLUMBERGER                   : Scn          - SERVICE COMPANY
DATE.         04/09/92                       : Date         - LOG DATE
STRT.F        350                            : top_depth    - START DEPTH
STOP.F        850.328                        : bot_depth    - STOP DEPTH
STEP.F        0.82                           : increment    - STEP LENGTH
 NULL. -999.2500:NULL Value
~CURVE INFORMATION BLOCK
#MNEM UNIT       ERCB CURVE CODE    CURVE DESCRIPTION
#-----------   ------------------   ----------------------------------
DEPT.F        00 001 00 00         : DEPTH        - DEPTH
CALI.IN       00 280 01 00         : CAL          - CALIPER
GR  .API      00 310 00 00         : GR           - GAMMA RAY
NPHI.V/V      00 330 00 00         : PHIN         - NEUTRON POROSITY (SANDSTONE)
DPHI.V/V      00 890 00 00         : PHID         - DENSITY POROSITY (SANDSTONE)
ILD .OHMM     00 120 00 00         : RESD         - DEEP RESISTIVITY (DIL)
~PARAMETER INFORMATION
#MNEM.UNIT           DATA             DESCRIPTION OF MNEMONIC
#---------         -----------     ------------------------------
GL  .M        534.01               : gl           - GROUND LEVEL ELEVATION
EREF.M        535.534              : kb           - ELEVATION OF DEPTH REFERENCE
DATM.M        535.534              : datum        - DATUM ELEVATION
TDD .M        261.518              : tdd          - TOTAL DEPTH DRILLER
RUN .         ONE                  : Run          - RUN NUMBER
ENG .         BILL                 : Engineer     - RECORDING ENGINEER
WIT .         JIM                  : Witness      - WITNESSED BY
MUD .         GEL                  : Mud_type     - MUD TYPE
MATR.         SANDSTONE            : Logunit      - NEUTRON MATRIX
TMAX.F        84                   : BHT          - MAXIMUM RECORDED TEMPERATURE
BHTD.F        858                  : BHTDEP       - MAXIMUM RECORDED TEMPERATURE
RMT .F        98                   : MDTP         - TEMPERATURE OF MUD
MUDD.LB/G     9.5                  : MWT          - MUD DENSITY
NEUT.         1                    : NEUTRON      - NEUTRON TYPE
RESI.         0                    : RESIST       - RESISTIVITY TYPE
RM  .OHMM     1.4                  : RM           - RESISTIVITY OF MUD
RMC .OHMM     1.4                  : RMC          - RESISTIVITY OF MUD CAKE
RMF .OHMM     1.4                  : RMF          - RESISTIVITY OF MUD FILTRATE
SUFT.F        -4                   : SUFT         - SURFACE TEMPERATURE
~A  DEPTH      CAL       GR     PHIN     PHID     RESD
# ...
  469.751    6.918   82.907    0.616    0.318    5.629
  470.571    7.059   80.045    0.618    0.285    5.197
  471.391    7.278   83.907    0.606    0.267    4.743
  472.211    6.971   90.408    0.593    0.263    4.425
  473.031    6.955   94.286    0.578    0.206    4.171
  473.852    6.920   94.631    0.587    0.183    4.071
  474.672    6.963   95.285    0.594    0.249    4.104
  475.492    7.026   95.646    0.591    0.250    4.617
  476.312    6.875   92.483    0.594    0.245    5.085
  477.133    6.605   86.697    0.566    0.252    5.475
  477.953    6.356   84.118    0.556    0.254    5.110
  478.773    6.243   83.302    0.580    0.245    5.038
  479.593    6.247   87.765    0.599    0.246    4.649
  480.413    6.661   90.750    0.613    0.255    4.243
  481.234    7.270   89.933    0.623    0.264    4.186
  482.054    7.196   88.825    0.614    0.258    4.312
  482.874    7.083   88.609    0.598    0.249    4.591
  483.694    7.166   87.778    0.585    0.249    4.733
  484.514    7.384   87.554    0.573    0.256    4.769
  485.335    7.135   91.709    0.567    0.264    4.451
  486.155    7.022   94.694    0.574    0.265    4.294
  486.975    6.870   92.415    0.574    0.274    4.327
  487.795    6.835   92.207    0.564    0.262    4.605
  488.615    6.879   91.383    0.573    0.255    4.961
  489.436    7.137   87.343    0.587    0.267    5.286
  490.256    6.711   86.527    0.601    0.286    5.693
  491.076    6.482   85.711    0.591    0.270    5.929
  491.896    6.740   79.347    0.584    0.272    6.105
  492.717    6.841   80.863    0.593    0.267    6.225
  493.537    6.279   81.509    0.598    0.271    6.207
  494.357    6.576   78.938    0.595    0.288    5.791
  495.177    6.776   82.808    0.595    0.299    5.172
  495.997    6.702   88.717    0.572    0.285    4.618
  496.818    6.589   91.425    0.576    0.270    4.169
  497.638    6.807   88.854    0.592    0.273    4.442
  498.458    7.183   95.348    0.589    0.316    4.942
  499.278    7.031   90.723    0.571    0.319    4.560
  500.098    6.937   82.890    0.560    0.300    4.073
  500.919    6.785   80.619    0.558    0.304    3.636
  501.739    7.024   87.113    0.591    0.302    3.393
  502.559    7.144   94.207    0.605    0.289    3.536
  503.379    7.792   93.383    0.596    0.294    3.850
  504.199    8.011   86.419    0.566    0.280    4.237
  505.020    7.430   81.802    0.551    0.252    4.819
  505.840    7.572   77.477    0.543    0.262    5.485
  506.660    7.243   75.792    0.538    0.277    6.041
  507.480    7.365   76.722    0.535    0.281    6.152
  508.301    7.272   77.091    0.581    0.267    5.495
  509.121    6.847   74.228    0.611    0.278    6.049
  509.941    6.637   72.535    0.622    0.283    7.519
  510.761    6.699   72.596    0.640    0.281    7.015
  511.581    6.898   65.340    0.648    0.267    5.308
  512.402    6.727   72.126    0.639    0.255    4.638
  513.222    6.575   92.962    0.627    0.248    4.094
  514.042    6.501  105.326    0.637    0.245    3.778
  514.862    6.622  106.257    0.645    0.249    3.683
  515.682    6.802  106.026    0.652    0.255    3.754
  516.503    6.670  105.802    0.646    0.258    3.870
  517.323    6.635  106.740    0.633    0.263    4.032
  518.143    6.796  105.339    0.629    0.270    4.064
  518.963    6.761  104.531    0.642    0.274    4.096
  519.783    6.628  106.631    0.640    0.274    4.129
  520.604    6.437  105.538    0.640    0.288    3.895
  521.424    6.324  102.660    0.648    0.270    3.441
  522.244    6.367   98.343    0.645    0.249    2.691
  523.064    6.255   96.942    0.647    0.252    2.457
  523.885    6.220   97.011    0.648    0.266    2.219
  524.705    6.302   97.072    0.640    0.268    2.048
  525.525    6.365   97.725    0.631    0.274    2.229
  526.345    6.408   98.356    0.625    0.281    2.896
  527.165    6.685   96.670    0.622    0.267    3.481
  527.986    7.001   93.507    0.619    0.263    4.672
  528.806    7.377   88.305    0.616    0.266    6.135
  529.626    7.322   81.057    0.612    0.257    7.966
  530.446    6.955   72.631    0.609    0.255    9.471
  531.266    6.374   60.989    0.604    0.281   10.654
  532.087    6.320   55.202    0.597    0.302   10.623
  532.907    6.305   56.733    0.588    0.276   10.831
  533.727    6.310   58.256    0.580    0.262   10.911
  534.547    6.352   64.465    0.585    0.229    8.730
  535.367    6.376   65.988    0.596    0.223    8.797
  536.188    6.302   71.319    0.613    0.268    8.969
  537.008    6.267   70.803    0.619    0.252   10.665
  537.828    6.310   68.225    0.617    0.254   12.680
  538.648    6.548   62.438    0.631    0.259   14.748
  539.469    6.612   58.398    0.642    0.269   15.032
  540.289    6.576   55.536    0.644    0.255   12.290
  541.109    6.288   58.528    0.641    0.241    7.713
  541.929    6.370   64.445    0.643    0.251    6.035
  542.749    6.550   80.595    0.634    0.261    5.269
  543.570    6.691   87.681    0.624    0.247    5.370
  544.390    6.657   88.920    0.623    0.242    5.411
  545.210    6.485   85.464    0.620    0.242    5.396
  546.030    6.548   80.262    0.600    0.231    5.148
  546.850    6.610   80.031    0.595    0.234    4.544
  547.671    6.594   85.363    0.593    0.244    4.290
  548.491    6.364   89.525    0.592    0.245    4.323
  549.311    6.174   92.802    0.596    0.252    4.606
  550.131    6.237   91.109    0.633    0.254    5.071
  550.951    6.027   86.207    0.635    0.259    5.769
  551.772    6.206   82.167    0.623    0.262    6.564
  552.592    6.347   76.673    0.609    0.262    8.064
  553.412    6.215   71.171    0.601    0.271    8.978
  554.232    6.238   64.507    0.598    0.275   10.913
  555.052    6.477   57.843    0.621    0.260   11.743
  555.873    6.481   54.980    0.607    0.252   12.244
  556.693    6.485   59.427    0.603    0.252   11.424
  557.513    6.450   62.720    0.597    0.256    6.494
  558.333    6.395   63.366    0.597    0.239    4.403
  559.154    6.302   64.889    0.605    0.224    2.241
  559.974    6.170   69.336    0.612    0.223    2.115
  560.794    6.115   80.808    0.624    0.308    2.155
  561.614    6.354   85.270    0.629    0.311    2.346
  562.434    6.593   84.746    0.626    0.298    2.582
  563.255    6.655   83.923    0.639    0.275    3.036
  564.075    6.737   86.030    0.635    0.258    3.036
  564.895    7.034   86.391    0.627    0.276    3.255
  565.715    7.135   86.453    0.616    0.272    3.589
  566.535    7.042   85.637    0.608    0.273    4.129
  567.356    7.222   83.951    0.605    0.264    4.497
  568.176    7.440   85.182    0.603    0.251    5.173
  568.996    7.679   86.412    0.599    0.246    6.151
  569.816    7.254   83.842    0.594    0.249    6.998
  570.636    7.082   78.932    0.592    0.255    6.527
  571.457    6.833   74.315    0.592    0.265    6.025
  572.277    6.740   76.715    0.589    0.270    5.875
  573.097    6.706   79.700    0.584    0.272    5.730
  573.917    6.729   82.116    0.580    0.289    5.527
  574.738    6.752   82.177    0.581    0.302    5.821
  575.558    6.854   80.768    0.582    0.298    6.553
  576.378    6.878   77.328    0.564    0.288    8.229
  577.198    6.648   73.881    0.543    0.283    9.065
  578.018    6.536   69.841    0.504    0.262    8.835
  578.839    6.500   65.516    0.522    0.228    7.802
  579.659    6.504   62.068    0.571    0.171    7.126
  580.479    6.333   64.176    0.563    0.143    6.433
  581.299    6.241   76.525    0.545    0.056    6.849
  582.119    6.225   81.572    0.558    0.083    8.510
  582.940    6.112   79.287    0.582    0.119    8.769
  583.760    6.116   72.623    0.559    0.159    9.040
  584.580    6.198   64.782    0.557    0.183    8.528
  585.400    6.280   58.703    0.589    0.202    6.746
  586.220    6.480   64.027    0.601    0.215    5.701
  587.041    6.717   71.990    0.604    0.196    4.923
  587.861    6.917   79.076    0.591    0.185    3.937
  588.681    7.096   78.268    0.588    0.175    2.948
