~VERSION INFORMATION
 VERS.                 2.0:   CWLS LOG ASCII STANDARD -VERSION 2.0
 WRAP.                  NO:   ONE LINE PER DEPTH STEP
~WELL INFORMATION BLOCK
#MNEM.UNIT           DATA                    DESCRIPTION OF MNEMONIC
#---------    -------------------            -------------------------------
# Generated from Intellog Unique Number	CW_73_75/WELL/875
WELL.         HOME UNIT MARTEN HILLS 07-33   : Well_name    - WELL
LOC .         00/07-33-074-24W4/0            : Location     - LOCATION
UWI .         00/07-33-074-24W4/0            : Uwi          - UNIQUE WELL ID
ENTR.         JAYE                           : Entered      - ENTERED BY
SRVC.         WESTERN ATLAS                  : Scn          - SERVICE COMPANY
DATE.         22 JAN 85                      : Date         - LOG DATE
STRT.M        410                            : top_depth    - START DEPTH
STOP.M        605                            : bot_depth    - STOP DEPTH
STEP.M        0.25                           : increment    - STEP LENGTH
 NULL. -999.2500:NULL Value
~CURVE INFORMATION BLOCK
#MNEM UNIT       ERCB CURVE CODE    CURVE DESCRIPTION
#-----------   ------------------   ----------------------------------
DEPT.M        00 001 00 00         : DEPTH        - DEPTH
ILD .OHMM     00 120 00 00         : RESD         - DEEP RESISTIVITY (DIL)
NPHI.V/V      00 330 00 00         : PHIN         - NEUTRON POROSITY (SANDSTONE)
DPHI.V/V      00 890 00 00         : PHID         - DENSITY POROSITY (SANDSTONE)
GR  .API      00 310 00 00         : GR           - GAMMA RAY
CALI.MM       00 280 01 00         : CAL          - CALIPER
~PARAMETER INFORMATION
#MNEM.UNIT           DATA             DESCRIPTION OF MNEMONIC
#---------         -----------     ------------------------------
GL  .M        687.1                : gl           - GROUND LEVEL ELEVATION
EREF.M        691.7                : kb           - ELEVATION OF DEPTH REFERENCE
DATM.M        687.1                : datum        - DATUM ELEVATION
TDD .M        611                  : tdd          - TOTAL DEPTH DRILLER
RUN .         ONE                  : Run          - RUN NUMBER
ENG .         MONAGLE              : Engineer     - RECORDING ENGINEER
WIT .         SAEA                 : Witness      - WITNESSED BY
BASE.         2150                 : Branch       - HOME BASE OF LOGGING UNIT
MUD .         GEL CHEM             : Mud_type     - MUD TYPE
MATR.         SANDSTONE            : Logunit      - NEUTRON MATRIX
TMAX.C        25                   : BHT          - MAXIMUM RECORDED TEMPERATURE
BHTD.M        611.2                : BHTDEP       - MAXIMUM RECORDED TEMPERATURE
RMT .C        15                   : MDTP         - TEMPERATURE OF MUD
MUDD.KG/M     1220                 : MWT          - MUD DENSITY
NEUT.         1                    : NEUTRON      - NEUTRON TYPE
RESI.         0                    : RESIST       - RESISTIVITY TYPE
RM  .OHMM     5.7                  : RM           - RESISTIVITY OF MUD
RMC .OHMM     5.2                  : RMC          - RESISTIVITY OF MUD CAKE
RMF .OHMM     6                    : RMF          - RESISTIVITY OF MUD FILTRATE
SUFT.C        0                    : SUFT         - SURFACE TEMPERATURE
~A  DEPTH     RESD     PHIN     PHID       GR      CAL
# ...
  519.500    5.651    0.393    0.228   65.290  206.124
  519.750    5.239    0.411    0.210   80.630  208.849
  520.000    5.053    0.369    0.182   79.973  211.267
  520.250    5.366    0.365    0.174   74.414  212.855
  520.500    5.839    0.352    0.188   68.299  213.927
  520.750    5.949    0.341    0.188   72.230  214.378
  521.000    5.891    0.352    0.166   73.061  211.007
  521.250    5.801    0.386    0.159   74.820  209.808
  521.500    5.702    0.379    0.178   80.488  210.779
  521.750    5.594    0.351    0.196   84.170  211.542
  522.000    5.509    0.345    0.190   83.076  210.545
  522.250    5.384    0.349    0.180   84.030  207.691
  522.500    5.312    0.370    0.178   90.380  204.320
  522.750    5.202    0.376    0.183   88.855  204.980
  523.000    5.171    0.386    0.183   82.923  206.672
  523.250    5.218    0.383    0.183   79.351  208.573
  523.500    5.316    0.362    0.170   83.406  209.439
  523.750    5.561    0.355    0.166   84.855  208.962
  524.000    6.028    0.343    0.152   86.306  204.250
  524.250    7.087    0.335    0.136   72.377  200.776
  524.500    8.008    0.322    0.053   57.146  198.127
  524.750    8.377    0.300   -0.000   51.526  195.789
  525.000    8.265    0.297    0.026   52.047  194.795
  525.250    7.823    0.315    0.167   61.248  196.699
  525.500    7.090    0.332    0.205   73.922  197.153
  525.750    5.761    0.355    0.252   81.945  194.399
  526.000    5.202    0.377    0.245   79.179  191.958
  526.250    5.270    0.396    0.232   74.986  191.383
  526.500    5.585    0.359    0.225   66.390  192.758
  526.750    5.766    0.363    0.159   63.250  195.591
  527.000    5.862    0.343    0.131   66.871  196.560
  527.250    5.784    0.335    0.156   74.277  196.805
  527.500    5.728    0.340    0.183   74.484  196.328
  527.750    5.609    0.352    0.199   76.615  195.957
  528.000    5.462    0.347    0.190   77.694  195.789
  528.250    5.248    0.349    0.177   70.401  195.827
  528.500    5.149    0.365    0.200   78.982  195.968
  528.750    5.090    0.377    0.218   79.691  195.804
  529.000    5.021    0.400    0.211   79.153  195.944
  529.250    5.010    0.385    0.228   79.303  196.400
  529.500    5.066    0.380    0.210   77.960  197.163
  529.750    5.329    0.362    0.188   83.316  198.339
  530.000    5.669    0.369    0.166   85.883  199.413
  530.250    5.908    0.357    0.184   76.048  200.380
  530.500    6.064    0.338    0.096   62.739  200.732
  530.750    6.051    0.329    0.060   62.640  200.564
  531.000    6.015    0.323    0.095   72.894  200.086
  531.250    6.013    0.334    0.182   74.469  199.203
  531.500    5.933    0.354    0.194   76.414  198.823
  531.750    5.658    0.379    0.182   83.322  198.872
  532.000    5.520    0.361    0.184   83.035  198.904
  532.250    5.539    0.358    0.180   80.640  199.253
  532.500    5.590    0.348    0.148   81.470  200.015
  532.750    5.631    0.351    0.157   86.020  201.296
  533.000    5.672    0.362    0.164   88.091  204.124
  533.250    5.681    0.366    0.159   86.876  206.749
  533.500    5.669    0.384    0.165   86.836  208.647
  533.750    5.688    0.377    0.150   89.340  209.824
  534.000    5.676    0.367    0.165   86.141  210.592
  534.250    5.674    0.402    0.164   84.117  210.625
  534.500    5.673    0.369    0.159   81.537  210.050
  534.750    5.693    0.370    0.148   75.049  208.949
  535.000    5.691    0.356    0.142   70.980  207.443
  535.250    5.689    0.361    0.159   72.554  207.169
  535.500    5.699    0.377    0.166   81.447  207.930
  535.750    5.708    0.371    0.179   81.780  208.492
  536.000    5.760    0.355    0.172   82.732  208.422
  536.250    5.802    0.355    0.182   87.284  207.844
  536.500    5.812    0.354    0.152   85.013  206.952
  536.750    5.810    0.348    0.128   79.085  205.547
  537.000    5.808    0.361    0.138   81.465  203.728
  537.250    5.828    0.352    0.153   81.613  202.214
  537.500    5.882    0.350    0.162   83.621  200.913
  537.750    5.936    0.348    0.180   88.047  200.437
  538.000    6.093    0.348    0.195   86.643  200.166
  538.250    6.314    0.351    0.171   76.188  199.893
  538.500    6.729    0.347    0.137   77.886  200.139
  538.750    7.173    0.339    0.113   76.484  202.453
  539.000    7.446    0.326    0.050   67.019  205.488
  539.250    7.486    0.333    0.119   69.585  206.459
  539.500    7.414    0.342    0.150   82.755  207.844
  539.750    7.273    0.341    0.171   82.718  209.742
  540.000    7.096    0.340    0.154   75.920  209.885
  540.250    6.741    0.347    0.140   86.299  207.443
  540.500    6.564    0.343    0.140   86.449  207.174
  540.750    6.464    0.358    0.163   86.785  208.144
  541.000    6.487    0.363    0.170   89.038  208.699
  541.250    6.583    0.377    0.168   95.944  208.118
  541.500    6.682    0.379    0.165   92.186  206.916
  541.750    6.858    0.352    0.173   77.823  205.716
  542.000    7.106    0.391    0.117   71.769  203.381
  542.250    8.015    0.406    0.068   80.040  199.288
  542.500    9.730    0.383    0.099   87.754  198.394
  542.750   12.035    0.328    0.107   85.483  198.745
  543.000   19.567    0.302   -0.003   69.322  199.306
  543.250   32.476    0.244   -0.008   53.595  199.446
  543.500   38.036    0.209    0.008   43.389  198.864
  543.750   36.342    0.218    0.065   48.560  197.662
  544.000   32.879    0.260    0.126   55.156  196.360
  544.250   28.863    0.303    0.211   63.550  195.472
  544.500   23.673    0.333    0.201   64.256  194.581
  544.750   19.862    0.345    0.187   63.165  193.587
  545.000   15.748    0.331    0.104   62.195  193.315
  545.250   12.092    0.312    0.019   58.933  193.560
  545.500   10.012    0.310    0.029   63.855  193.909
  545.750    8.889    0.315    0.088   76.405  195.192
  546.000    7.803    0.327    0.125   88.149  196.782
  546.250    7.330    0.342    0.150   93.505  198.064
  546.500    7.219    0.356    0.168   85.591  198.723
  546.750    7.285    0.370    0.169   81.214  198.346
  547.000    7.393    0.369    0.151   86.756  195.908
  547.250    7.433    0.358    0.136   84.735  194.086
  547.500    7.459    0.349    0.127   79.486  192.471
  547.750    7.401    0.349    0.147   78.519  190.961
  548.000    7.330    0.367    0.160   83.440  189.758
  548.250    7.164    0.358    0.132   83.404  188.977
  548.500    7.055    0.349    0.151   85.162  188.702
  548.750    7.026    0.357    0.135   89.465  188.226
  549.000    6.998    0.371    0.161   85.150  187.953
  549.250    7.022    0.360    0.156   85.791  187.787
  549.500    7.020    0.359    0.111   86.312  188.239
  549.750    7.045    0.352    0.132   82.118  189.626
  550.000    7.083    0.353    0.124   85.304  192.144
  550.250    7.148    0.370    0.133   90.290  194.767
  550.500    7.309    0.372    0.135   88.080  196.254
  550.750    7.791    0.352    0.148   81.903  197.119
  551.000    7.892    0.359    0.169   81.434  196.334
  551.250    7.801    0.369    0.170   81.764  194.305
  551.500    7.668    0.358    0.168   81.416  192.899
  551.750    7.494    0.348    0.172   83.735  193.038
  552.000    7.297    0.362    0.165   86.672  195.765
  552.250    7.281    0.377    0.161   82.977  196.945
  552.500    7.293    0.366    0.146   77.915  195.742
  552.750    7.571    0.358    0.107   72.419  193.926
  553.000    7.919    0.351    0.104   74.365  192.208
  553.250    8.129    0.348    0.144   81.087  190.802
  553.500    8.218    0.354    0.156   81.856  189.601
  553.750    8.247    0.353    0.129   74.685  188.705
  554.000    8.214    0.357    0.135   78.369  187.918
  554.250    8.119    0.346    0.176   82.360  187.547
  554.500    8.071    0.341    0.174   83.315  187.796
  554.750    8.008    0.343    0.152   81.168  187.941
  555.000    7.931    0.348    0.140   77.471  188.078
  555.250    7.929    0.344    0.148   76.999  188.121
  555.500    7.927    0.364    0.158   81.797  188.570
  555.750    8.090    0.352    0.168   81.882  189.332
