~VERSION INFORMATION
 VERS.                 2.0:   CWLS LOG ASCII STANDARD -VERSION 2.0
 WRAP.                  NO:   ONE LINE PER DEPTH STEP
~WELL INFORMATION BLOCK
#MNEM.UNIT           DATA                    DESCRIPTION OF MNEMONIC
#---------    -------------------            -------------------------------
# Generated from Intellog Unique Number	CW_79_81/WELL/2462
WELL.         07-32-081-20W4                 : Well_name    - WELL
LOC .         00/07-32-081-20W4/0            : Location     - LOCATION
UWI .         00/07-32-081-20W4/0            : Uwi          - UNIQUE WELL ID
ENTR.         MAX                            : Entered      - ENTERED BY
SRVC.         COMPUTALOG                     : Scn          - SERVICE COMPANY
STRT.M        152.4                          : top_depth    - START DEPTH
STOP.M        383.90                         : bot_depth    - STOP DEPTH
STEP.M        0.25                           : increment    - STEP LENGTH
 NULL. -999.2500:NULL Value
~CURVE INFORMATION BLOCK
#MNEM UNIT       ERCB CURVE CODE    CURVE DESCRIPTION
#-----------   ------------------   ----------------------------------
DEPT.M        00 001 00 00         : DEPTH        - DEPTH
ILD .OHMM     00 120 00 00         : RESD         - DEEP RESISTIVITY (DIL)
NPHI.V/V      00 330 00 00         : PHIN         - NEUTRON POROSITY (SANDSTONE)
DPHI.V/V      00 890 00 00         : PHID         - DENSITY POROSITY (SANDSTONE)
GR  .API      00 310 00 00         : GR           - GAMMA RAY
CALI.MM       00 280 01 00         : CAL          - CALIPER
~PARAMETER INFORMATION
#MNEM.UNIT           DATA             DESCRIPTION OF MNEMONIC
#---------         -----------     ------------------------------
GL  .M        586.77               : gl           - GROUND LEVEL ELEVATION
EREF.M        590.123              : kb           - ELEVATION OF DEPTH REFERENCE
DATM.M        586.77               : datum        - DATUM ELEVATION
TDD .M        399.288              : tdd          - TOTAL DEPTH DRILLER
RUN .         ONE                  : Run          - RUN NUMBER
ENG .         BILL                 : Engineer     - RECORDING ENGINEER
WIT .         JIM                  : Witness      - WITNESSED BY
MUD .         GEL                  : Mud_type     - MUD TYPE
MATR.         SANDSTONE            : Logunit      - NEUTRON MATRIX
TMAX.C        16.6667              : BHT          - MAXIMUM RECORDED TEMPERATURE
BHTD.M        399.288              : BHTDEP       - MAXIMUM RECORDED TEMPERATURE
MATR.         1                    : LOGUNIT      - NEUTRON MATRIX
RMT .C        7.77778              : MDTP         - TEMPERATURE OF MUD
NEUT.         1                    : NEUTRON      - NEUTRON TYPE
RESI.         0                    : RESIST       - RESISTIVITY TYPE
RMC .OHMM     3.9                  : RMC          - RESISTIVITY OF MUD CAKE
RMF .OHMM     4.15                 : RMF          - RESISTIVITY OF MUD FILTRATE
SUFT.C        -20.5556             : SUFT         - SURFACE TEMPERATURE
~A  DEPTH     RESD     PHIN     PHID       GR      CAL
# ...
  188.900    2.109    0.552    0.269  149.387  177.496
  189.150    2.139    0.537    0.269  151.465  177.456
  189.400    2.169    0.530    0.267  152.607  177.318
  189.650    2.205    0.530    0.268  151.328  176.871
  189.900    2.237    0.534    0.269  153.253  176.827
  190.150    2.235    0.541    0.275  154.867  176.781
  190.400    2.234    0.539    0.276  153.146  176.437
  190.650    2.249    0.531    0.275  150.081  175.797
  190.900    2.279    0.523    0.274  147.778  174.862
  191.150    2.327    0.522    0.271  148.595  173.792
  191.400    2.424    0.521    0.273  149.298  174.573
  191.650    2.516    0.519    0.271  146.703  176.123
  191.900    2.653    0.512    0.273  141.827  177.070
  192.150    2.851    0.503    0.273  136.073  177.424
  192.400    3.153    0.495    0.272  130.843  177.484
  192.650    3.815    0.482    0.275  126.758  177.746
  192.900    4.762    0.467    0.277  122.837  177.290
  193.150    6.098    0.419    0.284  104.338  174.076
  193.400    8.150    0.401    0.308   95.485  168.786
  193.650   11.071    0.400    0.336   91.951  164.783
  193.900   15.038    0.406    0.360   90.929  163.253
  194.150   21.561    0.418    0.383   91.140  163.210
  194.400   24.842    0.403    0.363   92.866  162.668
  194.650   26.479    0.386    0.368   93.322  162.203
  194.900   28.213    0.361    0.367   92.693  161.788
  195.150   29.717    0.374    0.362   92.904  161.352
  195.400   30.716    0.413    0.357   94.052  161.009
  195.650   31.730    0.400    0.359   94.146  161.123
  195.900   32.416    0.376    0.378   92.418  161.904
  196.150   32.757    0.381    0.376   90.756  161.866
  196.400   32.960    0.387    0.372   92.076  162.119
  196.650   33.100    0.391    0.369   94.272  162.473
  196.900   33.216    0.395    0.366   95.358  162.731
  197.150   33.315    0.402    0.366   92.824  162.680
  197.400   33.346    0.407    0.371   89.632  162.636
  197.650   33.345    0.396    0.374   88.903  162.594
  197.900   33.297    0.388    0.377   89.581  162.552
  198.150   33.154    0.389    0.378   89.904  162.311
  198.400   32.854    0.398    0.377   89.583  161.871
  198.650   32.066    0.411    0.378   89.790  161.335
  198.900   30.837    0.433    0.379   89.759  160.888
  199.150   30.366    0.433    0.364   90.441  160.450
  199.400   30.131    0.439    0.354   91.471  160.011
  199.650   30.021    0.448    0.351   91.797  159.573
  199.900   29.965    0.455    0.353   91.069  159.331
  200.150   29.893    0.446    0.355   89.733  159.668
  200.400   29.697    0.422    0.354   90.194  159.624
  200.650   29.413    0.416    0.349   90.632  159.556
  200.900   28.892    0.412    0.333   90.200  159.830
  201.150   28.329    0.405    0.311   90.529  160.196
  201.400   27.321    0.404    0.305   92.199  160.347
  201.650   23.113    0.434    0.355   95.082  159.904
  201.900   16.519    0.455    0.373   96.764  159.860
  202.150   15.631    0.458    0.374   97.674  159.818
  202.400   14.920    0.454    0.369   97.003  159.779
  202.650   14.108    0.448    0.361   96.392  159.541
  202.900   12.271    0.441    0.353   97.890  159.202
  203.150    8.472    0.428    0.341  105.110  159.150
  203.400    6.234    0.432    0.325  110.927  159.102
  203.650    4.777    0.456    0.302  119.556  160.243
  203.900    3.727    0.487    0.281  126.431  161.097
  204.150    3.134    0.504    0.267  127.927  161.849
  204.400    2.891    0.504    0.264  125.740  163.488
  204.650    3.073    0.502    0.281  125.903  168.126
  204.900    3.608    0.481    0.297  120.998  169.732
  205.150    4.349    0.481    0.299  121.212  169.685
  205.400    5.480    0.473    0.312  118.088  168.755
  205.650    6.810    0.449    0.323  114.088  166.535
  205.900    7.967    0.415    0.330  109.798  163.917
  206.150    9.094    0.394    0.338  103.240  163.076
  206.400    9.619    0.405    0.337   99.801  163.024
  206.650    9.079    0.403    0.351  100.948  163.378
  206.900    8.236    0.395    0.349   96.480  163.438
  207.150    7.004    0.394    0.341   94.699  163.397
  207.400    5.769    0.402    0.332   98.650  163.356
  207.650    4.649    0.424    0.325  106.836  163.391
  207.900    3.867    0.456    0.313  110.463  163.755
  208.150    3.865    0.509    0.316  114.881  164.105
  208.400    4.397    0.516    0.316  117.368  164.464
  208.650    5.086    0.513    0.313  115.122  164.820
  208.900    5.675    0.510    0.310  109.720  165.072
  209.150    6.756    0.478    0.312  106.482  165.025
  209.400    8.588    0.449    0.315  103.290  164.977
  209.650    9.411    0.425    0.317  103.969  164.538
  209.900    9.523    0.415    0.319  104.471  164.103
  210.150    9.491    0.419    0.310  108.420  163.865
  210.400    9.650    0.426    0.296  114.124  163.823
  210.650   10.115    0.415    0.298  113.733  163.772
  210.900   10.573    0.418    0.302  109.561  163.728
  211.150   10.289    0.433    0.301  112.815  164.074
  211.400    9.559    0.439    0.297  116.063  164.432
  211.650    8.388    0.437    0.291  119.310  166.569
  211.900    7.204    0.439    0.281  122.734  170.187
  212.150    6.303    0.469    0.261  128.046  173.077
  212.400    5.916    0.503    0.244  134.839  173.858
  212.650    5.883    0.517    0.240  140.195  173.020
  212.900    6.035    0.497    0.235  140.814  173.373
  213.150    6.555    0.471    0.236  140.203  175.112
  213.400    7.382    0.450    0.238  140.001  177.051
  213.650    7.825    0.428    0.227  139.976  176.617
  213.900    8.253    0.420    0.235  140.241  174.584
  214.150    8.575    0.413    0.242  140.458  172.066
  214.400    8.688    0.410    0.248  140.130  168.254
  214.650    8.780    0.402    0.253  138.935  165.237
  214.900    8.897    0.396    0.258  136.630  163.810
  215.150    9.021    0.413    0.265  133.726  162.807
  215.400    9.184    0.439    0.263  136.867  161.943
  215.650    9.025    0.415    0.250  137.310  161.500
  215.900    8.625    0.400    0.255  131.788  161.652
  216.150    7.960    0.410    0.261  131.646  162.006
  216.400    7.163    0.441    0.257  138.931  162.363
  216.650    6.341    0.467    0.239  145.946  162.791
  216.900    6.050    0.461    0.248  143.726  163.164
  217.150    5.954    0.457    0.247  141.833  163.122
  217.400    6.136    0.460    0.247  137.830  163.079
  217.650    6.677    0.448    0.253  132.659  163.035
  217.900    7.588    0.425    0.264  124.978  162.989
  218.150    9.014    0.415    0.281  108.471  163.017
  218.400   12.021    0.402    0.308   95.049  163.390
  218.650   16.781    0.387    0.328   85.435  163.748
  218.900   20.926    0.369    0.342   83.889  164.096
  219.150   23.303    0.370    0.347   85.031  165.042
  219.400   24.177    0.396    0.349   86.056  166.390
  219.650   24.434    0.431    0.359   87.073  167.052
  219.900   24.012    0.402    0.359   88.749  166.591
  220.150   22.743    0.383    0.345   91.535  165.361
  220.400   22.018    0.376    0.343   92.564  164.722
  220.650   21.071    0.377    0.342   93.708  164.481
  220.900   18.170    0.383    0.338   97.015  164.542
  221.150   11.255    0.397    0.329  105.724  164.974
  221.400    6.653    0.408    0.322  110.813  165.343
  221.650    5.305    0.437    0.307  118.740  166.484
  221.900    4.385    0.496    0.294  135.785  168.519
  222.150    4.178    0.525    0.280  148.387  170.061
  222.400    4.557    0.510    0.266  152.279  170.613
  222.650    5.392    0.478    0.264  152.339  170.233
  222.900    6.606    0.460    0.275  151.582  168.544
  223.150    7.275    0.444    0.267  148.279  168.101
  223.400    7.297    0.444    0.260  147.783  168.850
  223.650    6.610    0.450    0.257  148.578  170.394
  223.900    5.849    0.456    0.258  149.960  172.035
  224.150    5.656    0.465    0.260  151.940  172.767
  224.400    5.622    0.459    0.266  151.427  172.719
  224.650    5.868    0.464    0.270  146.954  172.685
  224.900    6.543    0.461    0.276  145.467  172.345
  225.150    7.729    0.455    0.294  144.742  171.711
