~VERSION INFORMATION
 VERS.                 2.0:   CWLS LOG ASCII STANDARD -VERSION 2.0
 WRAP.                  NO:   ONE LINE PER DEPTH STEP
~WELL INFORMATION BLOCK
#MNEM.UNIT           DATA                    DESCRIPTION OF MNEMONIC
#---------    -------------------            -------------------------------
# Generated from Intellog Unique Number	CS_69_70/WELL/768
WELL.         GULF OIL CANADA                : Well_name    - WELL
LOC .         00/06-08-069-15W4/0            : Location     - LOCATION
UWI .         00/06-08-069-15W4/0            : Uwi          - UNIQUE WELL ID
ENTR.         SP                             : Entered      - ENTERED BY
SRVC.         SCHLUMBERGER                   : Scn          - SERVICE COMPANY
STRT.M        259.080                        : top_depth    - START DEPTH
STOP.M        456.830                        : bot_depth    - STOP DEPTH
STEP.M        0.25                           : increment    - STEP LENGTH
 NULL. -999.2500:NULL Value
~CURVE INFORMATION BLOCK
#MNEM UNIT       ERCB CURVE CODE    CURVE DESCRIPTION
#-----------   ------------------   ----------------------------------
DEPT.M        00 001 00 00         : DEPTH        - DEPTH
GR  .API      00 310 00 00         : GR           - GAMMA RAY
DPHI.V/V      00 890 00 00         : PHID         - DENSITY POROSITY (SANDSTONE)
NPHI.V/V      00 330 00 00         : PHIN         - NEUTRON POROSITY (SANDSTONE)
ILD .OHMM     00 120 00 00         : RESD         - DEEP RESISTIVITY (DIL)
~PARAMETER INFORMATION
#MNEM.UNIT           DATA             DESCRIPTION OF MNEMONIC
#---------         -----------     ------------------------------
GL  .M        545.866              : gl           - GROUND LEVEL ELEVATION
EREF.M        549.524              : kb           - ELEVATION OF DEPTH REFERENCE
DATM.M        545.866              : datum        - DATUM ELEVATION
TDD .M        460.553              : tdd          - TOTAL DEPTH DRILLER
RUN .         ONE                  : Run          - RUN NUMBER
ENG .         BILL                 : Engineer     - RECORDING ENGINEER
WIT .         JIM                  : Witness      - WITNESSED BY
MUD .         GEL                  : Mud_type     - MUD TYPE
MATR.         SANDSTONE            : Logunit      - NEUTRON MATRIX
TMAX.C        14.4444              : BHT          - MAXIMUM RECORDED TEMPERATURE
BHTD.M        460.553              : BHTDEP       - MAXIMUM RECORDED TEMPERATURE
MATR.         1                    : LOGUNIT      - NEUTRON MATRIX
RMT .C        25                   : MDTP         - TEMPERATURE OF MUD
NEUT.         1                    : NEUTRON      - NEUTRON TYPE
RESI.         0                    : RESIST       - RESISTIVITY TYPE
RMC .OHMM     0.25                 : RMC          - RESISTIVITY OF MUD CAKE
RMF .OHMM     0.25                 : RMF          - RESISTIVITY OF MUD FILTRATE
SUFT.C        15                   : SUFT         - SURFACE TEMPERATURE
~A  DEPTH       GR     PHID     PHIN     RESD
# ...
  433.080   69.623    0.104    0.310   10.240
  433.330   65.721    0.022    0.285   10.188
  433.580   70.751    0.001    0.261    8.371
  433.830   79.700   -0.021    0.316    7.064
  434.080   89.343    0.123    0.381    6.125
  434.330   99.473    0.209    0.403    5.532
  434.580  105.758    0.181    0.411    5.387
  434.830  108.351    0.161    0.383    5.565
  435.080  107.481    0.176    0.369    5.993
  435.330  104.406    0.194    0.380    6.416
  435.580  101.220    0.218    0.373    6.776
  435.830   97.128    0.223    0.379    7.239
  436.080   87.660    0.230    0.350    7.515
  436.330   81.920    0.214    0.329    7.894
  436.580   84.715    0.203    0.351    8.201
  436.830   88.549    0.195    0.349    8.349
  437.080   91.627    0.194    0.351    8.339
  437.330   92.556    0.205    0.359    7.955
  437.580   85.742    0.202    0.348    7.444
  437.830   87.062    0.193    0.341    7.052
  438.080   90.917    0.203    0.337    6.774
  438.330   94.708    0.184    0.332    6.598
  438.580  100.569    0.171    0.329    6.403
  438.830  104.001    0.161    0.325    6.281
  439.080  106.583    0.164    0.324    6.198
  439.330  108.543    0.144    0.331    6.124
  439.580   99.924    0.131    0.342    6.029
  439.830   91.653    0.122    0.341    5.971
  440.080   94.338    0.115    0.336    5.994
  440.330   99.593    0.104    0.341    6.004
  440.580  105.424    0.127    0.349    6.055
  440.830  111.585    0.128    0.354    6.066
  441.080  113.431    0.120    0.344    6.114
  441.330  113.216    0.133    0.344    6.333
  441.580  112.927    0.137    0.351    6.338
  441.830  103.524    0.138    0.347    6.447
  442.080   93.644    0.163    0.337    6.581
  442.330   94.140    0.169    0.333    6.772
  442.580   96.493    0.159    0.333    6.841
  442.830   98.398    0.168    0.340    7.025
  443.080   99.412    0.143    0.346    7.351
  443.330   99.728    0.105    0.350    7.526
  443.580   97.896    0.071    0.364    7.877
  443.830   93.325    0.032    0.377    8.006
  444.080   91.412    0.011    0.388    7.530
  444.330   91.001    0.044    0.371    6.904
  444.580   91.427    0.070    0.335    5.797
  444.830   90.143    0.046    0.327    5.493
  445.080   98.266    0.012    0.320    4.949
  445.330  110.672    0.038    0.400    4.728
  445.580  120.482    0.076    0.428    4.711
  445.830  124.194    0.087    0.441    4.791
  446.080  121.647    0.100    0.409    5.098
  446.330  122.542    0.128    0.374    5.335
  446.580  129.229    0.160    0.339    5.657
  446.830  135.876    0.163    0.338    5.954
  447.080  140.742    0.156    0.347    6.163
  447.330  145.751    0.154    0.349    6.258
  447.580  151.274    0.154    0.350    6.188
  447.830  138.529    0.156    0.348    5.993
  448.080  130.878    0.156    0.336    6.168
  448.330  123.567    0.146    0.331    6.140
  448.580  123.529    0.144    0.333    6.059
  448.830  125.221    0.141    0.345    5.934
  449.080  125.978    0.138    0.354    5.860
  449.330  122.413    0.135    0.364    5.864
  449.580  113.955    0.141    0.361    5.962
  449.830  105.874    0.158    0.323    6.119
  450.080  105.757    0.174    0.305    6.374
  450.330  112.786    0.163    0.299    6.654
  450.580  117.403    0.151    0.314    7.111
  450.830  122.121    0.130    0.319    7.188
  451.080  117.171    0.107    0.304    7.070
  451.330  107.982    0.098    0.294    7.063
  451.580  111.507    0.165    0.292    7.026
  451.830  110.271    0.185    0.298    6.966
  452.080  105.309    0.208    0.308    6.833
  452.330  109.722    0.213    0.322    6.668
  452.580  112.869    0.205    0.315    6.518
  452.830  112.904    0.204    0.315    6.430
  453.080   89.844    0.201    0.320    6.374
  453.330   28.732    0.191    0.319    6.439
  453.580   16.428    0.171    0.326    6.528
  453.830   13.892    0.156    0.340    6.604
  454.080   13.021    0.184    0.358    6.540
  454.330   12.792    0.272    0.350    6.257
  454.580   13.706    0.318    0.329    5.941
  454.830   16.033    0.325    0.327    5.723
  455.080   23.683    0.315    0.356    5.517
  455.330   78.092    0.300    0.382    5.301
  455.580   80.931    0.296    0.331    5.024
  455.830   81.123    0.292    0.287    4.815
  456.080   80.856    0.291    0.255    4.596
  456.330   80.631    0.304    0.211    4.462
  456.580   80.250    0.310    0.189    4.370
  456.830   80.005    0.291    0.185    4.371
