~VERSION INFORMATION
 VERS.                 2.0:   CWLS LOG ASCII STANDARD -VERSION 2.0
 WRAP.                  NO:   ONE LINE PER DEPTH STEP
~WELL INFORMATION BLOCK
#MNEM.UNIT           DATA                    DESCRIPTION OF MNEMONIC
#---------    -------------------            -------------------------------
# Generated from Intellog Unique Number	CW_73_75/WELL/2734
WELL.         CAVALIER FRANCIS 07-33         : Well_name    - WELL
LOC .         00/07-33-073-20W4/0            : Location     - LOCATION
UWI .         00/07-33-073-20W4/0            : Uwi          - UNIQUE WELL ID
ENTR.         JAYE                           : Entered      - ENTERED BY
SRVC.         SCHLUMBERGER                   : Scn          - SERVICE COMPANY
DATE.         24 MAR 74                      : Date         - LOG DATE
STRT.M        411.48                         : top_depth    - START DEPTH
STOP.M        627.98                         : bot_depth    - STOP DEPTH
STEP.M        0.25                           : increment    - STEP LENGTH
 NULL. -999.2500:NULL Value
~CURVE INFORMATION BLOCK
#MNEM UNIT       ERCB CURVE CODE    CURVE DESCRIPTION
#-----------   ------------------   ----------------------------------
DEPT.M        00 001 00 00         : DEPTH        - DEPTH
ILD .OHMM     00 120 00 00         : RESD         - DEEP RESISTIVITY (DIL)
NPHI.V/V      00 330 00 00         : PHIN         - NEUTRON POROSITY (SANDSTONE)
DPHI.V/V      00 890 00 00         : PHID         - DENSITY POROSITY (SANDSTONE)
GR  .API      00 310 00 00         : GR           - GAMMA RAY
CALI.MM       00 280 01 00         : CAL          - CALIPER
~PARAMETER INFORMATION
#MNEM.UNIT           DATA             DESCRIPTION OF MNEMONIC
#---------         -----------     ------------------------------
GL  .M        719.938              : gl           - GROUND LEVEL ELEVATION
EREF.M        722.986              : kb           - ELEVATION OF DEPTH REFERENCE
DATM.M        719.938              : datum        - DATUM ELEVATION
TDD .M        630.936              : tdd          - TOTAL DEPTH DRILLER
RUN .         ONE                  : Run          - RUN NUMBER
ENG .         CORLE                : Engineer     - RECORDING ENGINEER
WIT .         CONNELLY             : Witness      - WITNESSED BY
BASE.         EDM                  : Branch       - HOME BASE OF LOGGING UNIT
MUD .         GEL CHEM             : Mud_type     - MUD TYPE
MATR.         SANDSTONE            : Logunit      - NEUTRON MATRIX
TMAX.C        30                   : BHT          - MAXIMUM RECORDED TEMPERATURE
BHTD.M        632.155              : BHTDEP       - MAXIMUM RECORDED TEMPERATURE
RMT .C        26.6667              : MDTP         - TEMPERATURE OF MUD
MUDD.KG/M     1116                 : MWT          - MUD DENSITY
NEUT.         1                    : NEUTRON      - NEUTRON TYPE
RESI.         0                    : RESIST       - RESISTIVITY TYPE
RM  .OHMM     4.39                 : RM           - RESISTIVITY OF MUD
RMC .OHMM     0                    : RMC          - RESISTIVITY OF MUD CAKE
RMF .OHMM     4.01                 : RMF          - RESISTIVITY OF MUD FILTRATE
SUFT.C        -17.7778             : SUFT         - SURFACE TEMPERATURE
~A  DEPTH     RESD     PHIN     PHID       GR      CAL
# ...
  557.480    4.930    0.423    0.178  101.220  176.992
  557.730    4.858    0.443    0.164   98.488  176.809
  557.980    4.785    0.473    0.147   96.670  176.523
  558.230    4.749    0.458    0.119   96.321  176.547
  558.480    4.755    0.471    0.130   95.052  176.677
  558.730    4.760    0.494    0.164   98.425  177.010
  558.980    4.805    0.481    0.174   98.931  177.143
  559.230    4.850    0.463    0.169   98.762  176.962
  559.480    4.854    0.441    0.157   97.678  176.886
  559.730    4.860    0.447    0.152   93.784  176.598
  559.980    4.903    0.465    0.188   93.554  175.901
  560.230    4.948    0.457    0.202   97.234  175.719
  560.480    5.032    0.431    0.161  101.829  175.847
  560.730    5.077    0.398    0.193   98.302  174.735
  560.980    5.003    0.374    0.193   96.547  171.243
  561.230    4.811    0.407    0.178   97.477  168.062
  561.480    4.622    0.421    0.159   99.997  169.643
  561.730    4.743    0.438    0.153  103.372  172.045
  561.980    4.984    0.447    0.148  107.112  175.792
  562.230    5.264    0.431    0.156  107.432  173.337
  562.480    5.505    0.376    0.189  102.927  165.915
  562.730    5.744    0.362    0.165   95.796  162.529
  562.980    5.946    0.369    0.212   88.422  161.002
  563.230    6.070    0.369    0.213   87.582  159.993
  563.480    6.153    0.376    0.207   86.010  160.330
  563.730    6.276    0.395    0.186   83.643  160.874
  563.980    6.712    0.396    0.148   79.811  160.587
  564.230    8.758    0.374    0.123   76.588  160.405
  564.480   11.195    0.346    0.101   72.328  160.845
  564.730   13.516    0.308    0.027   68.496  161.905
  564.980   15.601    0.254   -0.001   65.823  164.828
  565.230   15.606    0.237    0.012   62.602  167.230
  565.480   13.963    0.244    0.016   60.906  169.017
  565.730   11.967    0.271    0.025   61.532  169.249
  565.980   10.168    0.259    0.058   64.112  169.482
  566.230    8.995    0.263    0.088   68.525  170.024
  566.480    7.117    0.291    0.107   76.174  170.462
  566.730    6.298    0.325    0.117   85.045  170.901
  566.980    5.755    0.364    0.147   90.802  171.448
  567.230    5.484    0.403    0.172   95.275  171.882
  567.480    5.490    0.440    0.178   98.038  172.632
  567.730    5.495    0.421    0.167   98.297  171.831
  567.980    5.501    0.402    0.169   97.214  170.512
  568.230    5.505    0.421    0.177   96.190  170.745
  568.480    5.550    0.414    0.173   94.862  171.601
  568.730    5.673    0.405    0.167   97.503  171.933
  568.980    5.757    0.409    0.154  101.060  172.165
  569.230    5.801    0.415    0.142  100.587  172.397
  569.480    5.805    0.403    0.132   98.036  172.735
  569.730    5.772    0.405    0.114   97.505  172.759
  569.980    5.698    0.378    0.104   95.929  172.890
  570.230    5.625    0.381    0.130   93.685  173.230
  570.480    5.512    0.394    0.151   96.203  173.873
  570.730    5.439    0.413    0.166  100.373  174.622
  570.980    5.366    0.416    0.167  102.159  175.164
  571.230    5.293    0.386    0.133  102.051  175.289
  571.480    5.102    0.366    0.157  101.151  175.114
  571.730    5.067    0.383    0.173  102.570  174.929
  571.980    5.504    0.372    0.183  105.211  174.645
  572.230    5.706    0.375    0.172  107.058  174.463
  572.480    5.477    0.382    0.160  103.410  174.182
  572.730    5.284    0.366    0.145   98.112  173.895
  572.980    4.937    0.307    0.112   91.225  173.814
  573.230    4.745    0.337    0.108   85.681  173.635
  573.480    4.515    0.362    0.147   88.445  173.454
  573.730    4.167    0.379    0.152   95.972  173.584
  573.980    3.897    0.389    0.168   98.125  173.921
  574.230    3.550    0.376    0.146   97.652  174.565
  574.480    3.045    0.386    0.152   98.216  175.002
  574.730    2.619    0.373    0.164   99.698  175.234
  574.980    2.309    0.386    0.184  102.156  175.470
  575.230    2.158    0.415    0.211  101.865  173.528
  575.480    2.163    0.457    0.231  100.476  168.176
  575.730    2.208    0.518    0.221  102.934  165.821
  575.980    2.291    0.551    0.209  105.941  165.230
  576.230    2.532    0.551    0.206  107.056  166.085
  576.480    2.890    0.575    0.199  105.241  167.039
  576.730    3.366    0.611    0.192  104.949  168.413
  576.980    3.606    0.617    0.185  102.643  169.158
  577.230    3.729    0.594    0.166   99.361  170.425
  577.480    3.735    0.378    0.106   96.382  172.207
  577.730    3.740    0.385    0.081   96.275  173.266
  577.980    3.902    0.391    0.142  104.413  170.293
  578.230    4.300    0.376    0.177  105.653  168.563
  578.480    4.618    0.425    0.164  106.214  167.654
  578.730    5.016    0.451    0.149  108.305  167.577
  578.980    5.217    0.409    0.135  105.329  167.297
  579.230    5.261    0.375    0.117  100.336  167.420
  579.480    5.150    0.344    0.124   93.328  167.660
  579.730    5.076    0.372    0.113   92.243  167.782
  579.980    5.003    0.439    0.149   94.458  167.707
  580.230    5.007    0.466    0.128   95.082  167.425
  580.480    4.973    0.406    0.071   91.005  167.444
  580.730    4.940    0.363    0.094   88.333  167.477
  580.980    4.944    0.414    0.127   90.608  167.394
  581.230    4.949    0.424    0.125   92.334  167.108
  581.480    4.876    0.403    0.113   92.959  167.034
  581.730    4.763    0.406    0.105   94.806  167.160
  581.980    4.534    0.387    0.081   93.783  167.496
  582.230    4.420    0.402    0.068   94.717  168.039
  582.480    4.269    0.450    0.126   96.563  168.276
  582.730    4.118    0.469    0.135  100.974  168.299
  582.980    4.005    0.459    0.142  103.371  168.325
  583.230    3.932    0.412    0.142  103.447  168.658
  583.480    3.898    0.392    0.132   99.432  168.789
  583.730    3.863    0.407    0.142   98.103  168.713
  583.980    3.829    0.442    0.117   98.424  168.735
  584.230    3.756    0.425    0.080   94.346  168.872
  584.480    3.722    0.447    0.096  101.079  168.791
  584.730    3.649    0.451    0.139  104.821  168.917
  584.980    3.576    0.457    0.147  104.775  168.941
  585.230    3.580    0.462    0.139  103.508  169.280
  585.480    3.664    0.476    0.132  105.294  169.715
  585.730    3.826    0.448    0.156  108.118  170.569
  585.980    3.988    0.410    0.156  109.049  171.219
  586.230    3.954    0.424    0.139  106.743  171.654
  586.480    3.685    0.399    0.122  103.705  171.782
  586.730    3.258    0.374    0.093  102.315  171.704
  586.980    3.460    0.398    0.109  107.949  171.729
  587.230    3.819    0.415    0.137  112.484  171.554
  587.480    4.176    0.438    0.156  112.561  171.472
  587.730    4.848    0.460    0.145  115.751  171.495
  587.980    5.325    0.459    0.138  117.537  171.937
  588.230    5.604    0.398    0.120  114.131  172.689
  588.480    5.688    0.394    0.095  109.566  172.813
  588.730    5.575    0.389    0.105  113.430  172.529
  588.980    5.463    0.337    0.137  115.765  169.761
  589.230    5.468    0.311    0.104  115.721  167.823
  589.480    5.472    0.299    0.130  117.689  170.124
  589.730    5.519    0.311    0.128  120.574  172.734
  589.980    5.523    0.329    0.108  125.842  173.795
  590.230    5.528    0.344    0.124  133.247  173.096
  590.480    5.454    0.351    0.127  138.575  170.950
  590.730    5.342    0.361    0.139  134.193  169.531
  590.980    5.269    0.371    0.160  129.140  169.138
  591.230    5.313    0.370    0.150  126.163  169.993
  591.480    5.396    0.343    0.136  124.222  170.846
  591.730    5.441    0.334    0.116  121.795  171.490
  591.980    5.524    0.349    0.105  119.793  172.247
  592.230    5.608    0.341    0.103  119.259  172.681
  592.480    5.692    0.328    0.111  120.984  172.916
  592.730    5.736    0.343    0.124  124.053  173.147
  592.980    5.780    0.349    0.117  128.528  173.174
  593.230    5.824    0.336    0.113  129.093  172.992
  593.480    5.869    0.347    0.119  127.579  172.810
  593.730    5.876    0.340    0.100  123.930  172.423
