~VERSION INFORMATION
 VERS.                 2.0:   CWLS LOG ASCII STANDARD -VERSION 2.0
 WRAP.                  NO:   ONE LINE PER DEPTH STEP
~WELL INFORMATION BLOCK
#MNEM.UNIT           DATA                    DESCRIPTION OF MNEMONIC
#---------    -------------------            -------------------------------
# Generated from Intellog Unique Number	CS_67_68/WELL/644
WELL.         FISHER CREEK                   : Well_name    - WELL
LOC .         00/06-09-068-04W4/0            : Location     - LOCATION
UWI .         00/06-09-068-04W4/0            : Uwi          - UNIQUE WELL ID
ENTR.         SP                             : Entered      - ENTERED BY
SRVC.         SCHLUMBERGER                   : Scn          - SERVICE COMPANY
STRT.M        335                            : top_depth    - START DEPTH
STOP.M        565                            : bot_depth    - STOP DEPTH
STEP.M        0.25                           : increment    - STEP LENGTH
 NULL. -999.2500:NULL Value
~CURVE INFORMATION BLOCK
#MNEM UNIT       ERCB CURVE CODE    CURVE DESCRIPTION
#-----------   ------------------   ----------------------------------
DEPT.M        00 001 00 00         : DEPTH        - DEPTH
ILD .OHMM     00 120 00 00         : RESD         - DEEP RESISTIVITY (DIL)
DPHI.V/V      00 890 00 00         : PHID         - DENSITY POROSITY (LIMESTONE)
NPHI.V/V      00 330 00 00         : PHIN         - NEUTRON POROSITY (LIMESTONE)
GR  .API      00 310 00 00         : GR           - GAMMA RAY
~PARAMETER INFORMATION
#MNEM.UNIT           DATA             DESCRIPTION OF MNEMONIC
#---------         -----------     ------------------------------
GL  .M        692.65               : gl           - GROUND LEVEL ELEVATION
EREF.M        696.5                : kb           - ELEVATION OF DEPTH REFERENCE
DATM.M        692.65               : datum        - DATUM ELEVATION
TDD .M        568                  : tdd          - TOTAL DEPTH DRILLER
RUN .         ONE                  : Run          - RUN NUMBER
ENG .         BILL                 : Engineer     - RECORDING ENGINEER
WIT .         JIM                  : Witness      - WITNESSED BY
MUD .         GEL                  : Mud_type     - MUD TYPE
MATR.         LIMESTONE            : Logunit      - NEUTRON MATRIX
TMAX.C        20.5                 : BHT          - MAXIMUM RECORDED TEMPERATURE
BHTD.M        568                  : BHTDEP       - MAXIMUM RECORDED TEMPERATURE
MATR.         1                    : LOGUNIT      - NEUTRON MATRIX
RMT .C        25                   : MDTP         - TEMPERATURE OF MUD
NEUT.         1                    : NEUTRON      - NEUTRON TYPE
RESI.         0                    : RESIST       - RESISTIVITY TYPE
RMC .OHMM     0.25                 : RMC          - RESISTIVITY OF MUD CAKE
RMF .OHMM     0.25                 : RMF          - RESISTIVITY OF MUD FILTRATE
SUFT.C        15                   : SUFT         - SURFACE TEMPERATURE
~A  DEPTH     RESD     PHID     PHIN       GR
# ...
  378.500    6.018    0.263    0.450   80.933
  378.750    5.887    0.252    0.469   82.732
  379.000    6.001    0.242    0.480   84.587
  379.250    6.061    0.237    0.481   86.567
  379.500    6.155    0.249    0.481   87.813
  379.750    6.215    0.252    0.481   91.020
  380.000    6.324    0.246    0.496   93.430
  380.250    6.568    0.249    0.480   90.685
  380.500    6.796    0.263    0.455   86.158
  380.750    7.019    0.273    0.473   84.211
  381.000    7.196    0.280    0.475   86.314
  381.250    7.321    0.274    0.424   89.707
  381.500    7.421    0.269    0.406   93.283
  381.750    7.467    0.267    0.433   95.940
  382.000    7.469    0.269    0.430   97.366
  382.250    7.417    0.268    0.414   96.953
  382.500    7.296    0.262    0.426   90.709
  382.750    7.191    0.252    0.436   86.552
  383.000    7.035    0.247    0.438   85.954
  383.250    6.920    0.241    0.433   89.653
  383.500    6.782    0.249    0.436   89.117
  383.750    6.722    0.260    0.438   82.997
  384.000    6.724    0.268    0.440   79.700
  384.250    6.753    0.273    0.442   81.496
  384.500    6.807    0.262    0.444   83.599
  384.750    6.887    0.241    0.433   84.290
  385.000    6.995    0.251    0.462   83.017
  385.250    7.102    0.268    0.473   80.640
  385.500    7.419    0.254    0.462   79.182
  385.750    7.720    0.239    0.482   81.227
  386.000    7.898    0.230    0.493   80.444
  386.250    7.976    0.246    0.499   77.514
  386.500    7.876    0.272    0.477   73.786
  386.750    7.576    0.274    0.455   76.319
  387.000    7.438    0.260    0.455   87.813
  387.250    7.400    0.248    0.473   92.924
  387.500    7.487    0.239    0.482   93.186
  387.750    7.575    0.254    0.474   83.198
  388.000    7.664    0.264    0.468   71.800
  388.250    7.667    0.274    0.453   64.326
  388.500    7.642    0.292    0.439   56.670
  388.750    7.574    0.307    0.423   54.293
  389.000    7.368    0.322    0.430   59.898
  389.250    7.154    0.337    0.457   62.060
  389.500    7.090    0.323    0.475   63.365
  389.750    7.053    0.316    0.472   61.234
  390.000    7.096    0.313    0.458   59.470
  390.250    7.140    0.321    0.463   60.653
  390.500    7.143    0.333    0.462   62.943
  390.750    7.145    0.346    0.477   64.061
  391.000    7.109    0.343    0.501   64.325
  391.250    7.020    0.334    0.492   61.701
  391.500    6.918    0.325    0.477   58.160
  391.750    6.793    0.322    0.490   62.039
  392.000    6.809    0.321    0.472   68.072
  392.250    6.825    0.319    0.470   73.000
  392.500    6.814    0.319    0.475   74.917
  392.750    6.767    0.326    0.477   70.884
  393.000    6.744    0.331    0.446   67.155
  393.250    6.761    0.320    0.411   72.327
  393.500    6.814    0.308    0.401   76.824
  393.750    6.894    0.299    0.409   78.866
  394.000    7.028    0.304    0.412   80.540
  394.250    7.057    0.312    0.416   84.423
  394.500    7.100    0.316    0.427   87.140
  394.750    7.157    0.318    0.445   84.825
  395.000    7.200    0.315    0.426   76.989
  395.250    7.257    0.314    0.402   74.668
  395.500    7.343    0.317    0.423   77.080
  395.750    7.457    0.318    0.451   75.376
  396.000    7.544    0.313    0.466   71.894
  396.250    7.619    0.304    0.446   68.293
  396.500    7.666    0.299    0.437   66.341
  396.750    7.471    0.296    0.429   71.209
  397.000    7.159    0.273    0.410   75.704
  397.250    6.859    0.244    0.396   81.061
  397.500    6.611    0.236    0.418   82.733
  397.750    6.552    0.238    0.437   79.681
  398.000    6.530    0.242    0.432   82.217
  398.250    6.557    0.246    0.444   84.564
  398.500    6.597    0.259    0.478   77.707
  398.750    6.663    0.267    0.473   74.470
  399.000    6.703    0.249    0.443   73.749
  399.250    6.871    0.247    0.416   73.642
  399.500    7.030    0.259    0.401   71.204
  399.750    7.275    0.259    0.403   67.782
  400.000    7.443    0.257    0.407   69.026
  400.250    7.587    0.262    0.395   66.221
  400.500    7.677    0.274    0.388   61.080
  400.750    7.695    0.288    0.392   56.861
  401.000    7.741    0.294    0.387   53.257
  401.250    7.789    0.286    0.376   52.721
  401.500    7.821    0.289    0.404   52.251
  401.750    7.855    0.303    0.426   51.651
  402.000    7.858    0.311    0.425   50.562
  402.250    7.861    0.314    0.412   48.800
  402.500    7.835    0.317    0.400   47.893
  402.750    7.795    0.314    0.410   49.571
  403.000    7.769    0.309    0.416   51.056
  403.250    7.730    0.306    0.424   52.179
  403.500    7.719    0.312    0.424   52.379
  403.750    7.693    0.321    0.421   52.645
  404.000    7.653    0.325    0.421   53.335
  404.250    7.613    0.325    0.420   54.024
  404.500    7.518    0.331    0.413   54.163
  404.750    7.451    0.340    0.400   53.630
  405.000    7.440    0.338    0.406   52.477
  405.250    7.528    0.322    0.432   50.591
  405.500    7.573    0.310    0.413   49.256
  405.750    7.620    0.315    0.395   50.136
  406.000    7.667    0.321    0.415   50.639
  406.250    7.699    0.310    0.424   50.780
  406.500    7.760    0.303    0.418   50.182
  406.750    7.792    0.307    0.416   49.952
  407.000    7.781    0.315    0.422   51.565
  407.250    7.814    0.319    0.428   53.791
  407.500    7.818    0.318    0.420   56.201
  407.750    7.806    0.318    0.408   56.892
  408.000    7.810    0.324    0.407   56.541
  408.250    7.784    0.330    0.403   58.521
  408.500    7.772    0.323    0.397   59.765
  408.750    7.790    0.315    0.400   58.494
  409.000    7.794    0.317    0.413   55.565
  409.250    7.827    0.311    0.426   57.054
  409.500    7.831    0.299    0.435   61.121
  409.750    7.893    0.286    0.451   65.311
  410.000    7.970    0.276    0.473   68.027
  410.250    8.065    0.294    0.518   63.685
  410.500    8.022    0.323    0.539   57.507
  410.750    7.848    0.349    0.491   54.087
  411.000    7.677    0.345    0.454   52.872
  411.250    7.454    0.339    0.436   51.600
  411.500    7.360    0.336    0.438   51.432
  411.750    7.322    0.331    0.434   51.877
  412.000    7.380    0.329    0.428   52.081
  412.250    7.551    0.329    0.441   52.096
  412.500    7.843    0.330    0.441   51.744
  412.750    8.162    0.317    0.437   51.206
  413.000    8.508    0.302    0.445   50.182
  413.250    9.021    0.283    0.422   50.195
  413.500    9.369    0.270    0.392   54.448
  413.750    9.604    0.265    0.378   58.269
  414.000    9.681    0.297    0.414   60.126
  414.250    9.364    0.319    0.429   59.899
  414.500    8.451    0.308    0.445   57.766
  414.750    6.779    0.267    0.456   56.064
  415.000    5.677    0.186    0.412   60.621
  415.250    5.133    0.101    0.324   82.919
  415.500    4.756    0.135    0.393   90.118
  415.750    4.591    0.180    0.487   93.018
  416.000    4.663    0.209    0.503   92.911
  416.250    5.152    0.225    0.507   85.132
  416.500    6.525    0.258    0.527   69.988
  416.750    7.513    0.302    0.527   62.395
  417.000    7.877    0.330    0.476   58.790
  417.250    7.984    0.336    0.459   57.027
  417.500    8.017    0.332    0.452   56.981
  417.750    7.991    0.329    0.455   57.798
  418.000    7.935    0.348    0.488   57.875
  418.250    7.850    0.345    0.511   57.583
  418.500    7.795    0.336    0.476   55.454
  418.750    7.769    0.331    0.449   52.707
  419.000    7.773    0.326    0.431   50.206
  419.250    7.762    0.333    0.418   51.454
  419.500    7.750    0.322    0.412   52.572
  419.750    7.783    0.316    0.417   54.123
  420.000    7.845    0.305    0.434   55.365
  420.250    7.982    0.141    0.424   56.242
  420.500    8.045    0.099    0.293   56.258
  420.750    8.019    0.051    0.223   52.715
  421.000    7.859    0.024    0.179   44.137
  421.250    7.617    0.223    0.440   52.685
  421.500    7.450    0.260    0.457   60.866
  421.750    7.274    0.277    0.463   64.871
