~VERSION INFORMATION
 VERS.                 2.0:   CWLS LOG ASCII STANDARD -VERSION 2.0
 WRAP.                  NO:   ONE LINE PER DEPTH STEP
~WELL INFORMATION BLOCK
#MNEM.UNIT           DATA                    DESCRIPTION OF MNEMONIC
#---------    -------------------            -------------------------------
# Generated from Intellog Unique Number	CS_71_72/WELL/805
WELL.         PEX PHILLIPS AEC GRIST         : Well_name    - WELL
LOC .         00/07-09-072-08W4/0            : Location     - LOCATION
UWI .         00/07-09-072-08W4/0            : Uwi          - UNIQUE WELL ID
ENTR.         SP                             : Entered      - ENTERED BY
SRVC.         SCHLUMBERGER                   : Scn          - SERVICE COMPANY
STRT.M        315                            : top_depth    - START DEPTH
STOP.M        535                            : bot_depth    - STOP DEPTH
STEP.M        0.25                           : increment    - STEP LENGTH
 NULL. -999.2500:NULL Value
~CURVE INFORMATION BLOCK
#MNEM UNIT       ERCB CURVE CODE    CURVE DESCRIPTION
#-----------   ------------------   ----------------------------------
DEPT.M        00 001 00 00         : DEPTH        - DEPTH
ILD .OHMM     00 120 00 00         : RESD         - DEEP RESISTIVITY (DIL)
DPHI.V/V      00 890 00 00         : PHID         - DENSITY POROSITY (LIMESTONE)
NPHI.V/V      00 330 00 00         : PHIN         - NEUTRON POROSITY (LIMESTONE)
GR  .API      00 310 00 00         : GR           - GAMMA RAY
~PARAMETER INFORMATION
#MNEM.UNIT           DATA             DESCRIPTION OF MNEMONIC
#---------         -----------     ------------------------------
GL  .M        673.1                : gl           - GROUND LEVEL ELEVATION
EREF.M        676.9                : kb           - ELEVATION OF DEPTH REFERENCE
DATM.M        673.1                : datum        - DATUM ELEVATION
TDD .M        547                  : tdd          - TOTAL DEPTH DRILLER
RUN .         ONE                  : Run          - RUN NUMBER
ENG .         BILL                 : Engineer     - RECORDING ENGINEER
WIT .         JIM                  : Witness      - WITNESSED BY
MUD .         GEL                  : Mud_type     - MUD TYPE
MATR.         LIMESTONE            : Logunit      - NEUTRON MATRIX
TMAX.C        23                   : BHT          - MAXIMUM RECORDED TEMPERATURE
BHTD.M        547                  : BHTDEP       - MAXIMUM RECORDED TEMPERATURE
MATR.         1                    : LOGUNIT      - NEUTRON MATRIX
RMT .C        25                   : MDTP         - TEMPERATURE OF MUD
NEUT.         1                    : NEUTRON      - NEUTRON TYPE
RESI.         0                    : RESIST       - RESISTIVITY TYPE
RMC .OHMM     0.25                 : RMC          - RESISTIVITY OF MUD CAKE
RMF .OHMM     0.25                 : RMF          - RESISTIVITY OF MUD FILTRATE
SUFT.C        15                   : SUFT         - SURFACE TEMPERATURE
~A  DEPTH     RESD     PHID     PHIN       GR
# ...
  445.500    4.382    0.290    0.474   69.005
  445.750    4.547    0.280    0.460   72.673
  446.000    4.806    0.268    0.454   75.110
  446.250    5.080    0.250    0.447   80.593
  446.500    5.175    0.238    0.444   81.217
  446.750    5.271    0.227    0.454   80.025
  447.000    5.370    0.212    0.473   80.040
  447.250    5.370    0.213    0.483   80.051
  447.500    5.470    0.232    0.479   80.064
  447.750    5.470    0.232    0.479   80.688
  448.000    5.572    0.255    0.481   81.918
  448.250    5.572    0.270    0.470   83.151
  448.500    5.572    0.258    0.476   84.382
  448.750    5.572    0.247    0.486   83.793
  449.000    5.572    0.238    0.474   83.202
  449.250    5.676    0.233    0.450   82.610
  449.500    5.676    0.232    0.449   83.233
  449.750    5.572    0.234    0.469   83.853
  450.000    5.572    0.239    0.462   84.478
  450.250    5.470    0.229    0.457   83.282
  450.500    5.470    0.232    0.457   82.081
  450.750    5.370    0.235    0.467   80.878
  451.000    5.370    0.242    0.476   79.678
  451.250    5.370    0.250    0.485   77.871
  451.500    5.370    0.256    0.466   77.887
  451.750    5.370    0.252    0.452   79.729
  452.000    5.470    0.248    0.434   80.350
  452.250    5.676    0.243    0.416   80.971
  452.500    5.676    0.241    0.410   80.380
  452.750    5.572    0.273    0.419   77.362
  453.000    5.370    0.304    0.445   76.160
  453.250    5.271    0.302    0.465   76.178
  453.500    4.987    0.278    0.482   75.585
  453.750    4.718    0.275    0.485   75.602
  454.000    4.547    0.295    0.460   75.012
  454.250    4.302    0.329    0.465   73.207
  454.500    4.070    0.361    0.524   72.004
  454.750    3.511    0.394    0.556   69.596
  455.000    2.919    0.371    0.553   69.002
  455.250    2.711    0.360    0.544   69.016
  455.500    2.472    0.373    0.557   69.642
  455.750    2.382    0.343    0.566   71.486
  456.000    2.339    0.312    0.574   72.103
  456.250    2.296    0.295    0.568   73.947
  456.500    2.382    0.333    0.554   74.564
  456.750    2.613    0.375    0.536   75.791
  457.000    2.762    0.350    0.510   75.809
  457.250    3.029    0.287    0.492   72.190
  457.500    3.322    0.267    0.475   71.593
  457.750    3.577    0.269    0.462   69.789
  458.000    3.780    0.309    0.462   69.189
  458.250    3.923    0.351    0.485   69.205
  458.500    3.851    0.382    0.505   66.792
  458.750    3.780    0.371    0.515   65.592
  459.000    3.643    0.363    0.515   66.824
  459.250    3.577    0.358    0.536   66.839
  459.500    3.643    0.347    0.557   61.997
  459.750    3.923    0.047    0.300   55.939
  460.000    4.382    0.028    0.212   49.881
  460.250    4.896    0.022    0.289   41.394
  460.500    5.271    0.057    0.356   48.703
  460.750    5.470    0.217    0.405   53.574
  461.000    5.175    0.290    0.457   57.232
  461.250    4.806    0.304    0.468   58.465
  461.500    4.547    0.304    0.458   58.479
  461.750    4.382    0.312    0.448   59.718
  462.000    4.223    0.320    0.440   60.335
  462.250    4.146    0.325    0.441   58.529
  462.500    4.146    0.329    0.446   56.114
  462.750    4.070    0.325    0.447   55.525
  463.000    3.996    0.312    0.438   57.361
  463.250    4.070    0.287    0.435   59.197
  463.500    4.070    0.276    0.443   59.216
  463.750    4.302    0.267    0.452   60.446
  464.000    4.464    0.296    0.446   61.677
  464.250    4.632    0.312    0.415   61.691
  464.500    4.718    0.315    0.372   58.674
  464.750    4.718    0.262    0.355   55.049
  465.000    4.632    0.244    0.404   53.843
  465.250    4.632    0.281    0.433   55.683
  465.500    4.547    0.320    0.454   57.518
  465.750    4.302    0.319    0.461   60.574
  466.000    4.223    0.321    0.465   61.195
  466.250    4.146    0.326    0.455   59.391
  466.500    4.070    0.313    0.443   58.191
  466.750    4.070    0.301    0.429   58.827
  467.000    4.070    0.286    0.438   58.842
  467.250    3.996    0.298    0.438   59.463
  467.500    3.996    0.293    0.443   59.473
  467.750    4.070    0.284    0.447   59.483
  468.000    4.070    0.278    0.451   60.719
  468.250    4.070    0.280    0.440   61.948
  468.500    4.070    0.281    0.424   63.175
  468.750    4.070    0.285    0.417   65.013
  469.000    4.146    0.285    0.439   63.814
  469.250    4.146    0.279    0.452   62.624
  469.500    4.146    0.272    0.460   62.025
  469.750    4.223    0.264    0.441   63.860
  470.000    4.223    0.254    0.418   67.526
  470.250    4.223    0.247    0.396   69.358
  470.500    4.302    0.253    0.387   65.125
  470.750    4.302    0.242    0.383   65.746
  471.000    4.382    0.217    0.406   68.196
  471.250    4.464    0.248    0.422   68.817
  471.500    4.547    0.271    0.441   68.223
  471.750    4.632    0.250    0.417   65.809
  472.000    4.806    0.237    0.400   64.615
  472.250    5.080    0.236    0.431   65.841
  472.500    5.271    0.275    0.455   62.824
  472.750    5.470    0.314    0.459   57.986
  473.000    5.676    0.326    0.430   56.171
  473.250    5.999    0.288    0.418   56.194
  473.500    6.341    0.268    0.408   55.604
  473.750    6.702    0.256    0.401   55.010
  474.000    7.350    0.250    0.397   54.415
  474.250    7.914    0.247    0.408   55.037
  474.500    8.521    0.242    0.401   58.096
  474.750    8.680    0.236    0.395   61.149
  475.000    8.680    0.231    0.391   62.979
  475.250    8.841    0.226    0.389   59.352
  475.500    8.841    0.239    0.391   58.762
  475.750    8.841    0.250    0.399   61.820
  476.000    8.680    0.245    0.391   64.261
  476.250    8.365    0.288    0.393   66.704
  476.500    8.062    0.329    0.416   68.541
  476.750    7.914    0.350    0.420   66.736
  477.000    7.769    0.293    0.397   66.755
  477.250    7.487    0.263    0.386   69.805
  477.500    7.350    0.241    0.383   75.287
  477.750    7.350    0.217    0.385   81.376
  478.000    7.084    0.235    0.383   83.817
  478.250    6.954    0.234    0.377   85.049
  478.500    6.954    0.224    0.368   83.252
  478.750    6.954    0.225    0.380   82.656
  479.000    7.084    0.216    0.392   81.451
  479.250    7.216    0.210    0.384   80.864
  479.500    7.487    0.217    0.376   82.093
  479.750    7.627    0.222    0.372   80.895
  480.000    7.769    0.213    0.369   80.917
  480.250    7.914    0.207    0.367   80.927
  480.500    8.212    0.207    0.371   82.158
  480.750    8.365    0.218    0.371   83.385
  481.000    8.521    0.217    0.375   82.192
  481.250    8.841    0.212    0.388   79.776
  481.500    8.841    0.226    0.375   76.752
  481.750    9.174    0.237    0.366   72.518
  482.000    9.174    0.235    0.365   70.712
  482.250    9.345    0.231    0.379   70.125
  482.500    9.519    0.235    0.382   69.530
  482.750    9.519    0.243    0.378   70.765
  483.000    9.519    0.243    0.373   71.387
  483.250    9.519    0.231    0.374   71.402
  483.500    9.345    0.220    0.377   70.807
  483.750    9.345    0.212    0.363   69.000
  484.000    9.174    0.212    0.356   67.197
  484.250    9.006    0.224    0.344   66.601
  484.500    8.841    0.232    0.339   66.617
  484.750    8.680    0.240    0.377   70.887
  485.000    8.212    0.249    0.396   73.937
  485.250    8.062    0.229    0.398   76.385
  485.500    7.769    0.209    0.362   77.005
  485.750    7.487    0.198    0.361   80.665
  486.000    7.350    0.203    0.370   84.326
  486.250    7.216    0.198    0.376   86.770
  486.500    6.954    0.188    0.373   77.677
  486.750    6.827    0.183    0.379   78.910
  487.000    6.827    0.206    0.382   81.355
  487.250    6.827    0.204    0.382   82.585
  487.500    7.084    0.207    0.381   81.383
  487.750    7.487    0.240    0.376   67.432
  488.000    8.680    0.271    0.364   52.264
  488.250    9.519    0.270    0.362   56.532
  488.500    9.878    0.257    0.375   63.834
  488.750   10.249    0.236    0.371   72.356
