~VERSION INFORMATION
 VERS.                 2.0:   CWLS LOG ASCII STANDARD -VERSION 2.0
 WRAP.                  NO:   ONE LINE PER DEPTH STEP
~WELL INFORMATION BLOCK
#MNEM.UNIT           DATA                    DESCRIPTION OF MNEMONIC
#---------    -------------------            -------------------------------
# Generated from Intellog Unique Number	CX_WELLS/WELL/2544
WELL.         DOME ET AL NEWBY               : Well_name    - WELL
LOC .         00/07-25-080-03W4/0            : Location     - LOCATION
UWI .         00/07-25-080-03W400            : Uwi          - UNIQUE WELL ID
ENTR.         T                              : Entered      - ENTERED BY
SRVC.         SCHLUMBERGER                   : Scn          - SERVICE COMPANY
STRT.M        75                             : top_depth    - START DEPTH
STOP.M        330                            : bot_depth    - STOP DEPTH
STEP.M        0.25                           : increment    - STEP LENGTH
 NULL. -999.2500:NULL Value
~CURVE INFORMATION BLOCK
#MNEM UNIT       ERCB CURVE CODE    CURVE DESCRIPTION
#-----------   ------------------   ----------------------------------
DEPT.M        00 001 00 00         : DEPTH        - DEPTH
GR  .API      00 310 00 00         : GR           - GAMMA RAY
NPHI.V/V      00 330 00 00         : PHIN         - NEUTRON POROSITY (SANDSTONE)
DPHI.V/V      00 890 00 00         : PHID         - DENSITY POROSITY (SANDSTONE)
ILD .OHMM     00 120 00 00         : RESD         - DEEP RESISTIVITY (DIL)
~PARAMETER INFORMATION
#MNEM.UNIT           DATA             DESCRIPTION OF MNEMONIC
#---------         -----------     ------------------------------
GL  .M        482.7                : gl           - GROUND LEVEL ELEVATION
EREF.M        486.3                : kb           - ELEVATION OF DEPTH REFERENCE
DATM.M        486.3                : datum        - DATUM ELEVATION
TDD .M        338                  : tdd          - TOTAL DEPTH DRILLER
RUN .         ONE                  : Run          - RUN NUMBER
ENG .         BILL                 : Engineer     - RECORDING ENGINEER
WIT .         JIM                  : Witness      - WITNESSED BY
MUD .         GEL                  : Mud_type     - MUD TYPE
MATR.         SANDSTONE            : Logunit      - NEUTRON MATRIX
TMAX.C        20                   : BHT          - MAXIMUM RECORDED TEMPERATURE
BHTD.M        338                  : BHTDEP       - MAXIMUM RECORDED TEMPERATURE
MATR.         1                    : LOGUNIT      - NEUTRON MATRIX
RMT .C        18                   : MDTP         - TEMPERATURE OF MUD
NEUT.         1                    : NEUTRON      - NEUTRON TYPE
RESI.         2.4                  : RESIST       - RESISTIVITY TYPE
RMC .OHMM     2.16                 : RMC          - RESISTIVITY OF MUD CAKE
RMF .OHMM     2.16                 : RMF          - RESISTIVITY OF MUD FILTRATE
SUFT.C        5                    : SUFT         - SURFACE TEMPERATURE
~A  DEPTH       GR     PHIN     PHID     RESD
# ...
  205.500   73.551    0.409    0.323    9.246
  205.750   74.689    0.421    0.319    9.408
  206.000   75.823    0.436    0.309    9.571
  206.250   75.213    0.448    0.289    9.564
  206.500   74.609    0.464    0.264    9.379
  206.750   76.329    0.490    0.258    9.201
  207.000   79.797    0.487    0.300    9.027
  207.250   84.416    0.475    0.310    8.529
  207.500   86.141    0.478    0.296    8.369
  207.750   85.532    0.485    0.306    8.205
  208.000   84.347    0.488    0.330    8.198
  208.250   87.228    0.486    0.334    8.041
  208.500   94.177    0.484    0.324    7.887
  208.750   98.214    0.490    0.317    7.738
  209.000   98.772    0.492    0.305    7.449
  209.250   98.174    0.492    0.291    7.308
  209.500   96.989    0.486    0.280    7.035
  209.750   96.385    0.484    0.276    6.774
  210.000   96.943    0.478    0.284    6.523
  210.250   99.232    0.469    0.287    6.163
  210.500  100.365    0.473    0.293    6.046
  210.750  101.516    0.478    0.296    5.823
  211.000  102.074    0.487    0.295    5.606
  211.250  100.296    0.496    0.295    5.500
  211.500   99.117    0.549    0.296    5.198
  211.750   98.519    0.544    0.296    4.823
  212.000   97.329    0.538    0.296    4.314
  212.250   96.725    0.539    0.297    3.930
  212.500   96.702    0.551    0.299    3.647
  212.750   99.578    0.576    0.299    3.383
  213.000   99.560    0.593    0.299    3.319
  213.250   99.537    0.587    0.299    3.256
  213.500   98.352    0.576    0.298    3.253
  213.750   93.676    0.552    0.299    3.249
  214.000   94.815    0.527    0.298    3.306
  214.250   97.697    0.531    0.293    3.365
  214.500  104.064    0.555    0.291    3.488
  214.750  110.431    0.563    0.289    3.752
  215.000  108.665    0.571    0.283    3.891
  215.250  103.414    0.576    0.276    4.343
  215.500   98.743    0.563    0.270    4.844
  215.750   95.229    0.537    0.262    5.117
  216.000   96.362    0.520    0.253    5.406
  216.250   96.920    0.513    0.255    5.812
  216.500   96.311    0.502    0.257    6.141
  216.750   95.137    0.493    0.263    6.482
  217.000   93.952    0.483    0.269    6.600
  217.250   93.918    0.477    0.275    6.717
  217.500   93.895    0.482    0.277    6.587
  217.750   94.459    0.487    0.278    6.344
  218.000   95.011    0.493    0.285    5.672
  218.250   94.412    0.502    0.293    4.798
  218.500   92.635    0.493    0.300    4.454
  218.750   91.462    0.476    0.311    3.982
  219.000   87.361    0.475    0.321    3.979
  219.250   86.176    0.497    0.307    4.050
  219.500   88.477    0.538    0.287    4.519
  219.750   91.364    0.536    0.283    4.687
  220.000   95.402    0.517    0.285    5.134
  220.250   95.960    0.506    0.286    5.423
  220.500   95.937    0.500    0.290    5.940
  220.750   91.847    0.503    0.291    6.273
  221.000   90.082    0.508    0.290    6.384
  221.250   92.382    0.506    0.289    6.499
  221.500   96.426    0.490    0.289    6.493
  221.750   98.726    0.491    0.287    6.484
  222.000   96.380    0.500    0.291    6.362
  222.250   92.871    0.506    0.289    6.127
  222.500   92.261    0.501    0.281    5.478
  222.750   94.562    0.492    0.277    4.898
  223.000   94.539    0.480    0.324    4.547
  223.250   91.606    0.474    0.350    4.065
  223.500   89.265    0.474    0.349    3.636
  223.750   85.170    0.479    0.328    3.313
  224.000   80.499    0.481    0.313    3.018
  224.250   78.733    0.490    0.296    2.699
  224.500   82.771    0.501    0.298    2.458
  224.750   84.491    0.516    0.301    2.323
  225.000   83.306    0.544    0.308    2.321
  225.250   80.959    0.558    0.314    2.277
  225.500   79.199    0.598    0.327    2.317
  225.750   76.841    0.587    0.336    2.402
  226.000   76.824    0.575    0.339    2.490
  226.250   75.639    0.593    0.339    2.582
  226.500   75.610    0.618    0.336    2.882
  226.750   77.324    0.606    0.329    3.101
  227.000   78.469    0.602    0.326    3.335
  227.250   79.614    0.603    0.323    3.791
  227.500   81.903    0.611    0.308    4.078
  227.750   80.143    0.611    0.294    4.387
  228.000   76.047    0.466    0.283    4.633
  228.250   74.282    0.464    0.276    4.891
  228.500   75.426    0.476    0.271    5.072
  228.750   79.464    0.488    0.281    5.068
  229.000   81.770    0.499    0.291    4.969
  229.250   81.730    0.465    0.296    4.697
  229.500   81.719    0.453    0.301    4.523
  229.750   81.696    0.450    0.303    4.356
  230.000   81.673    0.476    0.306    3.968
  230.250   81.650    0.490    0.308    3.682
  230.500   83.364    0.501    0.308    3.481
  230.750   84.508    0.503    0.299    3.351
  231.000   88.546    0.509    0.287    3.226
  231.250   92.595    0.519    0.279    3.224
  231.500   97.208    0.530    0.275    3.221
  231.750   93.705    0.545    0.273    3.277
  232.000   94.833    0.546    0.279    3.275
  232.250   95.402    0.552    0.289    3.395
  232.500   91.894    0.555    0.287    3.455
  232.750   90.116    0.540    0.285    3.517
  233.000   89.507    0.527    0.286    3.646
  233.250   89.495    0.521    0.288    3.710
  233.500   93.539    0.511    0.288    3.846
  233.750   97.001    0.512    0.286    3.988
  234.000   94.654    0.520    0.284    4.288
  234.250   89.984    0.520    0.283    4.365
  234.500   85.895    0.516    0.285    4.526
  234.750   88.184    0.513    0.288    4.777
  235.000   90.484    0.505    0.287    4.955
  235.250   88.132    0.491    0.284    5.329
  235.500   86.378    0.482    0.282    5.526
  235.750   84.612    0.487    0.280    5.940
  236.000   85.751    0.498    0.277    6.159
  236.250   86.303    0.508    0.271    6.384
  236.500   85.693    0.514    0.264    6.381
  236.750   85.095    0.514    0.206    6.259
  237.000   84.491    0.484    0.163    6.027
  237.250   83.306    0.388    0.153    5.696
  237.500   76.893    0.391    0.165    5.486
  237.750   70.474    0.415    0.211    5.182
  238.000   74.512    0.428    0.236    5.086
  238.250   75.070    0.434    0.286    4.986
  238.500   72.142    0.445    0.307    4.892
  238.750   67.472    0.455    0.323    4.888
  239.000   62.801    0.446    0.339    4.794
  239.250   59.293    0.441    0.346    4.790
  239.500   56.946    0.443    0.346    4.785
  239.750   56.917    0.442    0.341    4.780
  240.000   55.727    0.441    0.332    4.776
  240.250   55.715    0.452    0.327    4.862
  240.500   57.435    0.503    0.323    4.857
  240.750   62.059    0.524    0.318    4.853
  241.000   68.427    0.501    0.314    4.937
  241.250   67.236    0.385    0.310    5.025
  241.500   61.985    0.390    0.305    5.114
  241.750   60.794    0.398    0.297    5.204
  242.000   61.358    0.399    0.290    5.298
  242.250   64.815    0.399    0.280    5.591
  242.500   67.696    0.398    0.273    5.691
  242.750   71.159    0.398    0.270    5.794
  243.000   74.046    0.400    0.286    6.008
  243.250   70.532    0.405    0.302    6.227
  243.500   66.442    0.402    0.314    6.339
  243.750   64.677    0.393    0.326    6.568
  244.000   64.073    0.384    0.335    6.685
  244.250   64.631    0.380    0.335    6.803
  244.500   65.769    0.392    0.302    7.052
  244.750   68.645    0.402    0.243    7.312
  245.000   73.270    0.413    0.237    7.580
  245.250   81.961    0.425    0.242    7.857
  245.500   86.004    0.433    0.249    8.000
  245.750   85.400    0.424    0.255    8.140
  246.000   83.629    0.397    0.259    8.437
  246.250   80.695    0.377    0.261    8.433
  246.500   79.522    0.373    0.260    8.743
  246.750   77.750    0.368    0.257    8.735
  247.000   78.303    0.367    0.253    9.052
  247.250   80.603    0.361    0.247    9.044
  247.500   82.329    0.358    0.242    9.204
  247.750   84.624    0.359    0.241    9.196
  248.000   86.924    0.360    0.240    9.188
  248.250   89.225    0.361    0.240    9.178
  248.500   90.945    0.363    0.240    9.171
  248.750   91.503    0.368    0.240    9.165
