~VERSION INFORMATION
 VERS.                 2.0:   CWLS LOG ASCII STANDARD -VERSION 2.0
 WRAP.                  NO:   ONE LINE PER DEPTH STEP
~WELL INFORMATION BLOCK
#MNEM.UNIT           DATA                    DESCRIPTION OF MNEMONIC
#---------    -------------------            -------------------------------
# Generated from Intellog Unique Number	CS_67_68/WELL/689
WELL.         DOME PETROLEUM LIMITED         : Well_name    - WELL
LOC .         00/06-26-068-02W4/0            : Location     - LOCATION
UWI .         00/06-26-068-02W4/0            : Uwi          - UNIQUE WELL ID
ENTR.         SP                             : Entered      - ENTERED BY
SRVC.         SCHLUMBERGER                   : Scn          - SERVICE COMPANY
STRT.M        385                            : top_depth    - START DEPTH
STOP.M        630                            : bot_depth    - STOP DEPTH
STEP.M        0.25                           : increment    - STEP LENGTH
 NULL. -999.2500:NULL Value
~CURVE INFORMATION BLOCK
#MNEM UNIT       ERCB CURVE CODE    CURVE DESCRIPTION
#-----------   ------------------   ----------------------------------
DEPT.M        00 001 00 00         : DEPTH        - DEPTH
ILD .OHMM     00 120 00 00         : RESD         - DEEP RESISTIVITY (DIL)
DPHI.V/V      00 890 00 00         : PHID         - DENSITY POROSITY (LIMESTONE)
NPHI.V/V      00 330 00 00         : PHIN         - NEUTRON POROSITY (LIMESTONE)
GR  .API      00 310 00 00         : GR           - GAMMA RAY
~PARAMETER INFORMATION
#MNEM.UNIT           DATA             DESCRIPTION OF MNEMONIC
#---------         -----------     ------------------------------
GL  .M        709.94               : gl           - GROUND LEVEL ELEVATION
EREF.M        713.29               : kb           - ELEVATION OF DEPTH REFERENCE
DATM.M        709.94               : datum        - DATUM ELEVATION
TDD .M        640                  : tdd          - TOTAL DEPTH DRILLER
RUN .         ONE                  : Run          - RUN NUMBER
ENG .         BILL                 : Engineer     - RECORDING ENGINEER
WIT .         JIM                  : Witness      - WITNESSED BY
MUD .         GEL                  : Mud_type     - MUD TYPE
MATR.         LIMESTONE            : Logunit      - NEUTRON MATRIX
TMAX.C        29                   : BHT          - MAXIMUM RECORDED TEMPERATURE
BHTD.M        640                  : BHTDEP       - MAXIMUM RECORDED TEMPERATURE
MATR.         1                    : LOGUNIT      - NEUTRON MATRIX
RMT .C        25                   : MDTP         - TEMPERATURE OF MUD
NEUT.         1                    : NEUTRON      - NEUTRON TYPE
RESI.         0                    : RESIST       - RESISTIVITY TYPE
RMC .OHMM     0.25                 : RMC          - RESISTIVITY OF MUD CAKE
RMF .OHMM     0.25                 : RMF          - RESISTIVITY OF MUD FILTRATE
SUFT.C        15                   : SUFT         - SURFACE TEMPERATURE
~A  DEPTH     RESD     PHID     PHIN       GR
# ...
  472.000   10.014    0.339    0.373   59.705
  472.250   10.106    0.344    0.370   60.486
  472.500   10.411    0.351    0.364   60.838
  472.750   10.785    0.356    0.358   55.818
  473.000   11.007    0.357    0.357   52.935
  473.250   11.068    0.350    0.368   52.250
  473.500   10.862    0.346    0.382   53.212
  473.750   10.700    0.345    0.396   53.565
  474.000   10.600    0.350    0.413   53.186
  474.250   10.639    0.353    0.412   52.684
  474.500   10.737    0.356    0.399   53.158
  474.750   10.897    0.354    0.375   53.938
  475.000   11.122    0.346    0.357   52.948
  475.250   11.059    0.356    0.366   52.690
  475.500   10.633    0.360    0.381   55.239
  475.750   10.301    0.364    0.398   56.813
  476.000    9.740    0.363    0.409   57.104
  476.250    9.488    0.358    0.413   57.213
  476.500    9.347    0.355    0.413   58.236
  476.750    9.191    0.355    0.412   59.627
  477.000    9.139    0.360    0.412   60.226
  477.250    9.155    0.365    0.413   59.539
  477.500    9.205    0.368    0.410   57.816
  477.750    9.239    0.371    0.417   58.169
  478.000    9.255    0.363    0.426   61.025
  478.250    9.306    0.350    0.417   60.584
  478.500    9.322    0.351    0.399   57.945
  478.750    9.270    0.347    0.381   58.176
  479.000    9.114    0.340    0.379   60.298
  479.250    8.879    0.336    0.384   61.688
  479.500    8.747    0.333    0.386   61.186
  479.750    8.697    0.337    0.391   59.587
  480.000    8.664    0.352    0.398   58.351
  480.250    8.615    0.362    0.411   60.230
  480.500    8.487    0.360    0.420   62.228
  480.750    8.470    0.354    0.428   62.584
  481.000    8.328    0.351    0.425   62.324
  481.250    8.189    0.353    0.418   63.594
  481.500    8.112    0.346    0.410   65.106
  481.750    7.977    0.340    0.402   66.070
  482.000    7.829    0.339    0.397   65.995
  482.250    7.828    0.346    0.400   65.064
  482.500    7.930    0.350    0.406   63.159
  482.750    8.048    0.342    0.409   61.864
  483.000    8.168    0.334    0.412   64.780
  483.250    8.336    0.329    0.420   66.660
  483.500    8.619    0.333    0.420   67.378
  483.750    8.748    0.352    0.413   62.237
  484.000    8.747    0.344    0.414   64.604
  484.250    8.812    0.342    0.401   63.429
  484.500    8.910    0.345    0.391   60.913
  484.750    9.093    0.337    0.388   62.058
  485.000    9.246    0.340    0.394   62.657
  485.250    9.349    0.347    0.397   62.155
  485.500    9.400    0.347    0.398   61.103
  485.750    9.330    0.345    0.401   60.477
  486.000    9.329    0.340    0.405   60.891
  486.250    9.362    0.330    0.407   62.279
  486.500    9.258    0.326    0.404   63.123
  486.750    9.274    0.321    0.394   63.293
  487.000    9.273    0.321    0.388   62.486
  487.250    9.255    0.336    0.380   60.458
  487.500    9.202    0.345    0.376   58.917
  487.750    9.236    0.335    0.403   61.466
  488.000    9.235    0.330    0.423   63.958
  488.250    9.217    0.330    0.412   66.385
  488.500    9.285    0.337    0.404   67.897
  488.750    9.336    0.343    0.400   69.045
  489.000    9.370    0.339    0.406   70.069
  489.250    9.351    0.333    0.402   68.834
  489.500    9.315    0.330    0.392   65.585
  489.750    9.263    0.331    0.382   63.250
  490.000    9.193    0.334    0.379   62.443
  490.250    9.124    0.339    0.398   63.590
  490.500    9.022    0.342    0.426   64.857
  490.750    8.887    0.339    0.420   65.577
  491.000    8.771    0.337    0.411   67.272
  491.250    8.705    0.339    0.402   69.700
  491.500    8.672    0.343    0.413   71.396
  491.750    8.639    0.349    0.427   70.833
  492.000    8.590    0.353    0.422   68.378
  492.250    8.621    0.348    0.414   65.251
  492.500    8.588    0.336    0.411   64.809
  492.750    8.571    0.332    0.429   66.994
  493.000    8.586    0.339    0.444   67.529
  493.250    8.586    0.342    0.448   66.112
  493.500    8.537    0.338    0.444   65.914
  493.750    8.441    0.336    0.435   66.695
  494.000    8.254    0.336    0.424   68.025
  494.250    8.041    0.334    0.416   70.330
  494.500    7.775    0.328    0.412   72.026
  494.750    7.774    0.324    0.416   72.623
  495.000    7.964    0.321    0.416   70.166
  495.250    8.188    0.322    0.411   68.566
  495.500    8.295    0.326    0.408   66.722
  495.750    8.294    0.329    0.412   64.571
  496.000    8.232    0.329    0.419   63.581
  496.250    8.464    0.310    0.420   65.276
  496.500    8.768    0.296    0.427   71.733
  496.750    9.134    0.301    0.426   77.824
  497.000    9.357    0.290    0.406   76.100
  497.250    9.603    0.265    0.383   67.603
  497.500    9.948    0.240    0.384   58.981
  497.750    9.655    0.253    0.416   61.042
  498.000    8.911    0.290    0.427   64.018
  498.250    8.681    0.310    0.423   65.594
  498.500    8.503    0.327    0.420   67.532
  498.750    8.471    0.325    0.423   69.289
  499.000    8.454    0.318    0.445   70.681
  499.250    8.549    0.316    0.447   72.311
  499.500    8.922    0.323    0.435   73.459
  499.750    9.416    0.330    0.422   74.365
  500.000    9.664    0.334    0.416   74.900
  500.250    9.735    0.336    0.411   74.214
  500.500    9.789    0.336    0.407   73.467
  500.750    9.843    0.342    0.412   72.050
  501.000    9.732    0.348    0.434   69.472
  501.250    9.641    0.340    0.427   66.710
  501.500    9.462    0.334    0.418   65.355
  501.750    9.081    0.330    0.426   64.732
  502.000    8.880    0.327    0.430   69.540
  502.250    8.570    0.322    0.423   74.350
  502.500    8.287    0.320    0.419   77.938
  502.750    7.924    0.322    0.417   78.900
  503.000    7.619    0.326    0.422   79.924
  503.250    7.258    0.327    0.433   81.191
  503.500    6.966    0.328    0.437   80.507
  503.750    6.748    0.332    0.431   79.393
  504.000    6.381    0.334    0.431   78.772
  504.250    6.022    0.328    0.445   79.121
  504.500    5.486    0.315    0.460   80.148
  504.750    5.101    0.304    0.476   84.223
  505.000    4.596    0.290    0.489   89.706
  505.250    4.148    0.289    0.485   95.980
  505.500    3.821    0.296    0.487   92.609
  505.750    3.716    0.304    0.491   89.359
  506.000    3.799    0.310    0.484   87.453
  506.250    3.771    0.300    0.477   89.698
  506.500    3.612    0.290    0.473   94.690
  506.750    3.365    0.277    0.475  100.048
  507.000    3.048    0.259    0.471  106.077
  507.250    2.909    0.247    0.471  110.583
  507.500    2.861    0.241    0.481  115.454
  507.750    2.823    0.247    0.487  115.745
  508.000    2.823    0.252    0.497  116.525
  508.250    3.035    0.259    0.497  117.427
  508.500    3.516    0.247    0.490  113.017
  508.750    4.157    0.244    0.514  109.279
  509.000    5.055    0.256    0.274   98.277
  509.250    6.285    0.244    0.247   85.261
  509.500    8.202    0.175    0.225   67.054
  509.750   10.217    0.076    0.207   55.258
  510.000   12.703    0.123    0.289   54.816
  510.250   16.363    0.303    0.379   58.160
  510.500   20.082    0.330    0.409   60.772
  510.750   23.349    0.341    0.421   61.430
  511.000   24.369    0.344    0.419   62.637
  511.250   25.197    0.346    0.414   64.394
  511.500   26.053    0.347    0.412   65.236
  511.750   28.013    0.300    0.426   64.612
  512.000   30.346    0.242    0.445   63.742
  512.250   34.888    0.085    0.390   60.126
  512.500   35.609    0.038    0.304   54.986
  512.750   37.583    0.018    0.154   50.392
  513.000   39.296    0.000    0.136   46.594
  513.250   38.068    0.010    0.233   50.609
  513.500   29.110    0.292    0.323   55.356
  513.750   19.685    0.322    0.367   60.777
  514.000   12.542    0.337    0.415   66.317
  514.250    9.257    0.328    0.462   70.884
  514.500    6.534    0.313    0.485   75.266
  514.750    4.814    0.297    0.501   80.808
  515.000    3.966    0.284    0.489   87.571
  515.250    3.885    0.271    0.446   90.915
