~VERSION INFORMATION
 VERS.                 2.0:   CWLS LOG ASCII STANDARD -VERSION 2.0
 WRAP.                  NO:   ONE LINE PER DEPTH STEP
~WELL INFORMATION BLOCK
#MNEM.UNIT           DATA                    DESCRIPTION OF MNEMONIC
#---------    -------------------            -------------------------------
# Generated from Intellog Unique Number	CS_67_68/WELL/2185
WELL.         CHIEFCO et al TWEEDIE          : Well_name    - WELL
LOC .         00/08-22-067-12W4/2            : Location     - LOCATION
UWI .         00/08-22-067-12W4/2            : Uwi          - UNIQUE WELL ID
ENTR.         SP                             : Entered      - ENTERED BY
SRVC.         SCHLUMBERGER                   : Scn          - SERVICE COMPANY
STRT.M        285                            : top_depth    - START DEPTH
STOP.M        455                            : bot_depth    - STOP DEPTH
STEP.M        0.25                           : increment    - STEP LENGTH
 NULL. -999.2500:NULL Value
~CURVE INFORMATION BLOCK
#MNEM UNIT       ERCB CURVE CODE    CURVE DESCRIPTION
#-----------   ------------------   ----------------------------------
DEPT.M        00 001 00 00         : DEPTH        - DEPTH
ILD .OHMM     00 120 00 00         : RESD         - DEEP RESISTIVITY (DIL)
DPHI.V/V      00 890 00 00         : PHID         - DENSITY POROSITY (LIMESTONE)
NPHI.V/V      00 330 00 00         : PHIN         - NEUTRON POROSITY (LIMESTONE)
GR  .API      00 310 00 00         : GR           - GAMMA RAY
CALI.MM       00 280 01 00         : CAL          - CALIPER
~PARAMETER INFORMATION
#MNEM.UNIT           DATA             DESCRIPTION OF MNEMONIC
#---------         -----------     ------------------------------
GL  .M        668.6                : gl           - GROUND LEVEL ELEVATION
EREF.M        671.6                : kb           - ELEVATION OF DEPTH REFERENCE
DATM.M        671.6                : datum        - DATUM ELEVATION
TDD .M        456.4                : tdd          - TOTAL DEPTH DRILLER
RUN .         ONE                  : Run          - RUN NUMBER
ENG .         BILL                 : Engineer     - RECORDING ENGINEER
WIT .         JIM                  : Witness      - WITNESSED BY
MUD .         GEL                  : Mud_type     - MUD TYPE
MATR.         LIMESTONE            : Logunit      - NEUTRON MATRIX
TMAX.C        11.7                 : BHT          - MAXIMUM RECORDED TEMPERATURE
BHTD.M        455.5                : BHTDEP       - MAXIMUM RECORDED TEMPERATURE
MATR.         1                    : LOGUNIT      - NEUTRON MATRIX
RMT .C        25                   : MDTP         - TEMPERATURE OF MUD
NEUT.         1                    : NEUTRON      - NEUTRON TYPE
RESI.         0                    : RESIST       - RESISTIVITY TYPE
RMC .OHMM     0.25                 : RMC          - RESISTIVITY OF MUD CAKE
RMF .OHMM     0.25                 : RMF          - RESISTIVITY OF MUD FILTRATE
SUFT.C        15                   : SUFT         - SURFACE TEMPERATURE
~A  DEPTH     RESD     PHID     PHIN       GR      CAL
# ...
  321.500    3.304    0.198    0.461  140.115  164.386
  321.750    3.161    0.202    0.445  145.020  165.288
  322.000    3.079    0.216    0.463  150.470  164.978
  322.250    3.011    0.230    0.482  154.163  164.163
  322.500    2.977    0.243    0.496  156.098  163.853
  322.750    2.933    0.236    0.487  150.579  163.745
  323.000    2.906    0.243    0.498  137.727  161.920
  323.250    2.820    0.245    0.500  119.480  160.297
  323.500    2.683    0.259    0.486  103.112  158.977
  323.750    2.509    0.262    0.471   90.321  158.667
  324.000    2.267    0.244    0.473   82.498  159.468
  324.250    2.081    0.261    0.491   74.312  160.875
  324.500    1.983    0.272    0.478   67.096  161.373
  324.750    1.950    0.293    0.456   61.637  161.669
  325.000    1.932    0.310    0.439   58.300  161.056
  325.250    1.960    0.322    0.425   57.993  160.342
  325.500    2.023    0.334    0.437   59.079  159.426
  325.750    2.145    0.345    0.445   60.348  158.914
  326.000    2.263    0.337    0.451   63.010  158.907
  326.250    2.370    0.327    0.454   65.976  158.698
  326.500    2.518    0.313    0.461   69.850  158.792
  326.750    2.657    0.309    0.468   72.634  158.886
  327.000    2.802    0.292    0.472   75.417  158.878
  327.250    2.934    0.276    0.486   77.474  158.670
  327.500    3.072    0.264    0.489   78.986  157.753
  327.750    3.083    0.255    0.484   81.344  156.636
  328.000    3.106    0.253    0.482   82.431  155.417
  328.250    3.140    0.266    0.489   81.760  154.501
  328.500    3.174    0.262    0.494   81.938  154.090
  328.750    3.227    0.254    0.484   82.055  154.992
  329.000    3.287    0.260    0.482   80.657  156.601
  329.250    3.378    0.210    0.399   76.956  158.311
  329.500    3.492    0.126    0.328   72.709  160.122
  329.750    3.623    0.103    0.312   68.948  161.025
  330.000    3.752    0.135    0.385   77.610  161.624
  330.250    3.907    0.173    0.439   85.242  156.364
  330.500    4.031    0.197    0.469   88.996  151.003
  330.750    4.143    0.222    0.484   86.930  150.391
  331.000    4.220    0.208    0.470   86.078  153.717
  331.250    4.134    0.216    0.457   86.135  157.043
  331.500    3.734    0.209    0.449   85.646  160.975
  331.750    3.280    0.206    0.447   84.308  163.797
  332.000    3.046    0.224    0.461   82.607  165.205
  332.250    2.984    0.250    0.482   81.087  164.086
  332.500    2.934    0.269    0.497   80.295  161.958
  332.750    2.928    0.280    0.492   79.988  158.921
  333.000    2.982    0.269    0.479   80.651  156.187
  333.250    3.083    0.233    0.465   84.707  156.886
  333.500    3.234    0.205    0.472   88.582  160.112
  333.750    3.386    0.215    0.488   91.184  162.429
  334.000    3.481    0.240    0.479   94.209  160.603
  334.250    3.429    0.243    0.472   97.660  158.071
  334.500    3.279    0.228    0.478   97.656  155.943
  334.750    3.125    0.214    0.500   94.257  156.340
  335.000    3.028    0.221    0.519   89.648  158.959
  335.250    2.972    0.241    0.534   82.129  161.477
  335.500    2.938    0.260    0.496   76.427  160.865
  335.750    2.938    0.279    0.454   71.756  158.332
  336.000    2.937    0.290    0.433   73.206  154.991
  336.250    2.937    0.269    0.424   78.050  152.357
  336.500    2.931    0.255    0.430   79.441  151.039
  336.750    2.930    0.245    0.441   79.073  151.335
  337.000    2.957    0.267    0.444   78.523  152.439
  337.250    2.978    0.257    0.446   79.065  153.846
  337.500    2.983    0.265    0.443   80.939  154.949
  337.750    2.977    0.268    0.445   80.693  155.348
  338.000    2.977    0.255    0.450   78.870  154.936
  338.250    2.998    0.247    0.453   77.654  153.616
  338.500    3.065    0.265    0.439   78.013  152.701
  338.750    3.198    0.276    0.431   78.918  152.188
  339.000    3.361    0.261    0.438   78.308  152.282
  339.250    3.578    0.261    0.431   79.637  152.376
  339.500    3.712    0.251    0.425   82.239  153.681
  339.750    3.823    0.249    0.421   83.326  155.493
  340.000    3.879    0.236    0.420   81.322  157.002
  340.250    3.936    0.230    0.431   83.257  158.813
  340.500    4.001    0.239    0.448   86.647  160.119
  340.750    4.098    0.244    0.451   89.308  160.921
  341.000    4.166    0.218    0.457   91.123  160.711
  341.250    4.219    0.193    0.468   92.027  157.068
  341.500    4.219    0.203    0.468   91.903  155.849
  341.750    4.050    0.219    0.461   96.868  158.468
  342.000    3.866    0.219    0.467  101.894  162.098
  342.250    3.670    0.211    0.474   94.920  166.030
  342.500    3.543    0.217    0.483   87.886  166.831
  342.750    3.345    0.230    0.494   86.063  163.490
  343.000    3.229    0.244    0.481   86.726  157.928
  343.250    3.111    0.242    0.482   82.782  154.588
  343.500    3.009    0.261    0.497   78.899  157.309
  343.750    2.905    0.276    0.480   78.774  157.302
  344.000    2.742    0.266    0.465   78.891  154.769
  344.250    2.584    0.265    0.455   78.220  152.539
  344.500    2.481    0.271    0.455   75.974  153.038
  344.750    2.413    0.283    0.454   72.697  155.961
  345.000    2.395    0.291    0.449   74.269  158.074
  345.250    2.448    0.283    0.454   73.234  159.684
  345.500    2.577    0.275    0.447   68.200  160.889
  345.750    2.739    0.272    0.454   68.801  160.478
  346.000    2.938    0.281    0.434   74.312  157.238
  346.250    3.174    0.274    0.420   77.763  155.818
  346.500    3.299    0.252    0.417   80.788  158.336
  346.750    3.493    0.233    0.415   82.117  160.248
  347.000    3.604    0.218    0.413   82.114  161.857
  347.250    3.651    0.211    0.410   78.897  162.962
  347.500    3.610    0.226    0.416   75.620  162.752
  347.750    3.427    0.238    0.437   75.070  160.523
  348.000    3.200    0.255    0.447   75.854  158.496
  348.250    3.038    0.267    0.426   75.305  157.176
  348.500    2.847    0.264    0.408   71.543  156.865
  348.750    2.698    0.266    0.433   66.994  157.162
  349.000    2.595    0.276    0.433   64.990  158.771
  349.250    2.566    0.287    0.426   65.531  160.178
  349.500    2.575    0.279    0.438   65.830  159.868
  349.750    2.642    0.272    0.445   67.522  158.750
  350.000    2.787    0.274    0.447   72.488  157.127
  350.250    2.945    0.261    0.436   77.211  156.413
  350.500    3.061    0.251    0.422   80.540  156.406
  350.750    3.158    0.241    0.410   84.536  157.309
  351.000    3.246    0.238    0.402   87.865  158.513
  351.250    3.282    0.222    0.426   91.073  160.324
  351.500    3.251    0.210    0.445   92.160  162.136
  351.750    3.215    0.214    0.457   87.186  164.553
  352.000    3.190    0.228    0.444   78.575  161.112
  352.250    3.208    0.240    0.424   77.299  157.166
  352.500    3.255    0.253    0.410   77.051  157.360
  352.750    3.340    0.240    0.401   77.412  158.161
  353.000    3.465    0.233    0.400   79.589  159.165
  353.250    3.621    0.222    0.408   83.706  158.855
  353.500    3.654    0.204    0.418   87.580  158.646
  353.750    3.749    0.197    0.419   84.789  158.033
  354.000    3.749    0.212    0.416   81.208  158.329
  354.250    3.598    0.217    0.422   79.931  160.039
  354.500    3.429    0.235    0.437   79.382  161.749
  354.750    3.131    0.251    0.451   82.286  157.702
  355.000    2.870    0.261    0.469   86.949  156.079
  355.250    2.569    0.242    0.489   90.763  158.597
  355.500    2.398    0.206    0.513   94.274  162.730
  355.750    2.252    0.220    0.541   96.210  166.763
  356.000    2.122    0.232    0.567   95.600  168.879
  356.250    2.087    0.219    0.594   96.262  172.204
  356.500    2.059    0.248    0.572   95.409  170.279
  356.750    2.071    0.273    0.520   90.981  162.696
  357.000    2.097    0.295    0.489   83.582  159.154
  357.250    2.168    0.314    0.456   78.670  157.834
  357.500    2.270    0.301    0.451   75.574  157.120
  357.750    2.390    0.147    0.467   73.086  155.093
