~VERSION INFORMATION
 VERS.                 2.0:   CWLS LOG ASCII STANDARD -VERSION 2.0
 WRAP.                  NO:   ONE LINE PER DEPTH STEP
~WELL INFORMATION BLOCK
#MNEM.UNIT           DATA                    DESCRIPTION OF MNEMONIC
#---------    -------------------            -------------------------------
# Generated from Intellog Unique Number	CS_67_68/WELL/776
WELL.         FISHER CREEK                   : Well_name    - WELL
LOC .         00/07-27-068-06W4/0            : Location     - LOCATION
UWI .         00/07-27-068-06W4/0            : Uwi          - UNIQUE WELL ID
ENTR.         SP                             : Entered      - ENTERED BY
SRVC.         SCHLUMBERGER                   : Scn          - SERVICE COMPANY
STRT.M        360                            : top_depth    - START DEPTH
STOP.M        580                            : bot_depth    - STOP DEPTH
STEP.M        0.25                           : increment    - STEP LENGTH
 NULL. -999.2500:NULL Value
~CURVE INFORMATION BLOCK
#MNEM UNIT       ERCB CURVE CODE    CURVE DESCRIPTION
#-----------   ------------------   ----------------------------------
DEPT.M        00 001 00 00         : DEPTH        - DEPTH
ILD .OHMM     00 120 00 00         : RESD         - DEEP RESISTIVITY (DIL)
DPHI.V/V      00 890 00 00         : PHID         - DENSITY POROSITY (LIMESTONE)
NPHI.V/V      00 330 00 00         : PHIN         - NEUTRON POROSITY (LIMESTONE)
GR  .API      00 310 00 00         : GR           - GAMMA RAY
~PARAMETER INFORMATION
#MNEM.UNIT           DATA             DESCRIPTION OF MNEMONIC
#---------         -----------     ------------------------------
GL  .M        704.1                : gl           - GROUND LEVEL ELEVATION
EREF.M        707.7                : kb           - ELEVATION OF DEPTH REFERENCE
DATM.M        704.1                : datum        - DATUM ELEVATION
TDD .M        582                  : tdd          - TOTAL DEPTH DRILLER
RUN .         ONE                  : Run          - RUN NUMBER
ENG .         BILL                 : Engineer     - RECORDING ENGINEER
WIT .         JIM                  : Witness      - WITNESSED BY
MUD .         GEL                  : Mud_type     - MUD TYPE
MATR.         LIMESTONE            : Logunit      - NEUTRON MATRIX
TMAX.C        18                   : BHT          - MAXIMUM RECORDED TEMPERATURE
BHTD.M        582                  : BHTDEP       - MAXIMUM RECORDED TEMPERATURE
MATR.         1                    : LOGUNIT      - NEUTRON MATRIX
RMT .C        25                   : MDTP         - TEMPERATURE OF MUD
NEUT.         1                    : NEUTRON      - NEUTRON TYPE
RESI.         0                    : RESIST       - RESISTIVITY TYPE
RMC .OHMM     0.25                 : RMC          - RESISTIVITY OF MUD CAKE
RMF .OHMM     0.25                 : RMF          - RESISTIVITY OF MUD FILTRATE
SUFT.C        15                   : SUFT         - SURFACE TEMPERATURE
~A  DEPTH     RESD     PHID     PHIN       GR
# ...
  490.500    4.619    0.277    0.498   82.754
  490.750    4.561    0.288    0.519   82.214
  491.000    4.556    0.299    0.534   82.597
  491.250    4.619    0.316    0.522   82.115
  491.500    4.701    0.335    0.527   79.482
  491.750    4.857    0.359    0.543   77.712
  492.000    5.066    0.277    0.484   79.077
  492.250    5.204    0.246    0.456   80.199
  492.500    5.336    0.228    0.444   80.644
  492.750    5.290    0.224    0.451   80.041
  493.000    5.214    0.233    0.460   79.068
  493.250    5.219    0.249    0.460   78.649
  493.500    5.233    0.257    0.467   78.785
  493.750    5.254    0.252    0.479   78.983
  494.000    5.348    0.250    0.474   79.429
  494.250    5.494    0.265    0.490   79.624
  494.500    5.719    0.294    0.503   79.575
  494.750    6.158    0.297    0.484   78.296
  495.000    6.494    0.293    0.466   75.110
  495.250    6.864    0.317    0.453   72.291
  495.500    7.090    0.306    0.462   70.951
  495.750    7.353    0.294    0.477   72.932
  496.000    7.770    0.286    0.489   69.440
  496.250    8.179    0.299    0.497   68.528
  496.500    8.660    0.300    0.503   72.479
  496.750    9.150    0.304    0.495   74.522
  497.000    9.834    0.324    0.490   65.922
  497.250   11.035    0.321    0.508   59.660
  497.500   12.930    0.195    0.481   56.778
  497.750   14.896    0.177    0.415   56.915
  498.000   17.987    0.278    0.399   59.204
  498.250   20.722    0.299    0.433   60.878
  498.500   22.354    0.320    0.452   63.537
  498.750   21.746    0.322    0.442   65.826
  499.000   19.848    0.299    0.449   64.055
  499.250   17.779    0.244    0.443   64.253
  499.500   16.105    0.236    0.436   68.082
  499.750   13.583    0.278    0.440   70.924
  500.000   10.198    0.295    0.445   73.460
  500.250    8.536    0.305    0.449   76.181
  500.500    7.747    0.291    0.457   78.406
  500.750    7.111    0.299    0.474   81.497
  501.000    6.651    0.315    0.478   84.403
  501.250    6.326    0.341    0.456   85.706
  501.500    6.063    0.330    0.439   84.488
  501.750    5.789    0.354    0.438   79.272
  502.000    5.589    0.452    0.447   75.715
  502.250    5.326    0.388    0.454   73.143
  502.500    4.981    0.345    0.458   72.110
  502.750    4.289    0.325    0.464   71.631
  503.000    3.344    0.317    0.478   70.783
  503.250    2.646    0.323    0.515   69.137
  503.500    2.169    0.344    0.543   68.163
  503.750    1.871    0.346    0.607   68.237
  504.000    1.777    0.338    0.616   68.929
  504.250    1.726    0.348    0.595   69.494
  504.500    1.720    0.357    0.566   70.553
  504.750    1.777    0.354    0.544   71.675
  505.000    1.839    0.347    0.571   72.238
  505.250    1.933    0.348    0.592   72.436
  505.500    2.008    0.362    0.587   73.249
  505.750    2.110    0.353    0.571   76.830
  506.000    2.230    0.344    0.575   76.229
  506.250    2.317    0.351    0.578   78.148
  506.500    2.398    0.361    0.560   81.792
  506.750    2.473    0.303    0.533   84.697
  507.000    2.521    0.276    0.540   86.556
  507.250    2.576    0.312    0.543   87.551
  507.500    2.597    0.333    0.537   88.242
  507.750    2.628    0.311    0.544   88.377
  508.000    2.645    0.293    0.551   88.515
  508.250    2.656    0.287    0.545   88.158
  508.500    2.683    0.291    0.533   87.064
  508.750    2.701    0.293    0.525   84.555
  509.000    2.733    0.296    0.534   81.737
  509.250    2.786    0.291    0.530   79.534
  509.500    2.858    0.275    0.537   78.933
  509.750    2.930    0.261    0.540   79.437
  510.000    3.027    0.257    0.532   81.973
  510.250    3.133    0.265    0.520   85.062
  510.500    3.243    0.250    0.500   84.519
  510.750    3.433    0.237    0.466   80.842
  511.000    3.662    0.232    0.479   79.868
  511.250    3.928    0.251    0.487   82.527
  511.500    4.222    0.275    0.465   83.464
  511.750    4.487    0.292    0.436   82.676
  512.000    4.706    0.253    0.452   82.321
  512.250    4.834    0.239    0.473   83.009
  512.500    4.819    0.225    0.484   85.914
  512.750    4.777    0.272    0.472   88.635
  513.000    4.719    0.230    0.456   89.447
  513.250    4.633    0.243    0.446   86.568
  513.500    4.432    0.254    0.444   85.227
  513.750    4.145    0.240    0.450   85.794
  514.000    3.848    0.227    0.478   87.223
  514.250    3.605    0.222    0.506   86.682
  514.500    3.429    0.226    0.522   87.186
  514.750    3.330    0.231    0.503   88.552
  515.000    4.014    0.248    0.510   79.828
  515.250    4.855    0.239    0.530   71.719
  515.500    6.525   -0.004    0.536   60.534
  515.750    8.367    0.059    0.298   54.393
  516.000    9.747    0.120    0.265   57.544
  516.250   11.273    0.166    0.411   58.851
  516.500   12.793    0.207    0.435   58.617
  516.750   13.930    0.237    0.446   57.829
  517.000   15.170    0.279    0.434   59.873
  517.250   16.150    0.296    0.425   62.347
  517.500   17.260    0.300    0.423   65.435
  517.750   17.565    0.302    0.424   69.017
  518.000   15.735    0.303    0.415   73.402
  518.250   14.825    0.310    0.408   75.627
  518.500   13.634    0.317    0.421   75.454
  518.750   12.705    0.322    0.432   72.269
  519.000   12.266    0.327    0.426   70.437
  519.250   11.888    0.332    0.419   69.095
  519.500   11.329    0.322    0.420   76.921
  519.750   10.796    0.305    0.411   82.720
  520.000   10.059    0.298    0.400   87.653
  520.250    9.045    0.292    0.414   92.403
  520.500    8.442    0.283    0.423   95.800
  520.750    7.971    0.273    0.423   96.307
  521.000    7.871    0.264    0.414   94.042
  521.250    7.907    0.256    0.411   91.347
  521.500    8.230    0.271    0.417   93.761
  521.750    8.503    0.287    0.418   97.403
  522.000    8.557    0.232    0.414  100.308
  522.250    7.928    0.209    0.409  101.982
  522.500    7.888    0.222    0.424   87.535
  522.750    8.622    0.242    0.444   76.351
  523.000    9.694    0.259    0.468   67.687
  523.250   11.684    0.267    0.470   56.317
  523.500   15.151    0.299    0.401   45.808
  523.750   21.300    0.299    0.373   37.270
  524.000   26.703    0.303    0.366   33.220
  524.250   30.304    0.313    0.359   30.279
  524.500   38.420    0.321    0.351   39.215
  524.750   37.450    0.315    0.358   46.856
  525.000   31.588    0.299    0.370   53.330
  525.250   27.046    0.284    0.375   59.865
  525.500   22.685    0.273    0.353   66.277
  525.750   19.864    0.283    0.363   52.815
  526.000   17.692    0.309    0.372   43.536
  526.250   18.837    0.323    0.371   50.872
  526.500   20.784    0.336    0.372   54.207
  526.750   23.106    0.078    0.380   55.082
  527.000   25.065    0.026    0.353   56.694
  527.250   24.707   -0.012    0.288   65.198
  527.500   17.698    0.144    0.264   75.363
  527.750   13.977    0.200    0.309   88.112
  528.000   10.473    0.249    0.379   79.143
  528.250   10.152    0.279    0.413   73.679
  528.500   23.967    0.309    0.410   75.232
  528.750   32.209    0.323    0.403   78.443
  529.000   37.038    0.321    0.395   76.180
  529.250   39.953    0.317    0.396   74.100
  529.500   40.511    0.320    0.400   75.159
  529.750   31.106    0.330    0.409   76.586
  530.000   23.705    0.340    0.414   74.999
  530.250   17.830    0.339    0.411   74.581
  530.500   14.268    0.329    0.416   77.610
  530.750   11.354    0.314    0.424   81.745
  531.000    9.630    0.300    0.420   84.098
  531.250    8.466    0.295    0.418   85.709
  531.500    7.858    0.291    0.416   88.800
  531.750    7.688    0.282    0.410   91.579
  532.000    7.665    0.263    0.402   94.361
  532.250    7.728    0.253    0.395   84.345
  532.500    8.059    0.245    0.411   74.083
  532.750    8.500    0.240    0.392   64.927
  533.000    8.914    0.236    0.360   61.617
  533.250    9.194    0.231    0.341   68.706
  533.500    9.062    0.220    0.344   75.241
  533.750    8.702    0.207    0.352   80.793
