~VERSION INFORMATION
 VERS.                 2.0:   CWLS LOG ASCII STANDARD -VERSION 2.0
 WRAP.                  NO:   ONE LINE PER DEPTH STEP
~WELL INFORMATION BLOCK
#MNEM.UNIT           DATA                    DESCRIPTION OF MNEMONIC
#---------    -------------------            -------------------------------
# Generated from Intellog Unique Number	CS_73_76/WELL/957
WELL.         DOME PETROLEUM LIMITED         : Well_name    - WELL
LOC .         00/03-14-075-16W4/0            : Location     - LOCATION
UWI .         00/03-14-075-16W4/0            : Uwi          - UNIQUE WELL ID
ENTR.         SP                             : Entered      - ENTERED BY
SRVC.         SCHLUMBERGER                   : Scn          - SERVICE COMPANY
STRT.M        350                            : top_depth    - START DEPTH
STOP.M        555                            : bot_depth    - STOP DEPTH
STEP.M        0.25                           : increment    - STEP LENGTH
 NULL. -999.2500:NULL Value
~CURVE INFORMATION BLOCK
#MNEM UNIT       ERCB CURVE CODE    CURVE DESCRIPTION
#-----------   ------------------   ----------------------------------
DEPT.M        00 001 00 00         : DEPTH        - DEPTH
GR  .API      00 310 00 00         : GR           - GAMMA RAY
NPHI.V/V      00 330 00 00         : PHIN         - NEUTRON POROSITY (LIMESTONE)
DPHI.V/V      00 890 00 00         : PHID         - DENSITY POROSITY (LIMESTONE)
ILD .OHMM     00 120 00 00         : RESD         - DEEP RESISTIVITY (DIL)
~PARAMETER INFORMATION
#MNEM.UNIT           DATA             DESCRIPTION OF MNEMONIC
#---------         -----------     ------------------------------
GL  .M        715.4                : gl           - GROUND LEVEL ELEVATION
EREF.M        719.4                : kb           - ELEVATION OF DEPTH REFERENCE
DATM.M        715.4                : datum        - DATUM ELEVATION
TDD .M        555                  : tdd          - TOTAL DEPTH DRILLER
RUN .         ONE                  : Run          - RUN NUMBER
ENG .         BILL                 : Engineer     - RECORDING ENGINEER
WIT .         JIM                  : Witness      - WITNESSED BY
MUD .         GEL                  : Mud_type     - MUD TYPE
MATR.         LIMESTONE            : Logunit      - NEUTRON MATRIX
TMAX.C        24                   : BHT          - MAXIMUM RECORDED TEMPERATURE
BHTD.M        555                  : BHTDEP       - MAXIMUM RECORDED TEMPERATURE
MATR.         1                    : LOGUNIT      - NEUTRON MATRIX
RMT .C        25                   : MDTP         - TEMPERATURE OF MUD
NEUT.         1                    : NEUTRON      - NEUTRON TYPE
RESI.         0                    : RESIST       - RESISTIVITY TYPE
RMC .OHMM     0.25                 : RMC          - RESISTIVITY OF MUD CAKE
RMF .OHMM     0.25                 : RMF          - RESISTIVITY OF MUD FILTRATE
SUFT.C        15                   : SUFT         - SURFACE TEMPERATURE
~A  DEPTH       GR     PHIN     PHID     RESD
# ...
  524.000  101.839    0.552    0.235    1.775
  524.250  101.234    0.546    0.245    1.808
  524.500  102.450    0.541    0.245    1.876
  524.750  101.844    0.552    0.239    1.911
  525.000  100.024    0.530    0.229    2.095
  525.250   96.989    0.490    0.191    2.297
  525.500   95.168    0.419    0.175    2.613
  525.750   98.206    0.417    0.207    3.084
  526.000   98.815    0.423    0.208    3.992
  526.250   99.424    0.406    0.183    4.541
  526.500   95.781    0.373    0.111    4.799
  526.750   93.354    0.353    0.131    5.166
  527.000   92.141    0.359    0.158    5.560
  527.250   93.964    0.375    0.175    5.986
  527.500   97.609    0.394    0.173    6.210
  527.750  101.254    0.405    0.184    6.325
  528.000  102.470    0.425    0.149    6.325
  528.250   98.221    0.447    0.154    6.325
  528.500   92.757    0.458    0.123    6.325
  528.750   85.471    0.364    0.067    6.442
  529.000   78.792    0.301    0.028    6.808
  529.250   93.369    0.326    0.104    6.935
  529.500  103.086    0.369    0.152    7.063
  529.750  109.769    0.401    0.173    7.063
  530.000  111.592    0.419    0.155    6.934
  530.250  111.593    0.429    0.156    6.934
  530.500  111.594    0.430    0.150    6.934
  530.750  106.738    0.420    0.137    7.194
  531.000  100.666    0.408    0.119    7.744
  531.250   84.271    0.375    0.059    8.034
  531.500   86.095    0.350    0.102    8.336
  531.750   88.526    0.361    0.121    8.648
  532.000   89.134    0.378    0.161    8.973
  532.250   90.350    0.391    0.110    8.972
  532.500   90.959    0.383    0.099    8.808
  532.750   92.782    0.372    0.109    8.490
  533.000   98.250    0.378    0.135    7.886
  533.250  100.680    0.389    0.151    7.601
  533.500  103.110    0.399    0.179    6.805
  533.750  105.541    0.406    0.184    6.559
  534.000  105.542    0.408    0.198    6.206
  534.250  101.293    0.419    0.185    6.093
  534.500   99.472    0.419    0.160    5.872
  534.750   99.474    0.403    0.155    5.765
  535.000  107.978    0.424    0.192    5.660
  535.250  112.230    0.431    0.214    5.258
  535.500  112.839    0.441    0.175    5.162
  535.750  110.411    0.447    0.178    4.884
  536.000  107.376    0.438    0.176    4.795
  536.250  107.377    0.441    0.154    4.795
  536.500  106.772    0.444    0.144    4.974
  536.750  104.951    0.435    0.157    5.659
  537.000  106.775    0.414    0.131    6.091
  537.250  105.561    0.401    0.119    7.190
  537.500   94.632    0.377    0.082    7.739
  537.750   87.346    0.348    0.119    8.486
  538.000   85.526    0.331    0.149    9.134
  538.250   97.065    0.348    0.170    9.304
  538.500  105.569    0.373    0.191    9.832
  538.750  109.215    0.383    0.197   10.201
  539.000  108.609    0.376    0.196   10.201
  539.250  108.610    0.368    0.184   10.390
  539.500  106.790    0.360    0.186   10.200
  539.750  105.576    0.351    0.172   10.014
  540.000  114.687    0.367    0.163    9.133
  540.250  117.725    0.390    0.164    8.642
  540.500  114.083    0.402    0.169    8.484
  540.750   99.510    0.408    0.184    8.802
  541.000   87.972    0.391    0.207   10.013
  541.250   73.399    0.294    0.204   11.603
  541.500   61.255    0.228    0.211   17.723
  541.750   54.576    0.228    0.237   24.240
  542.000   57.007    0.275    0.285   29.684
  542.250   58.223    0.285    0.287   33.153
  542.500   59.439    0.283    0.287   33.768
  542.750   63.084    0.302    0.283   30.796
  543.000   69.158    0.320    0.261   28.085
  543.250   72.196    0.337    0.252   27.573
  543.500   70.376    0.359    0.242   26.090
  543.750   66.127    0.374    0.236   24.236
  544.000   63.092    0.385    0.234   23.359
  544.250   63.093    0.377    0.220   20.914
  544.500   71.596    0.347    0.203   18.725
  544.750   82.529    0.342    0.214   15.575
  545.000   92.247    0.360    0.196   13.440
  545.250   98.322    0.377    0.203   12.034
  545.500  100.752    0.384    0.204   10.578
  545.750  102.576    0.374    0.185    9.826
  546.000  105.613    0.385    0.191    9.826
  546.250  103.793    0.413    0.222    9.826
  546.500   98.329    0.427    0.226   10.008
  546.750   94.687    0.392    0.211   10.194
  547.000   96.510    0.383    0.196   10.194
  547.250  100.156    0.398    0.210   10.383
  547.500  100.764    0.368    0.221   10.383
  547.750  100.158    0.350    0.182   10.576
  548.000   98.338    0.366    0.170   10.772
  548.250   97.732    0.373    0.159   10.772
  548.500   98.948    0.351    0.170   10.972
  548.750  100.772    0.356    0.167   11.595
  549.000  101.988    0.374    0.162   12.030
  549.250   82.556    0.383    0.176   12.481
  549.500   66.767    0.379    0.203   12.949
  549.750   60.089    0.373    0.194   13.435
  550.000   60.091    0.382    0.184   14.197
  550.250   60.092    0.385    0.188   14.461
  550.500   60.701    0.366    0.196   14.730
  550.750   61.917    0.355    0.180   14.729
  551.000   63.740    0.362    0.174   15.003
  551.250   63.742    0.367    0.192   15.566
  551.500   60.100    0.359    0.208   16.149
  551.750   58.279    0.356    0.210   17.384
  552.000   57.066    0.401    0.182   18.036
  552.250   57.067    0.433    0.178   18.371
  552.500   57.069    0.460    0.206   19.060
  552.750   57.070    0.490    0.232   19.414
  553.000   57.680    0.493    0.246   20.516
  553.250   58.288    0.494    0.252   21.285
  553.500   58.289    0.494    0.252   21.681
  553.750   58.291    0.495    0.254   22.494
  554.000   58.900    0.495    0.264   22.912
  554.250   58.901    0.497    0.246   22.911
  554.500   59.510    0.499    0.238   22.911
  554.750   59.511    0.505    0.235   22.081
  555.000   60.120    0.514    0.226   21.678
