~VERSION INFORMATION
 VERS.                 2.0:   CWLS LOG ASCII STANDARD -VERSION 2.0
 WRAP.                  NO:   ONE LINE PER DEPTH STEP
~WELL INFORMATION BLOCK
#MNEM.UNIT           DATA                    DESCRIPTION OF MNEMONIC
#---------    -------------------            -------------------------------
# Generated from Intellog Unique Number	nealta/WELL/2348
WELL.         CDN-SUP MARTEN 07-01           : Well_name    - WELL
LOC .         07-01-077-03W5                 : Location     - LOCATION
UWI .         00/07-01-077-03W5/0            : Uwi          - UNIQUE WELL ID
ENTR.         JAYE                           : Entered      - ENTERED BY
SRVC.         SCHLUMBERGER                   : Scn          - SERVICE COMPANY
DATE.         10 JAN 78                      : Date         - LOG DATE
STRT.M        480.06                         : top_depth    - START DEPTH
STOP.M        707.06                         : bot_depth    - STOP DEPTH
STEP.M        0.25                           : increment    - STEP LENGTH
 NULL. -999.2500:NULL Value
~CURVE INFORMATION BLOCK
#MNEM UNIT       ERCB CURVE CODE    CURVE DESCRIPTION
#-----------   ------------------   ----------------------------------
DEPT.M        00 001 00 00         : DEPTH        - DEPTH
NPHI.V/V      00 330 00 00         : PHIN         - NEUTRON POROSITY (SANDSTONE)
DPHI.V/V      00 890 00 00         : PHID         - DENSITY POROSITY (SANDSTONE)
ILD .OHMM     00 120 00 00         : RESD         - DEEP RESISTIVITY (DIL)
GR  .API      00 310 00 00         : GR           - GAMMA RAY
CALI.MM       00 280 01 00         : CAL          - CALIPER
~PARAMETER INFORMATION
#MNEM.UNIT           DATA             DESCRIPTION OF MNEMONIC
#---------         -----------     ------------------------------
GL  .M        769.925              : gl           - GROUND LEVEL ELEVATION
EREF.M        774.192              : kb           - ELEVATION OF DEPTH REFERENCE
DATM.M        769.925              : datum        - DATUM ELEVATION
TDD .M        736.092              : tdd          - TOTAL DEPTH DRILLER
RUN .         ONE                  : Run          - RUN NUMBER
ENG .         ACKERMAN/VAN STEENBE : Engineer     - RECORDING ENGINEER
WIT .         CRAIMAIN/SMAILES     : Witness      - WITNESSED BY
BASE.         EDMONTON             : Branch       - HOME BASE OF LOGGING UNIT
MUD .         GEL                  : Mud_type     - MUD TYPE
MATR.         SANDSTONE            : Logunit      - NEUTRON MATRIX
TMAX.C        27.7778              : BHT          - MAXIMUM RECORDED TEMPERATURE
BHTD.M        736.092              : BHTDEP       - MAXIMUM RECORDED TEMPERATURE
RMT .C        10                   : MDTP         - TEMPERATURE OF MUD
MUDD.KG/M     1140                 : MWT          - MUD DENSITY
NEUT.         1                    : NEUTRON      - NEUTRON TYPE
RESI.         0                    : RESIST       - RESISTIVITY TYPE
RM  .OHMM     2.95                 : RM           - RESISTIVITY OF MUD
RMC .OHMM     0                    : RMC          - RESISTIVITY OF MUD CAKE
RMF .OHMM     3.82                 : RMF          - RESISTIVITY OF MUD FILTRATE
SUFT.C        4.5                  : SUFT         - SURFACE TEMPERATURE
~A  DEPTH     PHIN     PHID     RESD       GR      CAL
# ...
  662.560    0.361    0.046   29.490   76.292  188.132
  662.810    0.325    0.014   31.475   69.467  189.365
  663.060    0.259    0.035   31.645   64.326  190.597
  663.310    0.254    0.054   25.672   70.418  191.399
  663.560    0.284    0.079   17.905   80.255  191.995
  663.810    0.322    0.127   14.019   85.411  191.536
  664.060    0.353    0.150   11.827   90.133  190.124
  664.310    0.375    0.160   10.300   93.358  188.600
  664.560    0.389    0.170    9.020   94.141  187.825
  664.810    0.398    0.190    8.432   95.492  187.681
  665.060    0.403    0.187    8.076   99.212  188.054
  665.310    0.394    0.185    7.940   99.940  188.344
  665.560    0.386    0.184    7.938  101.540  188.504
  665.810    0.389    0.167    8.041  101.079  189.846
  666.060    0.397    0.165    8.100   98.561  191.181
  666.310    0.400    0.168    8.266   98.723  192.627
  666.560    0.396    0.168    8.483  100.571  193.421
  666.810    0.390    0.166    8.755  100.798  193.803
  667.060    0.384    0.146    9.001  100.276  194.293
  667.310    0.376    0.132    9.066  102.626  195.204
  667.560    0.367    0.150    8.947  106.469  196.224
  667.810    0.364    0.167    8.118  110.567  197.136
  668.060    0.393    0.172    7.216  115.286  197.730
  668.310    0.423    0.175    6.899  123.562  197.689
  668.560    0.452    0.181    6.695  111.370  193.423
  668.810    0.445    0.175    6.693  103.296  190.742
  669.060    0.431    0.157    6.856   98.905  190.072
  669.310    0.412    0.166    6.997   96.947  190.767
  669.560    0.401    0.146    7.207   97.423  191.049
  669.810    0.405    0.155    7.550   95.901  189.850
  670.060    0.410    0.120    7.792   92.760  188.326
  670.310    0.413    0.112    7.981   91.236  187.441
  670.560    0.408    0.124    6.788   95.770  187.305
  670.810    0.394    0.188    6.615  101.157  188.808
  671.060    0.396    0.177    6.583  103.736  190.324
  671.310    0.403    0.162    6.702  102.825  191.202
  671.560    0.421    0.163    6.747  101.411  192.397
  671.810    0.433    0.155    6.993  100.377  192.751
  672.060    0.433    0.144    7.486   99.957  192.478
  672.310    0.430    0.178    8.176   97.982  191.979
  672.560    0.426    0.220    8.907   92.455  190.965
  672.810    0.418    0.264   10.305   84.994  189.941
  673.060    0.411    0.285   11.493   68.556  189.135
  673.310    0.403    0.284   11.470   50.183  188.329
  673.560    0.397    0.268   10.450   32.434  188.051
  673.810    0.383    0.282    9.108   24.537  187.871
  674.060    0.382    0.300    7.934   25.184  187.700
  674.310    0.386    0.297    6.773   26.762  187.844
  674.560    0.396    0.277    5.970   27.595  187.875
  674.810    0.400    0.281    5.458   27.680  188.340
  675.060    0.396    0.299    4.794   26.143  188.898
  675.310    0.385    0.309    4.517   24.484  189.675
  675.560    0.377    0.306    4.265   24.442  189.929
  675.810    0.378    0.298    4.086   24.462  189.643
  676.060    0.381    0.287    3.967   24.547  189.362
  676.310    0.388    0.280    3.869   24.446  189.190
  676.560    0.387    0.285    3.846   24.280  188.908
  676.810    0.388    0.292    3.847   24.298  188.735
  677.060    0.393    0.300    3.813   25.008  188.565
  677.310    0.397    0.305    3.802   26.149  188.394
  677.560    0.390    0.308    3.797   27.234  188.327
  677.810    0.375    0.310    3.798   27.253  188.475
  678.060    0.374    0.307    3.791   26.651  188.501
  678.310    0.381    0.297    3.770   26.927  188.541
  678.560    0.394    0.291    3.780   27.571  188.467
  678.810    0.402    0.292    3.794   28.340  188.609
  679.060    0.405    0.298    3.782   29.418  188.859
  679.310    0.400    0.302    3.805   30.064  189.099
  679.560    0.398    0.305    3.814   30.273  189.244
  679.810    0.403    0.302    3.821   29.299  189.706
  680.060    0.400    0.299    3.816   28.383  190.270
  680.310    0.395    0.295    3.811   28.343  190.522
  680.560    0.393    0.298    3.817   29.361  190.767
  680.810    0.392    0.292    3.849   31.191  190.589
  681.060    0.392    0.281    3.871   30.281  190.627
  681.310    0.390    0.283    3.881   29.802  190.448
  681.560    0.393    0.288    3.932   30.198  189.856
  681.810    0.406    0.284    3.949   31.218  189.264
  682.060    0.402    0.275    3.988   32.178  188.875
  682.310    0.399    0.270    4.005   33.192  188.384
  682.560    0.399    0.271    4.045   34.651  187.890
  682.810    0.399    0.272    4.090   35.542  187.188
  683.060    0.396    0.273    4.151   36.873  187.016
  683.310    0.392    0.280    4.263   38.455  187.156
  683.560    0.412    0.288    4.421   40.285  187.510
  683.810    0.417    0.285    4.530   42.114  188.180
  684.060    0.413    0.275    4.634   43.448  188.953
  684.310    0.410    0.267    4.697   45.029  189.835
  684.560    0.411    0.269    4.715   46.419  190.831
  684.810    0.408    0.264    4.734   48.499  191.283
  685.060    0.400    0.257    4.764   50.389  191.844
  685.310    0.391    0.261    4.801   51.972  191.884
  685.560    0.389    0.267    4.851   54.614  191.919
  685.810    0.393    0.262    4.877   57.188  191.430
  686.060    0.397    0.263    4.934   61.325  191.145
  686.310    0.397    0.271    4.981   60.973  190.443
  686.560    0.399    0.280    5.087   59.876  189.855
  686.810    0.407    0.274    5.137   60.270  189.783
  687.060    0.412    0.267    5.186   60.665  189.713
  687.310    0.418    0.260    5.199   61.063  189.749
  687.560    0.423    0.251    5.199   61.954  189.889
  687.810    0.425    0.248    5.155   64.034  189.934
  688.060    0.420    0.250    5.166   68.172  190.075
  688.310    0.422    0.251    5.175   70.500  190.107
  688.560    0.424    0.250    5.150   70.335  190.460
  688.810    0.416    0.249    5.159   68.110  190.705
  689.060    0.407    0.245    5.258   68.510  191.067
  689.310    0.397    0.216    5.743   70.837  191.308
  689.560    0.390    0.183    6.523   74.599  191.873
  689.810    0.380    0.113    7.365   77.989  192.225
  690.060    0.362    0.059    8.031   78.134  192.684
  690.310    0.314    0.038    8.123   78.342  192.942
  690.560    0.310    0.114    7.457   82.232  193.185
  690.810    0.379    0.170    6.521   97.652  193.321
  691.060    0.416    0.169    5.294  110.143  193.893
  691.310    0.445    0.160    4.460  114.655  194.453
  691.560    0.482    0.174    3.744  113.180  195.334
  691.810    0.493    0.187    3.354  111.707  196.218
  692.060    0.498    0.192    3.276  110.294  197.100
  692.310    0.505    0.181    3.301  109.191  197.558
  692.560    0.511    0.167    3.383  110.774  198.335
  692.810    0.504    0.155    3.534  114.412  199.009
  693.060    0.492    0.165    3.663  115.868  199.463
  693.310    0.485    0.171    3.817  115.203  199.922
  693.560    0.475    0.163    3.993  112.856  200.379
  693.810    0.462    0.154    4.273  111.067  200.844
  694.060    0.451    0.138    4.461  109.782  201.400
  694.310    0.440    0.113    4.640  110.550  201.964
  694.560    0.432    0.099    4.775  114.563  202.528
  694.810    0.438    0.149    4.795  118.200  203.199
  695.060    0.458    0.200    4.654  118.534  203.661
  695.310    0.484    0.217    4.313  116.810  203.275
  695.560    0.504    0.240    4.034  113.030  201.090
  695.810    0.526    0.260    3.738  109.308  199.334
  696.060    0.555    0.310    3.439  105.092  198.947
  696.310    0.576    0.250    3.211  112.221  199.410
  696.560    0.551    0.264    3.014  118.103  200.502
  696.810    0.543    0.247    2.847  123.548  200.853
  697.060    0.583    0.256    2.753  128.623  200.680
  697.310    0.599    0.244    2.702  133.007  199.033
  697.560    0.588    0.203    2.817  136.957  197.905
  697.810    0.565    0.203    3.048  133.925  196.882
  698.060    0.571    0.190    3.468  121.164  196.288
  698.310    0.504    0.179    4.065  111.271  196.110
  698.560    0.453    0.186    4.191   95.891  198.053
  698.810    0.414    0.205    4.084  103.831  200.303
