~VERSION INFORMATION
 VERS.                 2.0:   CWLS LOG ASCII STANDARD -VERSION 2.0
 WRAP.                  NO:   ONE LINE PER DEPTH STEP
~WELL INFORMATION BLOCK
#MNEM.UNIT           DATA                    DESCRIPTION OF MNEMONIC
#---------    -------------------            -------------------------------
# Generated from Intellog Unique Number	CW_70_72/WELL/416
NULL.         -999.25                        : NULL_VALUE
WELL.         RAVENNA ET AL CALL             : Well_name    - WELL              
LOC .         04-36-071-19W4                 : Location     - LOCATION          
UWI .         00/04-36-071-19W4/0            : Uwi          - UNIQUE WELL ID    
ENTR.         JAYE                           : Entered      - ENTERED BY        
SRVC.         SCHLUMBERGER                   : Scn          - SERVICE COMPANY   
DATE.         29 MAR 80                      : Date         - LOG DATE          
STRT.M        300                            : top_depth    - START DEPTH       
STOP.M        485                            : bot_depth    - STOP DEPTH        
STEP.M        0.25                           : increment    - STEP LENGTH       
~CURVE INFORMATION BLOCK
#MNEM UNIT       ERCB CURVE CODE    CURVE DESCRIPTION
#-----------   ------------------   ----------------------------------
DEPT.M        00 001 00 00         : DEPTH        - DEPTH                       
DPHI.V/V      00 890 00 00         : PHID         - DENSITY POROSITY (SANDSTONE)
NPHI.V/V      00 330 00 00         : PHIN         - NEUTRON POROSITY (SANDSTONE)
GR  .API      00 310 00 00         : GR           - GAMMA RAY                   
CALI.MM       00 280 01 00         : CAL          - CALIPER                     
ILD .OHMM     00 120 00 00         : RESD         - DEEP RESISTIVITY (DIL)      
~PARAMETER INFORMATION       
#MNEM.UNIT           DATA             DESCRIPTION OF MNEMONIC
#---------         -----------     ------------------------------
GL  .M        587.3                : gl           - GROUND LEVEL ELEVATION      
EREF.M        591                  : kb           - ELEVATION OF DEPTH REFERENCE
DATM.M        587.3                : datum        - DATUM ELEVATION             
TDD .M        509                  : tdd          - TOTAL DEPTH DRILLER         
RUN .         ONE                  : Run          - RUN NUMBER                  
MATR.         SANDSTONE            : Logunit      - NEUTRON MATRIX              
TMAX.C        0                    : BHT          - MAXIMUM RECORDED TEMPERATURE
BHTD.M        507.5                : BHTDEP       - MAXIMUM RECORDED TEMPERATURE
RMT .C        18                   : MDTP         - TEMPERATURE OF MUD          
MUDD.KG/M     0                    : MWT          - MUD DENSITY                 
NEUT.         1                    : NEUTRON      - NEUTRON TYPE                
RESI.         0                    : RESIST       - RESISTIVITY TYPE            
RM  .OHMM     5.73                 : RM           - RESISTIVITY OF MUD          
RMC .OHMM     0                    : RMC          - RESISTIVITY OF MUD CAKE     
RMF .OHMM     4.55                 : RMF          - RESISTIVITY OF MUD FILTRATE 
SUFT.C        0                    : SUFT         - SURFACE TEMPERATURE         
~A  DEPTH     PHID     PHIN       GR      CAL     RESD
# ...
  336.500    0.216    0.461   90.999  170.618    6.625
  336.750    0.243    0.455   86.654  171.350    6.494
  337.000    0.261    0.443   88.770  171.044    6.201
  337.250    0.281    0.424   91.445  170.636    5.964
  337.500    0.271    0.411   92.257  170.539    5.769
  337.750    0.278    0.406   93.317  170.338    5.751
  338.000    0.264    0.407   95.060  170.654    5.954
  338.250    0.250    0.415   98.668  172.007    6.210
  338.500    0.213    0.432   96.683  177.294    6.575
  338.750    0.226    0.457   92.213  188.278    7.054
  339.000    0.270    0.475   86.872  173.681    7.625
  339.250    0.291    0.498   90.667  171.203    8.242
  339.500    0.325    0.523   88.681  170.691    8.579
  339.750    0.300    0.517   88.996  170.489    8.347
  340.000    0.243    0.473   90.367  170.184    7.732
  340.250    0.224    0.435   90.930  170.087    7.286
  340.500    0.230    0.437   91.989  170.301    7.008
  340.750    0.221    0.447   94.043  170.720    6.818
  341.000    0.218    0.478  100.074  170.934    6.695
  341.250    0.218    0.498   97.344  171.355    6.662
  341.500    0.189    0.492   95.111  171.878    6.604
  341.750    0.219    0.477   95.674  172.195    6.559
  342.000    0.200    0.468   95.926  172.202    6.465
  342.250    0.200    0.470   96.488  172.208    6.385
  342.500    0.220    0.454   99.910  172.213    6.270
  342.750    0.205    0.446   98.174  172.218    6.112
  343.000    0.193    0.448   94.697  172.742    6.081
  343.250    0.264    0.458   93.085  174.819    6.085
  343.500    0.271    0.450   89.982  175.032    6.193
  343.750    0.259    0.423   82.716  173.383    6.339
  344.000    0.267    0.410   80.731  172.871    6.501
  344.250    0.252    0.407   83.718  172.565    6.604
  344.500    0.235    0.410   87.511  172.572    6.608
  344.750    0.222    0.418   90.311  172.473    6.416
  345.000    0.227    0.425   90.004  172.791    6.068
  345.250    0.230    0.417   91.561  173.107    5.826
  345.500    0.230    0.411   94.299  174.149    5.647
  345.750    0.226    0.419   97.223  175.294    5.619
  346.000    0.209    0.459  100.271  176.647    5.686
  346.250    0.252    0.472  100.772  176.446    5.842
  346.500    0.234    0.459   97.358  175.727    6.128
  346.750    0.244    0.441   93.074  174.697    6.476
  347.000    0.258    0.430   86.242  173.876    6.678
  347.250    0.265    0.426   81.337  172.950    6.848
  347.500    0.253    0.442   75.873  172.439    6.970
  347.750    0.272    0.452   69.600  172.339    6.897
  348.000    0.291    0.421   63.949  171.932    6.722
  348.250    0.263    0.392   61.219  171.626    6.552
  348.500    0.249    0.393   59.483  171.322    6.470
  348.750    0.254    0.401   57.312  171.223    6.378
  349.000    0.257    0.406   54.644  171.127    6.216
  349.250    0.277    0.404   53.653  170.823    6.014
  349.500    0.269    0.396   53.967  170.725    5.961
  349.750    0.278    0.408   55.276  170.938    5.876
  350.000    0.278    0.421   57.081  170.736    5.782
  350.250    0.290    0.431   59.260  170.638    5.700
  350.500    0.301    0.424   59.760  170.230    5.660
  350.750    0.302    0.426   60.199  170.961    5.611
  351.000    0.307    0.432   58.897  170.657    5.572
  351.250    0.311    0.430   54.489  170.248    5.545
  351.500    0.301    0.423   55.487  169.220    5.529
  351.750    0.277    0.414   58.660  169.020    5.511
  352.000    0.279    0.409   57.855  168.817    5.514
  352.250    0.306    0.402   56.430  168.823    5.487
  352.500    0.301    0.412   55.999  169.243    5.481
  352.750    0.308    0.418   55.816  169.353    5.485
  353.000    0.311    0.415   56.130  168.841    5.467
  353.250    0.301    0.411   57.190  168.433    5.431
  353.500    0.295    0.402   58.995  168.128    5.435
  353.750    0.316    0.412   59.745  167.719    5.407
  354.000    0.314    0.424   57.387  168.037    5.380
  354.250    0.315    0.424   55.775  168.666    5.304
  354.500    0.313    0.427   55.344  168.981    5.248
  354.750    0.307    0.437   55.534  169.608    5.183
  355.000    0.303    0.440   56.656  169.924    5.128
  355.250    0.312    0.415   57.344  170.034    5.065
  355.500    0.316    0.423   58.279  169.626    5.039
  355.750    0.296    0.430   59.898  169.632    5.014
  356.000    0.312    0.423   61.828  169.950    5.009
  356.250    0.307    0.431   59.160  170.371    4.993
  356.500    0.285    0.443   60.095  170.375    4.997
  356.750    0.268    0.455   61.653  170.381    4.990
  357.000    0.323    0.448   60.724  170.181    4.984
  357.250    0.316    0.436   57.061  169.979    4.959
  357.500    0.305    0.426   57.997  169.675    4.944
  357.750    0.302    0.430   61.854  169.058    4.948
  358.000    0.316    0.446   64.280  168.029    4.961
  358.250    0.335    0.447   65.589  166.999    4.954
  358.500    0.331    0.439   66.090  166.591    4.967
  358.750    0.320    0.448   64.726  166.701    4.980
  359.000    0.312    0.462   62.555  166.914    5.021
  359.250    0.322    0.441   62.745  167.438    5.015
  359.500    0.321    0.422   64.302  167.548    5.027
  359.750    0.324    0.436   65.611  167.761    5.013
  360.000    0.322    0.426   66.235  168.181    5.025
  360.250    0.315    0.434   67.668  168.911    5.057
  360.500    0.320    0.448   65.995  169.746    5.089
  360.750    0.328    0.456   64.382  170.063    5.112
  361.000    0.327    0.466   62.770  169.551    5.115
  361.250    0.320    0.468   61.842  168.003    5.147
  361.500    0.330    0.462   60.416  166.559    5.180
  361.750    0.325    0.452   59.488  166.980    5.213
  362.000    0.324    0.445   59.802  168.332    5.226
  362.250    0.323    0.446   60.365  169.477    5.230
  362.500    0.303    0.461   61.052  169.899    5.243
  362.750    0.315    0.466   62.423  169.904    5.257
  363.000    0.330    0.468   67.460  170.014    5.250
  363.250    0.326    0.473   68.954  169.915    5.274
  363.500    0.320    0.474   67.467  169.818    5.288
  363.750    0.307    0.471   62.499  169.824    5.301
  364.000    0.294    0.466   64.243  169.832    5.325
  364.250    0.300    0.453   65.178  169.939    5.368
  364.500    0.316    0.443   62.013  170.154    5.403
  364.750    0.320    0.444   61.458  169.954    5.417
  365.000    0.324    0.447   62.269  169.857    5.390
  365.250    0.332    0.448   65.131  169.862    5.333
  365.500    0.327    0.447   67.061  169.971    5.326
  365.750    0.321    0.435   64.889  170.080    5.320
  366.000    0.330    0.451   61.040  169.880    5.314
  366.250    0.320    0.451   58.869  169.781    5.298
  366.500    0.307    0.452   59.805  169.581    5.300
  366.750    0.317    0.454   62.480  169.586    5.335
  367.000    0.316    0.456   66.523  169.592    5.368
  367.250    0.321    0.468   69.509  169.184    5.392
  367.500    0.322    0.468   67.897  169.190    5.417
  367.750    0.320    0.448   69.019  169.506    5.441
  368.000    0.324    0.434   71.384  169.824    5.496
  368.250    0.307    0.434   70.953  169.932    5.552
  368.500    0.299    0.448   71.889  170.147    5.597
  368.750    0.304    0.448   73.321  170.359    5.664
  369.000    0.292    0.447   71.958  170.675    5.776
  369.250    0.290    0.448   73.142  171.201    5.835
  369.500    0.284    0.457   75.942  171.516    5.872
  369.750    0.292    0.468   77.685  171.833    5.865
  370.000    0.296    0.477   77.378  172.150    5.846
  370.250    0.291    0.470   74.275  172.259    5.807
  370.500    0.307    0.454   72.911  172.370    5.777
  370.750    0.303    0.463   75.152  172.375    5.760
  371.000    0.303    0.466   75.777  172.277    5.731
  371.250    0.316    0.455   75.967  172.180    5.790
  371.500    0.320    0.449   77.213  172.082    5.904
  371.750    0.312    0.442   80.138  171.985    6.019
  372.000    0.298    0.442   83.186  172.612    6.127
  372.250    0.281    0.439   85.923  173.032    6.189
  372.500    0.255    0.436   88.475  173.556    6.229
  372.750    0.226    0.456   85.433  174.804    6.245
