~VERSION INFORMATION
 VERS.                 2.0:   CWLS LOG ASCII STANDARD -VERSION 2.0
 WRAP.                  NO:   ONE LINE PER DEPTH STEP
~WELL INFORMATION BLOCK
#MNEM.UNIT           DATA                    DESCRIPTION OF MNEMONIC
#---------    -------------------            -------------------------------
# Generated from Intellog Unique Number	CW_70_72/WELL/903
NULL.         -999.25                        : NULL_VALUE
WELL.         CHIEFTAIN ET AL SMITH 07-19    : Well_name    - WELL              
LOC .         07-19-071-26W4                 : Location     - LOCATION          
UWI .         00/07-19-071-26W4/0            : Uwi          - UNIQUE WELL ID    
ENTR.         JAYE                           : Entered      - ENTERED BY        
SRVC.         SCHLUMBERGER                   : Scn          - SERVICE COMPANY   
DATE.         13 JUNE 76                     : Date         - LOG DATE          
STRT.M        445.008                        : top_depth    - START DEPTH       
STOP.M        702.258                        : bot_depth    - STOP DEPTH        
STEP.M        0.25                           : increment    - STEP LENGTH       
~CURVE INFORMATION BLOCK
#MNEM UNIT       ERCB CURVE CODE    CURVE DESCRIPTION
#-----------   ------------------   ----------------------------------
DEPT.M        00 001 00 00         : DEPTH        - DEPTH                       
DPHI.V/V      00 890 00 00         : PHID         - DENSITY POROSITY (SANDSTONE)
NPHI.V/V      00 330 00 00         : PHIN         - NEUTRON POROSITY (SANDSTONE)
GR  .API      00 310 00 00         : GR           - GAMMA RAY                   
CALI.MM       00 280 01 00         : CAL          - CALIPER                     
ILD .OHMM     00 120 00 00         : RESD         - DEEP RESISTIVITY (DIL)      
~PARAMETER INFORMATION       
#MNEM.UNIT           DATA             DESCRIPTION OF MNEMONIC
#---------         -----------     ------------------------------
GL  .M        633.374              : gl           - GROUND LEVEL ELEVATION      
EREF.M        636.422              : kb           - ELEVATION OF DEPTH REFERENCE
DATM.M        633.374              : datum        - DATUM ELEVATION             
TDD .M        627.888              : tdd          - TOTAL DEPTH DRILLER         
RUN .         ONE                  : Run          - RUN NUMBER                  
BASE.         EDM                  : Branch       - HOME BASE OF LOGGING UNIT   
MUD .         GEL CHEM             : Mud_type     - MUD TYPE                    
MATR.         SANDSTONE            : Logunit      - NEUTRON MATRIX              
TMAX.C        27.2222              : BHT          - MAXIMUM RECORDED TEMPERATURE
BHTD.M        627.888              : BHTDEP       - MAXIMUM RECORDED TEMPERATURE
RMT .C        16.6667              : MDTP         - TEMPERATURE OF MUD          
MUDD.KG/M     0                    : MWT          - MUD DENSITY                 
NEUT.         1                    : NEUTRON      - NEUTRON TYPE                
RESI.         0                    : RESIST       - RESISTIVITY TYPE            
RM  .OHMM     4.87                 : RM           - RESISTIVITY OF MUD          
RMC .OHMM     0                    : RMC          - RESISTIVITY OF MUD CAKE     
RMF .OHMM     3.87                 : RMF          - RESISTIVITY OF MUD FILTRATE 
SUFT.C        -17.7778             : SUFT         - SURFACE TEMPERATURE         
~A  DEPTH     PHID     PHIN       GR      CAL     RESD
# ...
  481.508    0.243    0.451   61.743  154.850    2.008
  481.758    0.268    0.439   56.092  154.471    2.022
  482.008    0.295    0.424   53.808  154.292    2.062
  482.258    0.306    0.414   53.390  154.111    2.143
  482.508    0.312    0.406   52.975  154.043    2.260
  482.758    0.314    0.395   52.248  154.181    2.419
  483.008    0.307    0.385   51.830  153.905    2.623
  483.258    0.286    0.381   51.726  153.931    2.797
  483.508    0.267    0.369   51.310  153.755    2.999
  483.758    0.252    0.342   51.141  153.794    3.094
  484.008    0.245    0.334   51.102  153.612    2.876
  484.258    0.268    0.349   51.183  153.328    2.549
  484.508    0.261    0.363   51.325  153.264    2.318
  484.758    0.256    0.411   51.347  152.980    2.143
  485.008    0.279    0.424   51.553  153.009    2.034
  485.258    0.311    0.420   53.133  152.842    1.970
  485.508    0.301    0.428   55.145  152.767    1.980
  485.758    0.302    0.432   57.657  152.800    1.990
  486.008    0.301    0.440   56.432  152.830    2.007
  486.258    0.296    0.436   56.326  152.964    2.044
  486.508    0.296    0.434   56.410  152.998    2.073
  486.758    0.290    0.439   56.492  152.930    2.107
  487.008    0.292    0.433   56.324  152.860    2.134
  487.258    0.287    0.425   56.656  152.683    2.164
  487.508    0.283    0.420   58.047  152.607    2.175
  487.758    0.276    0.421   60.934  152.540    2.178
  488.008    0.273    0.434   64.256  152.263    2.177
  488.258    0.272    0.444   64.528  152.185    2.163
  488.508    0.277    0.446   63.986  152.115    2.158
  488.758    0.290    0.447   63.694  152.154    2.169
  489.008    0.302    0.440   64.148  152.080    2.197
  489.258    0.303    0.429   64.542  152.007    2.269
  489.508    0.300    0.429   63.567  152.039    2.358
  489.758    0.291    0.432   63.773  152.172    2.487
  490.008    0.275    0.430   64.603  152.419    2.623
  490.258    0.264    0.426   66.243  152.552    2.808
  490.508    0.251    0.426   65.765  153.113    2.939
  490.758    0.270    0.429   66.595  153.768    3.054
  491.008    0.272    0.426   69.419  154.958    3.127
  491.258    0.262    0.418   74.177  155.827    3.201
  491.508    0.230    0.423   79.180  156.174    3.283
  491.758    0.210    0.432   83.937  156.206    3.368
  492.008    0.203    0.444   85.017  156.243    3.454
  492.258    0.197    0.459   85.722  156.270    3.485
  492.508    0.190    0.488   86.739  156.415    3.509
  492.758    0.181    0.477   86.511  156.652    3.533
  493.008    0.171    0.469   85.345  156.686    3.538
  493.258    0.163    0.465   83.684  156.721    3.516
  493.508    0.176    0.463   83.266  156.751    3.495
  493.758    0.194    0.460   85.469  156.785    3.487
  494.008    0.198    0.452   86.986  156.711    3.479
  494.258    0.188    0.460   86.944  156.543    3.477
  494.508    0.179    0.485   86.588  156.462    3.527
  494.758    0.195    0.491   86.482  156.184    3.591
  495.008    0.199    0.470   86.004  156.007    3.731
  495.258    0.196    0.435   85.278  156.039    3.906
  495.508    0.199    0.425   84.174  156.702    4.119
  495.758    0.209    0.437   82.699  157.576    4.241
  496.008    0.268    0.494   80.975  158.127    4.286
  496.258    0.328    0.582   76.755  157.846    4.120
  496.508    0.451    0.611   68.237  155.683    3.761
  496.758    0.544    0.651   70.376  154.465    3.459
  497.008    0.520    0.690   75.943  153.862    3.145
  497.258    0.339    0.482   78.707  153.374    2.930
  497.508    0.301    0.435   74.673  152.991    2.719
  497.758    0.298    0.416   72.264  152.501    2.505
  498.008    0.302    0.422   73.094  152.115    2.351
  498.258    0.299    0.442   75.045  151.518    2.227
  498.508    0.297    0.441   76.375  150.716    2.117
  498.758    0.306    0.428   75.085  150.021    2.097
  499.008    0.295    0.416   64.697  149.318    2.261
  499.258    0.300    0.418   57.612  149.139    2.402
  499.508    0.299    0.425   61.499  149.383    2.586
  499.758    0.286    0.421   64.571  150.147    2.773
  500.008    0.273    0.408   67.894  151.225    2.935
  500.258    0.268    0.394   70.592  153.142    3.055
  500.508    0.270    0.396   65.629  154.745    2.981
  500.758    0.277    0.412   62.219  154.988    2.829
  501.008    0.300    0.498   59.810  154.394    2.592
  501.258    0.348    0.529   56.650  153.801    2.361
  501.508    0.347    0.485   53.742  153.421    2.216
  501.758    0.323    0.433   54.700  153.345    2.122
  502.008    0.311    0.427   55.466  153.377    2.083
  502.258    0.312    0.435   56.044  153.516    2.066
  502.508    0.312    0.432   56.628  153.551    2.065
  502.758    0.311    0.441   57.085  153.479    2.064
  503.008    0.309    0.449   57.289  153.510    2.051
  503.258    0.297    0.468   57.371  153.537    2.020
  503.508    0.288    0.462   56.830  153.258    1.982
  503.758    0.293    0.430   55.294  153.293    1.959
  504.008    0.302    0.409   51.574  153.121    1.940
  504.258    0.306    0.401   48.228  152.943    1.921
  504.508    0.310    0.383   45.817  152.666    1.913
  504.758    0.321    0.376   43.346  152.589    1.901
  505.008    0.311    0.398   44.175  152.410    1.890
  505.258    0.299    0.416   43.572  152.127    1.882
  505.508    0.292    0.419   43.094  151.958    1.870
  505.758    0.297    0.412   43.424  151.885    1.856
  506.008    0.304    0.404   44.131  151.708    1.844
  506.258    0.312    0.397   44.150  151.846    1.843
  506.508    0.318    0.389   43.923  151.777    1.836
  506.758    0.318    0.386   43.944  152.020    1.831
  507.008    0.313    0.388   43.837  152.052    1.830
  507.258    0.297    0.393   43.733  152.187    1.829
  507.508    0.303    0.398   43.940  152.117    1.829
  507.758    0.314    0.406   44.147  152.150    1.821
  508.008    0.310    0.421   44.478  152.186    1.813
  508.258    0.306    0.428   44.622  152.218    1.809
  508.508    0.300    0.425   44.454  152.040    1.794
  508.758    0.307    0.422   42.542  151.756    1.780
  509.008    0.309    0.418   39.447  151.578    1.770
  509.258    0.304    0.413   37.845  151.407    1.749
  509.508    0.302    0.402   38.800  151.438    1.751
  509.758    0.307    0.404   41.002  151.468    1.763
  510.008    0.310    0.412   42.891  151.500    1.776
  510.258    0.305    0.420   40.666  151.532    1.778
  510.508    0.298    0.436   40.127  151.572    1.790
  510.758    0.311    0.428   41.020  151.599    1.809
  511.008    0.307    0.421   42.165  151.421    1.822
  511.258    0.295    0.434   42.991  151.246    1.838
  511.508    0.292    0.440   44.197  151.175    1.850
  511.758    0.300    0.435   45.028  151.318    1.867
  512.008    0.305    0.428   45.480  151.245    1.890
  512.258    0.298    0.415   46.123  151.075    1.900
  512.508    0.293    0.412   47.768  150.791    1.920
  512.758    0.297    0.418   48.593  150.719    1.929
  513.008    0.305    0.422   48.864  150.751    1.946
  513.258    0.308    0.410   48.322  150.889    1.985
  513.508    0.301    0.411   49.966  151.132    2.018
  513.758    0.291    0.426   51.914  151.061    2.066
  514.008    0.284    0.420   55.426  151.198    2.096
  514.258    0.283    0.407   58.997  151.333    2.126
  514.508    0.289    0.401   55.464  151.363    2.152
  514.758    0.292    0.410   52.994  151.506    2.179
  515.008    0.284    0.405   52.076  151.431    2.206
  515.258    0.286    0.408   52.908  151.461    2.238
  515.508    0.292    0.417   53.365  151.503    2.292
  515.758    0.296    0.426   53.383  151.534    2.408
  516.008    0.292    0.417   55.397  151.565    2.669
  516.258    0.282    0.407   58.099  151.596    2.954
  516.508    0.272    0.393   58.989  151.732    3.468
  516.758    0.251    0.375   59.696  151.869    4.242
  517.008    0.222    0.336   59.466  152.111    5.535
  517.258    0.197    0.297   58.053  152.247    6.795
  517.508    0.172    0.261   54.272  152.281    8.248
  517.758    0.124    0.251   51.112  152.220    9.111
