~VERSION INFORMATION
 VERS.                 2.0:   CWLS LOG ASCII STANDARD -VERSION 2.0
 WRAP.                  NO:   ONE LINE PER DEPTH STEP
~WELL INFORMATION BLOCK
#MNEM.UNIT           DATA                    DESCRIPTION OF MNEMONIC
#---------    -------------------            -------------------------------
# Generated from Intellog Unique Number	CS_73_76/WELL/662
WELL.         AMOCO KIRBY                    : Well_name    - WELL
LOC .         00/06-31-073-04W4/0            : Location     - LOCATION
UWI .         00/06-31-073-04W4/0            : Uwi          - UNIQUE WELL ID
ENTR.         SP                             : Entered      - ENTERED BY
SRVC.         SCHLUMBERGER                   : Scn          - SERVICE COMPANY
STRT.M        270                            : top_depth    - START DEPTH
STOP.M        485                            : bot_depth    - STOP DEPTH
STEP.M        0.25                           : increment    - STEP LENGTH
 NULL. -999.2500:NULL Value
~CURVE INFORMATION BLOCK
#MNEM UNIT       ERCB CURVE CODE    CURVE DESCRIPTION
#-----------   ------------------   ----------------------------------
DEPT.M        00 001 00 00         : DEPTH        - DEPTH
DPHI.V/V      00 890 00 00         : PHID         - DENSITY POROSITY (LIMESTONE)
NPHI.V/V      00 330 00 00         : PHIN         - NEUTRON POROSITY (LIMESTONE)
GR  .API      00 310 00 00         : GR           - GAMMA RAY
ILD .OHMM     00 120 00 00         : RESD         - DEEP RESISTIVITY (DIL)
~PARAMETER INFORMATION
#MNEM.UNIT           DATA             DESCRIPTION OF MNEMONIC
#---------         -----------     ------------------------------
GL  .M        664.1                : gl           - GROUND LEVEL ELEVATION
EREF.M        669.1                : kb           - ELEVATION OF DEPTH REFERENCE
DATM.M        664.1                : datum        - DATUM ELEVATION
TDD .M        490                  : tdd          - TOTAL DEPTH DRILLER
RUN .         ONE                  : Run          - RUN NUMBER
ENG .         BILL                 : Engineer     - RECORDING ENGINEER
WIT .         JIM                  : Witness      - WITNESSED BY
MUD .         GEL                  : Mud_type     - MUD TYPE
MATR.         LIMESTONE            : Logunit      - NEUTRON MATRIX
TMAX.C        23                   : BHT          - MAXIMUM RECORDED TEMPERATURE
BHTD.M        490                  : BHTDEP       - MAXIMUM RECORDED TEMPERATURE
MATR.         1                    : LOGUNIT      - NEUTRON MATRIX
RMT .C        25                   : MDTP         - TEMPERATURE OF MUD
NEUT.         1                    : NEUTRON      - NEUTRON TYPE
RESI.         0                    : RESIST       - RESISTIVITY TYPE
RMC .OHMM     0.25                 : RMC          - RESISTIVITY OF MUD CAKE
RMF .OHMM     0.25                 : RMF          - RESISTIVITY OF MUD FILTRATE
SUFT.C        15                   : SUFT         - SURFACE TEMPERATURE
~A  DEPTH     PHID     PHIN       GR     RESD
# ...
  313.500    0.314    0.374   26.730    1.817
  313.750    0.282    0.368   42.314    2.032
  314.000    0.225    0.386   91.492    2.357
  314.250    0.214    0.412  113.671    2.837
  314.500    0.226    0.439  116.658    3.292
  314.750    0.231    0.456  117.839    3.418
  315.000    0.227    0.476  118.419    3.420
  315.250    0.232    0.494  119.009    3.421
  315.500    0.249    0.487  118.994    3.360
  315.750    0.222    0.485  116.577    3.361
  316.000    0.208    0.469  111.163    3.363
  316.250    0.203    0.464  106.350    3.365
  316.500    0.202    0.470  104.532    3.304
  316.750    0.220    0.470  106.311    3.306
  317.000    0.238    0.458  107.501    3.187
  317.250    0.254    0.463  106.887    2.906
  317.500    0.269    0.464  103.275    2.751
  317.750    0.273    0.454   98.459    2.652
  318.000    0.256    0.463   95.446    2.653
  318.250    0.250    0.474  100.223    2.806
  318.500    0.244    0.466  102.614    2.968
  318.750    0.238    0.457  107.997    3.024
  319.000    0.231    0.443  110.983    3.259
  319.250    0.216    0.442  113.964    3.383
  319.500    0.198    0.461  114.549    3.513
  319.750    0.175    0.465  112.734    3.579
  320.000    0.161    0.473  107.316    3.581
  320.250    0.188    0.490  103.704    3.390
  320.500    0.211    0.496  103.092    3.328
  320.750    0.229    0.467  101.876    3.150
  321.000    0.244    0.455  100.062    2.981
  321.250    0.222    0.460  103.644    2.874
  321.500    0.242    0.463  106.031    2.822
  321.750    0.244    0.449   99.415    2.772
  322.000    0.226    0.434   94.001    2.825
  322.250    0.237    0.456   98.781    2.826
  322.500    0.249    0.474  102.967    2.776
  322.750    0.247    0.470  104.155    2.726
  323.000    0.244    0.475  112.532    2.677
  323.250    0.237    0.468  119.115    2.533
  323.500    0.234    0.469  121.506    2.397
  323.750    0.228    0.477  112.491    2.354
  324.000    0.246    0.463  101.079    2.445
  324.250    0.263    0.447   91.463    2.634
  324.500    0.275    0.431   87.849    2.735
  324.750    0.269    0.438   88.431    2.839
  325.000    0.264    0.449   89.018    2.840
  325.250    0.256    0.456   86.600    2.841
  325.500    0.271    0.458   83.588    2.843
  325.750    0.275    0.468   78.772    2.741
  326.000    0.284    0.472   76.959    2.642
  326.250    0.277    0.473   71.538    2.595
  326.500    0.265    0.460   67.924    2.502
  326.750    0.253    0.445   64.311    2.457
  327.000    0.241    0.433   61.898    2.458
  327.250    0.231    0.425   60.083    2.414
  327.500    0.250    0.436   61.265    2.371
  327.750    0.274    0.438   63.053    2.372
  328.000    0.279    0.419   69.633    2.329
  328.250    0.282    0.424   71.422    2.287
  328.500    0.297    0.426   72.605    2.246
  328.750    0.301    0.412   71.992    2.248
  329.000    0.302    0.413   77.368    2.248
  329.250    0.299    0.417   79.156    2.334
  329.500    0.296    0.423   80.342    2.379
  329.750    0.294    0.422   81.528    2.380
  330.000    0.286    0.419   83.303    2.381
  330.250    0.277    0.428   83.296    2.382
  330.500    0.268    0.436   83.883    2.340
  330.750    0.278    0.434   74.867    2.256
  331.000    0.294    0.446   66.452    2.174
  331.250    0.309    0.446   58.638    2.097
  331.500    0.312    0.430   62.218    2.059
  331.750    0.310    0.427   63.407    2.022
  332.000    0.312    0.444   65.788    2.023
  332.250    0.305    0.452   65.177    2.062
  332.500    0.293    0.464   57.360    2.101
  332.750    0.282    0.471   55.547    2.102
  333.000    0.274    0.440   53.128    2.103
  333.250    0.299    0.422   51.314    2.065
  333.500    0.306    0.413   50.102    2.029
  333.750    0.304    0.407   48.881    1.992
  334.000    0.305    0.414   48.270    1.957
  334.250    0.310    0.423   48.255    1.922
  334.500    0.317    0.417   47.640    1.922
  334.750    0.319    0.403   46.425    1.924
  335.000    0.322    0.396   47.009    1.960
  335.250    0.325    0.390   48.788    1.855
  335.500    0.325    0.391   50.576    1.856
  335.750    0.320    0.408   51.767    1.857
  336.000    0.306    0.416   53.550    1.858
  336.250    0.309    0.406   53.532    1.893
  336.500    0.312    0.411   55.316    1.894
  336.750    0.301    0.431   60.096    2.003
  337.000    0.320    0.444   63.684    2.158
  337.250    0.305    0.455   67.272    2.504
  337.500    0.195    0.425   73.252    2.851
  337.750    0.128    0.371   75.637    3.309
  338.000    0.163    0.370   75.618    3.499
  338.250    0.212    0.422   75.009    3.633
  338.500    0.236    0.440   78.592    3.439
  338.750    0.246    0.448   81.577    3.254
  339.000    0.254    0.452   82.760    3.023
  339.250    0.265    0.460   82.145    2.706
  339.500    0.285    0.469   76.728    2.561
  339.750    0.286    0.477   77.313    2.469
  340.000    0.273    0.467   79.695    2.425
  340.250    0.259    0.456   81.484    2.471
  340.500    0.250    0.442   84.466    2.566
  340.750    0.246    0.428   86.253    2.664
  341.000    0.264    0.432   83.838    2.715
  341.250    0.278    0.451   80.824    2.819
  341.500    0.260    0.458   83.205    2.820
  341.750    0.237    0.441   84.990    2.821
  342.000    0.216    0.437   86.173    2.719
  342.250    0.262    0.444   83.163    2.574
  342.500    0.280    0.438   73.550    2.436
  342.750    0.292    0.443   70.533    2.305
  343.000    0.303    0.450   71.118    2.306
  343.250    0.293    0.447   74.704    2.394
  343.500    0.279    0.455   83.681    2.532
  343.750    0.268    0.461   85.469    2.629
  344.000    0.265    0.470   87.252    2.679
  344.250    0.248    0.473   87.235    2.731
  344.500    0.262    0.460   86.623    2.732
  344.750    0.261    0.453   86.006    2.683
  345.000    0.259    0.450   87.191    2.684
  345.250    0.245    0.447   90.773    2.636
  345.500    0.242    0.471   91.963    2.637
  345.750    0.261    0.479   90.144    2.688
  346.000    0.260    0.480   84.732    2.739
  346.250    0.255    0.458   81.719    2.741
  346.500    0.275    0.444   84.701    2.742
  346.750    0.271    0.449   88.886    2.743
  347.000    0.244    0.468   91.871    2.694
  347.250    0.227    0.474   92.451    2.646
  347.500    0.235    0.482   91.239    2.598
  347.750    0.258    0.483   84.024    2.552
  348.000    0.264    0.483   79.811    2.553
  348.250    0.267    0.469   82.196    2.507
  348.500    0.250    0.464   84.577    2.462
  348.750    0.246    0.469   85.160    2.463
  349.000    0.253    0.471   86.346    2.464
  349.250    0.264    0.470   86.935    2.466
  349.500    0.255    0.465   86.919    2.467
  349.750    0.266    0.470   84.500    2.468
  350.000    0.275    0.478   84.483    2.469
  350.250    0.272    0.478   85.074    2.471
  350.500    0.257    0.487   86.258    2.518
  350.750    0.251    0.489   90.435    2.519
  351.000    0.253    0.477   92.224    2.519
  351.250    0.260    0.469   94.605    2.568
  351.500    0.250    0.481   93.991    2.617
  351.750    0.241    0.497   94.576    2.618
  352.000    0.231    0.500   97.560    2.668
  352.250    0.224    0.488   99.945    2.719
  352.500    0.217    0.469   99.932    2.772
  352.750    0.236    0.482  101.714    2.773
  353.000    0.229    0.502  102.900    2.774
  353.250    0.237    0.496  102.286    2.776
  353.500    0.253    0.484  105.270    2.777
  353.750    0.230    0.480  106.452    2.778
  354.000    0.209    0.504  106.437    2.779
  354.250    0.194    0.519  105.225    2.832
  354.500    0.219    0.513  103.409    2.886
  354.750    0.229    0.502  102.792    2.888
  355.000    0.221    0.497  102.179    2.889
  355.250    0.215    0.494  100.963    2.837
  355.500    0.217    0.504  101.547    2.787
  355.750    0.226    0.522  102.728    2.737
  356.000    0.235    0.525  103.318    2.688
  356.250    0.247    0.521  103.302    2.689
  356.500    0.250    0.518  102.085    2.641
  356.750    0.241    0.521  101.471    2.642
