~VERSION INFORMATION
 VERS.                 2.0:   CWLS LOG ASCII STANDARD -VERSION 2.0
 WRAP.                  NO:   ONE LINE PER DEPTH STEP
~WELL INFORMATION BLOCK
#MNEM.UNIT           DATA                    DESCRIPTION OF MNEMONIC
#---------    -------------------            -------------------------------
# Generated from Intellog Unique Number	CW_82_90/WELL/3070
WELL.         CHEVRON WABASCA 08-34          : Well_name    - WELL
LOC .         00/08-34-085-25W4/0            : Location     - LOCATION
UWI .         00/08-34-085-25W4/0            : Uwi          - UNIQUE WELL ID
ENTR.         JAYE                           : Entered      - ENTERED BY
SRVC.         SCHLUMBERGER                   : Scn          - SERVICE COMPANY
DATE.         01 FEB 1974                    : Date         - LOG DATE
STRT.M        182.88                         : top_depth    - START DEPTH
STOP.M        384.13                         : bot_depth    - STOP DEPTH
STEP.M        0.25                           : increment    - STEP LENGTH
 NULL. -999.2500:NULL Value
~CURVE INFORMATION BLOCK
#MNEM UNIT       ERCB CURVE CODE    CURVE DESCRIPTION
#-----------   ------------------   ----------------------------------
DEPT.M        00 001 00 00         : DEPTH        - DEPTH
GR  .API      00 310 00 00         : GR           - GAMMA RAY
CALI.MM       00 280 01 00         : CAL          - CALIPER
DPHI.V/V      00 890 00 00         : PHID         - DENSITY POROSITY (SANDSTONE)
NPHI.V/V      00 330 00 00         : PHIN         - NEUTRON POROSITY (SANDSTONE)
ILD .OHMM     00 120 00 00         : RESD         - DEEP RESISTIVITY (DIL)
~PARAMETER INFORMATION
#MNEM.UNIT           DATA             DESCRIPTION OF MNEMONIC
#---------         -----------     ------------------------------
GL  .M        564.185              : gl           - GROUND LEVEL ELEVATION
EREF.M        567.538              : kb           - ELEVATION OF DEPTH REFERENCE
DATM.M        564.185              : datum        - DATUM ELEVATION
TDD .M        382.524              : tdd          - TOTAL DEPTH DRILLER
RUN .         ONE                  : Run          - RUN NUMBER
ENG .         ASWAD                : Engineer     - RECORDING ENGINEER
WIT .         WONG & LILLIES       : Witness      - WITNESSED BY
BASE.         EDMONTON             : Branch       - HOME BASE OF LOGGING UNIT
MUD .         FGM                  : Mud_type     - MUD TYPE
MATR.         SANDSTONE            : Logunit      - NEUTRON MATRIX
TMAX.C        30.5556              : BHT          - MAXIMUM RECORDED TEMPERATURE
BHTD.M        382.524              : BHTDEP       - MAXIMUM RECORDED TEMPERATURE
RMT .C        18.8889              : MDTP         - TEMPERATURE OF MUD
MUDD.KG/M     9600                 : MWT          - MUD DENSITY
NEUT.         1                    : NEUTRON      - NEUTRON TYPE
RESI.         0                    : RESIST       - RESISTIVITY TYPE
RM  .OHMM     0                    : RM           - RESISTIVITY OF MUD
RMC .OHMM     5.49                 : RMC          - RESISTIVITY OF MUD CAKE
RMF .OHMM     3.22                 : RMF          - RESISTIVITY OF MUD FILTRATE
SUFT.C        4                    : SUFT         - SURFACE TEMPERATURE
~A  DEPTH       GR      CAL     PHID     PHIN     RESD
# ...
  365.380  103.046  216.320    0.159    0.499    6.434
  365.630  102.387  214.748    0.160    0.480    6.040
  365.880  104.542  214.597    0.158    0.486    5.767
  366.130  103.823  215.386    0.157    0.503    4.873
  366.380  101.641  216.587    0.162    0.513    3.425
  366.630   97.444  217.279    0.116    0.521    3.034
  366.880  102.038  214.870    0.057    0.527    3.053
  367.130  103.581  215.042    0.002    0.470    4.375
  367.380  102.557  216.138   -0.002    0.436    6.084
  367.630  100.498  215.090    0.164    0.454    9.172
  367.880   93.128  214.728    0.217    0.324    9.353
  368.130   86.613  208.923    0.376    0.173   13.277
  368.380   81.561  208.576    0.383    0.156   23.750
  368.630   72.723  208.659    0.366    0.165   58.367
  368.880   57.050  208.405    0.352    0.216  109.634
  369.130   36.982  208.482    0.345    0.247  112.648
  369.380   33.214  208.643    0.327    0.286  101.468
  369.630   32.190  209.539    0.314    0.352   81.043
  369.880   31.903  209.091    0.302    0.427   71.110
  370.130   32.039  208.849    0.304    0.442   65.149
  370.380   32.300  209.120    0.292    0.444   57.158
  370.630   33.046  208.486    0.282    0.430   43.477
  370.880   35.139  209.051    0.281    0.424   31.138
  371.130   38.573  209.637    0.275    0.438   23.375
  371.380   43.351  210.529    0.256    0.435   16.741
  371.630   48.740  210.187    0.246    0.450   12.878
  371.880   53.759  210.664    0.231    0.471   10.619
  372.130   59.940  212.593    0.216    0.464    9.300
  372.380   67.099  211.522    0.193    0.440    8.997
  372.630   78.162  211.803    0.155    0.440    8.639
  372.880   97.653  213.102    0.155    0.424    7.652
  373.130  111.098  214.310    0.159    0.429    6.577
  373.380  112.886  214.172    0.156    0.451    6.387
  373.630  110.947  213.311    0.174    0.477    6.155
  373.880  111.144  212.457    0.161    0.497    5.791
  374.130  110.429  212.313    0.142    0.528    6.006
  374.380  113.804  212.793    0.135    0.452    6.455
  374.630  118.152  213.069    0.146    0.461    7.110
  374.880  117.983  213.041    0.152    0.505    8.115
  375.130  114.580  212.586    0.172    0.554    9.404
  375.380  114.722  213.167    0.193    0.490    9.483
  375.630  114.368  212.308    0.204    0.441    9.260
  375.880   93.994  211.348    0.207    0.418    7.781
  376.130   88.639  211.621    0.203    0.403    7.251
  376.380   89.570  214.881    0.187    0.409    7.175
  376.630   91.723  216.297    0.183    0.465    7.427
  376.880   92.224  214.615    0.189    0.473    7.145
  377.130   92.609  212.519    0.183    0.459    6.835
  377.380   95.186  213.404    0.189    0.450    7.038
  377.630   95.938  212.955    0.206    0.486    7.082
  377.880   95.102  209.313    0.196    0.499    6.812
  378.130   94.809  207.216    0.186    0.502    6.580
  378.380   96.775  204.397    0.187    0.509    6.560
  378.630   95.693  204.673    0.182    0.497    6.564
  378.880   95.708  205.872    0.178    0.477    6.606
  379.130   97.004  205.120    0.164    0.495    6.612
  379.380   96.105  205.905    0.166    0.521    6.616
  379.630   95.937  206.901    0.172    0.484    6.474
  379.880   97.601  204.290    0.164    0.480    6.263
  380.130   92.428  205.389    0.164    0.491    6.071
  380.380   91.651  205.046    0.166    0.489    6.007
  380.630   95.023  206.353    0.169    0.482    6.337
  380.880   98.091  204.977    0.153    0.503    6.535
  381.130   98.962  201.953    0.135    0.531    6.541
  381.380   96.596  198.827    0.135    0.515    6.485
  381.630   95.575  195.386    0.146    0.504    6.478
  381.880   96.505  188.338    0.207    0.527    6.445
  382.130   98.353  182.427    0.180    0.534    6.378
  382.380   98.185  174.668    0.188    0.531    6.229
  382.630   95.577  173.705    0.192    0.503    6.004
  382.880   93.825  173.250    0.205    0.502    5.886
  383.130   93.350  173.627    0.193    0.499    5.835
  383.380   94.405  172.667    0.186    0.513    5.973
  383.630   95.516  172.525    0.179    0.515    6.195
  383.880   98.100  172.600    0.184    0.509    6.305
  384.130   98.601  174.017    0.193    0.509    6.286
