~VERSION INFORMATION
 VERS.                 2.0:   CWLS LOG ASCII STANDARD -VERSION 2.0
 WRAP.                  NO:   ONE LINE PER DEPTH STEP
~WELL INFORMATION BLOCK
#MNEM.UNIT           DATA                    DESCRIPTION OF MNEMONIC
#---------    -------------------            -------------------------------
# Generated from Intellog Unique Number	CS_69_70/WELL/2885
NULL.         -999.25                        : NULL_VALUE
WELL.         AEC KIRBY                      : Well_name    - WELL              
LOC .         00/08-33-070-04W4/0            : Location     - LOCATION          
UWI .         00/08-33-070-04W4/0            : Uwi          - UNIQUE WELL ID    
ENTR.         TIM                            : Entered      - ENTERED BY        
SRVC.         SCHLUMBERGER                   : Scn          - SERVICE COMPANY   
DATE.         01/30/92                       : Date         - LOG DATE          
STRT.M        285                            : top_depth    - START DEPTH       
STOP.M        485                            : bot_depth    - STOP DEPTH        
STEP.M        0.25                           : increment    - STEP LENGTH       
~CURVE INFORMATION BLOCK
#MNEM UNIT       ERCB CURVE CODE    CURVE DESCRIPTION
#-----------   ------------------   ----------------------------------
DEPT.M        00 001 00 00         : DEPTH        - DEPTH                       
GR  .API      00 310 00 00         : GR           - GAMMA RAY                   
ILD .OHMM     00 120 00 00         : RESD         - DEEP RESISTIVITY (DIL)      
DPHI.V/V      00 890 00 00         : PHID         - DENSITY POROSITY (SANDSTONE)
NPHI.V/V      00 330 00 00         : PHIN         - NEUTRON POROSITY (SANDSTONE)
~PARAMETER INFORMATION       
#MNEM.UNIT           DATA             DESCRIPTION OF MNEMONIC
#---------         -----------     ------------------------------
GL  .M        660.7                : gl           - GROUND LEVEL ELEVATION      
EREF.M        664.3                : kb           - ELEVATION OF DEPTH REFERENCE
DATM.M        664.3                : datum        - DATUM ELEVATION             
TDD .M        497                  : tdd          - TOTAL DEPTH DRILLER         
RUN .         ONE                  : Run          - RUN NUMBER                  
ENG .         JO                   : Engineer     - RECORDING ENGINEER          
WIT .         TIM                  : Witness      - WITNESSED BY                
MUD .         GEL                  : Mud_type     - MUD TYPE                    
MATR.         SANDSTONE            : Logunit      - NEUTRON MATRIX              
TMAX.C        23                   : BHT          - MAXIMUM RECORDED TEMPERATURE
BHTD.M        497                  : BHTDEP       - MAXIMUM RECORDED TEMPERATURE
RMT .C        17                   : MDTP         - TEMPERATURE OF MUD          
MUDD.KG/M     1090                 : MWT          - MUD DENSITY                 
NEUT.         1                    : NEUTRON      - NEUTRON TYPE                
RESI.         0                    : RESIST       - RESISTIVITY TYPE            
RM  .OHMM     6.4                  : RM           - RESISTIVITY OF MUD          
RMC .OHMM     5.6                  : RMC          - RESISTIVITY OF MUD CAKE     
RMF .OHMM     4.9                  : RMF          - RESISTIVITY OF MUD FILTRATE 
SUFT.C        4                    : SUFT         - SURFACE TEMPERATURE         
~A  DEPTH       GR     RESD     PHID     PHIN
# ...
  328.500   69.319    4.689    0.340    0.470
  328.750   68.721    4.604    0.336    0.477
  329.000   69.356    4.605    0.332    0.474
  329.250   69.983    4.606    0.339    0.460
  329.500   70.000    4.608    0.346    0.456
  329.750   69.402    4.610    0.354    0.456
  330.000   68.813    4.611    0.352    0.453
  330.250   68.207    4.612    0.347    0.452
  330.500   71.910    4.614    0.342    0.451
  330.750   78.685    4.616    0.340    0.458
  331.000   78.087    4.616    0.337    0.462
  331.250   75.647    4.619    0.330    0.451
  331.500   71.367    4.620    0.327    0.429
  331.750   68.308    4.621    0.330    0.438
  332.000   64.024    4.623    0.339    0.454
  332.250   62.198    4.624    0.361    0.440
  332.500   60.986    4.627    0.365    0.427
  332.750   60.392    4.628    0.366    0.441
  333.000   61.638    4.629    0.369    0.458
  333.250   64.108    4.630    0.367    0.474
  333.500   67.815    4.632    0.364    0.473
  333.750   67.832    4.634    0.357    0.461
  334.000   67.234    4.635    0.353    0.460
  334.250   66.031    4.636    0.348    0.455
  334.500   65.424    4.638    0.343    0.450
  334.750   65.445    4.728    0.329    0.438
  335.000   65.458    4.820    0.306    0.425
  335.250   65.479    5.103    0.159    0.275
  335.500   64.267    5.301    0.067    0.220
  335.750   57.522    5.719    0.011    0.231
  336.000   46.480    6.054    0.028    0.263
  336.250   39.128    6.409    0.056    0.287
  336.500   41.602    6.058    0.136    0.323
  336.750   44.072    5.514    0.256    0.397
  337.000   49.618    4.926    0.301    0.421
  337.250   56.393    4.568    0.300    0.452
  337.500   61.329    4.004    0.279    0.455
  337.750   57.041    3.784    0.295    0.422
  338.000   51.537    3.577    0.317    0.422
  338.250   54.007    3.256    0.314    0.434
  338.500   52.791    3.196    0.318    0.434
  338.750   49.748    3.079    0.321    0.412
  339.000   48.528    3.022    0.330    0.422
  339.250   46.702    2.966    0.341    0.444
  339.500   46.104    2.967    0.348    0.452
  339.750   46.121    2.913    0.349    0.441
  340.000   48.595    2.914    0.349    0.425
  340.250   50.463    2.915    0.342    0.428
  340.500   50.472    2.916    0.342    0.424
  340.750   49.874    2.917    0.347    0.421
  341.000   49.895    2.918    0.352    0.425
  341.250   49.912    2.864    0.344    0.431
  341.500   50.539    2.865    0.338    0.432
  341.750   49.945    2.813    0.332    0.429
  342.000   49.958    2.813    0.331    0.426
  342.250   49.975    2.761    0.333    0.427
  342.500   49.996    2.711    0.336    0.429
  342.750   50.627    2.661    0.338    0.428
  343.000   50.644    2.612    0.337    0.428
  343.250   51.279    2.564    0.311    0.427
  343.500   51.910    2.565    0.316    0.426
  343.750   52.537    2.518    0.328    0.423
  344.000   53.168    2.519    0.337    0.421
  344.250   53.803    2.472    0.341    0.418
  344.500   54.434    2.473    0.341    0.415
  344.750   54.455    2.428    0.346    0.416
  345.000   54.464    2.383    0.351    0.437
  345.250   54.481    2.384    0.347    0.439
  345.500   54.502    2.340    0.339    0.423
  345.750   53.900    2.341    0.334    0.407
  346.000   52.688    2.298    0.324    0.395
  346.250   51.476    2.299    0.333    0.393
  346.500   49.035    2.256    0.346    0.397
  346.750   45.366    2.257    0.351    0.406
  347.000   43.539    2.258    0.341    0.408
  347.250   43.556    2.258    0.336    0.401
  347.500   45.416    2.217    0.337    0.403
  347.750   49.127    2.218    0.337    0.414
  348.000   52.212    2.177    0.336    0.424
  348.250   54.690    2.178    0.336    0.431
  348.500   54.093    2.178    0.336    0.433
  348.750   51.652    2.179    0.337    0.433
  349.000   54.122    2.139    0.340    0.434
  349.250   59.053    2.140    0.343    0.439
  349.500   59.685    2.140    0.348    0.446
  349.750   55.401    2.101    0.354    0.452
  350.000   57.875    2.102    0.358    0.457
  350.250   65.269    2.103    0.354    0.457
  350.500   70.814    2.064    0.347    0.451
  350.750   76.979    2.065    0.341    0.446
  351.000   73.928    2.027    0.342    0.453
  351.250   72.098    2.027    0.347    0.463
  351.500   67.814    1.990    0.351    0.474
  351.750   64.755    1.991    0.358    0.473
  352.000   59.861    1.991    0.355    0.464
  352.250   56.806    1.955    0.353    0.455
  352.500   59.280    1.955    0.353    0.450
  352.750   61.754    1.920    0.351    0.449
  353.000   64.228    1.920    0.351    0.449
  353.250   66.703    1.921    0.351    0.448
  353.500   71.016    1.921    0.352    0.448
  353.750   75.952    1.886    0.354    0.452
  354.000   77.807    1.887    0.356    0.454
  354.250   77.824    1.887    0.357    0.464
  354.500   77.226    1.888    0.361    0.467
  354.750   75.400    1.924    0.369    0.466
  355.000   77.879    1.962    0.380    0.466
  355.250   77.900    1.962    0.412    0.484
  355.500   79.145    2.078    0.455    0.503
  355.750   79.162    2.158    0.435    0.514
  356.000   78.564    2.373    0.322    0.487
  356.250   76.123    2.465    0.340    0.433
  356.500   71.835    2.610    0.361    0.462
  356.750   69.395    2.711    0.373    0.493
  357.000   70.640    2.763    0.336    0.440
  357.250   70.657    2.981    0.365    0.465
  357.500   70.059    3.216    0.375    0.491
  357.750   70.076    3.217    0.400    0.505
  358.000   70.093    3.280    0.359    0.478
  358.250   73.796    3.280    0.330    0.469
  358.500   71.359    3.282    0.333    0.477
  358.750   68.919    3.222    0.341    0.479
  359.000   65.245    3.163    0.347    0.481
  359.250   60.961    3.104    0.358    0.483
  359.500   58.520    2.934    0.363    0.483
  359.750   57.308    2.826    0.360    0.459
  360.000   55.482    2.722    0.359    0.457
  360.250   56.117    2.573    0.359    0.457
  360.500   60.439    2.432    0.360    0.460
  360.750   63.528    2.343    0.364    0.466
  361.000   62.320    2.344    0.366    0.469
  361.250   61.714    2.390    0.366    0.470
  361.500   60.502    2.390    0.366    0.473
  361.750   60.519    2.436    0.365    0.474
  362.000   60.535    2.531    0.365    0.472
  362.250   59.938    2.731    0.359    0.470
  362.500   58.111    2.946    0.349    0.453
  362.750   56.285    3.427    0.307    0.370
  363.000   54.459    3.988    0.165    0.307
  363.250   52.632    4.302    0.188    0.345
  363.500   50.192    4.554    0.232    0.414
  363.750   49.594    4.642    0.294    0.448
  364.000   49.611    4.472    0.350    0.445
  364.250   50.856    4.071    0.350    0.443
  364.500   50.873    3.776    0.352    0.438
  364.750   51.513    3.569    0.358    0.430
  365.000   52.144    3.248    0.360    0.426
  365.250   52.165    3.129    0.352    0.422
  365.500   51.559    2.848    0.346    0.421
  365.750   49.732    2.743    0.347    0.419
  366.000   49.135    2.497    0.350    0.417
  366.250   49.770    2.451    0.350    0.412
  366.500   51.011    2.361    0.350    0.409
  366.750   52.880    2.318    0.349    0.407
  367.000   54.117    2.318    0.349    0.407
  367.250   55.366    2.319    0.349    0.409
  367.500   57.226    2.320    0.351    0.417
  367.750   57.853    2.321    0.353    0.422
  368.000   59.717    2.366    0.353    0.435
  368.250   61.573    2.411    0.349    0.446
  368.500   59.136    2.458    0.332    0.450
  368.750   54.861    2.603    0.308    0.446
  369.000   54.873    2.703    0.030    0.436
  369.250   52.428    2.916    0.015    0.361
  369.500   48.759    3.088    0.056    0.305
  369.750   45.704    3.148    0.199    0.333
  370.000   50.640    3.090    0.323    0.391
  370.250   53.724    3.033    0.347    0.442
  370.500   54.360    2.921    0.361    0.444
  370.750   55.605    2.762    0.366    0.435
  371.000   58.084    2.660    0.357    0.430
  371.250   59.325    2.562    0.354    0.422
  371.500   61.799    2.422    0.356    0.431
  371.750   61.202    2.377    0.359    0.438
