~VERSION INFORMATION
 VERS.                 2.0:   CWLS LOG ASCII STANDARD -VERSION 2.0
 WRAP.                  NO:   ONE LINE PER DEPTH STEP
~WELL INFORMATION BLOCK
#MNEM.UNIT           DATA                    DESCRIPTION OF MNEMONIC
#---------    -------------------            -------------------------------
# Generated from Intellog Unique Number	CW_79_81/WELL/59
NULL.         -999.25                        : NULL_VALUE
WELL.         NUMAC BANNER WABASCA           : Well_name    - WELL              
LOC .         06-02-079-23W4                 : Location     - LOCATION          
UWI .         00/06-02-079-23W4/0            : Uwi          - UNIQUE WELL ID    
ENTR.         JJ                             : Entered      - ENTERED BY        
SRVC.         SCHLUMBERGER                   : Scn          - SERVICE COMPANY   
DATE.         7 FEB 69                       : Date         - LOG DATE          
STRT.M        345.643                        : top_depth    - START DEPTH       
STOP.M        473.643                        : bot_depth    - STOP DEPTH        
STEP.M        0.25                           : increment    - STEP LENGTH       
~CURVE INFORMATION BLOCK
#MNEM UNIT       ERCB CURVE CODE    CURVE DESCRIPTION
#-----------   ------------------   ----------------------------------
DEPT.M        00 001 00 00         : DEPTH        - DEPTH                       
GR  .API      00 310 00 00         : GR           - GAMMA RAY                   
CALI.MM       00 280 01 00         : CAL          - CALIPER                     
ILD .OHMM     00 120 00 00         : RESD         - DEEP RESISTIVITY (DIL)      
DELT.US/F     00 520 00 00         : DELT         - SONIC TRAVEL TIME           
~PARAMETER INFORMATION       
#MNEM.UNIT           DATA             DESCRIPTION OF MNEMONIC
#---------         -----------     ------------------------------
GL  .M        568.452              : gl           - GROUND LEVEL ELEVATION      
EREF.M        571.805              : kb           - ELEVATION OF DEPTH REFERENCE
DATM.M        571.805              : datum        - DATUM ELEVATION             
TDD .M        475.793              : tdd          - TOTAL DEPTH DRILLER         
RUN .         ONE                  : Run          - RUN NUMBER                  
ENG .         CHADDOCK             : Engineer     - RECORDING ENGINEER          
WIT .         MACINTOSH            : Witness      - WITNESSED BY                
BASE.         EDMONTON             : Branch       - HOME BASE OF LOGGING UNIT   
MUD .         GEL                  : Mud_type     - MUD TYPE                    
MATR.         SANDSTONE            : Logunit      - NEUTRON MATRIX              
TMAX.C        26.1111              : BHT          - MAXIMUM RECORDED TEMPERATURE
BHTD.M        476.098              : BHTDEP       - MAXIMUM RECORDED TEMPERATURE
RMT .C        26.1111              : MDTP         - TEMPERATURE OF MUD          
MUDD.KG/M     1068                 : MWT          - MUD DENSITY                 
NEUT.         1                    : NEUTRON      - NEUTRON TYPE                
RESI.         0                    : RESIST       - RESISTIVITY TYPE            
RM  .OHMM     4.64                 : RM           - RESISTIVITY OF MUD          
RMC .OHMM     3.92                 : RMC          - RESISTIVITY OF MUD CAKE     
RMF .OHMM     2.32                 : RMF          - RESISTIVITY OF MUD FILTRATE 
SUFT.C        5                    : SUFT         - SURFACE TEMPERATURE         
~A  DEPTH       GR      CAL     RESD     DELT
  345.643   75.463  228.876    9.540  404.452
  345.893   76.264  226.537    9.312  408.701
  346.143   76.165  220.798    9.242  407.849
  346.393   74.715  222.708    9.073  406.409
  346.643   76.417  225.574    8.804  406.539
  346.893   78.669  224.509    8.594  409.676
  347.143   78.970  221.639    8.244  406.732
  347.393   78.020  222.592    7.896  406.992
  347.643   76.069  226.202    7.746  409.672
  347.893   72.968  229.493    7.976  412.155
  348.143   72.018  228.429    8.466  414.508
  348.393   73.520  227.364    9.177  417.188
  348.643   75.622  230.018    9.568  420.653
  348.893   76.073  227.678    9.658  412.804
  349.143   73.022  220.346    9.829  404.040
  349.393   71.921  219.281    9.979  398.218
  349.643   74.675  221.191    9.649  406.260
  349.893   77.778  225.013    8.880  415.676
  350.143   79.730  227.029    8.392  415.347
  350.393   80.532  228.302    8.442  412.403
  350.643   76.779  229.680    8.832  409.786
  350.893   77.631  230.634    9.884  407.430
  351.143   77.431  230.420   11.113  410.764
  351.393   74.430  227.655   13.345  414.163
  351.643   72.229  222.660   16.674  402.260
  351.893   71.379  218.196   21.625  394.607
  352.143   64.924  215.644   31.315  379.631
  352.393   57.119  217.767   36.427  349.025
  352.643   54.617  220.633   37.918  270.027
  352.893   58.572  224.773   35.807  250.996
  353.143   62.626  224.771   29.637  236.608
  353.393   65.479  222.219   25.369  263.091
  353.643   67.431  217.224   20.999  299.383
  353.893   63.879  215.416   18.389  336.264
  354.143   64.780  214.032   16.901  351.369
  354.393   65.332  213.605   14.752  377.722
  354.643   64.482  213.709   12.803  392.172
  354.893   69.587  214.344   11.213  399.495
  355.143   72.690  214.767    9.362  403.613
  355.393   77.345  216.145    8.494  408.320
  355.643   75.544  218.587    8.405  422.248
  355.893   76.396  228.039    9.295  423.489
  356.143   79.749  226.550   10.206  416.098
  356.393   80.400  222.723   10.457  411.127
  356.643   80.301  227.182   10.487  408.967
  356.893   80.252  223.250   10.619  405.042
  357.143   79.102  226.116   10.749  401.313
  357.393   75.850  227.813   10.918  407.067
  357.643   70.896  227.704   11.430  404.973
  357.893   68.395  226.109   11.781  398.039
  358.143   73.100  221.538   11.671  396.142
  358.393   79.706  220.368   11.561  401.110
  358.643   82.659  223.977   11.412  403.136
  358.893   84.662  223.019   11.304  403.396
  359.143   84.062  227.160   11.194  403.264
  359.393   81.010  228.751   11.184  402.478
  359.643   76.257  228.430   11.476  401.561
  359.893   78.059  225.559   11.683  400.121
  360.143   79.912  222.051   12.055  398.092
  360.393   80.563  219.924   12.105  397.110
  360.643   79.363  218.753   11.995  394.362
  360.893   77.462  219.707   11.747  390.960
  361.143   77.613  222.998   11.477  397.106
  361.393   81.817  225.652   11.207  402.597
  361.643   83.369  226.180   10.840  405.473
  361.893   82.870  225.647   10.489  406.191
  362.143   81.469  227.663    9.961  406.190
  362.393   81.370  228.298    9.709  403.442
  362.643   83.472  227.765    9.760  399.255
  362.893   86.976  231.693   10.851  395.657
  363.143   79.671  228.717   13.422  389.509
  363.393   66.411  226.377   16.112  390.227
  363.643   55.703  222.126   19.543  381.920
  363.893   55.303  220.636   23.212  327.511
  364.143   61.009  219.571   28.463  242.693
  364.393   64.812  219.144   28.136  233.732
  364.643   69.267  218.823   25.204  302.199
  364.893   72.471  218.502   21.835  340.845
  365.143   75.073  218.393   20.305  362.293
  365.393   74.474  218.392   20.897  366.019
  365.643   69.320  218.601   22.108  368.372
  365.893   65.067  218.599   22.417  350.780
  366.143   69.672  218.916   21.909  333.318
  366.393   73.276  218.914   21.520  312.194
  366.643   76.029  219.124   21.289  311.277
  366.893   72.827  219.546   21.062  353.586
  367.143   69.875  220.606   20.831  376.734
  367.393   70.527  221.029   20.621  366.401
  367.643   73.280  220.920   20.152  351.882
  367.893   73.681  220.812   19.383  330.300
  368.143   72.531  220.810   18.494  335.334
  368.393   72.732  221.976   17.483  359.725
  368.643   75.084  224.417   16.614  372.345
  368.893   77.737  227.921   16.664  370.904
  369.143   76.988  225.581   17.055  367.372
  369.393   76.288  225.366   16.848  364.035
  369.643   78.390  223.345   17.057  353.636
  369.893   78.591  220.687   17.607  352.915
  370.143   77.591  222.172   17.959  360.173
  370.393   79.494  225.145   17.808  365.861
  370.643   80.745  227.054   17.139  361.085
  370.893   80.746  227.159   16.329  350.163
  371.143   76.994  225.138   15.262  342.184
  371.393   72.591  221.736   16.450  350.356
  371.643   64.135  219.503   21.981  365.069
  371.893   56.129  215.570   28.151  377.427
  372.143   50.475  216.099   32.502  312.489
  372.393   57.532  220.771   37.212  272.205
  372.643   61.536  216.838   40.663  251.996
  372.893   66.791  218.004   35.793  243.820
  373.143   71.145  220.233   29.524  234.468
  373.393   72.897  222.249   25.036  209.093
  373.643   75.400  216.723   22.247  254.672
  373.893   78.954  205.778   19.957  298.681
  374.143   83.409  202.270   18.427  336.085
  374.393   81.558  202.374   18.097  326.209
  374.643   77.705  204.709   17.148  346.676
  374.893   75.554  202.157   17.538  359.165
  375.143   74.354  189.832   17.609  349.485
  375.393   75.406  193.761   17.281  340.002
  375.643   77.308  211.393   16.991  361.777
  375.893   77.159  215.215   16.800  365.306
  376.143   72.706  216.487   16.732  347.518
  376.393   70.105  215.316   16.705  359.287
  376.643   71.456  216.376   16.793  365.041
  376.893   74.960  220.730   17.226  366.740
  377.143   77.213  223.064   17.394  365.888
  377.393   78.415  222.849   17.185  354.508
  377.643   78.265  222.104   16.576  351.237
  377.893   78.666  221.039   16.165  357.317
  378.143   81.519  220.931   15.777  363.593
  378.393   80.069  220.716   15.608  367.647
  378.643   79.119  225.706   15.439  379.089
  378.893   80.671  225.067   15.448  380.592
  379.143   77.870  220.072   15.460  373.397
  379.393   77.170  221.982   15.271  367.575
  379.643   78.922  223.360   15.201  370.190
  379.893   80.474  224.314   15.172  375.747
  380.143   79.874  226.437   15.381  372.214
  380.393   81.476  224.734   15.792  370.643
  380.643   77.574  223.245   15.761  375.220
  380.893   77.174  222.605   15.394  372.472
  381.143   79.878  223.347   14.764  364.165
  381.393   82.080  224.194   14.274  354.028
  381.643   83.832  224.829   13.845  355.857
  381.893   80.580  226.208   13.435  370.308
  382.143   79.981  226.631   13.446  382.470
  382.393   83.534  226.629   14.178  387.896
  382.643   83.035  225.776   14.887  381.029
  382.893   81.584  224.712   15.558  378.542
  383.143   83.637  222.797   16.069  375.533
  383.393   85.489  220.882   16.218  368.796
  383.643   84.589  220.030   15.809  362.778
  383.893   86.191  219.710   14.879  366.046
  384.143   90.346  220.132   13.530  357.347
  384.393   95.250  220.874   12.121  347.668
  384.643   94.851  225.121   11.331  352.832
  384.893   89.197  230.324   11.502  387.359
  385.143   84.644  228.940   11.914  400.960
  385.393   77.138  222.458   12.363  393.242
  385.643   82.544  222.137   13.134  376.369
  385.893   84.396  223.197   14.105  355.637
  386.143   84.047  223.832   15.016  353.216
  386.393   82.196  223.724   15.806  365.313
  386.643   78.694  223.190   17.216  378.194
  386.893   77.844  220.957   19.027  361.583
  387.143   78.845  220.529   20.697  334.900
  387.393   73.542  221.483   23.167  349.809
  387.643   69.089  218.401   24.858  367.202
  387.893   67.688  215.424   25.690  365.239
  388.143   69.190  220.521   26.059  361.706
  388.393   73.695  222.431   26.070  369.879
  388.643   79.000  217.010   25.980  357.845
  388.893   79.902  218.602   25.471  318.803
