~VERSION INFORMATION
 VERS.                 2.0:   CWLS LOG ASCII STANDARD -VERSION 2.0
 WRAP.                  NO:   ONE LINE PER DEPTH STEP
~WELL INFORMATION BLOCK
#MNEM.UNIT           DATA                    DESCRIPTION OF MNEMONIC
#---------    -------------------            -------------------------------
# Generated from Intellog Unique Number	CW_76_78/WELL/702
NULL.         -999.25                        : NULL_VALUE
WELL.         ERSKINE-MARTEN HILLS 08-09     : Well_name    - WELL              
LOC .         00/08-09-077-02W5/0            : Location     - LOCATION          
UWI .         00/08-09-077-02W5/0            : Uwi          - UNIQUE WELL ID    
ENTR.         JAYE                           : Entered      - ENTERED BY        
SRVC.         WESTERN ATLAS                  : Scn          - SERVICE COMPANY   
DATE.         24 NOV 77                      : Date         - LOG DATE          
STRT.M        450                            : top_depth    - START DEPTH       
STOP.M        650                            : bot_depth    - STOP DEPTH        
STEP.M        0.25                           : increment    - STEP LENGTH       
~CURVE INFORMATION BLOCK
#MNEM UNIT       ERCB CURVE CODE    CURVE DESCRIPTION
#-----------   ------------------   ----------------------------------
DEPT.M        00 001 00 00         : DEPTH        - DEPTH                       
DPHI.V/V      00 890 00 00         : PHID         - DENSITY POROSITY (SANDSTONE)
NPHI.V/V      00 330 00 00         : PHIN         - NEUTRON POROSITY (SANDSTONE)
GR  .API      00 310 00 00         : GR           - GAMMA RAY                   
CALI.IN       00 280 01 00         : CAL          - CALIPER                     
ILD .OHMM     00 120 00 00         : RESD         - DEEP RESISTIVITY (DIL)      
~PARAMETER INFORMATION       
#MNEM.UNIT           DATA             DESCRIPTION OF MNEMONIC
#---------         -----------     ------------------------------
GL  .M        742.1                : gl           - GROUND LEVEL ELEVATION      
EREF.M        745.1                : kb           - ELEVATION OF DEPTH REFERENCE
DATM.M        742.1                : datum        - DATUM ELEVATION             
TDD .M        656                  : tdd          - TOTAL DEPTH DRILLER         
RUN .         ONE                  : Run          - RUN NUMBER                  
ENG .         WHERLEY              : Engineer     - RECORDING ENGINEER          
WIT .         FITZSIMMONS          : Witness      - WITNESSED BY                
BASE.         LEDUC                : Branch       - HOME BASE OF LOGGING UNIT   
MUD .         GEL CHEM             : Mud_type     - MUD TYPE                    
MATR.         SANDSTONE            : Logunit      - NEUTRON MATRIX              
TMAX.C        28                   : BHT          - MAXIMUM RECORDED TEMPERATURE
BHTD.M        656.1                : BHTDEP       - MAXIMUM RECORDED TEMPERATURE
RMT .C        18                   : MDTP         - TEMPERATURE OF MUD          
MUDD.KG/M     1150                 : MWT          - MUD DENSITY                 
NEUT.         1                    : NEUTRON      - NEUTRON TYPE                
RESI.         0                    : RESIST       - RESISTIVITY TYPE            
RM  .OHMM     4.1                  : RM           - RESISTIVITY OF MUD          
RMC .OHMM     3.2                  : RMC          - RESISTIVITY OF MUD CAKE     
RMF .OHMM     4.9                  : RMF          - RESISTIVITY OF MUD FILTRATE 
SUFT.C        4.5                  : SUFT         - SURFACE TEMPERATURE         
~A  DEPTH     PHID     PHIN       GR      CAL     RESD
# ...
  559.500    0.252    0.389   72.935    7.053    5.328
  559.750    0.270    0.373   92.732    7.064    5.500
  560.000    0.259    0.382   85.659    7.071    5.870
  560.250    0.192    0.393   72.625    7.086    6.220
  560.500    0.112    0.364   80.022    7.092    6.469
  560.750    0.103    0.289   74.220    7.099    6.581
  561.000    0.110    0.273   73.470    7.097    5.504
  561.250    0.131    0.376   67.548    7.124    4.795
  561.500    0.183    0.390   73.547    7.208    4.342
  561.750    0.186    0.402   89.757    7.316    3.860
  562.000    0.197    0.415   89.370    7.415    3.425
  562.250    0.249    0.462   86.245    7.447    2.865
  562.500    0.236    0.519   83.243    7.465    2.500
  562.750    0.177    0.410   86.505    7.488    2.281
  563.000    0.182    0.392   92.139    7.527    2.143
  563.250    0.185    0.383   91.445    7.542    2.086
  563.500    0.181    0.402  109.600    7.545    2.075
  563.750    0.177    0.395  110.370    7.519    2.178
  564.000    0.177    0.393   96.362    7.497    2.266
  564.250    0.178    0.389   82.174    7.451    2.599
  564.500    0.177    0.374   87.504    7.425    3.025
  564.750    0.177    0.383   97.816    7.396    3.419
  565.000    0.179    0.421  100.531    7.357    3.857
  565.250    0.201    0.425   95.586    7.331    4.271
  565.500    0.206    0.414   87.777    7.297    4.687
  565.750    0.211    0.383   80.278    7.260    4.919
  566.000    0.219    0.369   80.380    7.222    4.986
  566.250    0.231    0.394   87.772    7.204    5.053
  566.500    0.228    0.373   83.798    7.186    5.131
  566.750    0.225    0.378   86.451    7.164    5.249
  567.000    0.224    0.379   99.743    7.135    5.399
  567.250    0.228    0.370   97.536    7.121    5.667
  567.500    0.230    0.369   81.580    7.123    6.162
  567.750    0.218    0.383   87.759    7.138    7.081
  568.000    0.205    0.372   77.949    7.165    9.039
  568.250    0.099    0.353   75.190    7.184   10.979
  568.500    0.078    0.260   69.695    7.207   12.385
  568.750    0.035    0.156   65.235    7.221   10.969
  569.000    0.031    0.176   53.539    7.264    8.876
  569.250    0.081    0.273   40.202    7.315    7.089
  569.500    0.131    0.358   59.757    7.330    5.757
  569.750    0.176    0.383   70.252    7.276    5.252
  570.000    0.226    0.414   75.519    7.279    5.121
  570.250    0.229    0.418   88.932    7.346    5.057
  570.500    0.222    0.397   77.236    7.288    5.023
  570.750    0.218    0.393   78.070    7.193    4.969
  571.000    0.215    0.399   87.528    7.159    4.936
  571.250    0.215    0.397   83.068    7.125    4.939
  571.500    0.212    0.381   81.099    7.108    4.941
  571.750    0.201    0.386   88.070    7.094    4.988
  572.000    0.193    0.378   95.709    7.080    5.018
  572.250    0.215    0.370   88.571    7.071    5.032
  572.500    0.212    0.378   74.504    7.061    5.081
  572.750    0.207    0.400   92.417    7.068    5.159
  573.000    0.206    0.385   93.127    7.078    5.297
  573.250    0.205    0.397   90.792    7.093    5.468
  573.500    0.206    0.402   90.831    7.100    5.572
  573.750    0.212    0.387   89.713    7.090    5.711
  574.000    0.232    0.400   80.814    7.052    5.821
  574.250    0.242    0.392   77.330    7.002    5.867
  574.500    0.256    0.384   76.149    6.976    5.945
  574.750    0.249    0.384   68.653    6.966    6.070
  575.000    0.247    0.405   68.445    6.969    6.244
  575.250    0.253    0.386   70.610    6.984    6.459
  575.500    0.296    0.359   76.914    6.995    6.755
  575.750    0.287    0.358   68.681    7.009    7.078
  576.000    0.278    0.371   63.615    7.020    7.388
  576.250    0.266    0.361   74.230    7.030    7.586
  576.500    0.243    0.342   77.490    7.041    7.618
  576.750    0.195    0.331   77.291    7.052    7.482
  577.000    0.227    0.338   69.972    7.063    7.281
  577.250    0.244    0.356   80.462    7.069    6.995
  577.500    0.255    0.378   82.689    7.080    6.694
  577.750    0.260    0.392   74.888    7.082    6.540
  578.000    0.251    0.380   79.605    7.093    6.482
  578.250    0.246    0.387   80.252    7.104    6.510
  578.500    0.246    0.376   78.831    7.119    6.475
  578.750    0.252    0.367   83.248    7.125    6.445
  579.000    0.247    0.362   74.408    7.132    6.365
  579.250    0.239    0.378   71.590    7.122    6.229
  579.500    0.234    0.378   74.121    7.096    6.073
  579.750    0.228    0.373   81.337    7.066    5.867
  580.000    0.225    0.362   78.273    7.053    5.666
  580.250    0.231    0.373   77.336    7.063    5.474
  580.500    0.240    0.396   77.315    7.122    5.308
  580.750    0.231    0.394   82.946    7.190    5.165
  581.000    0.212    0.386   87.545    7.253    5.073
  581.250    0.198    0.399   90.196    7.280    5.002
  581.500    0.190    0.405   93.703    7.238    4.922
  581.750    0.200    0.393  100.730    7.220    4.888
  582.000    0.210    0.382   89.339    7.219    4.855
  582.250    0.202    0.371   87.129    7.214    4.803
  582.500    0.205    0.371   83.640    7.228    4.762
  582.750    0.207    0.383   79.000    7.235    4.694
  583.000    0.199    0.394   91.559    7.246    4.627
  583.250    0.197    0.393   92.210    7.277    4.579
  583.500    0.207    0.386   92.734    7.299    4.514
  583.750    0.208    0.403   95.326    7.318    4.475
  584.000    0.198    0.427   91.409    7.321    4.445
  584.250    0.206    0.412   85.124    7.319    4.422
  584.500    0.223    0.387   83.220    7.313    4.417
  584.750    0.242    0.389   88.972    7.300    4.418
  585.000    0.249    0.391   88.340    7.290    4.462
  585.250    0.235    0.414   86.919    7.277    4.547
  585.500    0.232    0.409   90.788    7.267    4.712
  585.750    0.243    0.404   82.558    7.254    5.142
  586.000    0.238    0.398   83.935    7.232    5.941
  586.250    0.228    0.368   90.236    7.206    6.802
  586.500    0.240    0.362   86.748    7.176    8.201
  586.750    0.272    0.372   81.070    7.167    9.707
  587.000    0.261    0.358   66.578    7.161   11.788
  587.250    0.260    0.356   68.744    7.159   12.513
  587.500    0.260    0.363   72.310    7.166   12.871
  587.750    0.259    0.371   74.477    7.165   13.263
  588.000    0.250    0.370   75.061    7.159   13.744
  588.250    0.239    0.385   77.654    7.157   14.508
  588.500    0.243    0.384   79.150    7.164   16.670
  588.750    0.241    0.310   76.212    7.183   20.098
  589.000    0.086    0.247   69.257    7.194   25.895
  589.250    0.029    0.183   66.559    7.212   30.649
  589.500    0.009    0.153   61.977    7.243   32.891
  589.750    0.016    0.133   63.964    7.250   32.605
  590.000    0.030    0.131   64.794    7.253   30.920
  590.250    0.045    0.141   64.890    7.255   29.107
  590.500    0.063    0.181   66.873    7.249   28.011
  590.750    0.089    0.205   66.851    7.236   28.187
  591.000    0.075    0.245   64.943    7.202   30.699
  591.250    0.161    0.282   53.008    7.164   33.812
  591.500    0.176    0.313   62.286    7.138   35.753
  591.750    0.075    0.316   69.922    7.124   32.618
  592.000    0.045    0.197   76.290    7.103   21.901
  592.250    0.074    0.210   78.815    7.044   17.174
  592.500    0.097    0.245   70.037    6.998   14.077
  592.750    0.174    0.311   75.427    7.021   12.887
  593.000    0.203    0.308   69.631    7.125   12.474
  593.250    0.210    0.330   74.531    7.176   12.297
  593.500    0.222    0.344   78.763    7.195   12.393
  593.750    0.244    0.362   82.880    7.202   12.749
  594.000    0.241    0.370   79.326    7.205   13.531
  594.250    0.227    0.362   76.938    7.211   14.126
  594.500    0.208    0.343   76.062    7.225   14.211
  594.750    0.193    0.338   75.736    7.236   14.062
  595.000    0.181    0.339   77.778    7.251   13.685
  595.250    0.178    0.347   86.935    7.266   13.366
  595.500    0.194    0.349   80.711    7.280   13.130
  595.750    0.214    0.351   72.665    7.287   12.636
