~VERSION INFORMATION
 VERS.                 2.0:   CWLS LOG ASCII STANDARD -VERSION 2.0
 WRAP.                  NO:   ONE LINE PER DEPTH STEP
~WELL INFORMATION BLOCK
#MNEM.UNIT           DATA                    DESCRIPTION OF MNEMONIC
#---------    -------------------            -------------------------------
# Generated from Intellog Unique Number	CW_70_72/WELL/591
NULL.         -999.25                        : NULL_VALUE
WELL.         SUNDANCE CANAL 06-07           : Well_name    - WELL              
LOC .         06-07-071-22W4                 : Location     - LOCATION          
UWI .         00/06-07-071-22W4/0            : Uwi          - UNIQUE WELL ID    
ENTR.         JAYE                           : Entered      - ENTERED BY        
SRVC.         SCHLUMBERGER                   : Scn          - SERVICE COMPANY   
DATE.         2 MAR 77                       : Date         - LOG DATE          
STRT.M        429.768                        : top_depth    - START DEPTH       
STOP.M        627.768                        : bot_depth    - STOP DEPTH        
STEP.M        0.25                           : increment    - STEP LENGTH       
~CURVE INFORMATION BLOCK
#MNEM UNIT       ERCB CURVE CODE    CURVE DESCRIPTION
#-----------   ------------------   ----------------------------------
DEPT.M        00 001 00 00         : DEPTH        - DEPTH                       
DPHI.V/V      00 890 00 00         : PHID         - DENSITY POROSITY (SANDSTONE)
NPHI.V/V      00 330 00 00         : PHIN         - NEUTRON POROSITY (SANDSTONE)
GR  .API      00 310 00 00         : GR           - GAMMA RAY                   
CALI.MM       00 280 01 00         : CAL          - CALIPER                     
ILD .OHMM     00 120 00 00         : RESD         - DEEP RESISTIVITY (DIL)      
~PARAMETER INFORMATION       
#MNEM.UNIT           DATA             DESCRIPTION OF MNEMONIC
#---------         -----------     ------------------------------
GL  .M        669.188              : gl           - GROUND LEVEL ELEVATION      
EREF.M        672.998              : kb           - ELEVATION OF DEPTH REFERENCE
DATM.M        669.188              : datum        - DATUM ELEVATION             
TDD .M        632.46               : tdd          - TOTAL DEPTH DRILLER         
RUN .         ONE                  : Run          - RUN NUMBER                  
ENG .         ACKERMAN/MCKAY       : Engineer     - RECORDING ENGINEER          
WIT .         CHRISTENSEN          : Witness      - WITNESSED BY                
BASE.         EDM                  : Branch       - HOME BASE OF LOGGING UNIT   
MUD .         GEL                  : Mud_type     - MUD TYPE                    
MATR.         SANDSTONE            : Logunit      - NEUTRON MATRIX              
TMAX.C        27.2222              : BHT          - MAXIMUM RECORDED TEMPERATURE
BHTD.M        632.46               : BHTDEP       - MAXIMUM RECORDED TEMPERATURE
RMT .C        8.88889              : MDTP         - TEMPERATURE OF MUD          
MUDD.KG/M     1104                 : MWT          - MUD DENSITY                 
NEUT.         1                    : NEUTRON      - NEUTRON TYPE                
RESI.         0                    : RESIST       - RESISTIVITY TYPE            
RM  .OHMM     4.85                 : RM           - RESISTIVITY OF MUD          
RMC .OHMM     0                    : RMC          - RESISTIVITY OF MUD CAKE     
RMF .OHMM     0                    : RMF          - RESISTIVITY OF MUD FILTRATE 
SUFT.C        -17.7778             : SUFT         - SURFACE TEMPERATURE         
~A  DEPTH     PHID     PHIN       GR      CAL     RESD
# ...
  466.268    0.272    0.466   89.181  155.291    4.260
  466.518    0.243    0.467   85.755  155.420    4.898
  466.768    0.254    0.450   81.661  155.162    5.693
  467.018    0.270    0.424   78.114  154.583    6.751
  467.268    0.243    0.388   75.776  154.014    7.934
  467.518    0.195    0.355   72.471  154.368    9.322
  467.768    0.172    0.316   69.287  155.123   10.895
  468.018    0.152    0.307   69.315  155.170   12.825
  468.268    0.131    0.296   71.639  155.001   15.237
  468.518    0.113    0.284   74.086  154.432   17.613
  468.768    0.100    0.260   73.323  153.753   20.028
  469.018    0.083    0.233   70.441  154.199   20.870
  469.268    0.060    0.203   67.317  156.811   18.588
  469.518    0.027    0.169   63.830  158.489   16.284
  469.768   -0.006    0.157   60.101  159.248   12.976
  470.018   -0.015    0.164   56.974  159.090    8.712
  470.268   -0.013    0.220   63.116  158.209    6.694
  470.518   -0.003    0.289   73.253  157.838    5.583
  470.768    0.095    0.373   90.173  160.030    4.829
  471.018    0.159    0.409   98.010  160.380    4.317
  471.268    0.203    0.466   94.765  158.176    4.091
  471.518    0.226    0.457   93.397  156.781    4.035
  471.768    0.241    0.447   94.753  155.793    3.902
  472.018    0.264    0.443   97.324  155.014    3.849
  472.268    0.265    0.450  100.075  154.338    3.860
  472.518    0.247    0.460  101.851  153.969    3.869
  472.768    0.229    0.468  104.238  153.500    3.930
  473.018    0.212    0.458  103.476  153.235    3.963
  473.268    0.240    0.429   97.989  152.866    4.009
  473.518    0.254    0.411  100.316  152.395    4.064
  473.768    0.240    0.424  104.157  152.643    4.142
  474.018    0.228    0.451  104.543  152.478    4.277
  474.268    0.221    0.455  104.325  152.414    4.408
  474.518    0.209    0.451  104.599  151.945    4.452
  474.768    0.205    0.445  105.467  151.380    4.488
  475.018    0.208    0.438  106.640  151.112    4.467
  475.268    0.192    0.451  106.907  150.741    4.471
  475.518    0.183    0.449  106.024  150.378    4.475
  475.768    0.171    0.435  106.472  150.106    4.495
  476.018    0.152    0.423  107.348  149.838    4.491
  476.268    0.141    0.433  109.188  151.216    4.504
  476.518    0.159    0.448  110.847  156.278    4.566
  476.768    0.171    0.477  105.365  162.066    4.645
  477.018    0.168    0.470  101.086  164.981    4.752
  477.268    0.187    0.464   94.814  164.407    5.042
  477.518    0.201    0.455   88.178  162.601    5.438
  477.768    0.191    0.444   80.572  161.928    5.220
  478.018    0.155    0.403   69.455  162.687    5.009
  478.268    0.153    0.300   47.862  162.730    4.670
  478.518    0.111    0.216   48.916  161.951    4.167
  478.768    0.087    0.273   56.207  159.631    3.644
  479.018    0.160    0.379   63.923  155.059    2.984
  479.268    0.227    0.396   63.101  152.540    2.777
  479.518    0.270    0.406   59.009  151.147    3.293
  479.768    0.285    0.416   54.795  150.270    3.970
  480.018    0.296    0.427   51.306  149.795    4.522
  480.268    0.315    0.444   50.364  149.837    4.940
  480.518    0.326    0.469   52.571  150.387    4.605
  480.768    0.341    0.507   54.775  151.764    4.169
  481.018    0.292    0.411   56.370  156.215    3.755
  481.268    0.212    0.400   56.818  157.180    3.558
  481.518    0.230    0.410   57.085  151.171    3.341
  481.768    0.248    0.425   55.356  151.116    3.212
  482.018    0.256    0.423   53.017  151.360    3.094
  482.268    0.270    0.417   54.980  151.606    3.035
  482.518    0.278    0.410   56.218  152.057    3.000
  482.768    0.280    0.413   55.938  152.928    2.954
  483.018    0.272    0.427   54.571  153.273    2.929
  483.268    0.285    0.442   53.142  152.910    2.890
  483.518    0.300    0.428   52.260  152.534    2.871
  483.768    0.299    0.417   52.163  150.114    2.853
  484.018    0.305    0.413   55.096  150.059    2.835
  484.268    0.303    0.414   58.630  152.349    2.801
  484.518    0.298    0.412   56.477  155.578    2.748
  484.768    0.295    0.409   53.110  156.023    2.726
  485.018    0.283    0.432   51.382  153.091    2.708
  485.268    0.276    0.459   51.826  151.395    2.676
  485.518    0.271    0.444   53.062  151.945    2.683
  485.768    0.292    0.432   54.178  152.918    2.685
  486.018    0.284    0.428   54.932  154.083    2.683
  486.268    0.288    0.436   55.195  154.842    2.671
  486.518    0.291    0.436   54.132  155.510    2.649
  486.768    0.305    0.419   52.583  155.855    2.628
  487.018    0.314    0.410   52.666  156.096    2.606
  487.268    0.304    0.410   53.720  156.760    2.598
  487.518    0.297    0.421   54.653  156.903    2.601
  487.768    0.294    0.425   54.193  156.941    2.617
  488.018    0.303    0.415   55.067  156.980    2.634
  488.268    0.298    0.423   57.512  157.036    2.617
  488.518    0.281    0.424   55.601  156.963    2.620
  488.768    0.289    0.422   54.536  157.017    2.617
  489.018    0.292    0.415   56.194  157.048    2.614
  489.268    0.281    0.403   54.465  157.094    2.626
  489.518    0.282    0.398   52.916  157.043    2.633
  489.768    0.284    0.406   53.545  157.072    2.684
  490.018    0.292    0.412   56.415  156.905    2.701
  490.268    0.297    0.413   57.953  156.855    2.724
  490.518    0.291    0.414   56.347  156.889    2.731
  490.768    0.289    0.418   55.581  156.829    2.748
  491.018    0.301    0.421   57.303  156.874    2.776
  491.268    0.306    0.419   59.749  156.808    2.825
  491.518    0.302    0.414   61.409  157.054    2.848
  491.768    0.298    0.421   60.707  157.916    2.876
  492.018    0.292    0.434   59.883  158.381    2.921
  492.268    0.286    0.444   56.820  158.827    3.043
  492.518    0.285    0.447   57.032  158.863    3.171
  492.768    0.280    0.441   56.448  158.495    3.191
  493.018    0.284    0.427   54.350  158.436    3.153
  493.268    0.271    0.421   51.954  157.758    3.088
  493.518    0.302    0.418   52.586  156.365    2.996
  493.768    0.292    0.415   53.883  154.569    2.918
  494.018    0.275    0.413   56.754  154.606    2.832
  494.268    0.284    0.407   59.322  154.951    2.763
  494.518    0.287    0.391   60.736  155.517    2.705
  494.768    0.290    0.386   61.004  155.656    2.639
  495.018    0.300    0.398   58.607  154.774    2.575
  495.268    0.292    0.416   58.206  153.786    2.526
  495.518    0.288    0.434   59.988  152.297    2.505
  495.768    0.273    0.433   59.467  151.315    2.485
  496.018    0.256    0.416   56.163  151.046    2.460
  496.268    0.256    0.415   56.975  150.263    2.431
  496.518    0.272    0.426   60.268  148.977    2.415
  496.768    0.289    0.444   65.381  147.686    2.431
  497.018    0.306    0.459   65.646  146.296    2.474
  497.268    0.294    0.453   64.465  145.617    2.530
  497.518    0.300    0.453   63.273  145.962    2.612
  497.768    0.291    0.461   63.907  146.621    2.711
  498.018    0.279    0.463   62.845  147.584    2.815
  498.268    0.295    0.447   60.865  148.550    2.807
  498.518    0.264    0.421   57.441  149.623    2.744
  498.768    0.248    0.349   56.376  150.180    2.687
  499.018    0.235    0.372   57.186  150.526    2.694
  499.268    0.197    0.415   60.057  150.770    2.827
  499.518    0.247    0.450   62.503  151.023    3.022
  499.768    0.266    0.460   64.285  151.576    3.289
  500.018    0.267    0.452   61.889  152.228    3.561
  500.268    0.275    0.439   62.578  152.063    4.093
  500.518    0.275    0.412   65.934  151.491    5.164
  500.768    0.271    0.428   68.138  151.022    6.672
  501.018    0.249    0.444   66.651  150.755    6.863
  501.268    0.261    0.456   66.616  150.912    6.068
  501.518    0.239    0.407   64.884  151.868    5.336
  501.768    0.209    0.383   65.875  152.830    4.683
  502.018    0.184    0.323   62.993  153.795    3.950
  502.268    0.188    0.337   63.745  153.938    3.379
  502.518    0.235    0.399   68.193  152.136    3.105
