~VERSION INFORMATION
 VERS.                 2.0:   CWLS LOG ASCII STANDARD -VERSION 2.0
 WRAP.                  NO:   ONE LINE PER DEPTH STEP
~WELL INFORMATION BLOCK
#MNEM.UNIT           DATA                    DESCRIPTION OF MNEMONIC
#---------    -------------------            -------------------------------
# Generated from Intellog Unique Number	CN_94_101/WELL/3409
WELL.         PARAMOUNT RESOURCES LTD.       : Well_name    - WELL
LOC .         00/07-04-095-18W4/0            : Location     - LOCATION
UWI .         00/07-04-095-18W400            : Uwi          - UNIQUE WELL ID
ENTR.         JOETTE                         : Entered      - ENTERED BY
SRVC.         SCHLUMBERGER                   : Scn          - SERVICE COMPANY
DATE.         07\27\92                       : Date         - LOG DATE
STRT.M        170                            : top_depth    - START DEPTH
STOP.M        325                            : bot_depth    - STOP DEPTH
STEP.M        0.25                           : increment    - STEP LENGTH
 NULL. -999.2500:NULL Value
~CURVE INFORMATION BLOCK
#MNEM UNIT       ERCB CURVE CODE    CURVE DESCRIPTION
#-----------   ------------------   ----------------------------------
DEPT.M        00 001 00 00         : DEPTH        - DEPTH
ILD .OHMM     00 120 00 00         : RESD         - DEEP RESISTIVITY (DIL)
GR  .API      00 310 00 00         : GR           - GAMMA RAY
NPHI.V/V      00 330 00 00         : PHIN         - NEUTRON POROSITY (SANDSTONE)
DPHI.V/V      00 890 00 00         : PHID         - DENSITY POROSITY (SANDSTONE)
~PARAMETER INFORMATION
#MNEM.UNIT           DATA             DESCRIPTION OF MNEMONIC
#---------         -----------     ------------------------------
GL  .M        598.5                : gl           - GROUND LEVEL ELEVATION
EREF.M        602                  : kb           - ELEVATION OF DEPTH REFERENCE
DATM.M        602                  : datum        - DATUM ELEVATION
TDD .M        156                  : tdd          - TOTAL DEPTH DRILLER
RUN .         ONE                  : Run          - RUN NUMBER
ENG .         JO                   : Engineer     - RECORDING ENGINEER
WIT .         TIM                  : Witness      - WITNESSED BY
MUD .         GEL                  : Mud_type     - MUD TYPE
MATR.         SANDSTONE            : Logunit      - NEUTRON MATRIX
TMAX.C        31                   : BHT          - MAXIMUM RECORDED TEMPERATURE
BHTD.M        156                  : BHTDEP       - MAXIMUM RECORDED TEMPERATURE
RMT .C        23                   : MDTP         - TEMPERATURE OF MUD
MUDD.KG/M     1070                 : MWT          - MUD DENSITY
NEUT.         1                    : NEUTRON      - NEUTRON TYPE
RESI.         0                    : RESIST       - RESISTIVITY TYPE
RM  .OHMM     4                    : RM           - RESISTIVITY OF MUD
RMC .OHMM     4                    : RMC          - RESISTIVITY OF MUD CAKE
RMF .OHMM     4.3                  : RMF          - RESISTIVITY OF MUD FILTRATE
SUFT.C        4                    : SUFT         - SURFACE TEMPERATURE
~A  DEPTH     RESD       GR     PHIN     PHID
# ...
  257.000    4.988  107.912    0.454    0.251
  257.250    4.522  109.131    0.446    0.251
  257.500    4.179  119.587    0.445    0.250
  257.750    4.096  123.878    0.461    0.245
  258.000    3.862  120.165    0.484    0.240
  258.250    3.570  115.219    0.529    0.227
  258.500    3.934  109.652    0.493    0.166
  258.750    4.335  114.564    0.477    0.130
  259.000    4.873  119.480    0.455    0.211
  259.250    5.370  121.927    0.474    0.231
  259.500    5.919  119.445    0.446    0.236
  259.750    6.652  117.580    0.440    0.238
  260.000    7.477  118.178    0.416    0.240
  260.250    8.739  121.858    0.385    0.241
  260.500    9.261  125.533    0.383    0.241
  260.750    9.258  124.904    0.379    0.240
  261.000    9.435  122.422    0.373    0.237
  261.250    9.247  119.324    0.369    0.235
  261.500    9.242  118.075    0.374    0.234
  261.750    9.604  117.442    0.379    0.232
  262.000    9.790  116.808    0.385    0.230
  262.250   10.375  114.327    0.390    0.228
  262.500   11.215  109.381    0.383    0.224
  262.750   12.123  105.051    0.371    0.218
  263.000   12.849  105.025    0.359    0.209
  263.250   12.110  108.709    0.406    0.217
  263.500   10.978  116.085    0.431    0.224
  263.750    9.758  119.764    0.404    0.228
  264.000    8.179  119.742    0.400    0.228
  264.250    7.861  119.113    0.410    0.228
  264.500    7.707  117.244    0.427    0.227
  264.750    7.702  117.847    0.424    0.230
  265.000    8.324  115.981    0.396    0.249
  265.250    9.174  106.722    0.386    0.245
  265.500   10.113  105.469    0.379    0.215
  265.750   11.146  105.456    0.365    0.184
  266.000   12.284  104.822    0.370    0.163
  266.250   12.766   98.644    0.346    0.144
  266.500   12.269  102.319    0.325    0.189
  266.750   12.265  105.387    0.343    0.212
  267.000   12.021  108.442    0.369    0.237
  267.250   12.492  109.661    0.383    0.254
  267.500   12.489  110.260    0.385    0.249
  267.750   12.239  110.854    0.381    0.247
  268.000   11.766  110.846    0.377    0.246
  268.250   11.089  111.444    0.383    0.246
  268.500   10.250  112.659    0.390    0.245
  268.750   10.048  115.107    0.394    0.240
  269.000    9.657  120.630    0.395    0.230
  269.250    9.281  122.465    0.394    0.223
  269.500    9.099  121.212    0.393    0.225
  269.750    8.743  118.726    0.393    0.226
  270.000    8.405  117.472    0.405    0.224
  270.250    8.239  117.463    0.405    0.224
  270.500    8.235  117.442    0.398    0.228
  270.750    8.560  118.661    0.394    0.231
  271.000    9.072  120.492    0.411    0.230
  271.250    8.717  124.783    0.433    0.222
  271.500    7.902  126.002    0.438    0.218
  271.750    7.024  117.360    0.436    0.208
  272.000    6.621  112.414    0.430    0.152
  272.250    7.157  109.307    0.376    0.120
  272.500    8.364  112.379    0.343    0.180
  272.750    8.694  117.907    0.374    0.208
  273.000    8.035  119.122    0.469    0.233
  273.250    7.428  114.792    0.447    0.245
  273.500    6.602  111.686    0.413    0.239
  273.750    5.755  111.057    0.401    0.234
  274.000    5.115  111.035    0.409    0.238
  274.250    5.317  112.871    0.457    0.244
  274.500    5.526  119.630    0.463    0.250
  274.750    5.311  123.314    0.480    0.254
  275.000    4.815  122.060    0.517    0.258
  275.250    3.520  116.494    0.502    0.252
  275.500    3.450  112.784    0.480    0.246
  275.750    3.954  109.066    0.462    0.238
  276.000    4.621  105.973    0.445    0.235
  276.250    5.400  104.719    0.426    0.238
  276.500    6.189  106.550    0.417    0.241
  276.750    7.233  111.466    0.424    0.246
  277.000    7.372  118.838    0.432    0.240
  277.250    6.948  120.053    0.426    0.231
  277.500    6.298  117.571    0.431    0.225
  277.750    5.709  114.473    0.448    0.220
  278.000    5.487  111.992    0.473    0.214
  278.250    5.704  110.746    0.442    0.191
  278.500    6.164  107.033    0.406    0.142
  278.750    7.204  101.471    0.361    0.110
  279.000    7.788  103.297    0.327    0.094
  279.250    8.925  100.816    0.300    0.074
  279.500    9.837   96.486    0.283    0.073
  279.750   11.273  104.478    0.309    0.112
  280.000   12.185  110.622    0.339    0.158
  280.250   13.168  116.757    0.375    0.179
  280.500   11.706  117.980    0.386    0.206
  280.750   10.820  119.195    0.386    0.207
  281.000   10.198  118.562    0.386    0.207
  281.250    9.994  116.072    0.391    0.212
  281.500    9.797  115.447    0.392    0.218
  281.750    9.791  114.814    0.392    0.222
  282.000    9.787  114.796    0.391    0.216
  282.250    9.781  116.007    0.391    0.208
  282.500    9.971  112.914    0.391    0.208
  282.750    9.966  113.512    0.390    0.208
  283.000   10.158  117.188    0.389    0.209
  283.250    9.957  119.635    0.392    0.210
  283.500    9.951  119.617    0.394    0.211
  283.750    9.753  118.984    0.389    0.209
  284.000    9.750  119.583    0.391    0.197
  284.250    9.744  120.798    0.395    0.193
  284.500   10.127  118.937    0.396    0.161
  284.750   11.162  104.745    0.385    0.126
  285.000   12.065  101.643    0.305    0.111
  285.250   14.099  101.626    0.297    0.148
  285.500   14.943  102.841    0.328    0.179
  285.750   15.229  105.288    0.361    0.209
  286.000   14.929  110.204    0.377    0.212
  286.250   14.634  112.642    0.372    0.207
  286.500   13.792  113.866    0.372    0.206
  286.750   13.257  115.692    0.375    0.207
  287.000   12.496  116.912    0.378    0.214
  287.250   12.009  113.814    0.380    0.223
  287.500   12.481  106.404    0.380    0.234
  287.750   12.975   99.609    0.377    0.249
  288.000   14.022   96.512    0.377    0.255
  288.250   15.454  101.419    0.382    0.250
  288.500   16.378  102.634    0.382    0.248
  288.750   16.697  102.001    0.388    0.256
  289.000   16.366   99.523    0.393    0.267
  289.250   16.358  100.122    0.403    0.273
  289.500   16.670  103.801    0.403    0.253
  289.750   16.989  106.249    0.410    0.239
  290.000   16.985   97.602    0.322    0.203
  290.250   19.466   90.191    0.303    0.135
  290.500   20.230   95.103    0.342    0.165
  290.750   18.697  100.010    0.378    0.198
  291.000   17.625  101.845    0.396    0.235
  291.250   16.616  104.293    0.400    0.236
  291.500   15.356  104.891    0.403    0.219
  291.750   14.476  100.562    0.407    0.164
  292.000   12.617   87.606    0.363    0.074
  292.250   11.893   78.348    0.306    0.034
  292.500   13.366   72.785    0.254    0.010
  292.750   15.023   67.835    0.213   -0.006
  293.000   17.217   69.050    0.190    0.004
  293.250   18.248   72.734    0.248    0.032
  293.500   18.239   81.342    0.296    0.082
  293.750   16.531   96.723    0.341    0.118
  294.000   15.891  102.871    0.370    0.151
  294.250   13.852  109.631    0.390    0.204
  294.500   12.556  113.926    0.411    0.195
  294.750   10.945  114.525    0.436    0.189
  295.000    9.729  116.972    0.446    0.191
  295.250    9.170  118.795    0.426    0.203
  295.500    8.813  118.782    0.443    0.184
  295.750    8.809  118.148    0.457    0.156
  296.000    8.806  113.202    0.446    0.144
  296.250    8.799  115.033    0.435    0.182
  296.500    8.796  119.941    0.425    0.205
  296.750    8.790  123.624    0.437    0.212
  297.000    8.616  124.223    0.449    0.202
  297.250    8.613  121.741    0.451    0.194
  297.500    8.608  121.104    0.434    0.190
  297.750    8.775  121.091    0.436    0.196
  298.000    9.118  122.306    0.441    0.200
  298.250    9.294  121.056    0.445    0.196
  298.500    9.661  105.021    0.434    0.148
  298.750   10.240  100.686    0.371    0.117
  299.000   10.643  101.906    0.347    0.047
  299.250   10.848  106.201    0.350    0.007
  299.500   10.426  113.577    0.367    0.112
  299.750    9.449  125.266    0.397    0.144
  300.000    8.908  132.642    0.406    0.197
  300.250    8.563  139.401    0.422    0.192
