~VERSION INFORMATION
 VERS.                 2.0:   CWLS LOG ASCII STANDARD -VERSION 2.0
 WRAP.                  NO:   ONE LINE PER DEPTH STEP
~WELL INFORMATION BLOCK
#MNEM.UNIT           DATA                    DESCRIPTION OF MNEMONIC
#---------    -------------------            -------------------------------
# Generated from Intellog Unique Number	CS_73_76/WELL/799
WELL.         SULPETRO LIMITED               : Well_name    - WELL
LOC .         00/09-29-073-10W4/0            : Location     - LOCATION
UWI .         00/09-29-073-10W4/0            : Uwi          - UNIQUE WELL ID
ENTR.         SP                             : Entered      - ENTERED BY
SRVC.         SCHLUMBERGER                   : Scn          - SERVICE COMPANY
STRT.M        295                            : top_depth    - START DEPTH
STOP.M        515                            : bot_depth    - STOP DEPTH
STEP.M        0.25                           : increment    - STEP LENGTH
 NULL. -999.2500:NULL Value
~CURVE INFORMATION BLOCK
#MNEM UNIT       ERCB CURVE CODE    CURVE DESCRIPTION
#-----------   ------------------   ----------------------------------
DEPT.M        00 001 00 00         : DEPTH        - DEPTH
ILD .OHMM     00 120 00 00         : RESD         - DEEP RESISTIVITY (DIL)
DPHI.V/V      00 890 00 00         : PHID         - DENSITY POROSITY (LIMESTONE)
NPHI.V/V      00 330 00 00         : PHIN         - NEUTRON POROSITY (LIMESTONE)
GR  .API      00 310 00 00         : GR           - GAMMA RAY
~PARAMETER INFORMATION
#MNEM.UNIT           DATA             DESCRIPTION OF MNEMONIC
#---------         -----------     ------------------------------
GL  .M        557.9                : gl           - GROUND LEVEL ELEVATION
EREF.M        660                  : kb           - ELEVATION OF DEPTH REFERENCE
DATM.M        557.9                : datum        - DATUM ELEVATION
TDD .M        520                  : tdd          - TOTAL DEPTH DRILLER
RUN .         ONE                  : Run          - RUN NUMBER
ENG .         BILL                 : Engineer     - RECORDING ENGINEER
WIT .         JIM                  : Witness      - WITNESSED BY
MUD .         GEL                  : Mud_type     - MUD TYPE
MATR.         LIMESTONE            : Logunit      - NEUTRON MATRIX
TMAX.C        25                   : BHT          - MAXIMUM RECORDED TEMPERATURE
BHTD.M        520                  : BHTDEP       - MAXIMUM RECORDED TEMPERATURE
MATR.         1                    : LOGUNIT      - NEUTRON MATRIX
RMT .C        25                   : MDTP         - TEMPERATURE OF MUD
NEUT.         1                    : NEUTRON      - NEUTRON TYPE
RESI.         0                    : RESIST       - RESISTIVITY TYPE
RMC .OHMM     0.25                 : RMC          - RESISTIVITY OF MUD CAKE
RMF .OHMM     0.25                 : RMF          - RESISTIVITY OF MUD FILTRATE
SUFT.C        15                   : SUFT         - SURFACE TEMPERATURE
~A  DEPTH     RESD     PHID     PHIN       GR
# ...
  382.000   12.352    0.343    0.469   84.350
  382.250   12.820    0.346    0.452   84.951
  382.500   13.307    0.351    0.446   86.149
  382.750   13.308    0.355    0.441   87.351
  383.000   13.814    0.327    0.441   87.951
  383.250   13.815    0.319    0.446   89.154
  383.500   14.076    0.325    0.451   92.162
  383.750   13.819    0.321    0.464   93.966
  384.000   13.821    0.319    0.478   97.577
  384.250   13.319    0.309    0.472  102.995
  384.500   11.916    0.297    0.468  107.208
  384.750   10.464    0.298    0.480  112.024
  385.000    8.070    0.298    0.514  118.045
  385.250    5.465    0.301    0.561  123.463
  385.500    3.913    0.302    0.581  127.074
  385.750    3.074    0.311    0.599  126.468
  386.000    2.802    0.315    0.602  121.042
  386.250    2.700    0.321    0.589  115.618
  386.500    3.018    0.326    0.608  110.795
  386.750    3.568    0.316    0.607  107.178
  387.000    4.297    0.313    0.608  100.548
  387.250    5.271    0.301    0.608   87.894
  387.500    6.230    0.296    0.608   60.181
  387.750    7.229    0.297    0.608   33.069
  388.000    7.504    0.297    0.609   16.801
  388.250    7.645    0.299    0.610    2.942
  388.500    7.646    0.301    0.610    0.000
  388.750    7.647    0.301    0.610    0.000
  389.000    7.648    0.298    0.610    0.000
  389.250    7.649    0.289    0.612    0.000
  389.500    7.940    0.274    0.613    0.000
  389.750    8.396    0.239    0.614    0.000
  390.000    9.386    0.209    0.614    0.000
  390.250   10.691    0.086    0.614    0.000
  390.500   11.516    0.074    0.615    0.000
  390.750   12.876    0.121    0.615    0.000
  391.000   13.118    0.149    0.616    0.000
  391.250   11.521    0.200    0.616    0.000
  391.500    9.393    0.228    0.616    0.000
  391.750    8.404    0.257    0.618    0.000
  392.000    7.949    0.275    0.618    0.000
  392.250    7.520    0.288    0.618    0.000
  392.500    7.247    0.294    0.619    0.000
  392.750    7.114    0.296    0.619    0.000
  393.000    6.984    0.288    0.619    0.000
  393.250    6.985    0.292    0.619    0.000
  393.500    6.858    0.373    0.616    0.000
  393.750    6.732    0.453    0.614   13.108
  394.000    6.733    0.491    0.595   49.851
  394.250    6.488    0.559    0.582   93.823
  394.500    6.138    0.270    0.577  107.072
  394.750    6.025    0.272    0.568  105.864
  395.000    6.026    0.278    0.562  103.450
  395.250    6.140    0.283    0.503  102.243
  395.500    6.140    0.285    0.506   99.830
  395.750    6.374    0.276    0.511  106.452
  396.000    6.494    0.265    0.514  110.063
  396.250    6.741    0.254    0.521  111.867
  396.500    6.868    0.236    0.519  115.477
  396.750    6.869    0.217    0.513  113.668
  397.000    6.999    0.195    0.496  110.050
  397.250    6.999    0.165    0.468  106.432
  397.500    7.265    0.155    0.431   99.199
  397.750    7.266    0.180    0.414   91.968
  398.000    7.403    0.205    0.427   96.180
  398.250    7.268    0.230    0.453  102.802
  398.500    7.004    0.253    0.481  105.812
  398.750    6.876    0.254    0.507  110.025
  399.000    6.750    0.259    0.512  113.033
  399.250    6.627    0.256    0.509  113.633
  399.500    6.628    0.262    0.503  113.028
  399.750    6.628    0.267    0.493  110.011
  400.000    6.629    0.266    0.500  106.997
  400.250    6.630    0.267    0.512  110.605
  400.500    6.509    0.260    0.516  112.409
  400.750    6.510    0.250    0.522  115.419
  401.000    6.390    0.240    0.528  118.429
  401.250    6.392    0.229    0.530  116.015
  401.500    6.275    0.223    0.524  117.818
  401.750    6.276    0.226    0.520  118.418
  402.000    6.161    0.220    0.514  119.017
  402.250    6.162    0.219    0.510  121.422
  402.500    6.049    0.222    0.499  121.420
  402.750    6.050    0.214    0.489  121.416
  403.000    5.939    0.222    0.477  120.811
  403.250    5.831    0.220    0.488  120.807
  403.500    5.831    0.218    0.496  120.804
  403.750    5.619    0.219    0.512  120.198
  404.000    5.315    0.224    0.517  115.978
  404.250    4.668    0.235    0.505  112.360
  404.500    4.024    0.246    0.500  121.993
  404.750    3.405    0.261    0.530  125.605
  405.000    2.829    0.271    0.572  128.614
  405.250    2.306    0.284    0.600  131.021
  405.500    2.141    0.287    0.617  125.596
  405.750    2.064    0.290    0.634  125.591
  406.000    2.103    0.288    0.646  126.794
  406.250    2.308    0.281    0.623  126.188
  406.500    2.486    0.265    0.594  122.570
  406.750    3.049    0.259    0.545  118.350
  407.000    3.741    0.246    0.521  114.130
  407.250    4.341    0.243    0.496  110.512
  407.500    4.853    0.243    0.493  106.894
  407.750    5.132    0.246    0.494  106.891
  408.000    5.132    0.237    0.496  106.887
  408.250    5.133    0.254    0.493  106.280
  408.500    5.134    0.264    0.489  105.675
  408.750    5.134    0.268    0.496  105.070
  409.000    5.135    0.289    0.513  104.464
  409.250    5.135    0.281    0.529  103.857
  409.500    5.233    0.300    0.541  103.855
  409.750    5.233    0.305    0.516  102.647
  410.000    5.234    0.309    0.497  101.437
  410.250    5.234    0.295    0.485  101.434
  410.500    5.235    0.286    0.477  102.635
  410.750    5.236    0.280    0.474  103.838
  411.000    5.236    0.276    0.477   99.618
  411.250    5.141    0.297    0.479   97.204
  411.500    5.047    0.303    0.482   94.189
  411.750    4.955    0.286    0.477   89.366
  412.000    4.955    0.281    0.476   85.748
  412.250    5.049    0.276    0.481   87.552
  412.500    5.240    0.268    0.489   93.571
  412.750    5.340    0.258    0.494   96.581
  413.000    5.440    0.254    0.489  100.192
  413.250    5.441    0.267    0.485  103.803
  413.500    5.441    0.275    0.493  106.812
  413.750    5.544    0.270    0.499  109.821
  414.000    5.545    0.247    0.498  110.420
  414.250    5.546    0.226    0.500  107.403
  414.500    5.546    0.216    0.489  105.594
  414.750    5.445    0.209    0.479  104.988
  415.000    5.445    0.242    0.473  104.381
  415.250    5.447    0.259    0.468  104.981
  415.500    5.447    0.275    0.468  104.977
  415.750    5.448    0.285    0.470  104.371
  416.000    5.448    0.294    0.463  103.766
  416.250    5.349    0.308    0.458  101.352
  416.500    5.350    0.311    0.470  100.144
  416.750    5.451    0.311    0.476   97.731
  417.000    5.451    0.317    0.486   94.114
  417.250    5.452    0.327    0.493   92.303
  417.500    5.659    0.331    0.498   90.492
  417.750    5.659    0.335    0.479   89.887
  418.000    5.660    0.325    0.474   91.087
  418.250    5.661    0.316    0.463   92.892
  418.500    5.662    0.306    0.476   92.888
  418.750    5.662    0.314    0.474   92.886
  419.000    5.663    0.331    0.468   94.689
  419.250    5.664    0.333    0.459   94.685
  419.500    5.560    0.331    0.453   94.080
  419.750    5.561    0.315    0.447   89.860
  420.000    5.562    0.294    0.435   85.036
  420.250    5.562    0.293    0.428   82.022
  420.500    5.668    0.304    0.441   82.018
  420.750    5.668    0.311    0.454   84.425
  421.000    5.669    0.326    0.468   88.036
  421.250    5.776    0.323    0.478   92.850
  421.500    5.776    0.321    0.493   94.654
  421.750    5.777    0.313    0.492   96.458
  422.000    5.886    0.301    0.484   97.058
  422.250    5.887    0.289    0.481  100.066
  422.500    5.888    0.282    0.478  101.268
  422.750    5.888    0.280    0.475  100.060
  423.000    5.889    0.286    0.473   98.851
  423.250    6.000    0.297    0.470   94.027
  423.500    6.001    0.304    0.466   92.820
  423.750    6.002    0.305    0.460   91.612
  424.000    6.002    0.290    0.457   91.609
  424.250    6.116    0.267    0.456   94.617
  424.500    6.004    0.261    0.452   98.228
  424.750    6.005    0.269    0.451  100.634
  425.000    5.895    0.275    0.456  103.041
  425.250    5.681    0.283    0.462  103.037
