~VERSION INFORMATION
 VERS.                 2.0:   CWLS LOG ASCII STANDARD -VERSION 2.0
 WRAP.                  NO:   ONE LINE PER DEPTH STEP
~WELL INFORMATION BLOCK
#MNEM.UNIT           DATA                    DESCRIPTION OF MNEMONIC
#---------    -------------------            -------------------------------
# Generated from Intellog Unique Number	CS_71_72/WELL/771
WELL.         BVX ET AL CALL                 : Well_name    - WELL
LOC .         00/06-19-071-17W4/0            : Location     - LOCATION
UWI .         00/06-19-071-17W4/0            : Uwi          - UNIQUE WELL ID
ENTR.         SP                             : Entered      - ENTERED BY
SRVC.         SCHLUMBERGER                   : Scn          - SERVICE COMPANY
STRT.M        289.56                         : top_depth    - START DEPTH
STOP.M        469.06                         : bot_depth    - STOP DEPTH
STEP.M        0.25                           : increment    - STEP LENGTH
 NULL. -999.2500:NULL Value
~CURVE INFORMATION BLOCK
#MNEM UNIT       ERCB CURVE CODE    CURVE DESCRIPTION
#-----------   ------------------   ----------------------------------
DEPT.M        00 001 00 00         : DEPTH        - DEPTH
GR  .API      00 310 00 00         : GR           - GAMMA RAY
DPHI.V/V      00 890 00 00         : PHID         - DENSITY POROSITY (SANDSTONE)
NPHI.V/V      00 330 00 00         : PHIN         - NEUTRON POROSITY (SANDSTONE)
ILD .OHMM     00 120 00 00         : RESD         - DEEP RESISTIVITY (DIL)
~PARAMETER INFORMATION
#MNEM.UNIT           DATA             DESCRIPTION OF MNEMONIC
#---------         -----------     ------------------------------
GL  .M        588.569              : gl           - GROUND LEVEL ELEVATION
EREF.M        591.617              : kb           - ELEVATION OF DEPTH REFERENCE
DATM.M        588.569              : datum        - DATUM ELEVATION
TDD .M        487.68               : tdd          - TOTAL DEPTH DRILLER
RUN .         ONE                  : Run          - RUN NUMBER
ENG .         BILL                 : Engineer     - RECORDING ENGINEER
WIT .         JIM                  : Witness      - WITNESSED BY
MUD .         GEL                  : Mud_type     - MUD TYPE
MATR.         SANDSTONE            : Logunit      - NEUTRON MATRIX
TMAX.C        25.5556              : BHT          - MAXIMUM RECORDED TEMPERATURE
BHTD.M        487.68               : BHTDEP       - MAXIMUM RECORDED TEMPERATURE
MATR.         1                    : LOGUNIT      - NEUTRON MATRIX
RMT .C        25                   : MDTP         - TEMPERATURE OF MUD
NEUT.         1                    : NEUTRON      - NEUTRON TYPE
RESI.         0                    : RESIST       - RESISTIVITY TYPE
RMC .OHMM     0.25                 : RMC          - RESISTIVITY OF MUD CAKE
RMF .OHMM     0.25                 : RMF          - RESISTIVITY OF MUD FILTRATE
SUFT.C        15                   : SUFT         - SURFACE TEMPERATURE
~A  DEPTH       GR     PHID     PHIN     RESD
# ...
  333.060   75.496    0.277    0.475    5.705
  333.310   77.206    0.264    0.481    5.444
  333.560   79.739    0.252    0.495    5.178
  333.810   82.311    0.269    0.492    4.979
  334.060   84.965    0.256    0.488    4.887
  334.310   89.968    0.237    0.504    4.831
  334.560   92.196    0.223    0.506    4.870
  334.810   91.084    0.240    0.504    4.970
  335.060   84.337    0.244    0.518    5.139
  335.310   77.538    0.242    0.525    5.362
  335.560   72.591    0.307    0.456    5.585
  335.810   70.637    0.292    0.451    5.775
  336.060   73.467    0.282    0.452    5.912
  336.310   76.735    0.271    0.456    5.911
  336.560   80.297    0.246    0.466    5.725
  336.810   82.546    0.252    0.460    5.332
  337.060   84.567    0.259    0.452    5.100
  337.310   89.133    0.251    0.460    4.821
  337.560   92.179    0.247    0.479    4.558
  337.810   94.319    0.254    0.486    4.418
  338.060   95.076    0.237    0.493    4.416
  338.310   95.433    0.234    0.539    4.553
  338.560   95.913    0.244    0.571    4.805
  338.810   95.213    0.245    0.556    5.048
  339.060   91.666    0.225    0.542    5.300
  339.310   84.420    0.241    0.516    5.625
  339.560   80.232    0.255    0.497    5.994
  339.810   72.887    0.272    0.537    6.461
  340.060   62.861    0.301    0.576    6.846
  340.310   50.158    0.446    0.563    6.482
  340.560   46.374    0.448    0.527    5.970
  340.810   46.233    0.321    0.433    5.623
  341.060   48.317    0.302    0.411    5.337
  341.310   50.481    0.319    0.414    5.146
  341.560   51.315    0.326    0.422    5.069
  341.810   51.596    0.325    0.430    5.034
  342.060   51.560    0.331    0.434    5.011
  342.310   51.741    0.336    0.435    5.002
  342.560   51.602    0.325    0.434    4.980
  342.810   52.199    0.303    0.430    4.903
  343.060   52.951    0.313    0.424    5.177
  343.310   52.799    0.325    0.419    5.082
  343.560   51.837    0.333    0.411    5.002
  343.810   51.601    0.316    0.404    5.013
  344.060   53.421    0.332    0.400    5.075
  344.310   54.459    0.321    0.399    5.144
  344.560   55.789    0.322    0.394    5.150
  344.810   56.301    0.332    0.391    5.109
  345.060   55.913    0.339    0.395    5.174
  345.310   54.542    0.329    0.402    5.085
  345.560   52.159    0.320    0.416    4.953
  345.810   51.059    0.307    0.428    4.878
  346.060   49.694    0.319    0.428    4.906
  346.310   49.709    0.320    0.416    4.965
  346.560   52.232    0.319    0.402    4.980
  346.810   53.065    0.329    0.405    4.906
  347.060   54.636    0.323    0.435    4.778
  347.310   55.546    0.330    0.437    4.672
  347.560   56.376    0.330    0.432    4.739
  347.810   58.362    0.324    0.427    4.943
  348.060   58.518    0.318    0.418    5.097
  348.310   58.790    0.308    0.418    5.042
  348.560   58.525    0.303    0.435    4.947
  348.810   57.609    0.314    0.419    4.860
  349.060   57.528    0.324    0.409    4.836
  349.310   61.084    0.321    0.409    4.821
  349.560   65.828    0.324    0.440    4.843
  349.810   67.151    0.328    0.461    4.797
  350.060   62.972    0.326    0.472    4.786
  350.310   60.229    0.326    0.452    4.782
  350.560   56.672    0.325    0.441    4.843
  350.810   56.246    0.325    0.432    4.875
  351.060   56.614    0.332    0.431    4.894
  351.310   57.302    0.330    0.441    4.858
  351.560   57.431    0.325    0.447    4.938
  351.810   57.347    0.319    0.446    4.961
  352.060   55.370    0.316    0.442    4.941
  352.310   54.121    0.311    0.429    4.948
  352.560   53.865    0.316    0.422    4.983
  352.810   54.342    0.305    0.428    4.986
  353.060   55.457    0.318    0.419    4.949
  353.310   57.256    0.318    0.415    5.030
  353.560   58.587    0.321    0.416    5.070
  353.810   58.780    0.323    0.431    5.118
  354.060   58.677    0.327    0.454    5.231
  354.310   57.930    0.337    0.473    5.275
  354.560   56.744    0.337    0.471    5.331
  354.810   55.060    0.329    0.458    5.362
  355.060   52.894    0.321    0.447    5.433
  355.310   51.694    0.316    0.441    5.540
  355.560   52.026    0.319    0.437    5.645
  355.810   53.961    0.325    0.450    5.590
  356.060   56.638    0.317    0.475    5.622
  356.310   58.805    0.319    0.494    5.611
  356.560   59.190    0.315    0.497    5.597
  356.810   57.214    0.322    0.475    5.471
  357.060   55.351    0.309    0.477    5.365
  357.310   55.306    0.307    0.463    5.381
  357.560   57.639    0.311    0.453    5.497
  357.810   58.402    0.310    0.442    5.686
  358.060   56.835    0.313    0.435    6.114
  358.310   56.468    0.322    0.424    6.624
  358.560   58.270    0.327    0.410    6.870
  358.810   58.762    0.326    0.402    6.913
  359.060   57.807    0.322    0.406    6.680
  359.310   57.270    0.313    0.396    6.155
  359.560   58.274    0.305    0.396    5.612
  359.810   60.959    0.304    0.421    5.242
  360.060   63.845    0.298    0.430    4.933
  360.310   64.311    0.301    0.436    4.690
  360.560   62.968    0.294    0.440    4.557
  360.810   61.010    0.279    0.434    4.407
  361.060   59.450    0.302    0.440    4.295
  361.310   57.770    0.317    0.439    4.275
  361.560   55.230    0.331    0.436    4.155
  361.810   54.154    0.332    0.433    4.037
  362.060   54.031    0.332    0.440    4.060
  362.310   53.403    0.336    0.446    4.208
  362.560   50.960    0.343    0.433    4.352
  362.810   48.337    0.330    0.425    4.496
  363.060   48.627    0.316    0.418    4.628
  363.310   54.043    0.330    0.423    4.766
  363.560   60.597    0.316    0.425    4.891
  363.810   66.838    0.279    0.416    4.964
  364.060   73.455    0.224    0.421    5.083
  364.310   80.809    0.206    0.456    5.099
  364.560   85.663    0.220    0.496    5.039
  364.810   83.526    0.249    0.506    4.964
  365.060   82.268    0.239    0.511    4.907
  365.310   82.078    0.209    0.523    4.889
  365.560   82.591    0.214    0.530    4.837
  365.810   79.144    0.219    0.504    4.806
  366.060   71.867    0.235    0.476    4.803
  366.310   65.280    0.281    0.454    4.814
  366.560   60.828    0.321    0.433    4.804
  366.810   57.757    0.332    0.419    4.765
  367.060   57.232    0.340    0.416    4.643
  367.310   60.178    0.327    0.429    4.757
  367.560   63.122    0.317    0.443    4.821
  367.810   64.500    0.306    0.438    4.753
  368.060   65.472    0.306    0.442    4.703
  368.310   66.351    0.305    0.451    4.553
  368.560   67.152    0.303    0.467    4.259
  368.810   68.003    0.311    0.479    3.826
  369.060   68.886    0.314    0.494    3.633
  369.310   71.285    0.297    0.492    3.320
  369.560   73.597    0.304    0.480    3.082
  369.810   76.283    0.295    0.479    2.789
  370.060   78.277    0.279    0.496    2.645
  370.310   79.669    0.302    0.526    2.908
  370.560   80.009    0.334    0.565    3.198
  370.810   80.242    0.352    0.580    3.436
  371.060   81.701    0.333    0.569    3.718
  371.310   83.692    0.308    0.550    3.980
  371.560   82.651    0.292    0.520    4.122
  371.810   77.234    0.263    0.505    4.147
  372.060   68.395    0.278    0.503    4.113
  372.310   62.275    0.310    0.496    3.967
  372.560   59.747    0.342    0.472    3.984
  372.810   58.434    0.355    0.447    4.037
  373.060   58.467    0.339    0.447    4.102
  373.310   60.193    0.330    0.440    4.154
  373.560   61.444    0.322    0.440    4.195
  373.810   61.305    0.323    0.441    4.260
  374.060   60.097    0.331    0.449    4.358
  374.310   61.029    0.333    0.462    4.652
  374.560   63.405    0.333    0.464    5.218
  374.810   64.383    0.292    0.453    5.868
  375.060   63.399    0.265    0.443    6.516
  375.310   61.158    0.234    0.422    7.022
  375.560   59.642    0.162    0.375    7.610
  375.810   58.191    0.149    0.336    9.042
  376.060   54.569    0.147    0.286   10.133
  376.310   52.136    0.156    0.259    8.775
