~VERSION INFORMATION
 VERS.                 2.0:   CWLS LOG ASCII STANDARD -VERSION 2.0
 WRAP.                  NO:   ONE LINE PER DEPTH STEP
~WELL INFORMATION BLOCK
#MNEM.UNIT           DATA                    DESCRIPTION OF MNEMONIC
#---------    -------------------            -------------------------------
# Generated from Intellog Unique Number	CS_73_76/WELL/1999
WELL.         HOME OIL COMPANY LIMITED       : Well_name    - WELL
LOC .         00/06-36-075-06W4/0            : Location     - LOCATION
UWI .         00/06-36-075-06W4/0            : Uwi          - UNIQUE WELL ID
ENTR.         SP                             : Entered      - ENTERED BY
SRVC.         SCHLUMBERGER                   : Scn          - SERVICE COMPANY
STRT.M        195                            : top_depth    - START DEPTH
STOP.M        425                            : bot_depth    - STOP DEPTH
STEP.M        0.25                           : increment    - STEP LENGTH
 NULL. -999.2500:NULL Value
~CURVE INFORMATION BLOCK
#MNEM UNIT       ERCB CURVE CODE    CURVE DESCRIPTION
#-----------   ------------------   ----------------------------------
DEPT.M        00 001 00 00         : DEPTH        - DEPTH
ILD .OHMM     00 120 00 00         : RESD         - DEEP RESISTIVITY (DIL)
DPHI.V/V      00 890 00 00         : PHID         - DENSITY POROSITY (LIMESTONE)
NPHI.V/V      00 330 00 00         : PHIN         - NEUTRON POROSITY (LIMESTONE)
GR  .API      00 310 00 00         : GR           - GAMMA RAY
~PARAMETER INFORMATION
#MNEM.UNIT           DATA             DESCRIPTION OF MNEMONIC
#---------         -----------     ------------------------------
GL  .M        608.8                : gl           - GROUND LEVEL ELEVATION
EREF.M        612.3                : kb           - ELEVATION OF DEPTH REFERENCE
DATM.M        608.8                : datum        - DATUM ELEVATION
TDD .M        440                  : tdd          - TOTAL DEPTH DRILLER
RUN .         ONE                  : Run          - RUN NUMBER
ENG .         BILL                 : Engineer     - RECORDING ENGINEER
WIT .         JIM                  : Witness      - WITNESSED BY
MUD .         GEL                  : Mud_type     - MUD TYPE
MATR.         LIMESTONE            : Logunit      - NEUTRON MATRIX
TMAX.C        18                   : BHT          - MAXIMUM RECORDED TEMPERATURE
BHTD.M        440                  : BHTDEP       - MAXIMUM RECORDED TEMPERATURE
MATR.         1                    : LOGUNIT      - NEUTRON MATRIX
RMT .C        25                   : MDTP         - TEMPERATURE OF MUD
NEUT.         1                    : NEUTRON      - NEUTRON TYPE
RESI.         0                    : RESIST       - RESISTIVITY TYPE
RMC .OHMM     0.25                 : RMC          - RESISTIVITY OF MUD CAKE
RMF .OHMM     0.25                 : RMF          - RESISTIVITY OF MUD FILTRATE
SUFT.C        15                   : SUFT         - SURFACE TEMPERATURE
~A  DEPTH     RESD     PHID     PHIN       GR
# ...
  282.000    7.369    0.258    0.450   89.320
  282.250    6.718    0.274    0.451   91.733
  282.500    5.089    0.273    0.458   97.158
  282.750    4.470    0.255    0.487   99.569
  283.000    3.855    0.243    0.511  101.980
  283.250    3.580    0.241    0.528  101.982
  283.500    3.324    0.251    0.547   99.575
  283.750    3.263    0.273    0.570   93.553
  284.000    3.387    0.288    0.539   85.724
  284.250    4.389    0.277    0.498   74.882
  284.500    6.357    0.288    0.485   67.054
  284.750    7.794    0.300    0.465   64.646
  285.000    9.555    0.325    0.446   61.636
  285.250   11.289    0.327    0.433   59.229
  285.500   12.852    0.327    0.431   56.219
  285.750   13.587    0.330    0.426   55.619
  286.000   14.100    0.330    0.433   57.428
  286.250   14.364    0.329    0.445   59.840
  286.500   14.907    0.322    0.456   60.445
  286.750   14.908    0.295    0.463   61.050
  287.000   14.909    0.303    0.444   60.449
  287.250   14.909    0.307    0.434   62.861
  287.500   14.910    0.301    0.441   64.068
  287.750   15.189    0.304    0.440   64.672
  288.000   15.474    0.301    0.428   61.061
  288.250   15.764    0.292    0.416   61.062
  288.500   16.360    0.281    0.420   61.064
  288.750   16.977    0.215    0.427   58.658
  289.000   17.619    0.158    0.268   55.648
  289.250   17.619    0.111    0.250   57.457
  289.500   17.297    0.210    0.301   67.098
  289.750   15.479    0.264    0.351   73.124
  290.000   13.597    0.315    0.405   70.717
  290.250   12.863    0.329    0.467   69.513
  290.500   11.092    0.335    0.443   68.312
  290.750   10.493    0.322    0.434   70.121
  291.000    9.218    0.310    0.434   71.327
  291.250    7.949    0.284    0.434   73.137
  291.500    6.983    0.274    0.433   75.549
  291.750    6.249    0.265    0.443   79.166
  292.000    5.592    0.271    0.456   85.794
  292.250    5.097    0.260    0.461   90.616
  292.500    4.822    0.247    0.469   92.425
  292.750    4.734    0.236    0.467   88.813
  293.000    4.734    0.248    0.467   83.393
  293.250    4.734    0.234    0.476   85.806
  293.500    4.913    0.258    0.480   86.410
  293.750    5.291    0.266    0.489   84.003
  294.000    5.698    0.284    0.493   80.993
  294.250    6.024    0.277    0.485   79.790
  294.500    6.369    0.268    0.470   76.781
  294.750    6.733    0.258    0.464   77.987
  295.000    6.859    0.252    0.462   81.001
  295.250    6.988    0.264    0.453   79.197
  295.500    7.118    0.260    0.445   79.199
  295.750    7.119    0.269    0.446   80.406
  296.000    7.252    0.262    0.447   80.408
  296.250    7.252    0.251    0.449   81.012
  296.500    7.253    0.266    0.451   80.413
  296.750    6.989    0.271    0.459   79.813
  297.000    6.372    0.246    0.471   79.814
  297.250    5.917    0.243    0.480   78.613
  297.500    5.495    0.257    0.468   78.011
  297.750    5.394    0.258    0.452   79.218
  298.000    5.394    0.251    0.457   81.630
  298.250    5.598    0.241    0.458   84.042
  298.500    5.810    0.228    0.470   87.057
  298.750    5.918    0.234    0.475   88.263
  299.000    5.919    0.211    0.467   91.881
  299.250    6.142    0.224    0.461   92.484
  299.500    6.143    0.240    0.451   93.091
  299.750    6.143    0.243    0.465   93.092
  300.000    6.143    0.261    0.471   91.287
  300.250    6.144    0.254    0.477   90.084
  300.500    6.144    0.243    0.486   88.883
  300.750    6.031    0.236    0.482   90.089
  301.000    5.706    0.242    0.479   91.295
  301.250    5.601    0.229    0.470   94.912
  301.500    5.202    0.223    0.480  100.939
  301.750    5.013    0.215    0.471  102.748
  302.000    4.742    0.206    0.480   99.136
  302.250    4.742    0.207    0.487   98.535
  302.500    4.570    0.206    0.495   97.935
  302.750    4.486    0.206    0.499   97.937
  303.000    4.323    0.212    0.507   96.734
  303.250    4.015    0.228    0.512   94.930
  303.500    3.593    0.241    0.519   96.137
  303.750    3.399    0.251    0.527  102.163
  304.000    3.041    0.257    0.570  105.780
  304.250    2.824    0.240    0.593  106.986
  304.500    2.722    0.239    0.569  106.387
  304.750    2.672    0.247    0.554  103.377
  305.000    2.672    0.258    0.549  100.969
  305.250    2.722    0.247    0.535  100.971
  305.500    2.722    0.243    0.557   98.564
  305.750    2.722    0.249    0.566   95.554
  306.000    2.825    0.263    0.571   91.943
  306.250    2.878    0.266    0.588   90.137
  306.500    3.043    0.264    0.543   88.332
  306.750    3.464    0.255    0.522   88.334
  307.000    3.731    0.252    0.498   90.144
  307.250    4.018    0.271    0.446   93.158
  307.500    4.327    0.275    0.416   94.364
  307.750    4.747    0.299    0.381   97.981
  308.000    5.305    0.330    0.349  102.803
  308.250    6.039    0.338    0.317  110.636
  308.500    7.135    0.318    0.290  123.891
  308.750    7.828    0.341    0.282  142.568
  309.000    8.748    0.321    0.329  157.029
  309.250    9.079    0.287    0.386  169.682
  309.500    9.079    0.265    0.434  149.804
  309.750    8.913    0.258    0.446  135.348
  310.000    8.913    0.217    0.338  113.061
  310.250    9.080    0.129    0.299   91.979
  310.500    9.962    0.074    0.266   79.331
  310.750   11.553    0.051    0.243   70.899
  311.000   12.213    0.152    0.246   64.274
  311.250   11.554    0.189    0.278   60.060
  311.500   10.339    0.225    0.330   58.857
  311.750    9.252    0.268    0.375   57.053
  312.000    7.689    0.289    0.412   56.452
  312.250    6.754    0.302    0.448   55.249
  312.500    5.824    0.308    0.421   54.047
  312.750    5.510    0.308    0.425   52.844
  313.000    5.117    0.301    0.434   51.039
  313.250    5.117    0.312    0.447   52.246
  313.500    5.213    0.323    0.453   54.055
  313.750    5.310    0.324    0.445   55.865
  314.000    5.410    0.325    0.450   56.470
  314.250    5.410    0.325    0.457   55.869
  314.500    5.311    0.326    0.460   55.269
  314.750    5.118    0.325    0.440   53.464
  315.000    4.932    0.317    0.430   52.261
  315.250    4.666    0.326    0.425   50.458
  315.500    4.581    0.313    0.424   50.459
  315.750    4.581    0.307    0.429   50.461
  316.000    4.414    0.310    0.435   51.067
  316.250    4.334    0.300    0.436   51.068
  316.500    4.334    0.296    0.406   51.070
  316.750    4.254    0.306    0.397   51.675
  317.000    4.255    0.319    0.400   51.677
  317.250    4.255    0.323    0.409   52.281
  317.500    4.255    0.330    0.430   52.887
  317.750    4.255    0.319    0.433   52.889
  318.000    4.255    0.315    0.421   52.890
  318.250    4.256    0.312    0.410   52.290
  318.500    4.256    0.313    0.412   52.292
  318.750    4.178    0.330    0.413   51.693
  319.000    4.101    0.318    0.410   51.694
  319.250    3.952    0.312    0.415   53.505
  319.500    3.809    0.313    0.417   54.711
  319.750    3.671    0.331    0.418   56.520
  320.000    3.603    0.331    0.422   57.727
  320.250    3.537    0.338    0.425   58.331
  320.500    3.409    0.342    0.429   54.721
  320.750    3.285    0.344    0.425   54.119
  321.000    3.285    0.342    0.416   55.930
  321.250    3.285    0.330    0.410   57.137
  321.500    3.286    0.337    0.410   58.946
  321.750    3.286    0.342    0.416   62.563
  322.000    3.410    0.345    0.421   64.371
  322.250    3.474    0.331    0.423   67.386
  322.500    3.474    0.319    0.439   69.196
  322.750    3.539    0.322    0.435   70.402
  323.000    3.539    0.337    0.428   71.609
  323.250    3.606    0.337    0.424   67.997
  323.500    3.673    0.333    0.439   69.205
  323.750    3.673    0.338    0.453   70.411
  324.000    3.673    0.344    0.466   71.618
  324.250    3.742    0.331    0.467   70.416
  324.500    3.742    0.316    0.449   70.417
  324.750    3.813    0.309    0.439   72.830
  325.000    3.884    0.314    0.430   77.049
  325.250    4.106    0.285    0.453   81.870
