~VERSION INFORMATION
 VERS.                 2.0:   CWLS LOG ASCII STANDARD -VERSION 2.0
 WRAP.                  NO:   ONE LINE PER DEPTH STEP
~WELL INFORMATION BLOCK
#MNEM.UNIT           DATA                    DESCRIPTION OF MNEMONIC
#---------    -------------------            -------------------------------
# Generated from Intellog Unique Number	CS_73_76/WELL/2103
WELL.         07-08-076-12W4                 : Well_name    - WELL
LOC .         00/07-08-076-12W4/0            : Location     - LOCATION
UWI .         00/07-08-076-12W4/0            : Uwi          - UNIQUE WELL ID
ENTR.         SP                             : Entered      - ENTERED BY
SRVC.         SCHLUMBERGER                   : Scn          - SERVICE COMPANY
STRT.M        329.184                        : top_depth    - START DEPTH
STOP.M        566.684                        : bot_depth    - STOP DEPTH
STEP.M        0.25                           : increment    - STEP LENGTH
 NULL. -999.2500:NULL Value
~CURVE INFORMATION BLOCK
#MNEM UNIT       ERCB CURVE CODE    CURVE DESCRIPTION
#-----------   ------------------   ----------------------------------
DEPT.M        00 001 00 00         : DEPTH        - DEPTH
GR  .API      00 310 00 00         : GR           - GAMMA RAY
DPHI.V/V      00 890 00 00         : PHID         - DENSITY POROSITY (SANDSTONE)
NPHI.V/V      00 330 00 00         : PHIN         - NEUTRON POROSITY (SANDSTONE)
ILD .OHMM     00 120 00 00         : RESD         - DEEP RESISTIVITY (DIL)
~PARAMETER INFORMATION
#MNEM.UNIT           DATA             DESCRIPTION OF MNEMONIC
#---------         -----------     ------------------------------
GL  .M        709.879              : gl           - GROUND LEVEL ELEVATION
EREF.M        713.842              : kb           - ELEVATION OF DEPTH REFERENCE
DATM.M        709.879              : datum        - DATUM ELEVATION
TDD .M        585.216              : tdd          - TOTAL DEPTH DRILLER
RUN .         ONE                  : Run          - RUN NUMBER
ENG .         BILL                 : Engineer     - RECORDING ENGINEER
WIT .         JIM                  : Witness      - WITNESSED BY
MUD .         GEL                  : Mud_type     - MUD TYPE
MATR.         SANDSTONE            : Logunit      - NEUTRON MATRIX
TMAX.C        32.2222              : BHT          - MAXIMUM RECORDED TEMPERATURE
BHTD.M        585.216              : BHTDEP       - MAXIMUM RECORDED TEMPERATURE
MATR.         1                    : LOGUNIT      - NEUTRON MATRIX
RMT .C        25                   : MDTP         - TEMPERATURE OF MUD
NEUT.         1                    : NEUTRON      - NEUTRON TYPE
RESI.         0                    : RESIST       - RESISTIVITY TYPE
RMC .OHMM     0.25                 : RMC          - RESISTIVITY OF MUD CAKE
RMF .OHMM     0.25                 : RMF          - RESISTIVITY OF MUD FILTRATE
SUFT.C        15                   : SUFT         - SURFACE TEMPERATURE
~A  DEPTH       GR     PHID     PHIN     RESD
  329.184   83.066    0.179    0.557    3.172
  329.434   84.439    0.149    0.555    3.387
  329.684   90.989    0.143    0.577    3.565
  329.934   98.453    0.234    0.573    3.671
  330.184   97.257    0.260    0.578    3.711
  330.434   95.293    0.229    0.589    3.740
  330.684   94.197    0.238    0.597    3.740
  330.934   96.542    0.236    0.597    3.707
  331.184   97.363    0.235    0.594    3.669
  331.434   96.874    0.228    0.589    3.603
  331.684   95.999    0.222    0.579    3.602
  331.934   96.707    0.230    0.568    3.678
  332.184   98.407    0.223    0.575    3.787
  332.434  101.170    0.212    0.577    3.885
  332.684  101.970    0.195    0.570    3.951
  332.934  106.582    0.213    0.573    4.030
  333.184  109.588    0.222    0.559    4.016
  333.434  109.398    0.211    0.552    3.890
  333.684  105.782    0.221    0.559    3.770
  333.934  102.955    0.229    0.564    3.745
  334.184  100.449    0.219    0.534    3.744
  334.434   99.274    0.225    0.520    3.762
  334.684   98.944    0.220    0.521    3.965
  334.934   99.335    0.225    0.519    4.082
  335.184  100.204    0.212    0.512    4.207
  335.434   99.504    0.198    0.504    4.336
  335.684   98.223    0.196    0.511    4.288
  335.934   95.466    0.190    0.521    4.158
  336.184   87.415    0.226    0.525    4.036
  336.434   78.903    0.267    0.636    3.958
  336.684   68.499    0.334    0.716    4.001
  336.934   57.422    0.420    0.655    5.643
  337.184   42.663    0.483    0.576   10.512
  337.434   32.457    0.381    0.465   15.092
  337.684   27.872    0.325    0.413   17.391
  337.934   26.271    0.321    0.398   19.328
  338.184   27.716    0.326    0.391   20.254
  338.434   29.040    0.323    0.393   20.333
  338.684   31.027    0.324    0.402   20.230
  338.934   32.984    0.329    0.399   20.218
  339.184   35.374    0.331    0.414   20.219
  339.434   36.816    0.335    0.428   20.220
  339.684   38.800    0.339    0.448   20.221
  339.934   41.431    0.335    0.449   20.225
  340.184   43.316    0.326    0.451   20.237
  340.434   45.708    0.320    0.426   19.904
  340.684   49.630    0.315    0.418   19.723
  340.934   52.845    0.316    0.436   19.084
  341.184   56.795    0.325    0.450   18.227
  341.434   60.762    0.340    0.461   17.399
  341.684   64.013    0.331    0.471   17.467
  341.934   68.096    0.333    0.467   17.891
  342.184   72.535    0.337    0.468   18.567
  342.434   75.791    0.315    0.470   18.805
  342.684   75.539    0.286    0.477   18.870
  342.934   73.327    0.265    0.455   18.024
  343.184   72.268    0.244    0.451   17.261
  343.434   72.876    0.249    0.462   16.418
  343.684   73.549    0.276    0.471   15.254
  343.934   76.526    0.296    0.467   14.657
  344.184   78.603    0.292    0.459   13.737
  344.434   81.257    0.282    0.461   13.253
  344.684   83.584    0.271    0.470   12.588
  344.934   86.673    0.261    0.471   11.159
  345.184   90.665    0.242    0.468   10.280
  345.434   93.907    0.236    0.473    9.373
  345.684   97.739    0.229    0.492    8.752
  345.934  100.700    0.223    0.502    8.141
  346.184  102.115    0.216    0.507    7.423
  346.434  102.729    0.213    0.506    7.073
  346.684  100.573    0.220    0.511    6.721
  346.934   88.961    0.232    0.517    7.508
  347.184   81.759    0.253    0.499    8.634
  347.434   73.895    0.293    0.481   10.353
  347.684   70.433    0.330    0.482   11.793
  347.934   73.347    0.324    0.474   13.312
  348.184   79.283    0.311    0.481   14.801
  348.434   83.532    0.303    0.479   15.809
  348.684   86.827    0.291    0.474   14.835
  348.934   91.514    0.281    0.483   14.215
  349.184   93.872    0.283    0.489   14.002
  349.434   93.165    0.276    0.478   13.768
  349.684   85.766    0.272    0.470   14.306
  349.934   72.359    0.268    0.448   14.852
  350.184   65.213    0.259    0.425   15.812
  350.434   57.351    0.246    0.400   16.510
  350.684   58.489    0.242    0.384   17.219
  350.934   66.253    0.232    0.382   17.686
  351.184   74.358    0.219    0.394   16.140
  351.434   79.030    0.204    0.415   14.574
  351.684   79.489    0.218    0.443   13.412
  351.934   76.058    0.237    0.447   12.794
  352.184   73.427    0.244    0.446   11.311
  352.434   81.218    0.191    0.456   10.679
  352.684   86.884    0.154    0.485    9.573
  352.934   92.365    0.168    0.501    8.918
  353.184   94.688    0.152    0.515    8.171
  353.434   97.743    0.150    0.525    7.634
  353.684  101.218    0.176    0.537    6.955
  353.934  105.194    0.156    0.543    6.502
  354.184  110.134    0.166    0.535    5.929
  354.434  115.212    0.178    0.535    5.533
  354.684  118.514    0.190    0.545    5.821
  354.934  115.428    0.197    0.538    5.424
  355.184  110.419    0.190    0.522    5.214
  355.434  112.722    0.181    0.519    4.909
  355.684  116.358    0.170    0.534    4.534
  355.934  118.578    0.175    0.560    4.324
  356.184  117.044    0.185    0.585    3.944
  356.434  115.977    0.199    0.570    3.717
  356.684  117.293    0.190    0.563    3.501
  356.934  120.225    0.179    0.569    3.299
  357.184  122.311    0.191    0.542    3.169
  357.434  122.092    0.207    0.560    3.170
  357.684  119.398    0.232    0.569    3.828
  357.934  114.389    0.233    0.546    5.008
  358.184  107.388    0.251    0.495    5.981
  358.434  101.651    0.268    0.471    7.603
  358.684  100.525    0.267    0.471    9.678
  358.934  102.292    0.255    0.468   11.643
  359.184  104.355    0.241    0.461   11.946
  359.434  103.925    0.253    0.458   11.671
  359.684  101.102    0.255    0.485   11.955
  359.934   94.658    0.274    0.510   12.319
  360.184   89.629    0.287    0.501   12.717
  360.434   85.701    0.279    0.489   12.841
  360.684   81.711    0.293    0.495   12.965
  360.934   85.347    0.272    0.494   12.295
  361.184   88.669    0.229    0.483   11.530
  361.434   91.960    0.191    0.471   10.049
  361.684   93.991    0.099    0.476    8.510
  361.934   98.992    0.087    0.506    7.571
  362.184  108.087    0.180    0.506    7.614
  362.434  116.345    0.211    0.493    7.840
  362.684  114.165    0.224    0.482    8.447
  362.934  108.502    0.229    0.472    9.547
  363.184  104.483    0.231    0.462   10.528
  363.434   99.997    0.236    0.467   11.531
  363.684   99.484    0.245    0.479   12.149
  363.934   96.965    0.251    0.488   12.840
  364.184   93.833    0.258    0.459   12.449
  364.434   91.030    0.269    0.446   12.035
  364.684   99.614    0.245    0.454   11.513
  364.934  107.154    0.220    0.477   10.943
  365.184  112.948    0.227    0.496   10.460
  365.434  115.903    0.235    0.499   10.317
  365.684  114.832    0.238    0.495   10.097
  365.934  112.836    0.241    0.486   10.100
  366.184  110.112    0.232    0.497   10.071
  366.434  107.180    0.238    0.510   10.451
  366.684   96.575    0.248    0.490   11.117
  366.934   86.254    0.281    0.461   11.815
  367.184   74.914    0.300    0.451   12.606
  367.434   71.658    0.292    0.449   13.569
  367.684   73.731    0.302    0.445   14.299
  367.934   76.737    0.308    0.447   14.799
  368.184   79.210    0.309    0.452   13.661
  368.434   82.614    0.296    0.465   11.883
  368.684   94.611    0.280    0.485   10.342
  368.934  106.183    0.233    0.482    9.306
  369.184  114.370    0.229    0.481    8.298
  369.434  115.904    0.235    0.492    7.381
  369.684  116.734    0.216    0.501    6.889
  369.934  118.109    0.200    0.511    6.154
  370.184  118.824    0.206    0.537    5.525
  370.434  119.131    0.202    0.558    5.069
  370.684  117.088    0.207    0.562    4.971
  370.934  114.139    0.208    0.514    5.134
  371.184  109.170    0.216    0.504    5.706
  371.434  104.949    0.232    0.495    6.777
  371.684  101.079    0.236    0.506    8.167
  371.934   97.416    0.219    0.513    9.017
  372.184   95.312    0.205    0.519    9.462
  372.434   94.281    0.182    0.517    9.775
