~VERSION INFORMATION
 VERS.                 2.0:   CWLS LOG ASCII STANDARD -VERSION 2.0
 WRAP.                  NO:   ONE LINE PER DEPTH STEP
~WELL INFORMATION BLOCK
#MNEM.UNIT           DATA                    DESCRIPTION OF MNEMONIC
#---------    -------------------            -------------------------------
# Generated from Intellog Unique Number	CS_73_76/WELL/799
WELL.         SULPETRO LIMITED               : Well_name    - WELL
LOC .         00/09-29-073-10W4/0            : Location     - LOCATION
UWI .         00/09-29-073-10W4/0            : Uwi          - UNIQUE WELL ID
ENTR.         SP                             : Entered      - ENTERED BY
SRVC.         SCHLUMBERGER                   : Scn          - SERVICE COMPANY
STRT.M        295                            : top_depth    - START DEPTH
STOP.M        515                            : bot_depth    - STOP DEPTH
STEP.M        0.25                           : increment    - STEP LENGTH
 NULL. -999.2500:NULL Value
~CURVE INFORMATION BLOCK
#MNEM UNIT       ERCB CURVE CODE    CURVE DESCRIPTION
#-----------   ------------------   ----------------------------------
DEPT.M        00 001 00 00         : DEPTH        - DEPTH
ILD .OHMM     00 120 00 00         : RESD         - DEEP RESISTIVITY (DIL)
DPHI.V/V      00 890 00 00         : PHID         - DENSITY POROSITY (LIMESTONE)
NPHI.V/V      00 330 00 00         : PHIN         - NEUTRON POROSITY (LIMESTONE)
GR  .API      00 310 00 00         : GR           - GAMMA RAY
~PARAMETER INFORMATION
#MNEM.UNIT           DATA             DESCRIPTION OF MNEMONIC
#---------         -----------     ------------------------------
GL  .M        557.9                : gl           - GROUND LEVEL ELEVATION
EREF.M        660                  : kb           - ELEVATION OF DEPTH REFERENCE
DATM.M        557.9                : datum        - DATUM ELEVATION
TDD .M        520                  : tdd          - TOTAL DEPTH DRILLER
RUN .         ONE                  : Run          - RUN NUMBER
ENG .         BILL                 : Engineer     - RECORDING ENGINEER
WIT .         JIM                  : Witness      - WITNESSED BY
MUD .         GEL                  : Mud_type     - MUD TYPE
MATR.         LIMESTONE            : Logunit      - NEUTRON MATRIX
TMAX.C        25                   : BHT          - MAXIMUM RECORDED TEMPERATURE
BHTD.M        520                  : BHTDEP       - MAXIMUM RECORDED TEMPERATURE
MATR.         1                    : LOGUNIT      - NEUTRON MATRIX
RMT .C        25                   : MDTP         - TEMPERATURE OF MUD
NEUT.         1                    : NEUTRON      - NEUTRON TYPE
RESI.         0                    : RESIST       - RESISTIVITY TYPE
RMC .OHMM     0.25                 : RMC          - RESISTIVITY OF MUD CAKE
RMF .OHMM     0.25                 : RMF          - RESISTIVITY OF MUD FILTRATE
SUFT.C        15                   : SUFT         - SURFACE TEMPERATURE
~A  DEPTH     RESD     PHID     PHIN       GR
  295.000    2.777    0.270    0.600  121.081
  295.250    2.829    0.259    0.575  121.681
  295.500    2.883    0.245    0.559  125.893
  295.750    2.883    0.235    0.541  128.300
  296.000    2.938    0.229    0.535  130.705
  296.250    2.938    0.229    0.536  130.703
  296.500    2.993    0.233    0.539  129.494
  296.750    2.994    0.237    0.542  127.683
  297.000    3.050    0.231    0.531  125.873
  297.250    3.108    0.239    0.527  124.665
  297.500    3.108    0.249    0.533  125.867
  297.750    3.109    0.253    0.533  125.261
  298.000    3.167    0.250    0.534  124.655
  298.250    3.109    0.243    0.556  124.651
  298.500    3.053    0.242    0.563  124.046
  298.750    3.053    0.248    0.563  125.849
  299.000    3.111    0.254    0.559  128.857
  299.250    3.169    0.263    0.540  130.662
  299.500    3.351    0.258    0.546  135.477
  299.750    3.414    0.263    0.553  138.486
  300.000    3.479    0.268    0.563  140.290
  300.250    3.679    0.260    0.569  137.274
  300.500    3.748    0.252    0.554  134.862
  300.750    3.890    0.240    0.530  130.039
  301.000    3.964    0.228    0.515  125.819
  301.250    4.039    0.215    0.499  125.815
  301.500    4.039    0.211    0.497  127.619
  301.750    4.040    0.200    0.500  130.626
  302.000    4.040    0.195    0.501  131.829
  302.250    3.966    0.200    0.506  127.608
  302.500    3.894    0.217    0.517  125.196
  302.750    3.823    0.233    0.529  124.590
  303.000    3.753    0.252    0.535  127.598
  303.250    3.684    0.262    0.545  130.607
  303.500    3.685    0.247    0.535  130.604
  303.750    3.685    0.230    0.529  127.588
  304.000    3.686    0.224    0.524  126.983
  304.250    3.686    0.229    0.520  131.798
  304.500    3.756    0.240    0.521  134.205
  304.750    3.971    0.228    0.520  128.779
  305.000    4.440    0.211    0.502  120.343
  305.250    5.248    0.209    0.455  112.508
  305.500    7.065    0.214    0.440  103.469
  305.750    8.197    0.234    0.432  101.657
  306.000   10.245    0.246    0.427  109.485
  306.250   11.669    0.259    0.433  113.096
  306.500   11.889    0.243    0.429  120.923
  306.750   11.890    0.232    0.424  123.330
  307.000   11.459    0.252    0.433  129.953
  307.250   11.249    0.268    0.437  132.360
  307.500   11.251    0.282    0.428  127.537
  307.750   11.462    0.297    0.402  107.052
  308.000   13.550    0.296    0.382   87.170
  308.250   15.722    0.311    0.366   72.708
  308.500   16.935    0.326    0.366   67.284
  308.750   19.290    0.337    0.370   60.051
  309.000   20.779    0.351    0.379   57.639
  309.250   21.569    0.337    0.384   55.828
  309.500   21.976    0.328    0.390   58.837
  309.750   21.177    0.321    0.394   67.868
  310.000   20.407    0.313    0.399   73.286
  310.250   19.304    0.305    0.404   75.694
  310.500   18.260    0.292    0.411   83.520
  310.750   16.955    0.280    0.425   87.132
  311.000   16.039    0.257    0.420   94.357
  311.250   15.456    0.222    0.409   99.172
  311.500   14.894    0.219    0.398   99.772
  311.750   14.089    0.229    0.404   97.359
  312.000   13.831    0.250    0.411  102.777
  312.250   13.329    0.272    0.427  108.798
  312.500   13.330    0.256    0.432  113.614
  312.750   12.846    0.248    0.423  118.430
  313.000   12.380    0.246    0.422  122.040
  313.250   12.154    0.249    0.430  125.048
  313.500   11.931    0.246    0.432  126.251
  313.750   11.713    0.250    0.431  127.451
  314.000   11.714    0.263    0.417  123.834
  314.250   11.936    0.286    0.403  114.794
  314.500   12.161    0.305    0.398  102.140
  314.750   13.596    0.326    0.398   89.487
  315.000   14.646    0.355    0.404   77.436
  315.250   15.777    0.368    0.409   64.782
  315.500   19.000    0.372    0.418   56.948
  315.750   20.091    0.361    0.404   52.125
  316.000   21.643    0.354    0.393   53.326
  316.250   22.050    0.349    0.390   56.334
  316.500   22.466    0.349    0.400   58.741
  316.750   22.471    0.334    0.403   61.749
  317.000   22.059    0.325    0.400   66.564
  317.250   21.655    0.307    0.395   68.970
  317.500   20.485    0.300    0.390   70.172
  317.750   20.110    0.313    0.395   70.771
  318.000   19.023    0.318    0.400   70.768
  318.250   17.663    0.321    0.407   66.548
  318.500   16.100    0.326    0.421   72.568
  318.750   15.229    0.315    0.428   78.588
  319.000   14.405    0.301    0.431   81.598
  319.250   13.882    0.306    0.433   83.402
  319.500   13.628    0.315    0.426   82.796
  319.750   12.892    0.302    0.425   75.563
  320.000   11.534    0.271    0.432   71.343
  320.250   10.512    0.253    0.442   83.388
  320.500    9.063    0.217    0.461   99.046
  320.750    8.108    0.179    0.485  112.899
  321.000    6.989    0.180    0.507  125.545
  321.250    5.806    0.178    0.538  134.577
  321.500    4.734    0.182    0.568  139.394
  321.750    4.157    0.202    0.612  142.402
  322.000    3.860    0.230    0.638  146.013
  322.250    3.518    0.256    0.620  147.214
  322.500    3.390    0.276    0.596  140.584
  322.750    4.008    0.292    0.544  127.329
  323.000    4.916    0.303    0.496  113.470
  323.250    7.969    0.311    0.470  105.635
  323.500    9.776    0.317    0.458  102.620
  323.750   10.929    0.321    0.449  101.412
  324.000   13.161    0.327    0.449  101.409
  324.250   15.557    0.336    0.452  100.803
  324.500   17.720    0.343    0.455  100.196
  324.750   18.392    0.353    0.456  100.194
  325.000   18.739    0.346    0.459  100.792
  325.250   18.059    0.329    0.460   99.583
  325.500   17.729    0.311    0.461   98.376
  325.750   16.462    0.301    0.461   98.373
  326.000   15.863    0.296    0.461   96.562
  326.250   15.005    0.289    0.462  103.787
  326.500   13.933    0.279    0.477  113.422
  326.750   13.180    0.262    0.483  123.659
  327.000   12.467    0.244    0.481  126.066
  327.250   12.014    0.228    0.487  124.255
  327.500   11.577    0.202    0.497  127.263
  327.750   10.358    0.194    0.505  133.885
  328.000    8.929    0.190    0.511  137.497
  328.250    7.417    0.196    0.517  141.109
  328.500    6.276    0.205    0.523  142.912
  328.750    5.512    0.208    0.541  143.511
  329.000    5.118    0.211    0.560  145.315
  329.250    4.752    0.218    0.576  147.720
  329.500    4.495    0.234    0.559  150.730
  329.750    4.754    0.242    0.522  154.341
  330.000    5.121    0.251    0.498  154.940
  330.250    5.725    0.254    0.458  151.322
  330.500    7.155    0.248    0.439  146.499
  330.750    7.852    0.251    0.429  140.472
  331.000    8.617    0.290    0.426  131.433
  331.250   10.377    0.308    0.429  121.791
  331.500   12.496    0.327    0.437  113.353
  331.750   13.970    0.347    0.442  107.327
  332.000   14.772    0.261    0.455  100.095
  332.250   15.913    0.243    0.463  107.320
  332.500   15.623    0.234    0.474  116.352
  332.750   14.239    0.236    0.481  122.975
  333.000   12.505    0.247    0.492  128.393
  333.250   11.397    0.252    0.499  128.390
  333.500   10.010    0.266    0.484  131.398
  333.750    9.294    0.265    0.465  127.781
  334.000    9.295    0.274    0.437  115.728
  334.250   10.201    0.283    0.422  108.496
  334.500   10.588    0.282    0.418  104.880
  334.750   11.407    0.289    0.423  112.104
  335.000   11.839    0.280    0.430  113.909
  335.250   12.063    0.274    0.437  116.314
  335.500   11.843    0.245    0.447  121.129
  335.750   11.626    0.222    0.462  122.935
  336.000   10.597    0.213    0.471  125.943
  336.250   10.211    0.204    0.478  130.155
  336.500    9.660    0.217    0.472  132.563
  336.750    9.483    0.234    0.466  123.521
  337.000    9.663    0.245    0.460  120.507
  337.250   10.029    0.252    0.471  119.299
  337.500   10.409    0.265    0.477  118.694
  337.750   11.008    0.268    0.483  115.075
  338.000   11.214    0.254    0.493  115.072
  338.250   11.216    0.248    0.498  112.659
