~VERSION INFORMATION
 VERS.                 2.0:   CWLS LOG ASCII STANDARD -VERSION 2.0
 WRAP.                  NO:   ONE LINE PER DEPTH STEP
~WELL INFORMATION BLOCK
#MNEM.UNIT           DATA                    DESCRIPTION OF MNEMONIC
#---------    -------------------            -------------------------------
# Generated from Intellog Unique Number	CW_70_72/WELL/3012
NULL.         -999.25                         : NULL_VALUE
WELL.         CITADEL ET AL MEYER 06-32      : Well_name    - WELL              
LOC .         06-32-070-25W4                 : Location     - LOCATION          
UWI .         00/06-32-070-25W4/0            : Uwi          - UNIQUE WELL ID    
ENTR.         J                              : Entered      - ENTERED BY        
SRVC.         COMPUTALOG                     : Scn          - SERVICE COMPANY   
DATE.         7 MAR 82                       : Date         - LOG DATE          
STRT.M        490                            : top_depth    - START DEPTH       
STOP.M        690                            : bot_depth    - STOP DEPTH        
STEP.M        0.25                           : increment    - STEP LENGTH       
~CURVE INFORMATION BLOCK
#MNEM UNIT       ERCB CURVE CODE    CURVE DESCRIPTION
#-----------   ------------------   ----------------------------------
DEPT.M        00 001 00 00         : DEPTH        - DEPTH                       
ILD .OHMM     00 120 00 00         : RESD         - DEEP RESISTIVITY (DIL)      
CALI.MM       00 280 01 00         : CAL          - CALIPER                     
GR  .API      00 310 00 00         : GR           - GAMMA RAY                   
NPHI.V/V      00 330 00 00         : PHIN         - NEUTRON POROSITY (SANDSTONE)
DPHI.V/V      00 890 00 00         : PHID         - DENSITY POROSITY (SANDSTONE)
~PARAMETER INFORMATION       
#MNEM.UNIT           DATA             DESCRIPTION OF MNEMONIC
#---------         -----------     ------------------------------
GL  .M        661                  : gl           - GROUND LEVEL ELEVATION      
EREF.M        665                  : kb           - ELEVATION OF DEPTH REFERENCE
DATM.M        661                  : datum        - DATUM ELEVATION             
TDD .M        725                  : tdd          - TOTAL DEPTH DRILLER         
RUN .         ONE                  : Run          - RUN NUMBER                  
ENG .         SVRCEL/BRULE         : Engineer     - RECORDING ENGINEER          
WIT .         CRIPPS/WETHERLY      : Witness      - WITNESSED BY                
BASE.         EDM                  : Branch       - HOME BASE OF LOGGING UNIT   
MUD .         GEL CHEM             : Mud_type     - MUD TYPE                    
MATR.         SANDSTONE            : Logunit      - NEUTRON MATRIX              
TMAX.C        30                   : BHT          - MAXIMUM RECORDED TEMPERATURE
BHTD.M        722                  : BHTDEP       - MAXIMUM RECORDED TEMPERATURE
RMT .C        16.6                 : MDTP         - TEMPERATURE OF MUD          
MUDD.KG/M     1210                 : MWT          - MUD DENSITY                 
NEUT.         1                    : NEUTRON      - NEUTRON TYPE                
RESI.         0                    : RESIST       - RESISTIVITY TYPE            
RM  .OHMM     3.4                  : RM           - RESISTIVITY OF MUD          
RMC .OHMM     3.5                  : RMC          - RESISTIVITY OF MUD CAKE     
RMF .OHMM     3.5                  : RMF          - RESISTIVITY OF MUD FILTRATE 
SUFT.C        0                    : SUFT         - SURFACE TEMPERATURE         
~A  DEPTH     RESD      CAL       GR     PHIN     PHID
# ...
  563.000    3.205  192.649   60.818    0.302    0.155
  563.250    2.701  195.716   62.089    0.321    0.207
  563.500    2.359  200.259   65.762    0.323    0.235
  563.750    2.264  202.378   70.447    0.316    0.252
  564.000    2.247  200.282   74.625    0.325    0.267
  564.250    2.247  196.503   77.350    0.355    0.266
  564.500    2.277  194.931   74.765    0.407    0.264
  564.750    2.307  192.520   70.032    0.432    0.259
  565.000    2.325  191.688   69.217    0.432    0.254
  565.250    2.347  192.860   72.763    0.409    0.252
  565.500    2.361  194.557   74.920    0.388    0.253
  565.750    2.388  196.253   76.507    0.388    0.254
  566.000    2.388  198.372   77.272    0.395    0.254
  566.250    2.322  199.121   75.448    0.395    0.252
  566.500    2.313  198.186   73.620    0.389    0.251
  566.750    2.327  197.881   72.048    0.381    0.251
  567.000    2.344  198.524   72.434    0.407    0.254
  567.250    2.389  197.167   73.704    0.410    0.256
  567.500    2.444  194.862   75.293    0.403    0.260
  567.750    2.591  192.553   75.868    0.391    0.267
  568.000    2.741  189.827   74.484    0.374    0.273
  568.250    2.809  188.994   72.974    0.387    0.275
  568.500    2.831  188.164   74.118    0.395    0.265
  568.750    2.853  188.175   75.832    0.401    0.261
  569.000    2.831  189.031   78.494    0.398    0.267
  569.250    2.821  189.567   79.450    0.396    0.272
  569.500    2.821  190.211   79.266    0.411    0.269
  569.750    2.864  190.963   78.073    0.438    0.262
  570.000    2.941  191.182   78.017    0.457    0.258
  570.250    3.071  191.724   77.832    0.468    0.252
  570.500    3.250  191.839   78.536    0.457    0.241
  570.750    3.420  191.850   81.261    0.445    0.228
  571.000    3.485  191.969   83.163    0.444    0.234
  571.250    3.492  192.189   84.688    0.460    0.234
  571.500    3.446  193.044   83.178    0.392    0.212
  571.750    3.332  194.426   79.518    0.346    0.198
  572.000    3.227  196.122   80.031    0.314    0.195
  572.250    3.234  198.556   89.709    0.352    0.215
  572.500    3.289  200.043  101.157    0.352    0.217
  572.750    3.327  201.636  109.508    0.362    0.207
  573.000    3.442  202.386  105.471    0.372    0.204
  573.250    3.601  203.134  100.926    0.353    0.204
  573.500    3.753  201.885   96.507    0.366    0.203
  573.750    3.868  200.104   94.112    0.384    0.199
  574.000    3.957  199.058   95.701    0.408    0.191
  574.250    4.017  196.964   97.034    0.411    0.180
  574.500    4.109  198.555   98.684    0.402    0.173
  574.750    4.235  202.886  100.019    0.405    0.169
  575.000    4.341  203.529  100.279    0.421    0.172
  575.250    4.457  201.752   99.907    0.431    0.176
  575.500    4.508  200.920  100.419    0.388    0.177
  575.750    4.585  204.198  103.082    0.364    0.172
  576.000    4.629  205.580  105.996    0.382    0.156
  576.250    4.726  205.485  108.720    0.429    0.147
  576.500    4.762  205.077  110.056    0.466    0.153
  576.750    4.808  204.878  109.619    0.495    0.158
  577.000    4.845  204.888  107.541    0.472    0.159
  577.250    4.854  205.215  106.283    0.432    0.156
  577.500    4.882  205.438  105.595    0.390    0.148
  577.750    4.919  205.449  106.044    0.361    0.150
  578.000    4.938  205.145  107.504    0.351    0.154
  578.250    4.976  205.788  109.282    0.337    0.154
  578.500    4.986  206.221  108.214    0.365    0.150
  578.750    4.921  206.232  104.681    0.383    0.144
  579.000    4.857  205.506  104.500    0.406    0.141
  579.250    4.749  204.359  105.454    0.420    0.138
  579.500    4.749  203.106  108.115    0.412    0.137
  579.750    4.423  202.169  111.474    0.397    0.138
  580.000    4.316  201.760  112.745    0.384    0.139
  580.250    4.142  202.192  113.446    0.369    0.139
  580.500    3.952  203.786  112.948    0.358    0.138
  580.750    3.967  204.745  111.564    0.371    0.137
  581.000    4.066  205.286  106.008    0.471    0.156
  581.250    4.214  205.296   97.546    0.498    0.177
  581.500    4.459  203.516   89.966    0.289    0.163
  581.750    4.665  199.523   81.313    0.233    0.147
  582.000    4.665  193.953   73.925    0.215    0.132
  582.250    4.427  196.596   73.426    0.233    0.132
  582.500    4.216  199.979   92.965    0.408    0.176
  582.750    3.955  201.889  105.868    0.460    0.221
  583.000    3.717  201.584  103.093    0.484    0.244
  583.250    3.468  200.121   96.590    0.511    0.251
  583.500    3.353  198.870   92.298    0.478    0.231
  583.750    3.217  197.408   88.260    0.412    0.226
  584.000    3.064  196.678   85.614    0.391    0.241
  584.250    3.041  195.532   84.356    0.389    0.248
  584.500    3.255  194.805   83.349    0.379    0.246
  584.750    3.457  194.713   81.713    0.364    0.257
  585.000    3.791  194.933   81.846    0.347    0.331
  585.250    4.110  195.892   82.360    0.370    0.350
  585.500    4.374  197.380   84.009    0.387    0.334
  585.750    4.317  199.814   87.746    0.402    0.295
  586.000    4.035  201.832   92.557    0.381    0.244
  586.250    3.652  202.261   99.517    0.396    0.213
  586.500    3.439  202.485   92.823    0.411    0.208
  586.750    3.149  202.494   88.849    0.419    0.198
  587.000    3.050  202.505   86.517    0.396    0.213
  587.250    3.044  200.832   82.858    0.358    0.223
  587.500    3.097  199.160   79.388    0.345    0.230
  587.750    3.109  198.433   81.797    0.334    0.236
  588.000    3.228  197.916   86.038    0.350    0.214
  588.250    3.409  197.509   93.062    0.352    0.188
  588.500    3.507  197.625   97.304    0.380    0.166
  588.750    3.514  198.268   98.891    0.411    0.171
  589.000    3.561  200.281   93.969    0.429    0.187
  589.250    3.719  203.032   90.182    0.447    0.195
  589.500    3.883  200.936   85.069    0.321    0.172
  589.750    4.243  198.947   79.829    0.262    0.146
  590.000    4.431  198.537   75.728    0.246    0.112
  590.250    4.365  199.603   70.868    0.288    0.162
  590.500    4.181  201.720   75.172    0.352    0.201
  590.750    3.827  203.417   80.553    0.401    0.239
  591.000    3.974  202.061   85.680    0.428    0.252
  591.250    4.367  201.123   88.973    0.463    0.243
  591.500    4.953  200.189   95.112    0.339    0.218
  591.750    5.351  200.094   89.050    0.308    0.143
  592.000    5.474  199.682   69.019    0.262    0.120
  592.250    5.039  199.905   59.292    0.334    0.170
  592.500    4.614  202.129   77.440    0.408    0.214
  592.750    4.232  203.407   87.182    0.445    0.230
  593.000    4.038  202.047   93.573    0.441    0.216
  593.250    3.970  200.269   91.558    0.403    0.193
  593.500    3.926  199.121   91.375    0.375    0.189
  593.750    3.919  198.815   91.634    0.368    0.181
  594.000    3.912  198.511   89.049    0.354    0.174
  594.250    3.890  198.418   86.971    0.344    0.168
  594.500    3.891  198.114   91.087    0.361    0.173
  594.750    3.884  198.442   93.875    0.380    0.181
  595.000    3.877  197.189   94.072    0.383    0.189
  595.250    3.943  195.093   93.319    0.354    0.188
  595.500    4.041  193.945   96.361    0.340    0.185
  595.750    4.118  193.429   95.672    0.331    0.170
  596.000    4.027  193.443   90.749    0.352    0.159
  596.250    3.945  193.558   90.568    0.382    0.170
  596.500    3.894  193.887   94.745    0.374    0.181
  596.750    3.850  194.426   98.166    0.362    0.177
  597.000    3.815  195.596  102.281    0.356    0.170
  597.250    3.822  196.976  103.742    0.372    0.173
  597.500    3.859  198.568  104.255    0.382    0.173
  597.750    3.925  199.213  101.102    0.385    0.170
  598.000    4.114  199.645   97.442    0.397    0.172
  598.250    4.411  199.974   94.667    0.404    0.174
  598.500    4.765  199.777   97.899    0.418    0.167
  598.750    5.644  200.104   98.094    0.407    0.152
  599.000    6.711  200.007   96.711    0.385    0.146
  599.250    8.192  200.337   93.115    0.372    0.139
