~VERSION INFORMATION
 VERS.                 2.0:   CWLS LOG ASCII STANDARD -VERSION 2.0
 WRAP.                  NO:   ONE LINE PER DEPTH STEP
~WELL INFORMATION BLOCK
#MNEM.UNIT           DATA                    DESCRIPTION OF MNEMONIC
#---------    -------------------            -------------------------------
# Generated from Intellog Unique Number	CS_73_76/WELL/2164
WELL.         PEX KIRBY                      : Well_name    - WELL
LOC .         00/06-15-074-08W4/0            : Location     - LOCATION
UWI .         00/06-15-074-08W4/0            : Uwi          - UNIQUE WELL ID
ENTR.         SP                             : Entered      - ENTERED BY
SRVC.         SCHLUMBERGER                   : Scn          - SERVICE COMPANY
STRT.M        305                            : top_depth    - START DEPTH
STOP.M        525                            : bot_depth    - STOP DEPTH
STEP.M        0.25                           : increment    - STEP LENGTH
 NULL. -999.2500:NULL Value
~CURVE INFORMATION BLOCK
#MNEM UNIT       ERCB CURVE CODE    CURVE DESCRIPTION
#-----------   ------------------   ----------------------------------
DEPT.M        00 001 00 00         : DEPTH        - DEPTH
ILD .OHMM     00 120 00 00         : RESD         - DEEP RESISTIVITY (DIL)
DPHI.V/V      00 890 00 00         : PHID         - DENSITY POROSITY (LIMESTONE)
NPHI.V/V      00 330 00 00         : PHIN         - NEUTRON POROSITY (LIMESTONE)
GR  .API      00 310 00 00         : GR           - GAMMA RAY
~PARAMETER INFORMATION
#MNEM.UNIT           DATA             DESCRIPTION OF MNEMONIC
#---------         -----------     ------------------------------
GL  .M        683.67               : gl           - GROUND LEVEL ELEVATION
EREF.M        686.87               : kb           - ELEVATION OF DEPTH REFERENCE
DATM.M        683.67               : datum        - DATUM ELEVATION
TDD .M        534                  : tdd          - TOTAL DEPTH DRILLER
RUN .         ONE                  : Run          - RUN NUMBER
ENG .         BILL                 : Engineer     - RECORDING ENGINEER
WIT .         JIM                  : Witness      - WITNESSED BY
MUD .         GEL                  : Mud_type     - MUD TYPE
MATR.         LIMESTONE            : Logunit      - NEUTRON MATRIX
TMAX.C        34                   : BHT          - MAXIMUM RECORDED TEMPERATURE
BHTD.M        534                  : BHTDEP       - MAXIMUM RECORDED TEMPERATURE
MATR.         1                    : LOGUNIT      - NEUTRON MATRIX
RMT .C        25                   : MDTP         - TEMPERATURE OF MUD
NEUT.         1                    : NEUTRON      - NEUTRON TYPE
RESI.         0                    : RESIST       - RESISTIVITY TYPE
RMC .OHMM     0.25                 : RMC          - RESISTIVITY OF MUD CAKE
RMF .OHMM     0.25                 : RMF          - RESISTIVITY OF MUD FILTRATE
SUFT.C        15                   : SUFT         - SURFACE TEMPERATURE
~A  DEPTH     RESD     PHID     PHIN       GR
# ...
  479.000   10.918    0.176    0.312   91.069
  479.250   10.922    0.166    0.305   89.841
  479.500   11.347    0.156    0.316   89.228
  479.750   11.786    0.157    0.323   90.466
  480.000   12.718    0.146    0.324   92.941
  480.250   13.209    0.152    0.328   94.180
  480.500   14.251    0.161    0.334   89.864
  480.750   15.373    0.155    0.333   83.696
  481.000   16.901    0.191    0.329   73.825
  481.250   17.892    0.214    0.322   70.742
  481.500   18.588    0.272    0.330   70.130
  481.750   18.247    0.276    0.343   70.752
  482.000   17.578    0.287    0.334   63.351
  482.250   17.918    0.304    0.357   62.737
  482.500   19.329    0.272    0.367   69.534
  482.750   28.740    0.246    0.360   71.390
  483.000   43.550    0.226    0.359   72.629
  483.250   52.616    0.171    0.356   71.400
  483.500   69.857    0.294    0.356   57.824
  483.750   87.646    0.320    0.357   50.422
  484.000  103.913    0.331    0.371   42.402
  484.250  109.997    0.336    0.387   40.555
  484.500  114.281    0.339    0.404   33.153
  484.750  108.032    0.323    0.399   33.776
  485.000   94.692    0.310    0.392   35.017
  485.250   79.933    0.313    0.394   36.256
  485.500   68.761    0.324    0.402   37.494
  485.750   63.778    0.332    0.407   39.968
  486.000   55.909    0.336    0.409   43.678
  486.250   51.860    0.345    0.402   44.916
  486.500   48.104    0.329    0.380   46.157
  486.750   42.173    0.303    0.362   46.779
  487.000   39.118    0.311    0.354   48.016
  487.250   36.975    0.305    0.346   49.256
  487.500   33.029    0.294    0.347   51.113
  487.750   27.362    0.298    0.343   53.588
  488.000   25.377    0.309    0.349   56.061
  488.250   21.422    0.324    0.355   61.622
  488.500   18.777    0.314    0.357   65.329
  488.750   15.554    0.314    0.363   71.509
  489.000   13.893    0.330    0.356   72.129
  489.250   11.728    0.301    0.357   66.579
  489.500   10.675    0.274    0.358   67.819
  489.750    9.536    0.284    0.352   71.528
  490.000    8.518    0.294    0.345   75.237
  490.250    7.901    0.279    0.341   77.092
  490.500    7.612    0.204    0.338   78.332
  490.750    7.333    0.225    0.342   78.954
  491.000    7.335    0.242    0.330   84.514
  491.250    7.478    0.233    0.325   89.458
  491.500    7.623    0.221    0.323   95.019
  491.750    7.921    0.195    0.331  100.578
  492.000    8.075    0.199    0.335  103.669
  492.250    8.548    0.193    0.331  103.058
  492.500    8.551    0.172    0.333  103.062
  492.750    8.554    0.163    0.326  103.684
  493.000    8.720    0.167    0.316  103.690
  493.250    8.723    0.163    0.312   98.756
  493.500    8.892    0.157    0.307   97.527
  493.750    8.895    0.157    0.298   93.210
  494.000    8.897    0.169    0.293   89.511
  494.250    8.902    0.185    0.293   84.579
  494.500    9.075    0.205    0.295   82.114
  494.750    9.077    0.186    0.300   82.118
  495.000    9.081    0.159    0.304   82.741
  495.250    9.084    0.163    0.311   87.067
  495.500    9.087    0.181    0.323   82.752
  495.750    9.091    0.190    0.332   83.373
  496.000    9.093    0.175    0.336   84.614
  496.250    9.097    0.178    0.329   83.383
  496.500    9.101    0.174    0.326   82.772
  496.750    9.105    0.164    0.325   82.775
  497.000    9.108    0.160    0.320   84.016
  497.250    9.110    0.157    0.314   84.639
  497.500    8.944    0.165    0.309   84.025
  497.750    8.947    0.174    0.313   84.029
  498.000    8.784    0.180    0.311   82.182
  498.250    8.786    0.168    0.309   85.892
  498.500    8.789    0.171    0.304   87.748
  498.750    8.629    0.179    0.299   85.901
  499.000    8.631    0.187    0.301   87.759
  499.250    8.634    0.184    0.308   92.702
  499.500    8.971    0.173    0.314   96.409
  499.750    9.497    0.159    0.322   96.415
  500.000   10.052    0.148    0.327   93.950
  500.250   11.261    0.127    0.332   89.634
  500.500   14.953    0.138    0.327   84.083
  500.750   19.116    0.171    0.333   67.421
  501.000   26.858    0.227    0.338   48.291
  501.250   31.842    0.270    0.348   42.742
  501.500   32.461    0.291    0.341   42.128
  501.750   25.893    0.305    0.329   48.307
  502.000   17.426    0.300    0.311   52.633
  502.250   12.889    0.260    0.303   60.662
  502.500   10.476    0.239    0.304   69.926
  502.750    9.537    0.169    0.304   76.103
  503.000    9.015    0.180    0.310   78.576
  503.250    8.685    0.185    0.305   77.348
  503.500    8.688    0.179    0.299   76.736
  503.750    8.690    0.200    0.310   76.124
  504.000    8.695    0.221    0.306   76.127
  504.250    8.697    0.217    0.316   77.368
  504.500    8.538    0.203    0.328   78.606
  504.750    8.382    0.203    0.343   79.846
  505.000    8.227    0.195    0.344   77.382
  505.250    8.077    0.203    0.349   73.683
  505.500    7.780    0.196    0.332   69.985
  505.750    7.356    0.196    0.323   68.755
  506.000    7.220    0.192    0.326   66.291
  506.250    6.956    0.196    0.325   66.295
  506.500    6.959    0.202    0.312   67.534
  506.750    7.093    0.197    0.306   72.478
  507.000    7.096    0.197    0.311   74.336
  507.250    7.234    0.182    0.314   74.958
  507.500    7.237    0.170    0.322   76.814
  507.750    7.239    0.167    0.334   78.053
  508.000    7.106    0.177    0.341   77.441
  508.250    6.975    0.175    0.336   76.828
  508.500    6.350    0.181    0.330   77.451
  508.750    6.116    0.196    0.336   78.690
  509.000    5.892    0.223    0.332   71.904
  509.250    5.784    0.243    0.326   65.737
  509.500    5.678    0.214    0.321   70.680
  509.750    5.575    0.244    0.323   74.388
  510.000    5.576    0.219    0.328   73.777
  510.250    5.474    0.192    0.336   74.399
  510.500    5.078    0.175    0.334   75.022
  510.750    4.984    0.220    0.338   73.792
  511.000    4.801    0.267    0.341   69.475
  511.250    4.714    0.309    0.336   62.689
  511.500    4.715    0.288    0.322   59.608
  511.750    4.718    0.246    0.331   60.231
  512.000    4.719    0.284    0.333   58.385
  512.250    4.720    0.278    0.334   56.537
  512.500    4.722    0.284    0.333   55.924
  512.750    4.724    0.321    0.331   54.694
  513.000    4.725    0.342    0.326   58.403
  513.250    4.818    0.271    0.319   62.730
  513.500    4.820    0.247    0.319   61.500
  513.750    4.913    0.287    0.326   59.035
  514.000    5.008    0.287    0.329   68.299
  514.250    5.010    0.240    0.342   84.971
  514.500    4.918    0.195    0.347   88.679
  514.750    4.738    0.274    0.335   81.277
  515.000    4.564    0.299    0.315   75.726
  515.250    4.566    0.309    0.306   74.498
  515.500    4.567    0.298    0.310   73.266
  515.750    4.569    0.313    0.321   71.420
  516.000    4.658    0.303    0.328   72.042
  516.250    4.659    0.283    0.321   73.899
  516.500    4.661    0.260    0.316   76.990
  516.750    4.576    0.225    0.321   69.589
  517.000    4.492    0.219    0.319   63.423
  517.250    4.493    0.265    0.314   60.957
  517.500    4.328    0.313    0.312   60.960
  517.750    4.249    0.306    0.305   67.140
  518.000    4.251    0.300    0.307   73.933
  518.250    4.252    0.304    0.303   70.852
  518.500    4.253    0.266    0.295   64.684
  518.750    4.336    0.239    0.295   62.219
  519.000    4.591    0.260    0.296   57.904
  519.250    4.769    0.283    0.290   52.970
  519.500    5.653    0.263    0.247   47.420
  519.750    7.367    0.222    0.219   41.869
  520.000    8.252    0.104    0.205   31.998
  520.250   10.751    0.046    0.195   23.978
  520.500   16.292    0.029    0.181   20.280
  520.750   36.690    0.007    0.175   19.049
  521.000   54.553    0.000    0.176   22.141
  521.250   53.556    0.000    0.176   25.234
  521.500   49.676    0.024    0.182   27.706
  521.750   40.385    0.052    0.190   33.884
  522.000   34.087    0.021    0.205   40.061
  522.250   28.772    0.000    0.198   41.302
