~VERSION INFORMATION
 VERS.                 2.0:   CWLS LOG ASCII STANDARD -VERSION 2.0
 WRAP.                  NO:   ONE LINE PER DEPTH STEP
~WELL INFORMATION BLOCK
#MNEM.UNIT           DATA                    DESCRIPTION OF MNEMONIC
#---------    -------------------            -------------------------------
# Generated from Intellog Unique Number	CS_73_76/WELL/2175
WELL.         BOW VALLEY INDUSTRIES LTD.     : Well_name    - WELL
LOC .         00/07-20-074-13W4/0            : Location     - LOCATION
UWI .         00/07-20-074-13W4/0            : Uwi          - UNIQUE WELL ID
ENTR.         SP                             : Entered      - ENTERED BY
SRVC.         SCHLUMBERGER                   : Scn          - SERVICE COMPANY
STRT.M        370                            : top_depth    - START DEPTH
STOP.M        605                            : bot_depth    - STOP DEPTH
STEP.M        0.25                           : increment    - STEP LENGTH
 NULL. -999.2500:NULL Value
~CURVE INFORMATION BLOCK
#MNEM UNIT       ERCB CURVE CODE    CURVE DESCRIPTION
#-----------   ------------------   ----------------------------------
DEPT.M        00 001 00 00         : DEPTH        - DEPTH
ILD .OHMM     00 120 00 00         : RESD         - DEEP RESISTIVITY (DIL)
DPHI.V/V      00 890 00 00         : PHID         - DENSITY POROSITY (LIMESTONE)
NPHI.V/V      00 330 00 00         : PHIN         - NEUTRON POROSITY (LIMESTONE)
GR  .API      00 310 00 00         : GR           - GAMMA RAY
~PARAMETER INFORMATION
#MNEM.UNIT           DATA             DESCRIPTION OF MNEMONIC
#---------         -----------     ------------------------------
GL  .M        728.69               : gl           - GROUND LEVEL ELEVATION
EREF.M        732.14               : kb           - ELEVATION OF DEPTH REFERENCE
DATM.M        728.69               : datum        - DATUM ELEVATION
TDD .M        610                  : tdd          - TOTAL DEPTH DRILLER
RUN .         ONE                  : Run          - RUN NUMBER
ENG .         BILL                 : Engineer     - RECORDING ENGINEER
WIT .         JIM                  : Witness      - WITNESSED BY
MUD .         GEL                  : Mud_type     - MUD TYPE
MATR.         LIMESTONE            : Logunit      - NEUTRON MATRIX
TMAX.C        24                   : BHT          - MAXIMUM RECORDED TEMPERATURE
BHTD.M        610                  : BHTDEP       - MAXIMUM RECORDED TEMPERATURE
MATR.         1                    : LOGUNIT      - NEUTRON MATRIX
RMT .C        25                   : MDTP         - TEMPERATURE OF MUD
NEUT.         1                    : NEUTRON      - NEUTRON TYPE
RESI.         0                    : RESIST       - RESISTIVITY TYPE
RMC .OHMM     0.25                 : RMC          - RESISTIVITY OF MUD CAKE
RMF .OHMM     0.25                 : RMF          - RESISTIVITY OF MUD FILTRATE
SUFT.C        15                   : SUFT         - SURFACE TEMPERATURE
~A  DEPTH     RESD     PHID     PHIN       GR
# ...
  500.500    4.762    0.246    0.485   90.265
  500.750    4.852    0.241    0.481   86.014
  501.000    5.036    0.240    0.476   81.764
  501.250    5.132    0.264    0.459   76.906
  501.500    5.132    0.263    0.454   77.515
  501.750    5.133    0.257    0.465   78.730
  502.000    5.134    0.279    0.473   76.301
  502.250    5.135    0.264    0.481   76.909
  502.500    5.232    0.257    0.464   78.732
  502.750    5.232    0.248    0.470   79.340
  503.000    5.233    0.256    0.477   76.912
  503.250    5.137    0.281    0.486   78.127
  503.500    5.853    0.266    0.473   77.520
  503.750    6.922    0.262    0.467   75.092
  504.000    8.340    0.238    0.454   72.056
  504.250    9.155    0.221    0.425   66.591
  504.500    9.682    0.191    0.272   60.519
  504.750    9.329    0.031    0.240   58.698
  505.000    7.463    0.089    0.250   61.128
  505.250    6.551    0.185    0.284   65.380
  505.500    5.144    0.297    0.341   68.417
  505.750    4.687    0.303    0.398   70.847
  506.000    4.601    0.309    0.431   70.240
  506.250    4.688    0.308    0.479   72.670
  506.500    4.777    0.307    0.468   74.493
  506.750    4.868    0.310    0.469   75.708
  507.000    4.690    0.310    0.469   73.280
  507.250    4.869    0.304    0.462   72.066
  507.500    4.961    0.307    0.463   74.496
  507.750    4.962    0.290    0.459   76.318
  508.000    5.056    0.283    0.453   76.926
  508.250    4.872    0.283    0.452   74.498
  508.500    4.872    0.297    0.459   74.499
  508.750    4.964    0.300    0.452   73.892
  509.000    5.153    0.278    0.453   72.071
  509.250    5.251    0.256    0.463   70.250
  509.500    5.155    0.242    0.476   70.251
  509.750    4.876    0.245    0.468   71.466
  510.000    4.786    0.265    0.453   73.896
  510.250    4.699    0.284    0.452   75.111
  510.500    4.878    0.278    0.463   75.719
  510.750    4.970    0.284    0.468   74.505
  511.000    5.256    0.280    0.474   72.684
  511.250    5.356    0.257    0.475   72.078
  511.500    5.258    0.267    0.470   75.115
  511.750    5.066    0.274    0.461   78.759
  512.000    4.973    0.294    0.456   74.509
  512.250    4.882    0.288    0.461   74.510
  512.500    4.883    0.285    0.467   75.725
  512.750    4.883    0.277    0.456   74.511
  513.000    4.794    0.263    0.453   76.334
  513.250    4.795    0.283    0.465   78.764
  513.500    4.707    0.283    0.473   81.194
  513.750    4.796    0.279    0.482   82.409
  514.000    4.797    0.255    0.479   81.802
  514.250    4.979    0.256    0.456   79.374
  514.500    5.169    0.268    0.451   79.982
  514.750    5.074    0.277    0.456   82.412
  515.000    4.624    0.273    0.451   84.235
  515.250    4.373    0.271    0.453   86.057
  515.500    5.269    0.184    0.463   86.665
  515.750    6.839    0.159    0.474   76.949
  516.000    9.743    0.037    0.462   70.877
  516.250   12.646    0.000    0.252   62.983
  516.500   16.111    0.000    0.209   58.733
  516.750   16.725    0.006    0.200   55.090
  517.000    9.568    0.072    0.284   59.342
  517.250    6.973    0.165    0.367   65.415
  517.500    5.898    0.203    0.396   69.667
  517.750    5.178    0.181    0.396   70.275
  518.000    4.897    0.226    0.404   73.312
  518.250    4.719    0.295    0.436   75.742
  518.500    4.720    0.302    0.463   76.350
  518.750    4.809    0.296    0.446   72.707
  519.000    4.900    0.267    0.440   69.671
  519.250    4.901    0.251    0.485   70.280
  519.500    4.993    0.233    0.484   71.495
  519.750    4.902    0.234    0.473   73.925
  520.000    4.812    0.256    0.469   75.747
  520.250    4.552    0.284    0.473   77.570
  520.500    4.468    0.275    0.463   79.392
  520.750    4.469    0.244    0.461   80.001
  521.000    4.469    0.237    0.470   80.609
  521.250    4.554    0.242    0.486   78.787
  521.500    4.554    0.261    0.481   79.395
  521.750    4.728    0.289    0.485   76.967
  522.000    4.729    0.286    0.482   77.575
  522.250    4.819    0.285    0.480   79.398
  522.500    4.910    0.289    0.480   77.577
  522.750    4.910    0.294    0.468   77.577
  523.000    5.003    0.289    0.468   78.185
  523.250    5.098    0.273    0.464   78.793
  523.500    5.098    0.239    0.456   76.365
  523.750    5.195    0.204    0.448   77.580
  524.000    5.196    0.217    0.447   80.010
  524.250    5.197    0.226    0.455   81.225
  524.500    5.197    0.207    0.464   76.368
  524.750    5.812    0.171    0.471   70.296
  525.000    6.380    0.151    0.343   66.653
  525.250    6.263    0.111    0.321   71.512
  525.500    5.815    0.089    0.335   84.873
  525.750    5.398    0.180    0.396   84.874
  526.000    5.201    0.210    0.428   87.304
  526.250    5.012    0.210    0.450   89.734
  526.500    4.920    0.214    0.465   90.341
  526.750    4.921    0.214    0.435   92.772
  527.000    4.921    0.207    0.444   94.594
  527.250    5.015    0.204    0.463   95.202
  527.500    5.110    0.192    0.464   95.810
  527.750    5.207    0.184    0.441   97.025
  528.000    5.305    0.187    0.447   97.026
  528.250    5.610    0.214    0.450   95.205
  528.500    5.717    0.226    0.433   93.991
  528.750    5.825    0.210    0.428   94.599
  529.000    5.718    0.211    0.424   96.422
  529.250    5.308    0.204    0.433   96.422
  529.500    5.021    0.192    0.428   93.994
  529.750    4.575    0.185    0.424   95.209
  530.000    4.408    0.188    0.433   91.567
  530.250    4.248    0.186    0.456   87.316
  530.500    4.249    0.209    0.475   84.888
  530.750    4.171    0.193    0.458   87.318
  531.000    3.800    0.175    0.446   87.926
  531.250    3.040    0.170    0.447   89.141
  531.500    2.669    0.188    0.465   90.356
  531.750    2.300    0.202    0.464   89.750
  532.000    2.175    0.240    0.472   89.143
  532.250    2.057    0.261    0.504   87.930
  532.500    1.982    0.243    0.526   87.930
  532.750    1.946    0.248    0.543   86.716
  533.000    1.946    0.253    0.538   87.932
  533.250    1.983    0.234    0.554   91.576
  533.500    2.059    0.244    0.528   95.221
  533.750    2.098    0.228    0.522   98.258
  534.000    2.059    0.213    0.508   98.258
  534.250    2.059    0.213    0.505   97.652
  534.500    2.060    0.214    0.517   97.653
  534.750    2.261    0.225    0.526   97.046
  535.000    2.436    0.215    0.536   93.403
  535.250    2.828    0.225    0.528   88.546
  535.500    3.282    0.204    0.507   85.510
  535.750    4.182    0.176    0.465   86.118
  536.000    4.423    0.197    0.452   86.119
  536.250    4.678    0.199    0.472   85.512
  536.500    4.508    0.201    0.455   86.728
  536.750    4.508    0.179    0.435   87.943
  537.000    4.767    0.195    0.441   88.551
  537.250    5.042    0.208    0.450   84.300
  537.500    4.769    0.170    0.451   80.050
  537.750    4.265    0.141    0.383   84.302
  538.000    3.815    0.158    0.410   90.376
  538.250    3.476    0.187    0.429   92.805
  538.500    3.227    0.202    0.439   94.021
  538.750    3.168    0.204    0.456   94.629
  539.000    3.228    0.188    0.468   97.059
  539.250    3.351    0.198    0.474   98.881
  539.500    3.414    0.204    0.482   97.060
  539.750    3.479    0.213    0.470   94.632
  540.000    3.480    0.221    0.488   92.203
  540.250    3.480    0.218    0.493   93.419
  540.500    3.416    0.189    0.495   95.241
  540.750    3.354    0.207    0.486   97.064
  541.000    3.114    0.222    0.474  100.708
  541.250    3.000    0.210    0.470  101.924
  541.500    2.891    0.199    0.462  102.532
  541.750    2.946    0.209    0.451  103.140
  542.000    3.058    0.208    0.455  103.141
  542.250    3.116    0.204    0.464  103.141
  542.500    3.116    0.198    0.478   97.069
  542.750    3.059    0.182    0.470   94.641
  543.000    2.893    0.172    0.466   96.463
  543.250    2.686    0.162    0.499   98.286
  543.500    2.588    0.178    0.514   97.072
  543.750    2.494    0.192    0.522   95.858
