~VERSION INFORMATION
 VERS.                 2.0:   CWLS LOG ASCII STANDARD -VERSION 2.0
 WRAP.                  NO:   ONE LINE PER DEPTH STEP
~WELL INFORMATION BLOCK
#MNEM.UNIT           DATA                    DESCRIPTION OF MNEMONIC
#---------    -------------------            -------------------------------
# Generated from Intellog Unique Number	CS_77_79/WELL/885
WELL.         PARAMOUNT ET AL PORTAGE        : Well_name    - WELL
LOC .         00/06-28-079-15W4/0            : Location     - LOCATION
UWI .         00/06-28-079-15W4/0            : Uwi          - UNIQUE WELL ID
ENTR.         JHS                            : Entered      - ENTERED BY
SRVC.         SCHLUMBERGER                   : Scn          - SERVICE COMPANY
STRT.M        188.976                        : top_depth    - START DEPTH
STOP.M        447.726                        : bot_depth    - STOP DEPTH
STEP.M        0.25                           : increment    - STEP LENGTH
 NULL. -999.2500:NULL Value
~CURVE INFORMATION BLOCK
#MNEM UNIT       ERCB CURVE CODE    CURVE DESCRIPTION
#-----------   ------------------   ----------------------------------
DEPT.M        00 001 00 00         : DEPTH        - DEPTH
GR  .API      00 310 00 00         : GR           - GAMMA RAY
DPHI.V/V      00 890 00 00         : PHID         - DENSITY POROSITY (SANDSTONE)
NPHI.V/V      00 330 00 00         : PHIN         - NEUTRON POROSITY (SANDSTONE)
ILD .OHMM     00 120 00 00         : RESD         - DEEP RESISTIVITY (DIL)
~PARAMETER INFORMATION
#MNEM.UNIT           DATA             DESCRIPTION OF MNEMONIC
#---------         -----------     ------------------------------
GL  .M        619.354              : gl           - GROUND LEVEL ELEVATION
EREF.M        622.402              : kb           - ELEVATION OF DEPTH REFERENCE
DATM.M        622.402              : datum        - DATUM ELEVATION
TDD .M        449.58               : tdd          - TOTAL DEPTH DRILLER
RUN .         ONE                  : Run          - RUN NUMBER
ENG .         BILL                 : Engineer     - RECORDING ENGINEER
WIT .         JIM                  : Witness      - WITNESSED BY
MUD .         GEL                  : Mud_type     - MUD TYPE
MATR.         SANDSTONE            : Logunit      - NEUTRON MATRIX
TMAX.C        60                   : BHT          - MAXIMUM RECORDED TEMPERATURE
BHTD.M        449.58               : BHTDEP       - MAXIMUM RECORDED TEMPERATURE
MATR.         1                    : LOGUNIT      - NEUTRON MATRIX
RMT .C        25                   : MDTP         - TEMPERATURE OF MUD
NEUT.         1                    : NEUTRON      - NEUTRON TYPE
RESI.         0                    : RESIST       - RESISTIVITY TYPE
RMC .OHMM     0.25                 : RMC          - RESISTIVITY OF MUD CAKE
RMF .OHMM     0.25                 : RMF          - RESISTIVITY OF MUD FILTRATE
SUFT.C        15                   : SUFT         - SURFACE TEMPERATURE
~A  DEPTH       GR     PHID     PHIN     RESD
  188.976   89.399    0.217    0.440    4.781
  189.226   93.716    0.207    0.445    4.571
  189.476   94.865    0.211    0.444    4.539
  189.726   91.489    0.223    0.448    4.376
  189.976   89.460    0.250    0.452    4.590
  190.226   87.935    0.245    0.437    4.841
  190.476   88.036    0.227    0.440    4.995
  190.726   89.608    0.244    0.441    4.995
  190.976   87.839    0.238    0.423    4.999
  191.226   79.951    0.251    0.408    4.833
  191.476   78.249    0.253    0.419    4.740
  191.726   80.717    0.246    0.442    4.392
  191.976   89.716    0.251    0.462    4.087
  192.226  100.083    0.233    0.497    3.507
  192.476  110.495    0.219    0.533    3.413
  192.726  117.033    0.218    0.556    3.094
  192.976  119.159    0.234    0.578    2.812
  193.226  119.763    0.246    0.598    2.633
  193.476  117.754    0.253    0.611    2.518
  193.726  117.282    0.263    0.589    2.421
  193.976  113.710    0.230    0.562    2.592
  194.226  111.102    0.248    0.538    2.620
  194.476  113.296    0.230    0.522    2.627
  194.726  116.440    0.251    0.507    2.629
  194.976  113.100    0.228    0.514    2.631
  195.226  110.841    0.237    0.530    2.632
  195.476  107.747    0.249    0.532    2.613
  195.726  104.913    0.254    0.526    2.855
  195.976  108.909    0.256    0.522    2.836
  196.226  110.107    0.238    0.529    2.832
  196.476  109.303    0.246    0.534    2.802
  196.726  110.770    0.239    0.543    2.651
  196.976  114.311    0.238    0.552    2.423
  197.226  117.092    0.251    0.560    2.445
  197.476  114.024    0.246    0.559    2.448
  197.726  111.767    0.257    0.555    2.450
  197.976  109.771    0.243    0.548    2.451
  198.226  105.903    0.252    0.550    2.454
  198.476  103.769    0.245    0.545    2.459
  198.726  105.041    0.262    0.515    2.453
  198.976  107.031    0.249    0.505    2.674
  199.226  106.913    0.234    0.512    2.661
  199.476  107.472    0.238    0.535    2.661
  199.726  108.475    0.223    0.553    2.662
  199.976  109.448    0.224    0.535    2.664
  200.226  108.816    0.232    0.522    2.670
  200.476  109.097    0.230    0.522    2.757
  200.726  107.069    0.250    0.534    2.865
  200.976  108.450    0.243    0.545    2.891
  201.226  106.968    0.229    0.552    2.651
  201.476  107.097    0.217    0.539    2.674
  201.726  109.434    0.226    0.531    2.682
  201.976  112.088    0.230    0.528    2.731
  202.226  111.404    0.224    0.535    2.883
  202.476  108.231    0.222    0.521    3.005
  202.726  103.429    0.221    0.517    3.113
  202.976  100.122    0.241    0.502    3.292
  203.226   96.507    0.224    0.483    3.385
  203.476   96.005    0.222    0.499    3.480
  203.726   98.517    0.223    0.504    3.500
  203.976   99.727    0.209    0.503    3.182
  204.226  100.074    0.235    0.511    3.083
  204.476   98.126    0.244    0.515    2.901
  204.726   97.541    0.250    0.508    2.673
  204.976   97.723    0.260    0.516    2.698
  205.226   98.776    0.256    0.533    2.700
  205.476   97.796    0.240    0.535    2.702
  205.726   95.342    0.226    0.519    2.700
  205.976   97.403    0.235    0.505    2.594
  206.226  101.624    0.248    0.498    2.509
  206.476  101.520    0.258    0.513    2.525
  206.726  100.201    0.258    0.525    2.291
  206.976   99.676    0.270    0.537    2.312
  207.226  101.061    0.292    0.543    2.315
  207.476  104.495    0.269    0.554    2.317
  207.726  106.353    0.275    0.574    2.318
  207.976  107.739    0.280    0.591    2.320
  208.226  108.789    0.269    0.593    2.322
  208.476  108.805    0.277    0.577    2.323
  208.726  107.975    0.289    0.574    2.325
  208.976  105.610    0.283    0.572    2.327
  209.226  104.138    0.270    0.592    2.328
  209.476  103.592    0.275    0.609    2.330
  209.726  100.675    0.279    0.621    2.332
  209.976   98.990    0.262    0.607    2.334
  210.226  100.548    0.256    0.522    2.340
  210.476   97.382    0.262    0.529    2.347
  210.726   98.832    0.249    0.572    2.550
  210.976  104.207    0.263    0.566    2.541
  211.226  105.381    0.251    0.562    2.541
  211.476  104.152    0.251    0.578    2.541
  211.726  101.658    0.257    0.589    2.530
  211.976  102.308    0.251    0.570    2.742
  212.226  105.759    0.261    0.555    2.504
  212.476  105.165    0.263    0.551    2.766
  212.726  102.229    0.255    0.543    2.734
  212.976   98.759    0.251    0.531    2.977
  213.226   98.414    0.238    0.524    2.972
  213.476  100.840    0.219    0.539    3.145
  213.726  103.114    0.223    0.530    3.378
  213.976  101.952    0.232    0.508    3.357
  214.226  102.068    0.231    0.497    3.337
  214.476  105.068    0.223    0.492    3.580
  214.726  105.722    0.226    0.497    3.560
  214.976  102.086    0.225    0.528    3.557
  215.226  101.222    0.217    0.529    3.524
  215.476   99.179    0.226    0.510    3.358
  215.726  101.326    0.231    0.504    3.263
  215.976  102.542    0.259    0.538    3.177
  216.226  103.503    0.255    0.527    3.151
  216.476  106.389    0.236    0.514    3.321
  216.726  106.925    0.225    0.531    2.959
  216.976  104.097    0.224    0.526    2.789
  217.226  100.115    0.232    0.511    2.563
  217.476   96.828    0.246    0.517    2.583
  217.726   93.744    0.243    0.528    2.800
  217.976   93.390    0.246    0.541    2.790
  218.226   95.001    0.238    0.552    2.781
  218.476   95.752    0.260    0.549    3.111
  218.726   94.832    0.230    0.553    3.467
  218.976   91.763    0.215    0.534    3.934
  219.226   89.364    0.202    0.533    4.771
  219.476   84.646    0.177    0.512    5.877
  219.726   70.535    0.107    0.398    7.733
  219.976   69.395    0.116    0.392   10.904
  220.226   76.764    0.314    0.452   12.588
  220.476   78.560    0.309    0.447   12.891
  220.726   77.667    0.307    0.428   12.002
  220.976   76.694    0.318    0.412   11.578
  221.226   77.050    0.297    0.402   11.371
  221.476   78.179    0.300    0.411   11.080
  221.726   79.715    0.294    0.431   10.593
  221.976   80.156    0.274    0.441   10.086
  222.226   84.588    0.257    0.431    9.359
  222.476   89.655    0.241    0.427    8.709
  222.726   93.609    0.237    0.421    8.042
  222.976   98.578    0.239    0.419    7.155
  223.226   99.012    0.237    0.436    6.543
  223.476   94.385    0.232    0.460    5.711
  223.726   91.849    0.254    0.469    5.209
  223.976   88.083    0.257    0.479    4.587
  224.226   89.992    0.246    0.493    3.742
  224.476   95.963    0.250    0.503    3.253
  224.726  101.730    0.246    0.516    3.026
  224.976  105.826    0.254    0.532    3.055
  225.226  106.759    0.261    0.537    3.557
  225.476  101.741    0.273    0.523    4.480
  225.726   95.163    0.274    0.487    6.181
  225.976   89.028    0.256    0.467    8.555
  226.226   78.100    0.291    0.448   11.978
  226.476   70.827    0.312    0.426   13.637
  226.726   63.649    0.340    0.411   14.909
  226.976   60.056    0.339    0.415   14.438
  227.226   61.493    0.331    0.447   12.650
  227.476   63.757    0.323    0.452    9.956
  227.726   67.538    0.298    0.428    8.768
  227.976   76.258    0.300    0.433    8.448
  228.226   88.310    0.291    0.447    8.569
  228.476   92.532    0.266    0.447    8.428
  228.726   93.043    0.255    0.425    8.109
  228.976   91.498    0.233    0.419    7.679
  229.226   93.119    0.224    0.417    7.004
  229.476   99.840    0.199    0.421    6.490
  229.726  110.182    0.183    0.470    6.145
  229.976  113.314    0.180    0.488    6.256
  230.226  111.079    0.198    0.481    6.359
  230.476  110.697    0.200    0.470    7.030
  230.726  108.747    0.224    0.460    7.832
  230.976  103.076    0.231    0.448    8.648
  231.226   93.757    0.259    0.424   10.475
  231.476   86.861    0.264    0.406   11.257
  231.726   88.452    0.246    0.441   11.223
  231.976   91.546    0.249    0.409   11.724
  232.226   80.409    0.195    0.377   12.948
