~VERSION INFORMATION
 VERS.                 2.0:   CWLS LOG ASCII STANDARD -VERSION 2.0
 WRAP.                  NO:   ONE LINE PER DEPTH STEP
~WELL INFORMATION BLOCK
#MNEM.UNIT           DATA                    DESCRIPTION OF MNEMONIC
#---------    -------------------            -------------------------------
# Generated from Intellog Unique Number	CS_77_79/WELL/923
WELL.         ANDERSON EXPLORATION LTD.      : Well_name    - WELL
LOC .         00/09-11-077-11W4/0            : Location     - LOCATION
UWI .         00/09-11-077-11W4/0            : Uwi          - UNIQUE WELL ID
ENTR.         SP                             : Entered      - ENTERED BY
SRVC.         SCHLUMBERGER                   : Scn          - SERVICE COMPANY
STRT.M        270                            : top_depth    - START DEPTH
STOP.M        515                            : bot_depth    - STOP DEPTH
STEP.M        0.25                           : increment    - STEP LENGTH
 NULL. -999.2500:NULL Value
~CURVE INFORMATION BLOCK
#MNEM UNIT       ERCB CURVE CODE    CURVE DESCRIPTION
#-----------   ------------------   ----------------------------------
DEPT.M        00 001 00 00         : DEPTH        - DEPTH
ILD .OHMM     00 120 00 00         : RESD         - DEEP RESISTIVITY (DIL)
DPHI.V/V      00 890 00 00         : PHID         - DENSITY POROSITY (LIMESTONE)
NPHI.V/V      00 330 00 00         : PHIN         - NEUTRON POROSITY (LIMESTONE)
GR  .API      00 310 00 00         : GR           - GAMMA RAY
~PARAMETER INFORMATION
#MNEM.UNIT           DATA             DESCRIPTION OF MNEMONIC
#---------         -----------     ------------------------------
GL  .M        678.1                : gl           - GROUND LEVEL ELEVATION
EREF.M        681.6                : kb           - ELEVATION OF DEPTH REFERENCE
DATM.M        678.1                : datum        - DATUM ELEVATION
TDD .M        515                  : tdd          - TOTAL DEPTH DRILLER
RUN .         ONE                  : Run          - RUN NUMBER
ENG .         BILL                 : Engineer     - RECORDING ENGINEER
WIT .         JIM                  : Witness      - WITNESSED BY
MUD .         GEL                  : Mud_type     - MUD TYPE
MATR.         LIMESTONE            : Logunit      - NEUTRON MATRIX
TMAX.C        25                   : BHT          - MAXIMUM RECORDED TEMPERATURE
BHTD.M        515                  : BHTDEP       - MAXIMUM RECORDED TEMPERATURE
MATR.         1                    : LOGUNIT      - NEUTRON MATRIX
RMT .C        25                   : MDTP         - TEMPERATURE OF MUD
NEUT.         1                    : NEUTRON      - NEUTRON TYPE
RESI.         0                    : RESIST       - RESISTIVITY TYPE
RMC .OHMM     0.25                 : RMC          - RESISTIVITY OF MUD CAKE
RMF .OHMM     0.25                 : RMF          - RESISTIVITY OF MUD FILTRATE
SUFT.C        15                   : SUFT         - SURFACE TEMPERATURE
~A  DEPTH     RESD     PHID     PHIN       GR
# ...
  487.500   28.788    0.279    0.415   65.776
  487.750   29.339    0.288    0.425   65.174
  488.000   30.459    0.299    0.416   63.355
  488.250   31.041    0.279    0.411   62.145
  488.500   31.634    0.276    0.424   62.755
  488.750   32.840    0.264    0.412   68.832
  489.000   35.389    0.262    0.406   67.013
  489.250   36.736    0.297    0.419   53.657
  489.500   38.851    0.319    0.440   41.515
  489.750   41.864    0.330    0.414   38.481
  490.000   45.113    0.301    0.384   50.632
  490.250   45.966    0.283    0.378   56.708
  490.500   47.722    0.285    0.389   57.320
  490.750   49.544    0.296    0.397   52.465
  491.000   55.413    0.314    0.405   48.217
  491.250   58.597    0.319    0.411   42.756
  491.500   69.288    0.321    0.414   42.152
  491.750   71.929    0.327    0.419   43.370
  492.000   69.329    0.323    0.436   43.981
  492.250   66.826    0.301    0.429   42.771
  492.500   72.001    0.290    0.436   39.131
  492.750   83.571    0.295    0.430   36.098
  493.000   90.040    0.315    0.419   33.065
  493.250   93.475    0.357    0.409   32.462
  493.500   95.266    0.372    0.421   32.466
  493.750   91.819    0.379    0.450   36.115
  494.000   90.177    0.376    0.461   38.547
  494.250   88.534    0.365    0.465   39.764
  494.500   79.226    0.349    0.448   40.375
  494.750   69.594    0.310    0.427   39.772
  495.000   63.442    0.301    0.402   42.205
  495.250   53.698    0.298    0.392   43.422
  495.500   46.298    0.298    0.404   40.391
  495.750   38.465    0.302    0.410   44.038
  496.000   31.372    0.305    0.408   51.936
  496.250   26.553    0.284    0.395   68.337
  496.500   24.206    0.203    0.320   82.308
  496.750   22.480    0.200    0.334   92.637
  497.000   20.879    0.204    0.346   96.284
  497.250   19.391    0.199    0.351   98.110
  497.500   18.689    0.187    0.354   94.469
  497.750   18.013    0.176    0.349   92.044
  498.000   17.688    0.193    0.354   92.656
  498.250   17.698    0.212    0.362   89.016
  498.500   17.701    0.229    0.355   87.197
  498.750   17.062    0.227    0.341   91.453
  499.000   16.142    0.212    0.350   95.100
  499.250   14.993    0.210    0.355  109.072
  499.500   14.184    0.262    0.353  112.112
  499.750   13.174    0.232    0.334  106.042
  500.000   12.235    0.212    0.330   95.115
  500.250   11.575    0.207    0.328   89.653
  500.500   10.750    0.211    0.327   95.729
  500.750    9.620    0.217    0.329  110.916
  501.000    9.103    0.219    0.347  124.887
  501.250    8.938    0.213    0.356  141.896
  501.500    8.940    0.211    0.341  141.901
  501.750    8.779    0.204    0.317  141.904
  502.000    8.621    0.193    0.310  147.373
  502.250    8.309    0.159    0.311  164.988
  502.500    7.717    0.150    0.327  177.746
  502.750    7.438    0.164    0.358  184.429
  503.000    6.908    0.185    0.379  191.113
  503.250    6.182    0.184    0.392  156.500
  503.500    5.636    0.172    0.408  144.358
  503.750    5.234    0.205    0.415   93.349
  504.000    4.860    0.260    0.422   78.777
  504.250    4.432    0.286    0.414   70.886
  504.500    4.352    0.310    0.398   64.817
  504.750    4.194    0.318    0.364   58.140
  505.000    4.118    0.315    0.386   55.715
  505.250    4.044    0.310    0.404   63.614
  505.500    4.045    0.295    0.395   59.366
  505.750    4.123    0.289    0.386   63.015
  506.000    4.202    0.298    0.374   73.950
  506.250    4.361    0.302    0.358   85.492
  506.500    4.788    0.294    0.370   90.354
  506.750    5.767    0.271    0.389   89.143
  507.000    6.946    0.260    0.394   86.718
  507.250    8.524    0.265    0.372   76.398
  507.500    9.891    0.085    0.358   49.072
  507.750   14.614    0.078    0.336   33.286
  508.000   17.934    0.090    0.299   24.180
  508.250   20.814    0.102    0.256   18.112
  508.500   22.845    0.095    0.197   16.900
  508.750   25.547    0.089    0.186   17.511
  509.000   28.046    0.081    0.181   18.730
  509.250   28.577    0.072    0.179   17.518
  509.500   29.669    0.067    0.178   15.700
  509.750   30.235    0.073    0.178   16.312
  510.000   30.812    0.073    0.184   18.746
  510.250   31.403    0.068    0.177   19.962
  510.500   31.413    0.072    0.177   17.538
  510.750   30.849    0.082    0.183   18.756
  511.000   30.859    0.094    0.183   19.367
  511.250   30.866    0.093    0.181   19.978
  511.500   30.879    0.085    0.181   18.767
  511.750   30.889    0.081    0.183   15.735
  512.000   31.478    0.073    0.184   15.739
  512.250   31.488    0.064    0.184   15.745
  512.500   31.497    0.059    0.179   15.748
  512.750   30.930    0.061    0.175   16.358
  513.000   31.524    0.087    0.175   16.362
  513.250   31.534    0.091    0.181   16.365
  513.500   31.541    0.091    0.184   15.761
  513.750   31.556    0.083    0.184   15.764
  514.000   31.563    0.080    0.184   15.162
  514.250   31.581    0.069    0.185   15.772
  514.500   31.590    0.062    0.186   15.775
  514.750   31.600    0.070    0.186   17.601
  515.000   31.610    0.068    0.188   19.429
