~VERSION INFORMATION
 VERS.                 2.0:   CWLS LOG ASCII STANDARD -VERSION 2.0
 WRAP.                  NO:   ONE LINE PER DEPTH STEP
~WELL INFORMATION BLOCK
#MNEM.UNIT           DATA                    DESCRIPTION OF MNEMONIC
#---------    -------------------            -------------------------------
# Generated from Intellog Unique Number	CW_73_75/WELL/3515
WELL.         ULSTER PETROLEUMS LTD.         : Well_name    - WELL
LOC .         00/01-24-075-24W4/0            : Location     - LOCATION
UWI .         00/01-24-075-24W4/0            : Uwi          - UNIQUE WELL ID
ENTR.         JOETTE                         : Entered      - ENTERED BY
SRVC.         SCHLUMBERGER                   : Scn          - SERVICE COMPANY
DATE.         05/22/92                       : Date         - LOG DATE
STRT.M        375                            : top_depth    - START DEPTH
STOP.M        610                            : bot_depth    - STOP DEPTH
STEP.M        0.25                           : increment    - STEP LENGTH
 NULL. -999.2500:NULL Value
~CURVE INFORMATION BLOCK
#MNEM UNIT       ERCB CURVE CODE    CURVE DESCRIPTION
#-----------   ------------------   ----------------------------------
DEPT.M        00 001 00 00         : DEPTH        - DEPTH
ILD .OHMM     00 120 00 00         : RESD         - DEEP RESISTIVITY (DIL)
DPHI.V/V      00 890 00 00         : PHID         - DENSITY POROSITY (SANDSTONE)
NPHI.V/V      00 330 00 00         : PHIN         - NEUTRON POROSITY (SANDSTONE)
GR  .API      00 310 00 00         : GR           - GAMMA RAY
~PARAMETER INFORMATION
#MNEM.UNIT           DATA             DESCRIPTION OF MNEMONIC
#---------         -----------     ------------------------------
GL  .M        699.8                : gl           - GROUND LEVEL ELEVATION
EREF.M        703.6                : kb           - ELEVATION OF DEPTH REFERENCE
DATM.M        703.6                : datum        - DATUM ELEVATION
TDD .M        615                  : tdd          - TOTAL DEPTH DRILLER
RUN .         ONE                  : Run          - RUN NUMBER
ENG .         BILL                 : Engineer     - RECORDING ENGINEER
WIT .         JIM                  : Witness      - WITNESSED BY
MUD .         GEL                  : Mud_type     - MUD TYPE
MATR.         SANDSTONE            : Logunit      - NEUTRON MATRIX
TMAX.C        28                   : BHT          - MAXIMUM RECORDED TEMPERATURE
BHTD.M        615                  : BHTDEP       - MAXIMUM RECORDED TEMPERATURE
RMT .C        20                   : MDTP         - TEMPERATURE OF MUD
MUDD.KG/M     1130                 : MWT          - MUD DENSITY
NEUT.         1                    : NEUTRON      - NEUTRON TYPE
RESI.         0                    : RESIST       - RESISTIVITY TYPE
RM  .OHMM     3.1                  : RM           - RESISTIVITY OF MUD
RMC .OHMM     1.57                 : RMC          - RESISTIVITY OF MUD CAKE
RMF .OHMM     2.7                  : RMF          - RESISTIVITY OF MUD FILTRATE
SUFT.C        4                    : SUFT         - SURFACE TEMPERATURE
~A  DEPTH     RESD     PHID     PHIN       GR
# ...
  462.000    4.999    0.339    0.438   66.863
  462.250    4.920    0.327    0.446   69.286
  462.500    4.836    0.323    0.454   70.489
  462.750    4.672    0.328    0.456   72.912
  463.000    4.594    0.329    0.451   72.397
  463.250    4.438    0.325    0.454   71.863
  463.500    4.448    0.325    0.471   70.763
  463.750    4.457    0.324    0.471   70.832
  464.000    4.636    0.314    0.450   70.900
  464.250    4.727    0.273    0.447   72.722
  464.500    5.107    0.249    0.433   80.404
  464.750    5.205    0.254    0.466   90.408
  465.000    5.515    0.264    0.486   92.247
  465.250    5.843    0.301    0.480   66.567
  465.500    6.069    0.331    0.462   58.454
  465.750    6.430    0.355    0.447   60.275
  466.000    6.688    0.355    0.442   67.357
  466.250    6.826    0.322    0.444   75.040
  466.500    6.236    0.298    0.447   79.199
  466.750    6.019    0.269    0.451   84.527
  467.000    5.603    0.244    0.464   88.704
  467.250    5.408    0.231    0.469   87.603
  467.500    5.038    0.239    0.462   85.334
  467.750    4.686    0.237    0.427   83.666
  468.000    4.442    0.228    0.424   87.224
  468.250    4.533    0.229    0.450   94.890
  468.500    4.711    0.259    0.478   92.621
  468.750    4.810    0.310    0.483   85.676
  469.000    4.909    0.332    0.460   63.520
  469.250    5.013    0.339    0.437   57.745
  469.500    5.018    0.340    0.458   56.060
  469.750    4.936    0.349    0.447   57.297
  470.000    4.681    0.356    0.431   57.950
  470.250    4.518    0.356    0.435   56.849
  470.500    4.208    0.355    0.456   56.918
  470.750    4.135    0.349    0.459   60.510
  471.000    3.993    0.349    0.465   59.994
  471.250    3.927    0.359    0.461   57.725
  471.500    3.865    0.356    0.449   54.854
  471.750    3.802    0.347    0.452   52.585
  472.000    3.741    0.337    0.452   59.082
  472.250    3.676    0.324    0.441   69.103
  472.500    3.423    0.292    0.479   76.768
  472.750    3.069    0.294    0.567   83.299
  473.000    2.908    0.311    0.585   82.199
  473.250    3.025    0.339    0.571   79.311
  473.500    3.326    0.362    0.519   71.198
  473.750    3.522    0.375    0.462   64.838
  474.000    3.942    0.389    0.435   57.309
  474.250    4.177    0.400    0.448   53.287
  474.500    3.958    0.386    0.459   51.602
  474.750    3.820    0.379    0.467   54.008
  475.000    3.827    0.374    0.480   52.908
  475.250    4.053    0.351    0.488   57.651
  475.500    4.978    0.306    0.472   64.148
  475.750    5.373    0.270    0.480   72.416
  476.000    5.902    0.231    0.411   75.423
  476.250    6.858    0.171    0.375   70.215
  476.500    6.265    0.213    0.269   65.007
  476.750    5.721    0.247    0.351   69.183
  477.000    4.949    0.266    0.449   75.096
  477.250    4.774    0.269    0.459   81.593
  477.500    4.612    0.277    0.436   81.678
  477.750    4.539    0.245    0.437   79.409
  478.000    4.543    0.234    0.445   82.984
  478.250    4.552    0.230    0.434   93.004
  478.500    4.646    0.234    0.422   91.887
  478.750    4.655    0.234    0.416   87.280
  479.000    4.664    0.233    0.431   86.781
  479.250    4.675    0.235    0.448   87.434
  479.500    4.685    0.240    0.460   85.749
  479.750    4.694    0.246    0.462   83.463
  480.000    4.793    0.241    0.452   86.471
  480.250    4.802    0.236    0.444   90.029
  480.500    4.899    0.228    0.445   94.222
  480.750    5.002    0.220    0.452   91.936
  481.000    5.012    0.221    0.454   87.312
  481.250    5.022    0.227    0.454   87.380
  481.500    4.937    0.219    0.448   87.483
  481.750    4.856    0.223    0.441   85.180
  482.000    4.776    0.226    0.437   82.910
  482.250    4.700    0.231    0.445   88.256
  482.500    4.623    0.224    0.453   90.662
  482.750    4.630    0.219    0.447   90.730
  483.000    4.641    0.216    0.439   88.461
  483.250    4.737    0.216    0.427   85.608
  483.500    4.748    0.215    0.443   87.446
  483.750    4.844    0.212    0.462   90.437
  484.000    4.853    0.211    0.450   92.843
  484.250    4.865    0.213    0.438   92.327
  484.500    4.872    0.218    0.444   90.659
  484.750    4.797    0.220    0.438   90.109
  485.000    4.802    0.222    0.438   89.610
  485.250    4.813    0.227    0.451   90.831
  485.500    4.737    0.233    0.468   94.440
  485.750    4.654    0.237    0.481   96.244
  486.000    4.494    0.225    0.474   98.083
  486.250    4.260    0.207    0.448   97.567
  486.500    3.892    0.217    0.437   95.281
  486.750    3.622    0.223    0.433   91.860
  487.000    3.631    0.227    0.447   90.760
  487.250    3.706    0.233    0.459   89.659
  487.500    3.924    0.229    0.457   87.390
  487.750    4.233    0.220    0.449   84.537
  488.000    4.652    0.220    0.425   84.605
  488.250    5.207    0.221    0.436   83.505
  488.500    7.694    0.204    0.466   85.326
  488.750   10.950    0.121    0.407   87.148
  489.000   12.032    0.011    0.274   84.277
  489.250   10.593    0.034    0.172   77.333
  489.500    7.201    0.122    0.205   69.202
  489.750    5.574    0.255    0.212   65.180
  490.000    5.279    0.291    0.263   73.430
  490.250    4.822    0.312    0.327   76.455
  490.500    4.327    0.325    0.414   73.618
  490.750    4.100    0.320    0.438   71.349
  491.000    3.886    0.322    0.455   70.198
  491.250    3.824    0.324    0.467   69.682
  491.500    4.050    0.327    0.465   70.970
  491.750    4.533    0.319    0.457   71.004
  492.000    5.169    0.295    0.459   68.151
  492.250    6.346    0.214    0.446   64.696
  492.500    6.977    0.150    0.361   59.505
  492.750    6.610    0.097    0.308   51.391
  493.000    5.713    0.174    0.283   49.122
  493.250    4.586    0.226    0.380   52.697
  493.500    3.893    0.247    0.414   58.042
  493.750    3.689    0.316    0.414   57.526
  494.000    3.632    0.325    0.427   54.071
  494.250    3.637    0.330    0.425   51.218
  494.500    3.643    0.327    0.418   55.394
  494.750    3.651    0.319    0.426   60.138
  495.000    3.657    0.304    0.442   62.544
  495.250    3.667    0.305    0.447   58.522
  495.500    3.671    0.311    0.455   59.174
  495.750    3.678    0.321    0.469   63.935
  496.000    3.689    0.325    0.467   65.757
  496.250    3.698    0.319    0.460   65.241
  496.500    3.701    0.309    0.451   61.803
  496.750    3.710    0.312    0.433   58.348
  497.000    3.716    0.320    0.424   58.416
  497.250    3.725    0.326    0.430   63.745
  497.500    3.801    0.328    0.444   67.354
  497.750    3.811    0.326    0.452   67.405
  498.000    3.886    0.318    0.444   66.322
  498.250    3.968    0.307    0.437   65.204
  498.500    4.049    0.296    0.440   62.351
  498.750    4.131    0.277    0.443   64.172
  499.000    4.141    0.272    0.440   68.916
  499.250    4.151    0.291    0.425   72.508
  499.500    4.081    0.302    0.425   67.884
  499.750    4.014    0.305    0.443   67.385
  500.000    3.950    0.293    0.448   70.943
  500.250    3.960    0.268    0.411   72.765
  500.500    4.037    0.303    0.402   66.405
  500.750    4.276    0.288    0.412   64.136
  501.000    4.530    0.240    0.430   78.832
  501.250    4.624    0.209    0.447   85.913
  501.500    4.631    0.263    0.458   93.613
  501.750    4.557    0.291    0.437   90.158
  502.000    4.400    0.301    0.439   85.534
  502.250    4.173    0.309    0.440   85.018
  502.500    4.026    0.316    0.433   88.025
  502.750    3.891    0.328    0.434   88.713
  503.000    3.825    0.340    0.450   88.162
  503.250    3.834    0.333    0.464   85.309
  503.500    3.838    0.330    0.465   81.854
  503.750    3.849    0.325    0.460   79.602
  504.000    3.857    0.306    0.448   79.687
  504.250    3.938    0.259    0.430   80.357
  504.500    4.016    0.227    0.464   80.391
  504.750    4.253    0.245    0.465   81.646
  505.000    4.763    0.243    0.444   84.636
  505.250    4.772    0.231    0.437   87.025
