~VERSION INFORMATION
 VERS.                 2.0:   CWLS LOG ASCII STANDARD -VERSION 2.0
 WRAP.                  NO:   ONE LINE PER DEPTH STEP
~WELL INFORMATION BLOCK
#MNEM.UNIT           DATA                    DESCRIPTION OF MNEMONIC
#---------    -------------------            -------------------------------
# Generated from Intellog Unique Number	CS_77_79/WELL/3298
WELL.         NOVALTA RESOURCES LTD.         : Well_name    - WELL
LOC .         00/07-29-078-03W4/0            : Location     - LOCATION
UWI .         00/07-29-078-03W4/0            : Uwi          - UNIQUE WELL ID
ENTR.         JOETTE                         : Entered      - ENTERED BY
SRVC.         SCHLUMBERGER                   : Scn          - SERVICE COMPANY
DATE.         08-26-92                       : Date         - LOG DATE
STRT.M        140                            : top_depth    - START DEPTH
STOP.M        325                            : bot_depth    - STOP DEPTH
STEP.M        0.25                           : increment    - STEP LENGTH
 NULL. -999.2500:NULL Value
~CURVE INFORMATION BLOCK
#MNEM UNIT       ERCB CURVE CODE    CURVE DESCRIPTION
#-----------   ------------------   ----------------------------------
DEPT.M        00 001 00 00         : DEPTH        - DEPTH
ILD .OHMM     00 120 00 00         : RESD         - DEEP RESISTIVITY (DIL)
GR  .API      00 310 00 00         : GR           - GAMMA RAY
NPHI.V/V      00 330 00 00         : PHIN         - NEUTRON POROSITY (SANDSTONE)
DPHI.V/V      00 890 00 00         : PHID         - DENSITY POROSITY (SANDSTONE)
~PARAMETER INFORMATION
#MNEM.UNIT           DATA             DESCRIPTION OF MNEMONIC
#---------         -----------     ------------------------------
GL  .M        551.2                : gl           - GROUND LEVEL ELEVATION
EREF.M        555.2                : kb           - ELEVATION OF DEPTH REFERENCE
DATM.M        555.2                : datum        - DATUM ELEVATION
TDD .M        330.8                : tdd          - TOTAL DEPTH DRILLER
RUN .         ONE                  : Run          - RUN NUMBER
ENG .         BILL                 : Engineer     - RECORDING ENGINEER
WIT .         JIM                  : Witness      - WITNESSED BY
MUD .         GEL                  : Mud_type     - MUD TYPE
MATR.         SANDSTONE            : Logunit      - NEUTRON MATRIX
TMAX.C        22                   : BHT          - MAXIMUM RECORDED TEMPERATURE
BHTD.M        330.8                : BHTDEP       - MAXIMUM RECORDED TEMPERATURE
RMT .C        8                    : MDTP         - TEMPERATURE OF MUD
MUDD.KG/M     1050                 : MWT          - MUD DENSITY
NEUT.         1                    : NEUTRON      - NEUTRON TYPE
RESI.         0                    : RESIST       - RESISTIVITY TYPE
RM  .OHMM     1.27                 : RM           - RESISTIVITY OF MUD
RMC .OHMM     1.27                 : RMC          - RESISTIVITY OF MUD CAKE
RMF .OHMM     1.17                 : RMF          - RESISTIVITY OF MUD FILTRATE
SUFT.C        15                   : SUFT         - SURFACE TEMPERATURE
~A  DEPTH     RESD       GR     PHIN     PHID
  140.000    3.065   94.357    0.536    0.298
  140.250    3.069   98.797    0.553    0.298
  140.500    3.137   90.844    0.551    0.299
  140.750    3.148   85.370    0.528    0.254
  141.000    3.154   97.864    0.526    0.227
  141.250    3.164  102.949    0.534    0.278
  141.500    3.171   99.953    0.546    0.285
  141.750    3.177   97.551    0.540    0.281
  142.000    3.188   98.299    0.536    0.276
  142.250    3.196  100.905    0.546    0.274
  142.500    3.205  102.246    0.555    0.275
  142.750    3.211  100.490    0.551    0.278
  143.000    3.160   97.468    0.545    0.280
  143.250    3.060   93.233    0.531    0.276
  143.500    3.009   90.237    0.521    0.266
  143.750    3.015   89.126    0.496    0.258
  144.000    3.080   91.681    0.502    0.249
  144.250    3.269  103.581    0.516    0.256
  144.500    3.276  106.187    0.520    0.262
  144.750    3.346  106.909    0.523    0.259
  145.000    3.417  107.631    0.533    0.258
  145.250    3.424  111.425    0.531    0.258
  145.500    3.433   94.798    0.517    0.257
  145.750    3.445   93.042    0.505    0.249
  146.000    3.454   94.977    0.488    0.222
  146.250    3.399  101.921    0.496    0.228
  146.500    3.411  104.501    0.503    0.253
  146.750    3.415  103.364    0.518    0.261
  147.000    3.424  102.227    0.516    0.260
  147.250    3.500  102.329    0.524    0.258
  147.500    3.575   96.210    0.438    0.258
  147.750    3.792   88.257    0.463    0.248
  148.000    4.097   87.146    0.466    0.236
  148.250    4.258   90.346    0.458    0.230
  148.500    4.600   94.166    0.423    0.235
  148.750    4.702   96.153    0.445    0.241
  149.000    4.711   95.610    0.470    0.243
  149.250    4.721   92.639    0.480    0.248
  149.500    4.828   90.212    0.506    0.258
  149.750    5.210   84.118    0.458    0.272
  150.000    6.059   79.264    0.425    0.282
  150.250   10.805   75.648    0.423    0.280
  150.500   11.668   74.537    0.432    0.290
  150.750   12.384   72.755    0.428    0.308
  151.000   12.173   73.502    0.423    0.318
  151.250   10.928   76.057    0.433    0.319
  151.500   10.161   76.779    0.457    0.312
  151.750    8.309   76.881    0.482    0.312
  152.000    7.327   79.462    0.492    0.311
  152.250    7.337   85.166    0.458    0.288
  152.500    7.356   90.845    0.461    0.283
  152.750    7.519   97.788    0.468    0.281
  153.000    8.271   92.288    0.463    0.283
  153.250   11.584   86.814    0.438    0.293
  153.500   12.279   78.242    0.443    0.288
  153.750   12.768   67.166    0.449    0.279
  154.000   13.534   56.709    0.391    0.286
  154.250   14.355   56.192    0.368    0.310
  154.500   14.403   72.480    0.372    0.312
  154.750   13.660   76.275    0.384    0.284
  155.000   12.476   85.671    0.391    0.260
  155.250   11.608   91.375    0.405    0.241
  155.500   10.042   94.007    0.417    0.216
  155.750   10.068   90.340    0.383    0.212
  156.000   11.075   84.246    0.369    0.215
  156.250   12.879   78.747    0.362    0.224
  156.500   17.063   72.653    0.367    0.231
  156.750   18.087   66.559    0.375    0.236
  157.000   19.543   57.962    0.382    0.256
  157.250   20.322   54.966    0.370    0.264
  157.500   21.145   50.731    0.370    0.241
  157.750   20.826   45.851    0.373    0.277
  158.000   20.895   38.518    0.360    0.308
  158.250   20.552   57.233    0.361    0.292
  158.500   20.593   54.857    0.393    0.279
  158.750   19.910   46.905    0.367    0.315
  159.000   19.596   48.246    0.365    0.355
  159.250   19.300   66.342    0.392    0.361
  159.500   18.984   78.242    0.398    0.340
  159.750   17.993   85.160    0.376    0.313
  160.000   16.455   91.484    0.371    0.282
  160.250   14.772  111.464    0.366    0.253
  160.500   14.520  107.204    0.372    0.246
  160.750   14.029  102.969    0.397    0.255
  161.000   14.330   97.520    0.384    0.260
  161.250   14.646   94.473    0.376    0.260
  161.500   14.950   89.619    0.381    0.264
  161.750   15.000   85.384    0.391    0.274
  162.000   14.483   85.511    0.403    0.297
  162.250   13.484   98.031    0.415    0.303
  162.500   11.026  103.684    0.427    0.302
  162.750    9.351  105.671    0.418    0.247
  163.000    7.790  102.055    0.417    0.222
  163.250    7.124   89.146    0.480    0.184
  163.500    7.143   87.958    0.401    0.143
  163.750    7.291   85.582    0.386    0.115
  164.000    7.181   99.341    0.430    0.186
  164.250    6.685  103.211    0.446    0.237
  164.500    6.464  102.643    0.444    0.245
  164.750    6.717  100.267    0.448    0.250
  165.000    9.952   95.412    0.442    0.285
  165.250   13.422   89.938    0.449    0.313
  165.500   14.494   87.588    0.427    0.327
  165.750   15.943   92.621    0.406    0.328
  166.000   15.692  107.619    0.413    0.328
  166.250   13.317  117.041    0.420    0.327
  166.500   11.301   92.308    0.519    0.331
  166.750    9.952   78.779    0.623    0.387
  167.000   11.152   73.279    0.528    0.447
  167.250   16.210   57.246    0.443    0.406
  167.500   17.504   51.772    0.432    0.396
  167.750   19.254   46.892    0.433    0.385
  168.000   22.009   42.708    0.431    0.373
  168.250   22.480   42.140    0.410    0.368
  168.500   22.525   41.674    0.392    0.363
  168.750   22.570   42.344    0.388    0.363
  169.000   21.806   46.190    0.386    0.365
  169.250   19.576   50.655    0.413    0.360
  169.500   18.226   52.641    0.415    0.355
  169.750   16.657   53.931    0.407    0.356
  170.000   15.508   57.157    0.435    0.364
  170.250   14.708   60.357    0.440    0.360
  170.500   14.211   64.177    0.413    0.343
  170.750   13.721   64.899    0.428    0.324
  171.000   13.767   67.505    0.440    0.308
  171.250   14.062   74.423    0.407    0.303
  171.500   14.905   63.347    0.393    0.293
  171.750   16.396   41.763    0.382    0.314
  172.000   19.092   37.503    0.375    0.351
  172.250   19.092   29.550    0.369    0.364
  172.500   26.811   40.805    0.379    0.368
  172.750   21.085   49.633    0.406    0.377
  173.000   22.768   54.666    0.401    0.400
  173.250   24.149   57.866    0.404    0.424
  173.500   23.769   52.392    0.437    0.449
  173.750   22.528   39.457    0.527    0.462
  174.000   20.988   27.787    0.507    0.481
  174.250   20.644   23.527    0.455    0.478
  174.500   21.086   23.035    0.413    0.473
  174.750   22.381   23.111    0.403    0.447
  175.000   22.845   23.265    0.391    0.389
  175.250   23.349   23.961    0.387    0.371
  175.500   22.981   25.948    0.392    0.364
  175.750   22.604   29.148    0.412    0.360
  176.000   21.439   31.083    0.419    0.359
  176.250   20.333   36.168    0.406    0.357
  176.500   18.943   45.564    0.397    0.356
  176.750   18.632   52.533    0.394    0.353
  177.000   18.026   62.523    0.389    0.347
  177.250   18.050   66.988    0.385    0.339
  177.500   17.777   62.133    0.378    0.332
  177.750   17.825   62.236    0.386    0.328
  178.000   17.872   68.534    0.417    0.327
  178.250   18.267   72.354    0.433    0.324
  178.500   18.646   66.879    0.423    0.333
  178.750   19.032   65.742    0.408    0.340
  179.000   19.466   68.943    0.407    0.343
  179.250   19.869   67.212    0.410    0.338
  179.500   19.909   65.430    0.416    0.333
  179.750   20.349   66.796    0.427    0.332
  180.000   20.416   70.616    0.431    0.333
  180.250   20.854   74.436    0.426    0.331
  180.500   20.909   77.687    0.426    0.329
  180.750   20.607   77.764    0.428    0.326
  181.000   20.621   76.601    0.435    0.322
  181.250   20.676   76.110    0.434    0.321
  181.500   20.350   76.186    0.405    0.323
  181.750   20.043   78.818    0.401    0.326
  182.000   19.365   83.283    0.413    0.331
  182.250   18.697   84.573    0.417    0.332
  182.500   17.099   88.393    0.415    0.327
  182.750   15.930   89.734    0.404    0.321
  183.000   15.381   87.358    0.376    0.311
  183.250   15.129   90.609    0.357    0.280
