~VERSION INFORMATION
 VERS.                 2.0:   CWLS LOG ASCII STANDARD -VERSION 2.0
 WRAP.                  NO:   ONE LINE PER DEPTH STEP
~WELL INFORMATION BLOCK
#MNEM.UNIT           DATA                    DESCRIPTION OF MNEMONIC
#---------    -------------------            -------------------------------
# Generated from Intellog Unique Number	CW_76_78/WELL/2797
WELL.         SCURRY ATKINSON MCMULLEN 07-13 : Well_name    - WELL
LOC .         00/07-13-078-26W4/0            : Location     - LOCATION
UWI .         00/07-13-078-26W4/0            : Uwi          - UNIQUE WELL ID
ENTR.         JJ                             : Entered      - ENTERED BY
SRVC.         WESTERN ATLAS                  : Scn          - SERVICE COMPANY
DATE.         7 FEB 73                       : Date         - LOG DATE
STRT.M        374.904                        : top_depth    - START DEPTH
STOP.M        502.904                        : bot_depth    - STOP DEPTH
STEP.M        0.25                           : increment    - STEP LENGTH
 NULL. -999.2500:NULL Value
~CURVE INFORMATION BLOCK
#MNEM UNIT       ERCB CURVE CODE    CURVE DESCRIPTION
#-----------   ------------------   ----------------------------------
DEPT.M        00 001 00 00         : DEPTH        - DEPTH
ILD .OHMM     00 120 00 00         : RESD         - DEEP RESISTIVITY (DIL)
GR  .API      00 310 00 00         : GR           - GAMMA RAY
DELT.US/F     00 520 00 00         : DELT         - SONIC TRAVEL TIME
CALI.MM       00 280 01 00         : CAL          - CALIPER
~PARAMETER INFORMATION
#MNEM.UNIT           DATA             DESCRIPTION OF MNEMONIC
#---------         -----------     ------------------------------
GL  .M        591.16               : gl           - GROUND LEVEL ELEVATION
EREF.M        594.482              : kb           - ELEVATION OF DEPTH REFERENCE
DATM.M        591.16               : datum        - DATUM ELEVATION
TDD .M        502.92               : tdd          - TOTAL DEPTH DRILLER
RUN .         ONE                  : Run          - RUN NUMBER
ENG .         CLARK                : Engineer     - RECORDING ENGINEER
WIT .         GALLOWAY             : Witness      - WITNESSED BY
BASE.         V.V.                 : Branch       - HOME BASE OF LOGGING UNIT
MUD .         MUD/GEL              : Mud_type     - MUD TYPE
MATR.         SANDSTONE            : Logunit      - NEUTRON MATRIX
TMAX.C        25                   : BHT          - MAXIMUM RECORDED TEMPERATURE
BHTD.M        501.396              : BHTDEP       - MAXIMUM RECORDED TEMPERATURE
RMT .C        16.6667              : MDTP         - TEMPERATURE OF MUD
MUDD.KG/M     1140                 : MWT          - MUD DENSITY
NEUT.         1                    : NEUTRON      - NEUTRON TYPE
RESI.         0                    : RESIST       - RESISTIVITY TYPE
RM  .OHMM     8.5                  : RM           - RESISTIVITY OF MUD
RMC .OHMM     9.7                  : RMC          - RESISTIVITY OF MUD CAKE
RMF .OHMM     6.5                  : RMF          - RESISTIVITY OF MUD FILTRATE
SUFT.C        5                    : SUFT         - SURFACE TEMPERATURE
~A  DEPTH     RESD       GR     DELT      CAL
# ...
  461.904   31.012   84.316  259.985  184.224
  462.154   34.519   79.687  255.471  183.775
  462.404   37.234   73.897  281.384  183.621
  462.654   37.592   72.388  296.156  183.482
  462.904   35.709   73.633  296.859  183.127
  463.154   33.023   73.653  306.505  183.687
  463.404   29.558   74.591  321.640  184.746
  463.654   26.627   75.163  309.384  184.392
  463.904   23.731   79.526  329.776  183.744
  464.154   21.532   80.589  340.245  183.082
  464.404   19.235   82.199  341.472  185.567
  464.654   17.029   84.972  333.846  190.769
  464.904   15.389   87.443  345.795  193.252
  465.154   14.453   90.218  350.756  194.917
  465.404   14.037   92.620  350.564  196.587
  465.654   14.050   96.373  352.969  200.476
  465.904   14.164   99.513  353.094  198.919
  466.154   14.227   98.128  339.047  197.555
  466.404   14.046   94.726  327.007  198.309
  466.654   13.612   92.907  338.266  200.690
  466.904   12.818   95.622  340.636  198.320
  467.154   11.782   99.801  341.587  196.256
  467.404   11.217  101.110  346.352  194.994
  467.654   11.672   99.294  353.641  194.643
  467.904   14.011   98.517  356.998  193.484
  468.154   17.881  107.714  339.636  193.132
  468.404   23.982  101.006  307.402  192.069
  468.654   30.111   94.115  254.493  190.511
  468.904   35.858   87.285  252.419  187.333
  469.154   33.427   79.290  287.302  188.593
  469.404   28.588   78.639  249.094  190.466
  469.654   25.496   83.736  251.611  189.406
  469.904   23.023   84.983  317.645  189.966
  470.154   21.066   84.880  328.828  190.124
  470.404   20.629   88.327  330.714  189.266
  470.654   20.753   93.057  327.939  187.300
  470.904   20.420   95.404  326.436  190.368
  471.154   19.637   96.585  321.661  190.635
  471.404   18.480   98.382  317.167  189.682
  471.654   17.156  100.665  316.283  189.430
  471.904   15.826  100.931  322.056  191.708
  472.154   14.665  103.398  329.074  190.440
  472.404   14.168  107.153  333.517  194.025
  472.654   14.900  106.620  340.119  197.519
  472.904   15.736  103.646  347.846  197.362
  473.154   16.796  102.748  329.894  196.608
  473.404   18.129  102.035  294.192  196.057
  473.654   19.361   98.078  277.613  195.504
  473.904   19.276   92.960  276.700  195.161
  474.154   18.371   86.130  330.829  193.896
  474.404   17.643   82.787  341.799  192.436
  474.654   18.017   87.272  338.900  192.287
  474.904   19.128   90.109  340.498  196.380
  475.154   20.448   88.233  344.688  197.545
  475.404   19.683   86.600  343.953  197.090
  475.654   18.146   87.845  318.805  196.940
  475.904   16.720   87.254  300.258  196.692
  476.154   15.098   83.728  345.731  196.344
  476.404   15.876   78.671  360.845  195.883
  476.654   18.671   77.225  359.715  194.126
  476.904   23.250   78.040  349.453  189.231
  477.154   29.868   73.900  342.432  183.419
  477.404   38.563   67.803  343.090  179.637
  477.654   45.551   58.404  342.226  180.700
  477.904   53.380   48.820  344.370  182.976
  478.154   51.106   39.481  348.645  188.785
  478.404   55.125   29.654  350.067  191.466
  478.654   48.746   23.741  349.994  191.017
  478.904   49.125   24.068  351.381  186.321
  479.154   53.370   24.946  356.567  184.555
  479.404   55.797   25.759  357.789  184.912
  479.654   58.429   27.066  353.775  185.167
  479.904   60.995   26.965  354.648  184.008
  480.154   62.831   26.374  357.171  183.652
  480.404   63.256   25.295  356.020  184.823
  480.654   62.829   24.701  355.288  185.881
  480.904   61.451   24.295  355.550  185.932
  481.154   59.899   24.686  353.482  185.180
  481.404   60.263   25.131  353.257  184.821
  481.654   61.067   25.151  350.944  184.279
  481.904   62.894   25.602  355.260  183.319
  482.154   64.730   26.906  352.968  182.660
  482.404   65.766   28.213  349.030  182.115
  482.654   66.770   28.111  345.973  181.864
  482.904   66.749   28.931  345.956  182.016
  483.154   65.346   29.074  341.406  181.567
  483.404   63.373   29.156  342.335  181.114
  483.654   62.576   29.355  344.023  179.855
  483.904   60.002   30.176  343.057  179.195
  484.154   56.196   30.868  340.384  178.849
  484.404   51.594   31.135  338.340  178.494
  484.654   50.613   31.093  337.550  178.342
  484.904   49.330   31.358  338.226  177.993
  485.154   46.904   32.111  339.991  177.537
  485.404   44.718   33.722  338.695  177.399
  485.654   42.474   36.436  336.341  177.553
  485.904   40.328   40.617  333.387  178.208
  486.154   38.102   42.596  332.957  179.574
  486.404   35.314   43.903  329.378  180.337
  486.654   30.903   46.187  332.564  180.189
  486.904   27.073   48.774  337.492  179.434
  487.154   23.506   52.282  340.565  179.386
  487.404   20.817   53.405  343.176  180.747
  487.654   18.111   54.282  347.305  181.709
  487.904   18.756   56.258  356.677  183.787
  488.154   18.733   58.910  370.870  181.307
  488.404   17.128   61.561  365.553  178.637
  488.654   15.262   65.191  364.385  180.712
  488.904   13.340   63.744  367.585  179.855
  489.154   11.957   59.360  362.576  177.683
  489.404   10.355   60.422  350.436  176.627
  489.654    9.290   61.359  349.006  177.086
  489.904    8.688   57.343  352.951  177.643
  490.154    8.285   52.960  349.633  178.405
  490.404    7.793   48.821  348.541  179.163
  490.654    7.646   48.725  348.853  179.724
  490.904    7.709   49.414  346.781  180.080
  491.154    7.965   51.336  345.197  180.233
  491.404    8.446   52.634  337.354  176.044
  491.654    9.652   55.715  324.462  170.846
  491.904   11.216   57.080  309.436  168.865
  492.154   13.300   58.696  310.471  170.446
  492.404   16.929   59.936  302.523  173.525
  492.654   18.795   61.059  237.572  176.611
  492.904   18.955   62.243  232.790  176.262
  493.154   17.832   64.467  301.237  171.767
  493.404   16.192   66.076  332.838  172.320
  493.654   15.146   68.483  330.973  174.699
  493.904   13.883   73.397  321.136  177.380
  494.154   12.899   79.291  325.819  178.538
  494.404   12.038   86.838  335.881  178.289
  494.654   11.237   90.893  343.870  178.344
  494.904   10.835   96.175  348.402  178.502
  495.154   10.413  101.396  343.867  178.855
  495.404   10.277  110.104  343.815  178.607
  495.654   10.315  111.776  351.364  178.657
  495.904   10.153  111.368  351.979  178.710
  496.154    9.592  108.580  348.354  177.249
  496.404    8.971  108.231  353.396  176.398
  496.654    9.675  109.473  372.341  176.845
  496.904   11.379  112.124  364.540  179.330
  497.154   14.004  110.493  290.602  182.008
  497.404   17.032  110.093  270.427  184.488
  497.654   15.568  110.784  278.264  177.670
  497.904   12.520  111.720  321.999  168.230
  498.154    8.530  111.922  392.492  167.268
  498.404    5.663  110.903  423.183  168.130
  498.654    5.503  112.148  433.943  169.496
  498.904    5.884  114.434  438.353  171.472
  499.154    6.645  114.271  439.333  173.446
  499.404    8.090  115.637  439.336  171.377
  499.654    9.815  114.862  437.521  169.508
  499.904   10.778  115.372  432.499  169.665
  500.154   11.262  116.003  422.160  171.532
  500.404   11.480  114.495  406.941  172.898
  500.654   11.965  113.295  378.779  174.368
  500.904   12.405  112.887  339.882  175.935
  501.154   12.906  111.621  314.580  176.694
  501.404   13.126  110.236  277.725  176.951
  501.654   13.167  109.216  260.357  176.601
  501.904   13.345  106.912  259.383  176.546
  502.154   13.548  106.384  259.534  176.506
  502.404   13.649  109.770  259.947  176.357
  502.654   13.709  110.828  260.363  176.299
  502.904   13.728  111.767  260.363  176.664
