~VERSION INFORMATION
 VERS.                 2.0:   CWLS LOG ASCII STANDARD -VERSION 2.0
 WRAP.                  NO:   ONE LINE PER DEPTH STEP
~WELL INFORMATION BLOCK
#MNEM.UNIT           DATA                    DESCRIPTION OF MNEMONIC
#---------    -------------------            -------------------------------
# Generated from Intellog Unique Number	CW_79_81/WELL/200
WELL.         ALLIED ET AL 07-18             : Well_name    - WELL
LOC .         00/07-18-079-19W4/0            : Location     - LOCATION
UWI .         00/07-18-079-19W4/0            : Uwi          - UNIQUE WELL ID
ENTR.         JJ                             : Entered      - ENTERED BY
SRVC.         SCHLUMBERGER                   : Scn          - SERVICE COMPANY
DATE.         15 MAR 72                      : Date         - LOG DATE
STRT.M        252.984                        : top_depth    - START DEPTH
STOP.M        380.984                        : bot_depth    - STOP DEPTH
STEP.M        0.25                           : increment    - STEP LENGTH
 NULL. -999.2500:NULL Value
~CURVE INFORMATION BLOCK
#MNEM UNIT       ERCB CURVE CODE    CURVE DESCRIPTION
#-----------   ------------------   ----------------------------------
DEPT.M        00 001 00 00         : DEPTH        - DEPTH
ILD .OHMM     00 120 00 00         : RESD         - DEEP RESISTIVITY (DIL)
CALI.MM       00 280 01 00         : CAL          - CALIPER
GR  .API      00 310 00 00         : GR           - GAMMA RAY
DELT.US/F     00 520 00 00         : DELT         - SONIC TRAVEL TIME
~PARAMETER INFORMATION
#MNEM.UNIT           DATA             DESCRIPTION OF MNEMONIC
#---------         -----------     ------------------------------
GL  .M        564.794              : gl           - GROUND LEVEL ELEVATION
EREF.M        567.995              : kb           - ELEVATION OF DEPTH REFERENCE
DATM.M        567.995              : datum        - DATUM ELEVATION
TDD .M        853.44               : tdd          - TOTAL DEPTH DRILLER
RUN .         ONE                  : Run          - RUN NUMBER
ENG .         LYE                  : Engineer     - RECORDING ENGINEER
WIT .         PENDRY & CONNELLY    : Witness      - WITNESSED BY
BASE.         RED DEER             : Branch       - HOME BASE OF LOGGING UNIT
MUD .         GEL CHEM             : Mud_type     - MUD TYPE
MATR.         SANDSTONE            : Logunit      - NEUTRON MATRIX
TMAX.C        31.6667              : BHT          - MAXIMUM RECORDED TEMPERATURE
BHTD.M        852.221              : BHTDEP       - MAXIMUM RECORDED TEMPERATURE
RMT .C        14.4444              : MDTP         - TEMPERATURE OF MUD
MUDD.KG/M     1200                 : MWT          - MUD DENSITY
NEUT.         1                    : NEUTRON      - NEUTRON TYPE
RESI.         0                    : RESIST       - RESISTIVITY TYPE
RM  .OHMM     0                    : RM           - RESISTIVITY OF MUD
RMC .OHMM     0                    : RMC          - RESISTIVITY OF MUD CAKE
RMF .OHMM     1.97                 : RMF          - RESISTIVITY OF MUD FILTRATE
SUFT.C        5                    : SUFT         - SURFACE TEMPERATURE
~A  DEPTH     RESD      CAL       GR     DELT
# ...
  296.484    7.555  255.497   70.619  424.675
  296.734    7.760  255.755   71.683  425.105
  296.984    7.899  254.467   73.039  427.362
  297.234    7.954  252.462   74.213  427.918
  297.484    7.778  250.160   78.059  427.240
  297.734    7.523  249.385   80.083  427.272
  297.984    7.303  249.029   80.347  428.031
  298.234    7.064  248.051   78.745  428.391
  298.484    6.947  246.250   77.804  428.301
  298.734    6.902  243.840   77.166  427.745
  298.984    6.963  240.506   76.417  426.674
  299.234    7.140  235.952   75.832  423.439
  299.484    7.581  232.317   73.383  351.711
  299.734    8.110  230.921   68.391  296.531
  299.984    9.486  229.843   61.582  275.046
  300.234   12.638  229.075   52.719  225.036
  300.484   18.550  228.921   43.435  206.167
  300.734   29.294  228.359   38.748  200.512
  300.984   42.378  227.682   38.287  197.012
  301.234   63.588  227.026   41.221  192.927
  301.484   81.667  226.559   42.093  188.060
  301.734   86.234  226.089   38.736  181.358
  301.984   83.873  225.927   39.914  192.842
  302.234   78.340  226.696   42.605  213.945
  302.484   67.389  227.975   46.935  234.913
  302.734   55.995  229.861   50.404  229.063
  302.984   45.354  233.596   55.880  281.959
  303.234   31.729  237.543   59.957  312.219
  303.484   21.283  240.764   64.094  368.385
  303.734   14.354  244.184   69.205  400.148
  303.984   10.436  247.003   74.434  420.924
  304.234    8.914  248.483   77.429  419.192
  304.484    8.327  251.090   78.791  423.281
  304.734    8.231  252.266   77.308  420.115
  304.984    8.351  252.208   75.579  421.262
  305.234    8.578  252.359   74.757  419.924
  305.484    8.925  254.969   74.486  415.510
  305.734    9.425  257.683   76.691  415.023
  305.984    9.811  257.626   77.383  419.444
  306.234    9.732  255.730   77.835  423.144
  306.484    9.294  254.035   83.127  423.702
  306.734    9.238  252.036   83.939  420.334
  306.984    9.492  250.852   80.400  416.581
  307.234    9.986  249.877   80.068  414.196
  307.484   10.761  248.799   78.162  412.527
  307.734   11.156  248.445   77.102  411.059
  307.984   11.375  248.694   75.976  409.990
  308.234   11.437  250.077   74.803  413.230
  308.484   11.348  250.837   75.682  417.187
  308.734   11.197  251.502   76.977  420.563
  308.984   10.968  252.364   78.330  423.415
  309.234   10.686  253.027   81.504  424.891
  309.484   10.243  253.381   86.792  428.063
  309.734    9.908  252.507   82.164  430.979
  309.984    9.774  251.429   76.270  429.578
  310.234    9.542  250.758   79.137  424.116
  310.484    9.398  251.534   83.158  425.460
  310.734    9.208  251.684   83.736  428.769
  310.984    8.971  251.624   83.339  432.991
  311.234    8.597  250.548   85.180  436.628
  311.484    8.120  249.157   89.320  445.235
  311.734    7.738  246.957   92.492  451.222
  311.984    6.880  244.028   92.706  454.660
  312.234    6.006  236.808   90.793  436.250
  312.484    6.239  231.742   75.278  417.251
  312.734    6.897  230.041   61.395  355.595
  312.984    7.609  231.626   66.146  376.172
  313.234    8.676  234.745   71.132  403.948
  313.484    9.608  234.484   74.911  418.377
  313.734   10.429  230.439   75.306  419.457
  313.984   11.260  230.483   74.849  409.486
  314.234   12.019  232.797   74.450  405.006
  314.484   12.878  234.990   75.082  395.036
  314.734   13.600  239.555   76.563  356.999
  314.984   13.568  242.051   77.132  376.334
  315.234   13.098  243.745   76.558  394.165
  315.484   12.439  243.175   74.353  420.237
  315.734   12.099  242.303   71.477  389.656
  315.984   11.959  242.651   68.481  360.384
  316.234   11.996  244.142   68.266  385.869
  316.484   12.151  245.409   71.621  401.933
  316.734   12.210  246.889   74.675  406.025
  316.984   12.205  247.858   77.483  406.715
  317.234   12.064  247.904   76.603  407.599
  317.484   11.753  249.187   75.123  406.921
  317.734   11.122  250.365   75.398  405.841
  317.984   10.736  251.942   76.327  405.487
  318.234   10.519  254.140   79.318  405.785
  318.484   10.401  255.522   77.893  405.950
  318.734   10.378  256.385   78.469  406.899
  318.984   10.352  255.627   80.673  407.269
  319.234   10.233  255.262   80.520  406.903
  319.484   10.118  255.101   78.248  406.684
  319.734   10.057  255.148   76.522  406.590
  319.984   10.018  255.908   76.981  410.421
  320.234   10.032  257.091   77.607  409.409
  320.484   10.175  257.239   78.909  404.867
  320.734   10.265  256.774   78.150  404.445
  320.984   10.201  256.412   76.365  413.836
  321.234    9.921  255.743   75.850  417.665
  321.484    9.721  255.277   75.632  417.181
  321.734    9.661  255.118   75.600  415.516
  321.984    9.749  255.070   76.481  412.280
  322.234    9.850  255.317   78.562  409.376
  322.484   10.045  256.290   81.795  408.430
  322.734   10.360  257.365   80.069  411.734
  322.984   10.643  257.920   78.648  412.618
  323.234   10.895  257.968   79.702  412.328
  323.484   11.030  258.015   80.579  411.317
  323.734   11.128  258.984   80.667  409.398
  323.984   11.181  261.388   78.219  405.243
  324.234   11.260  265.637   75.766  408.422
  324.484   11.359  268.860   75.310  413.235
  324.734   11.416  270.861   75.762  411.634
  324.984   11.452  271.830   76.999  410.296
  325.234   11.489  272.698   78.599  408.764
  325.484   11.571  273.058   79.656  399.902
  325.734   11.692  272.791   77.934  396.860
  325.984   11.773  270.796   76.750  406.583
  326.234   11.853  268.175   75.748  407.068
  326.484   11.980  266.989   76.504  406.263
  326.734   11.994  266.935   78.891  406.030
  326.984   12.010  268.211   82.550  406.985
  327.234   11.939  269.799   86.687  408.662
  327.484   11.675  269.647   81.093  413.408
  327.734   11.150  269.695   83.849  415.081
  327.984   10.666  269.542   87.800  413.152
  328.234   10.316  269.169   80.937  409.199
  328.484   10.124  268.810   76.670  410.476
  328.734   10.121  268.962   75.674  413.131
  328.984   10.191  268.706   78.366  412.509
  329.234   10.334  268.549   80.083  412.543
  329.484   10.443  268.284   81.079  409.510
  329.734   10.594  267.410   81.770  401.499
  329.984   10.687  265.523   83.254  397.414
  330.234   10.740  263.817   85.820  397.977
  330.484   10.736  261.309   81.192  409.199
  330.734   10.631  259.305   84.483  417.674
  330.984   10.022  256.592   90.987  422.681
  331.234    8.831  253.585   91.922  405.121
  331.484    8.782  252.389   83.601  379.379
  331.734    8.908  251.924   74.073  371.369
  331.984    9.032  253.407   77.912  383.249
  332.234    9.312  255.290   83.145  402.843
  332.484    9.677  256.678   82.808  408.698
  332.734    9.849  257.129   80.900  410.568
  332.984    9.881  256.982   80.627  413.809
  333.234    9.329  256.509   84.225  410.185
  333.484    8.976  254.411   85.158  404.859
  333.734    9.186  251.175   82.348  409.932
  333.984    9.737  247.643   77.295  394.399
  334.234   10.903  245.141   62.020  306.771
  334.484   12.339  243.440   55.574  285.809
  334.734   14.174  242.050   59.837  278.062
  334.984   16.310  241.485   63.495  322.910
  335.234   17.476  241.425   65.882  363.768
  335.484   17.571  241.577   70.148  356.542
  335.734   16.289  241.422   67.147  347.355
  335.984   14.013  241.160   71.655  369.699
  336.234   12.644  241.326   79.243  401.594
  336.484   12.302  242.497   85.922  391.031
  336.734   12.292  243.253   68.293  365.093
  336.984   12.474  244.229   61.544  365.329
  337.234   12.598  244.787   63.449  397.880
  337.484   12.945  245.052   64.685  388.559
  337.734   13.129  245.201   64.108  386.103
  337.984   13.364  245.647   60.574  386.737
  338.234   13.656  245.905   60.119  388.864
  338.484   13.575  246.252   61.233  379.613
  338.734   13.746  246.413   63.013  314.883
  338.984   14.726  246.352   60.802  287.510
  339.234   16.280  245.478   61.859  336.282
  339.484   16.848  244.291   63.402  362.028
  339.734   16.174  243.216   63.730  389.408
