~VERSION INFORMATION
 VERS.                 2.0:   CWLS LOG ASCII STANDARD -VERSION 2.0
 WRAP.                  NO:   ONE LINE PER DEPTH STEP
~WELL INFORMATION BLOCK
#MNEM.UNIT           DATA                    DESCRIPTION OF MNEMONIC
#---------    -------------------            -------------------------------
# Generated from Intellog Unique Number	CW_73_75/WELL/829
WELL.         07-31-074-25W4                 : Well_name    - WELL
LOC .         00/07-31-074-25W4/0            : Location     - LOCATION
UWI .         00/07-31-074-25W4/0            : Uwi          - UNIQUE WELL ID
ENTR.         JAYE                           : Entered      - ENTERED BY
SRVC.         COMPUTALOG                     : Scn          - SERVICE COMPANY
DATE.         24 FEB 80                      : Date         - LOG DATE
STRT.M        430                            : top_depth    - START DEPTH
STOP.M        626                            : bot_depth    - STOP DEPTH
STEP.M        0.25                           : increment    - STEP LENGTH
 NULL. -999.2500:NULL Value
~CURVE INFORMATION BLOCK
#MNEM UNIT       ERCB CURVE CODE    CURVE DESCRIPTION
#-----------   ------------------   ----------------------------------
DEPT.M        00 001 00 00         : DEPTH        - DEPTH
ILD .OHMM     00 120 00 00         : RESD         - DEEP RESISTIVITY (DIL)
CALI.MM       00 280 01 00         : CAL          - CALIPER
GR  .API      00 310 00 00         : GR           - GAMMA RAY
NPHI.V/V      00 330 00 00         : PHIN         - NEUTRON POROSITY (SANDSTONE)
DPHI.V/V      00 890 00 00         : PHID         - DENSITY POROSITY (SANDSTONE)
~PARAMETER INFORMATION
#MNEM.UNIT           DATA             DESCRIPTION OF MNEMONIC
#---------         -----------     ------------------------------
GL  .M        703.95               : gl           - GROUND LEVEL ELEVATION
EREF.M        707.95               : kb           - ELEVATION OF DEPTH REFERENCE
DATM.M        703.95               : datum        - DATUM ELEVATION
TDD .M        626.4                : tdd          - TOTAL DEPTH DRILLER
RUN .         ONE                  : Run          - RUN NUMBER
ENG .         HOLDEN               : Engineer     - RECORDING ENGINEER
WIT .         LEGG/LEROUX          : Witness      - WITNESSED BY
BASE.         EDM                  : Branch       - HOME BASE OF LOGGING UNIT
MUD .         GEL CHEM             : Mud_type     - MUD TYPE
MATR.         SANDSTONE            : Logunit      - NEUTRON MATRIX
TMAX.C        18                   : BHT          - MAXIMUM RECORDED TEMPERATURE
BHTD.M        627                  : BHTDEP       - MAXIMUM RECORDED TEMPERATURE
RMT .C        5                    : MDTP         - TEMPERATURE OF MUD
MUDD.KG/M     1186                 : MWT          - MUD DENSITY
NEUT.         1                    : NEUTRON      - NEUTRON TYPE
RESI.         0                    : RESIST       - RESISTIVITY TYPE
RM  .OHMM     4.4                  : RM           - RESISTIVITY OF MUD
RMC .OHMM     5.5                  : RMC          - RESISTIVITY OF MUD CAKE
RMF .OHMM     4.7                  : RMF          - RESISTIVITY OF MUD FILTRATE
SUFT.C        0                    : SUFT         - SURFACE TEMPERATURE
~A  DEPTH     RESD      CAL       GR     PHIN     PHID
# ...
  503.000    3.812  212.557   82.494    0.384    0.266
  503.250    4.143  210.713   87.837    0.415    0.251
  503.500    4.005  208.868   89.272    0.412    0.229
  503.750    4.042  205.162   87.422    0.433    0.199
  504.000    4.185  204.147   84.702    0.450    0.193
  504.250    4.515  205.401   86.324    0.479    0.205
  504.500    4.871  207.900   90.984    0.479    0.223
  504.750    5.206  209.982   88.513    0.427    0.216
  505.000    5.606  209.066   82.755    0.434    0.182
  505.250    5.752  205.567   76.626    0.451    0.180
  505.500    5.520  204.550   72.294    0.431    0.176
  505.750    5.346  206.117   79.188    0.287    0.147
  506.000    5.131  208.095   86.328    0.303    0.192
  506.250    4.952  206.767   84.415    0.331    0.215
  506.500    4.752  204.922   82.876    0.370    0.229
  506.750    4.594  204.215   81.829    0.350    0.215
  507.000    4.534  204.126   83.327    0.354    0.214
  507.250    4.482  204.143   86.313    0.384    0.216
  507.500    4.406  204.674   87.377    0.429    0.213
  507.750    4.340  205.105   88.007    0.447    0.200
  508.000    4.339  205.121   88.884    0.418    0.201
  508.250    4.361  205.341   90.443    0.419    0.210
  508.500    4.328  205.463   92.747    0.375    0.207
  508.750    4.311  205.787   94.990    0.353    0.183
  509.000    4.358  206.216   98.037    0.345    0.185
  509.250    4.389  206.334   99.598    0.380    0.216
  509.500    4.445  205.939   96.196    0.441    0.216
  509.750    4.510  205.229   89.321    0.440    0.214
  510.000    4.679  203.902   84.246    0.438    0.211
  510.250    5.011  203.091   83.821    0.399    0.203
  510.500    5.426  203.210   86.683    0.420    0.215
  510.750    6.246  203.432   84.336    0.443    0.229
  511.000    7.098  203.656   78.207    0.462    0.247
  511.250    8.141  203.462   72.697    0.502    0.262
  511.500   10.652  203.374   68.675    0.541    0.272
  511.750   10.930  202.770   64.158    0.441    0.279
  512.000   11.131  202.166   62.430    0.442    0.283
  512.250   11.657  201.667   59.897    0.461    0.286
  512.500   12.321  201.267   54.946    0.415    0.290
  512.750   12.478  200.870   48.319    0.414    0.293
  513.000   11.411  200.680   45.104    0.447    0.298
  513.250    9.869  200.594   45.424    0.471    0.301
  513.500    8.584  200.399   51.139    0.485    0.303
  513.750    7.605  200.314   53.132    0.439    0.295
  514.000    6.942  200.018   46.754    0.389    0.286
  514.250    6.174  199.725   44.345    0.423    0.280
  514.500    5.656  199.532   46.587    0.432    0.277
  514.750    5.249  199.445   55.712    0.420    0.284
  515.000    5.001  199.566   57.768    0.436    0.299
  515.250    4.781  199.579   56.104    0.458    0.303
  515.500    4.546  199.599   58.347    0.470    0.299
  515.750    4.428  199.406   60.090    0.385    0.295
  516.000    4.410  199.315   64.131    0.388    0.294
  516.250    4.687  199.331   66.807    0.406    0.296
  516.500    5.151  199.450   67.561    0.437    0.291
  516.750    6.087  199.776   67.508    0.419    0.280
  517.000    7.007  200.000   65.843    0.437    0.251
  517.250    7.744  200.427   56.923    0.270    0.129
  517.500    7.515  201.167   52.653    0.222    0.064
  517.750    6.796  202.010   53.778    0.200    0.070
  518.000    6.055  203.059   61.044    0.208    0.134
  518.250    5.568  203.592   67.316    0.238    0.232
  518.500    5.149  204.228   73.837    0.305    0.268
  518.750    4.761  204.658   76.885    0.354    0.268
  519.000    4.493  205.086   72.801    0.376    0.271
  519.250    4.409  205.514   68.719    0.412    0.279
  519.500    4.515  206.048   66.061    0.408    0.285
  519.750    4.573  206.683   72.272    0.379    0.286
  520.000    4.606  207.112   81.397    0.372    0.294
  520.250    4.682  204.647   84.879    0.351    0.296
  520.500    4.751  203.320   82.470    0.395    0.284
  520.750    4.636  203.231   77.828    0.441    0.275
  521.000    4.177  203.765   75.481    0.478    0.274
  521.250    3.862  204.092   84.296    0.441    0.274
  521.500    3.783  204.416   92.926    0.409    0.262
  521.750    3.962  204.947   94.920    0.389    0.257
  522.000    4.203  208.271   98.526    0.426    0.271
  522.250    4.434  214.901   91.900    0.465    0.264
  522.500    4.739  218.741   84.778    0.427    0.172
  522.750    4.917  211.004   83.671    0.375    0.145
  523.000    4.925  208.540   87.525    0.352    0.170
  523.250    4.887  207.731   88.528    0.393    0.197
  523.500    4.813  208.055   88.846    0.429    0.196
  523.750    4.723  208.588   89.663    0.418    0.184
  524.000    4.661  209.329   89.485    0.355    0.180
  524.250    4.574  209.448   83.665    0.333    0.188
  524.500    4.513  209.462   83.427    0.341    0.193
  524.750    4.487  209.579   86.413    0.357    0.202
  525.000    4.444  209.803   92.872    0.374    0.213
  525.250    4.459  209.612   92.261    0.385    0.198
  525.500    4.458  209.008   87.557    0.396    0.179
  525.750    4.465  208.195   83.102    0.392    0.164
  526.000    4.472  207.490   81.994    0.371    0.183
  526.250    4.479  207.399   91.864    0.391    0.197
  526.500    4.461  206.898   96.834    0.406    0.194
  526.750    4.410  206.295   95.728    0.357    0.171
  527.000    4.352  205.586   94.745    0.371    0.178
  527.250    4.278  205.188   95.313    0.384    0.204
  527.500    4.152  206.651   92.841    0.409    0.224
  527.750    3.970  216.898   93.099    0.459    0.240
  528.000    3.838  232.624   93.604    0.342    0.257
  528.250    3.801  240.083   93.180    0.365    0.272
  528.500    3.779  239.994   91.453    0.448    0.272
  528.750    3.743  236.187   90.346    0.470    0.258
  529.000    3.728  226.176   86.511    0.485    0.276
  529.250    3.748  229.086   85.343    0.479    0.292
  529.500    3.782  229.412   84.917    0.379    0.272
  529.750    3.844  222.089   83.934    0.356    0.252
  530.000    3.922  212.803   76.254    0.389    0.262
  530.250    4.025  197.521   71.426    0.421    0.270
  530.500    4.191  195.782   69.390    0.456    0.273
  530.750    4.405  195.177   72.499    0.474    0.271
  531.000    4.622  195.195   75.299    0.441    0.268
  531.250    5.232  195.313   72.085    0.395    0.251
  531.500    6.148  195.535   70.294    0.326    0.229
  531.750    6.534  195.964   72.103    0.321    0.204
  532.000    6.557  196.080   73.228    0.354    0.179
  532.250    6.165  196.200   72.308    0.385    0.174
  532.500    5.776  196.216   71.263    0.368    0.188
  532.750    5.380  196.129   69.660    0.376    0.202
  533.000    5.135  196.353   71.839    0.393    0.216
  533.250    4.909  196.678   73.090    0.396    0.222
  533.500    4.764  197.003   69.316    0.413    0.226
  533.750    4.710  197.431   67.713    0.403    0.223
  534.000    4.717  198.586   71.257    0.417    0.218
  534.250    4.795  199.219   79.948    0.410    0.210
  534.500    4.866  200.062   81.818    0.431    0.218
  534.750    5.039  200.492   71.223    0.452    0.228
  535.000    5.248  200.921   62.241    0.452    0.200
  535.250    5.315  201.249   66.963    0.351    0.198
  535.500    5.254  201.367   70.570    0.318    0.208
  535.750    5.175  201.586   68.904    0.355    0.220
  536.000    5.059  201.710   66.929    0.391    0.220
  536.250    4.965  201.826   76.303    0.419    0.223
  536.500    4.827  201.842   83.754    0.372    0.215
  536.750    4.632  202.166   85.438    0.346    0.198
  537.000    4.364  202.493   83.897    0.350    0.190
  537.250    4.363  203.025   86.014    0.345    0.194
  537.500    4.468  203.557   87.326    0.330    0.196
  537.750    4.483  204.399   87.771    0.357    0.191
  538.000    4.523  205.655   87.532    0.379    0.194
  538.250    4.590  205.774   88.037    0.393    0.181
  538.500    4.718  203.930   82.030    0.374    0.129
  538.750    4.950  202.084   82.846    0.303    0.145
  539.000    5.193  201.068   83.166    0.301    0.170
  539.250    5.428  200.567   80.570    0.326    0.202
