~VERSION INFORMATION
 VERS.                 2.0:   CWLS LOG ASCII STANDARD -VERSION 2.0
 WRAP.                  NO:   ONE LINE PER DEPTH STEP
~WELL INFORMATION BLOCK
#MNEM.UNIT           DATA                    DESCRIPTION OF MNEMONIC
#---------    -------------------            -------------------------------
# Generated from Intellog Unique Number	CW_79_81/WELL/288
WELL.         04-23-079-23W4                 : Well_name    - WELL
LOC .         00/04-23-079-23W4/0            : Location     - LOCATION
UWI .         00/04-23-079-23W4/0            : Uwi          - UNIQUE WELL ID
ENTR.         MAX                            : Entered      - ENTERED BY
SRVC.         COMPUTALOG                     : Scn          - SERVICE COMPANY
STRT.M        225                            : top_depth    - START DEPTH
STOP.M        477                            : bot_depth    - STOP DEPTH
STEP.M        0.25                           : increment    - STEP LENGTH
 NULL. -999.2500:NULL Value
~CURVE INFORMATION BLOCK
#MNEM UNIT       ERCB CURVE CODE    CURVE DESCRIPTION
#-----------   ------------------   ----------------------------------
DEPT.M        00 001 00 00         : DEPTH        - DEPTH
ILD .OHMM     00 120 00 00         : RESD         - DEEP RESISTIVITY (DIL)
NPHI.V/V      00 330 00 00         : PHIN         - NEUTRON POROSITY (SANDSTONE)
DPHI.V/V      00 890 00 00         : PHID         - DENSITY POROSITY (SANDSTONE)
CALI.MM       00 280 01 00         : CAL          - CALIPER
GR  .API      00 310 00 00         : GR           - GAMMA RAY
~PARAMETER INFORMATION
#MNEM.UNIT           DATA             DESCRIPTION OF MNEMONIC
#---------         -----------     ------------------------------
GL  .M        565.2                : gl           - GROUND LEVEL ELEVATION
EREF.M        570.2                : kb           - ELEVATION OF DEPTH REFERENCE
DATM.M        565.2                : datum        - DATUM ELEVATION
TDD .M        482                  : tdd          - TOTAL DEPTH DRILLER
RUN .         ONE                  : Run          - RUN NUMBER
ENG .         BILL                 : Engineer     - RECORDING ENGINEER
WIT .         JIM                  : Witness      - WITNESSED BY
MUD .         GEL                  : Mud_type     - MUD TYPE
MATR.         SANDSTONE            : Logunit      - NEUTRON MATRIX
TMAX.C        20                   : BHT          - MAXIMUM RECORDED TEMPERATURE
BHTD.M        482                  : BHTDEP       - MAXIMUM RECORDED TEMPERATURE
RMT .C        17.8                 : MDTP         - TEMPERATURE OF MUD
MUDD.KG/M     1080                 : MWT          - MUD DENSITY
NEUT.         1                    : NEUTRON      - NEUTRON TYPE
RESI.         0                    : RESIST       - RESISTIVITY TYPE
RM  .OHMM     7                    : RM           - RESISTIVITY OF MUD
RMC .OHMM     5.5                  : RMC          - RESISTIVITY OF MUD CAKE
RMF .OHMM     6                    : RMF          - RESISTIVITY OF MUD FILTRATE
SUFT.C        -5                   : SUFT         - SURFACE TEMPERATURE
~A  DEPTH     RESD     PHIN     PHID      CAL       GR
# ...
  407.500   23.447    0.399    0.165  257.467   87.458
  407.750   22.816    0.401    0.146  260.441   85.397
  408.000   22.405    0.403    0.144  261.937   80.978
  408.250   22.002    0.405    0.146  263.426   80.103
  408.500   20.643    0.419    0.150  264.920   80.999
  408.750   19.367    0.420    0.169  266.416   81.602
  409.000   19.367    0.396    0.193  267.908   78.360
  409.250   18.676    0.355    0.220  270.389   69.212
  409.500   17.846    0.346    0.231  274.839   54.156
  409.750   19.913    0.342    0.239  273.377   50.033
  410.000   28.954    0.335    0.265  274.871   47.677
  410.250   37.390    0.323    0.279  276.861   41.188
  410.500   45.710    0.313    0.278  277.366   36.472
  410.750   56.394    0.316    0.272  277.877   32.643
  411.000   64.088    0.328    0.275  279.375   30.881
  411.250   74.854    0.333    0.281  279.390   30.597
  411.500   87.429    0.335    0.284  279.902   30.310
  411.750   95.796    0.340    0.283  279.426   30.026
  412.000  100.278    0.346    0.281  278.458   30.035
  412.250  104.971    0.343    0.281  277.488   30.343
  412.500  108.887    0.337    0.285  276.525   30.353
  412.750  110.904    0.345    0.287  276.045   30.067
  413.000  110.915    0.354    0.285  275.574   28.010
  413.250  109.920    0.353    0.285  275.586   26.837
  413.500  106.961    0.349    0.290  275.117   26.555
  413.750   98.536    0.345    0.288  274.143   27.448
  414.000   82.857    0.346    0.284  272.195   31.300
  414.250   79.167    0.349    0.280  263.347   31.606
  414.500   73.599    0.347    0.278  263.364   31.025
  414.750   67.185    0.347    0.273  259.444   31.626
  415.000   60.774    0.347    0.267  255.028   32.819
  415.250   55.987    0.342    0.261  251.598   34.897
  415.500   52.049    0.337    0.261  252.110   38.453
  415.750   47.514    0.329    0.267  253.606   38.759
  416.000   44.577    0.328    0.280  250.671   40.540
  416.250   39.957    0.321    0.271  249.701   43.800
  416.500   37.487    0.308    0.236  248.240   43.814
  416.750   35.171    0.299    0.199  247.765   44.708
  417.000   33.913    0.313    0.210  247.292   45.605
  417.250   32.701    0.345    0.254  246.816   47.092
  417.500   32.112    0.359    0.270  246.341   50.056
  417.750   30.683    0.380    0.279  245.373   53.315
  418.000   29.586    0.389    0.287  244.897   55.985
  418.250   28.528    0.387    0.293  244.422   58.360
  418.500   27.508    0.377    0.281  242.469   58.076
  418.750   26.767    0.371    0.258  238.549   56.015
  419.000   25.344    0.377    0.233  240.039   58.389
  419.250   24.216    0.385    0.186  245.476   66.081
  419.500   22.106    0.390    0.149  245.493   78.498
  419.750   20.364    0.404    0.192  243.048   87.075
  420.000   17.599    0.418    0.231  237.155   92.109
  420.250   14.138    0.418    0.226  232.250   80.008
  420.500   13.024    0.417    0.220  231.775   72.042
  420.750   12.674    0.411    0.235  231.794   67.029
  421.000   13.267    0.412    0.248  231.808   58.768
  421.250   16.518    0.416    0.260  231.335   52.574
  421.500   23.369    0.417    0.268  230.365   49.337
  421.750   34.923    0.412    0.275  229.890   49.937
  422.000   39.688    0.411    0.276  228.924   53.491
  422.250   40.056    0.411    0.259  226.976   58.523
  422.500   32.179    0.390    0.240  226.010   63.556
  422.750   25.616    0.365    0.158  226.513   73.019
  423.000   20.392    0.382    0.170  227.024   86.028
  423.250   17.146    0.414    0.182  226.546   91.356
  423.500   16.087    0.415    0.192  224.596   83.390
  423.750   17.150    0.416    0.224  224.121   57.994
  424.000   23.608    0.418    0.282  223.647   50.028
  424.250   28.861    0.418    0.294  223.172   46.790
  424.500   37.611    0.413    0.291  222.698   45.914
  424.750   45.564    0.399    0.283  222.713   46.515
  425.000   55.196    0.393    0.277  223.224   47.411
  425.250   65.059    0.392    0.279  223.239   46.536
  425.500   75.297    0.395    0.281  223.258   47.431
  425.750   75.997    0.404    0.281  223.275   48.035
  426.000   73.279    0.422    0.275  224.277   47.453
  426.250   68.127    0.407    0.268  226.755   48.645
  426.500   65.093    0.386    0.264  226.772   53.678
  426.750   61.072    0.373    0.260  225.314   53.983
  427.000   58.888    0.370    0.263  224.836   54.289
  427.250   56.266    0.374    0.263  223.873   54.891
  427.500   56.266    0.385    0.256  222.901   56.084
  427.750   53.281    0.383    0.241  219.471   58.752
  428.000   49.532    0.372    0.222  217.026   59.944
  428.250   48.199    0.378    0.206  229.352   59.364
  428.500   47.335    0.378    0.135  240.207   57.897
  428.750   46.906    0.376    0.147  238.744   53.772
  429.000   45.644    0.377    0.187  237.775   54.962
  429.250   45.649    0.381    0.200  239.268   58.812
  429.500   44.017    0.380    0.223  241.751   60.595
  429.750   40.921    0.387    0.216  241.766   61.788
  430.000   37.355    0.396    0.204  242.770   64.458
  430.250   34.100    0.391    0.200  244.756   65.650
  430.500   34.100    0.379    0.198  245.758   68.025
  430.750   32.586    0.373    0.195  245.774   69.512
  431.000   30.019    0.376    0.190  246.282   69.225
  431.250   28.683    0.372    0.184  246.303   68.348
  431.500   27.657    0.370    0.173  245.827   66.587
  431.750   26.185    0.384    0.144  244.857   66.303
  432.000   23.904    0.396    0.127  241.920   66.312
  432.250   21.231    0.406    0.167  237.013   64.845
  432.500   16.901    0.419    0.251  223.244   67.810
  432.750   13.211    0.435    0.252  209.972   80.820
  433.000   10.613    0.445    0.263  216.880   87.918
  433.250    9.600    0.450    0.297  225.761   89.999
  433.500    8.605    0.450    0.317  227.747   87.940
  433.750    8.147    0.444    0.318  229.736   84.108
  434.000    7.856    0.426    0.298  233.195   76.439
  434.250    7.714    0.429    0.279  235.181   71.721
  434.500    7.857    0.464    0.284  238.154   64.347
  434.750    8.225    0.509    0.379  235.219   59.926
  435.000    8.226    0.541    0.408  234.251   59.937
  435.250    8.152    0.522    0.426  242.143   77.671
  435.500    8.228    0.511    0.435  255.948   90.681
  435.750    8.692    0.529    0.441  254.488   90.100
  436.000    9.524    0.544    0.424  245.645   77.112
  436.250   10.823    0.519    0.386  236.305   64.716
  436.500   12.526    0.499    0.368  229.921   53.500
  436.750   12.078    0.491    0.341  224.522   61.192
  437.000   11.229    0.508    0.327  214.692   72.427
  437.250    9.973    0.533    0.334  213.234   81.004
  437.500    8.698    0.547    0.369  235.407   80.722
  437.750    8.161    0.546    0.434  251.673   81.615
  438.000    7.657    0.539    0.456  248.734   86.058
  438.250    7.450    0.534    0.483  249.737   89.316
  438.500    7.316    0.527    0.450  261.076   91.986
  438.750    7.317    0.509    0.309  279.805   91.112
  439.000    7.801    0.493    0.242  259.143   89.645
  439.250    8.547    0.470    0.207  250.297   84.336
  439.500    9.280    0.456    0.245  242.929   78.438
  439.750    9.280    0.459    0.288  240.979   79.039
  440.000    9.539    0.465    0.397  242.470   83.185
  440.250   10.452    0.482    0.363  243.474   87.923
  440.500   10.549    0.485    0.353  241.031   90.296
  440.750   10.360    0.459    0.383  242.525   88.238
  441.000   11.145    0.432    0.374  242.050   79.682
  441.250   12.666    0.422    0.327  242.069   68.762
  441.500   18.084    0.400    0.306  239.622   61.682
  441.750   20.551    0.394    0.290  235.209   63.465
  442.000   26.298    0.404    0.284  231.778   70.861
  442.250   26.784    0.394    0.278  228.348   69.100
  442.500   28.817    0.388    0.289  228.857   67.927
  442.750   28.558    0.391    0.311  231.336   67.052
  443.000   29.087    0.399    0.324  233.324   65.880
  443.250   30.171    0.404    0.320  234.328   64.415
  443.500   32.166    0.398    0.304  240.249   65.014
  443.750   33.980    0.387    0.286  241.747   68.570
