~VERSION INFORMATION
 VERS.                 2.0:   CWLS LOG ASCII STANDARD -VERSION 2.0
 WRAP.                  NO:   ONE LINE PER DEPTH STEP
~WELL INFORMATION BLOCK
#MNEM.UNIT           DATA                    DESCRIPTION OF MNEMONIC
#---------    -------------------            -------------------------------
# Generated from Intellog Unique Number	CW_73_75/WELL/532
WELL.         NORCEN POR MARTIN HILLS 06-10  : Well_name    - WELL
LOC .         00/06-10-074-25W4/0            : Location     - LOCATION
UWI .         00/06-10-074-25W4/0            : Uwi          - UNIQUE WELL ID
ENTR.         JAYE                           : Entered      - ENTERED BY
SRVC.         COMPUTALOG                     : Scn          - SERVICE COMPANY
DATE.         18 FEB 83                      : Date         - LOG DATE
STRT.M        420                            : top_depth    - START DEPTH
STOP.M        642                            : bot_depth    - STOP DEPTH
STEP.M        0.25                           : increment    - STEP LENGTH
 NULL. -999.2500:NULL Value
~CURVE INFORMATION BLOCK
#MNEM UNIT       ERCB CURVE CODE    CURVE DESCRIPTION
#-----------   ------------------   ----------------------------------
DEPT.M        00 001 00 00         : DEPTH        - DEPTH
ILD .OHMM     00 120 00 00         : RESD         - DEEP RESISTIVITY (DIL)
CALI.MM       00 280 01 00         : CAL          - CALIPER
GR  .API      00 310 00 00         : GR           - GAMMA RAY
NPHI.V/V      00 330 00 00         : PHIN         - NEUTRON POROSITY (SANDSTONE)
DPHI.V/V      00 890 00 00         : PHID         - DENSITY POROSITY (SANDSTONE)
~PARAMETER INFORMATION
#MNEM.UNIT           DATA             DESCRIPTION OF MNEMONIC
#---------         -----------     ------------------------------
GL  .M        677.67               : gl           - GROUND LEVEL ELEVATION
EREF.M        680.97               : kb           - ELEVATION OF DEPTH REFERENCE
DATM.M        677.67               : datum        - DATUM ELEVATION
TDD .M        650                  : tdd          - TOTAL DEPTH DRILLER
RUN .         ONE                  : Run          - RUN NUMBER
ENG .         BOGNER               : Engineer     - RECORDING ENGINEER
BASE.         EDM                  : Branch       - HOME BASE OF LOGGING UNIT
MUD .         GEL CHEM             : Mud_type     - MUD TYPE
MATR.         SANDSTONE            : Logunit      - NEUTRON MATRIX
TMAX.C        35                   : BHT          - MAXIMUM RECORDED TEMPERATURE
BHTD.M        647.2                : BHTDEP       - MAXIMUM RECORDED TEMPERATURE
RMT .C        17.8                 : MDTP         - TEMPERATURE OF MUD
MUDD.KG/M     1140                 : MWT          - MUD DENSITY
NEUT.         1                    : NEUTRON      - NEUTRON TYPE
RESI.         0                    : RESIST       - RESISTIVITY TYPE
RM  .OHMM     3.3                  : RM           - RESISTIVITY OF MUD
RMC .OHMM     3                    : RMC          - RESISTIVITY OF MUD CAKE
RMF .OHMM     5.9                  : RMF          - RESISTIVITY OF MUD FILTRATE
SUFT.C        0                    : SUFT         - SURFACE TEMPERATURE
~A  DEPTH     RESD      CAL       GR     PHIN     PHID
  420.000    2.760  210.586  101.687    0.468    0.205
  420.250    2.750  209.480  101.152    0.455    0.202
  420.500    2.714  207.342  102.505    0.450    0.219
  420.750    2.684  205.922  105.057    0.476    0.221
  421.000    2.644  205.028  109.745    0.485    0.234
  421.250    2.610  202.989  110.095    0.480    0.242
  421.500    2.581  201.889  105.093    0.481    0.251
  421.750    2.557  200.897   97.889    0.489    0.266
  422.000    2.490  199.804   96.664    0.498    0.267
  422.250    2.421  198.912  102.233    0.509    0.228
  422.500    2.376  198.233   97.738    0.506    0.217
  422.750    2.318  198.291   91.857    0.481    0.237
  423.000    2.409  198.761   91.072    0.512    0.249
  423.250    2.853  199.551   93.055    0.533    0.261
  423.500    3.385  200.339   92.524    0.550    0.267
  423.750    4.310  200.920   89.849    0.430    0.237
  424.000    5.037  201.498   77.108    0.405    0.222
  424.250    5.743  201.556   67.200    0.393    0.261
  424.500    6.175  201.085   57.040    0.373    0.314
  424.750    6.037  199.462   54.181    0.358    0.331
  425.000    5.835  198.257   54.148    0.365    0.339
  425.250    5.513  197.264   54.499    0.369    0.340
  425.500    5.189  196.586   55.981    0.375    0.335
  425.750    4.729  195.281   58.340    0.389    0.319
  426.000    4.294  193.760   62.085    0.402    0.267
  426.250    4.127  192.878   68.346    0.415    0.257
  426.500    4.183  192.927   71.777    0.443    0.273
  426.750    4.184  193.086   65.205    0.452    0.257
  427.000    4.114  193.875   62.597    0.439    0.244
  427.250    3.946  196.661   70.428    0.403    0.255
  427.500    3.729  201.223   85.565    0.407    0.265
  427.750    3.557  208.409   95.853    0.412    0.243
  428.000    3.464  212.770   97.776    0.423    0.231
  428.250    3.419  211.036  101.897    0.440    0.232
  428.500    3.439  205.008  111.055    0.471    0.221
  428.750    3.533  200.765  106.876    0.438    0.243
  429.000    3.643  198.839   95.201    0.372    0.271
  429.250    3.742  198.156   84.033    0.386    0.306
  429.500    3.887  197.785   79.413    0.396    0.316
  429.750    4.046  198.276   78.691    0.408    0.316
  430.000    4.196  198.631   80.861    0.414    0.301
  430.250    4.326  198.902   75.923    0.420    0.273
  430.500    4.385  198.644   74.321    0.425    0.249
  430.750    4.420  198.375   85.805    0.409    0.227
  431.000    4.446  198.117   92.005    0.370    0.197
  431.250    4.498  198.596   86.816    0.355    0.223
  431.500    4.550  204.312   84.647    0.365    0.249
  431.750    4.526  206.986   82.288    0.345    0.268
  432.000    4.527  205.782   72.257    0.334    0.265
  432.250    4.459  202.066   72.040    0.357    0.236
  432.500    4.270  199.814   67.728    0.387    0.246
  432.750    4.104  198.614   61.408    0.409    0.280
  433.000    4.012  198.876   55.526    0.424    0.307
  433.250    3.983  199.455   48.635    0.418    0.295
  433.500    3.984  199.930   47.034    0.398    0.283
  433.750    4.084  200.300   48.703    0.398    0.272
  434.000    4.235  200.248   55.469    0.402    0.268
  434.250    4.359  199.673   61.417    0.392    0.272
  434.500    4.451  198.368   67.178    0.401    0.270
  434.750    4.572  196.959   71.489    0.409    0.258
  435.000    4.679  195.755   78.694    0.415    0.240
  435.250    4.734  194.236   85.144    0.405    0.234
  435.500    4.734  192.302   87.129    0.403    0.250
  435.750    4.700  190.884   70.549    0.411    0.267
  436.000    4.595  189.157   60.955    0.422    0.277
  436.250    4.484  187.740   58.157    0.415    0.279
  436.500    4.426  186.228   59.133    0.417    0.277
  436.750    4.410  185.334   65.901    0.432    0.277
  437.000    4.453  185.493   69.079    0.418    0.282
  437.250    4.513  186.812   68.546    0.402    0.282
  437.500    4.575  188.647   63.797    0.386    0.273
  437.750    4.646  191.640   64.399    0.384    0.252
  438.000    4.673  196.941   73.050    0.411    0.229
  438.250    4.639  198.254   86.422    0.401    0.216
  438.500    4.518  197.360   92.122    0.391    0.229
  438.750    4.318  194.483   87.058    0.377    0.254
  439.000    4.041  192.023   81.803    0.367    0.278
  439.250    3.768  189.140   75.042    0.359    0.293
  439.500    3.594  187.095   66.517    0.351    0.297
  439.750    3.474  184.216   56.356    0.343    0.295
  440.000    3.442  181.233   50.537    0.357    0.281
  440.250    3.436  179.081   54.097    0.375    0.261
  440.500    3.463  177.667   73.445    0.379    0.252
  440.750    3.504  177.517   70.711    0.372    0.275
  441.000    3.545  177.778   60.989    0.350    0.296
  441.250    3.593  177.208   48.312    0.321    0.291
  441.500    3.628  176.634   67.915    0.342    0.279
  441.750    3.670  175.952   70.906    0.368    0.278
  442.000    3.706  174.862   72.448    0.373    0.283
  442.250    3.742  174.176   77.013    0.358    0.274
  442.500    3.829  173.289   83.526    0.350    0.247
  442.750    3.986  172.611   87.586    0.356    0.230
  443.000    4.165  171.825   89.760    0.367    0.227
  443.250    4.303  171.459   91.617    0.374    0.223
  443.500    4.386  171.938   93.725    0.384    0.217
  443.750    4.463  172.726   96.529    0.388    0.206
  444.000    4.413  174.042   99.392    0.384    0.203
  444.250    4.193  175.876   99.806    0.384    0.217
  444.500    3.880  178.451   93.166    0.403    0.238
  444.750    3.550  181.972   93.391    0.436    0.207
  445.000    3.186  185.062  100.783    0.464    0.199
  445.250    2.915  188.582  104.151    0.490    0.209
  445.500    2.702  191.254  107.771    0.505    0.203
  445.750    2.662  193.622  113.845    0.494    0.179
  446.000    2.745  194.720  117.653    0.480    0.160
  446.250    2.761  195.510  117.498    0.502    0.158
  446.500    2.705  196.513  115.895    0.508    0.186
  446.750    2.670  197.720  118.508    0.513    0.211
  447.000    2.752  198.932  118.415    0.517    0.221
  447.250    2.860  200.142  117.444    0.514    0.217
  447.500    3.022  201.350  114.771    0.445    0.208
  447.750    3.218  202.765  108.070    0.447    0.219
  448.000    3.434  204.810  103.573    0.456    0.228
  448.250    3.643  206.333  105.053    0.458    0.226
  448.500    3.879  205.341  108.987    0.449    0.222
  448.750    4.053  202.988  103.610    0.419    0.235
  449.000    4.077  200.735   94.895    0.412    0.248
  449.250    4.125  198.269   85.931    0.409    0.263
  449.500    4.079  196.963   69.353    0.404    0.262
  449.750    4.042  196.911   62.150    0.386    0.256
  450.000    3.997  197.072   54.570    0.370    0.293
  450.250    3.967  197.551   55.924    0.384    0.319
  450.500    3.938  197.291   60.804    0.402    0.318
  450.750    3.902  196.401   65.933    0.431    0.289
  451.000    3.888  195.302   70.936    0.437    0.276
  451.250    3.956  193.787   75.060    0.386    0.269
  451.500    4.056  192.476   76.228    0.388    0.272
  451.750    4.111  191.167   77.203    0.416    0.271
  452.000    4.151  189.967   72.201    0.430    0.280
  452.250    4.152  188.866   70.035    0.423    0.293
  452.500    4.113  188.290   71.764    0.408    0.293
  452.750    4.076  188.348   70.791    0.403    0.257
  453.000    4.038  188.824   66.733    0.412    0.236
  453.250    3.978  189.721   67.461    0.405    0.254
  453.500    3.889  190.611   70.202    0.398    0.288
  453.750    3.745  191.712   71.302    0.413    0.299
  454.000    3.545  193.033   70.074    0.427    0.306
  454.250    3.331  194.239   67.970    0.422    0.315
  454.500    3.232  194.924   68.128    0.405    0.326
  454.750    3.301  195.187   69.483    0.410    0.312
  455.000    3.358  195.136   66.058    0.427    0.290
  455.250    3.327  194.987   61.746    0.426    0.293
  455.500    3.315  194.728   58.697    0.364    0.321
  455.750    3.316  194.776   58.416    0.369    0.340
  456.000    3.348  195.356   64.614    0.382    0.330
  456.250    3.433  196.570   87.174    0.405    0.276
