~VERSION INFORMATION
 VERS.                 2.0:   CWLS LOG ASCII STANDARD -VERSION 2.0
 WRAP.                  NO:   ONE LINE PER DEPTH STEP
~WELL INFORMATION BLOCK
#MNEM.UNIT           DATA                    DESCRIPTION OF MNEMONIC
#---------    -------------------            -------------------------------
# Generated from Intellog Unique Number	CS_73_76/WELL/2180
WELL.         WAINOCO OIL AND GAS COMPAN     : Well_name    - WELL
LOC .         00/07-34-074-12W4/0            : Location     - LOCATION
UWI .         00/07-34-074-12W4/0            : Uwi          - UNIQUE WELL ID
ENTR.         SP                             : Entered      - ENTERED BY
SRVC.         SCHLUMBERGER                   : Scn          - SERVICE COMPANY
STRT.M        290                            : top_depth    - START DEPTH
STOP.M        520                            : bot_depth    - STOP DEPTH
STEP.M        0.25                           : increment    - STEP LENGTH
 NULL. -999.2500:NULL Value
~CURVE INFORMATION BLOCK
#MNEM UNIT       ERCB CURVE CODE    CURVE DESCRIPTION
#-----------   ------------------   ----------------------------------
DEPT.M        00 001 00 00         : DEPTH        - DEPTH
ILD .OHMM     00 120 00 00         : RESD         - DEEP RESISTIVITY (DIL)
DPHI.V/V      00 890 00 00         : PHID         - DENSITY POROSITY (LIMESTONE)
NPHI.V/V      00 330 00 00         : PHIN         - NEUTRON POROSITY (LIMESTONE)
GR  .API      00 310 00 00         : GR           - GAMMA RAY
~PARAMETER INFORMATION
#MNEM.UNIT           DATA             DESCRIPTION OF MNEMONIC
#---------         -----------     ------------------------------
GL  .M        661.49               : gl           - GROUND LEVEL ELEVATION
EREF.M        664.75               : kb           - ELEVATION OF DEPTH REFERENCE
DATM.M        661.49               : datum        - DATUM ELEVATION
TDD .M        530                  : tdd          - TOTAL DEPTH DRILLER
RUN .         ONE                  : Run          - RUN NUMBER
ENG .         BILL                 : Engineer     - RECORDING ENGINEER
WIT .         JIM                  : Witness      - WITNESSED BY
MUD .         GEL                  : Mud_type     - MUD TYPE
MATR.         LIMESTONE            : Logunit      - NEUTRON MATRIX
TMAX.C        22                   : BHT          - MAXIMUM RECORDED TEMPERATURE
BHTD.M        530                  : BHTDEP       - MAXIMUM RECORDED TEMPERATURE
MATR.         1                    : LOGUNIT      - NEUTRON MATRIX
RMT .C        25                   : MDTP         - TEMPERATURE OF MUD
NEUT.         1                    : NEUTRON      - NEUTRON TYPE
RESI.         0                    : RESIST       - RESISTIVITY TYPE
RMC .OHMM     0.25                 : RMC          - RESISTIVITY OF MUD CAKE
RMF .OHMM     0.25                 : RMF          - RESISTIVITY OF MUD FILTRATE
SUFT.C        15                   : SUFT         - SURFACE TEMPERATURE
~A  DEPTH     RESD     PHID     PHIN       GR
  290.000    3.058    0.266    0.489  119.997
  290.250    3.056    0.269    0.497  113.870
  290.500    3.001    0.266    0.503  113.864
  290.750    3.002    0.257    0.497  114.472
  291.000    3.061    0.247    0.499  115.080
  291.250    3.122    0.230    0.504  115.689
  291.500    3.244    0.218    0.508  114.460
  291.750    3.371    0.225    0.503  111.395
  292.000    3.503    0.240    0.505  112.614
  292.250    3.505    0.250    0.512  115.672
  292.500    3.574    0.250    0.514  121.177
  292.750    3.576    0.245    0.513  125.457
  293.000    3.716    0.234    0.497  126.067
  293.250    3.935    0.224    0.477  125.450
  293.500    4.168    0.219    0.464  123.608
  293.750    4.250    0.234    0.451  123.602
  294.000    4.252    0.234    0.448  123.600
  294.250    4.020    0.240    0.446  119.921
  294.500    3.873    0.255    0.450  118.081
  294.750    3.661    0.233    0.450  116.852
  295.000    3.527    0.224    0.459  116.848
  295.250    3.398    0.228    0.471  115.619
  295.500    3.336    0.229    0.479  117.452
  295.750    3.214    0.240    0.475  119.896
  296.000    3.340    0.249    0.476  120.504
  296.250    3.470    0.251    0.483  121.724
  296.500    3.538    0.258    0.490  118.658
  296.750    3.677    0.287    0.495  114.981
  297.000    3.610    0.305    0.498  112.528
  297.250    3.479    0.306    0.499  113.135
  297.500    3.480    0.293    0.486  116.804
  297.750    3.417    0.254    0.475  122.922
  298.000    3.484    0.234    0.470  121.692
  298.250    3.553    0.224    0.470  117.404
  298.500    3.623    0.218    0.472  112.502
  298.750    3.694    0.223    0.474  103.925
  299.000    3.766    0.224    0.461  105.145
  299.250    3.698    0.223    0.457  111.875
  299.500    3.701    0.270    0.463  114.319
  299.750    3.702    0.304    0.458  114.317
  300.000    3.996    0.331    0.447   97.781
  300.250    4.741    0.350    0.433   84.308
  300.500    5.518    0.364    0.373   67.773
  300.750    6.671    0.356    0.357   53.688
  301.000    8.065    0.350    0.355   38.378
  301.250   10.718    0.336    0.362   43.883
  301.500   13.206    0.330    0.371   45.716
  301.750   13.724    0.346    0.384   46.937
  302.000   13.476    0.355    0.399   49.379
  302.250   12.500    0.358    0.406   49.376
  302.500   11.595    0.366    0.420   52.433
  302.750   10.960    0.372    0.431   55.488
  303.000   10.364    0.357    0.421   57.321
  303.250   10.174    0.347    0.411   59.154
  303.500   10.178    0.346    0.408   60.987
  303.750    9.994    0.350    0.409   66.491
  304.000   10.001    0.346    0.403   70.161
  304.250   10.005    0.344    0.400   76.890
  304.500   10.203    0.330    0.411   79.336
  304.750   10.207    0.306    0.416   82.392
  305.000   10.411    0.299    0.424   83.613
  305.250   10.415    0.290    0.422   81.772
  305.500   10.420    0.287    0.425   84.215
  305.750   10.230    0.291    0.431   85.437
  306.000   10.046    0.287    0.432   88.493
  306.250    9.863    0.282    0.425   96.447
  306.500    9.502    0.270    0.422   99.505
  306.750    9.328    0.253    0.416  105.622
  307.000    9.159    0.232    0.414  107.455
  307.250    8.823    0.223    0.414  109.899
  307.500    8.662    0.227    0.413  112.343
  307.750    8.504    0.231    0.415  112.340
  308.000    8.193    0.223    0.422  106.825
  308.250    7.894    0.225    0.427  104.985
  308.500    7.605    0.236    0.429  110.489
  308.750    7.467    0.263    0.413  115.382
  309.000    7.471    0.274    0.403  115.991
  309.250    7.617    0.276    0.398  110.477
  309.500    8.068    0.281    0.397  104.962
  309.750    8.543    0.289    0.405  103.122
  310.000    9.220    0.282    0.409  103.730
  310.250   10.142    0.277    0.418  109.845
  310.500   10.739    0.286    0.420  111.679
  310.750   10.950    0.280    0.427  114.735
  311.000   11.380    0.265    0.431  114.120
  311.250   11.604    0.257    0.424  104.319
  311.500   11.831    0.242    0.415   95.744
  311.750   11.839    0.239    0.398   89.005
  312.000   11.624    0.253    0.394   82.878
  312.250   11.412    0.263    0.393   77.975
  312.500   10.996    0.271    0.397   76.136
  312.750   10.794    0.289    0.399   73.682
  313.000   10.208    0.297    0.402   72.453
  313.250   10.022    0.303    0.405   69.998
  313.500    9.838    0.291    0.410   68.772
  313.750    9.659    0.276    0.404   74.277
  314.000    9.481    0.237    0.404   85.291
  314.250    8.468    0.209    0.417   90.797
  314.500    7.422    0.189    0.425  100.588
  314.750    6.264    0.167    0.437  106.706
  315.000    5.701    0.177    0.452  111.601
  315.250    5.092    0.201    0.461  115.270
  315.500    4.548    0.220    0.472  117.714
  315.750    4.550    0.254    0.445  106.077
  316.000    5.005    0.280    0.425   98.115
  316.250    5.717    0.301    0.415   90.150
  316.500    6.408    0.312    0.406   85.862
  316.750    7.602    0.320    0.396   79.735
  317.000    9.019    0.317    0.390   74.220
  317.250   10.303    0.316    0.388   75.439
  317.500   11.120    0.318    0.404   76.661
  317.750   11.339    0.323    0.412   83.391
  318.000   11.343    0.329    0.422   90.121
  318.250   11.349    0.336    0.428   91.340
  318.500   11.147    0.328    0.430   88.886
  318.750   11.152    0.316    0.440   85.821
  319.000   11.158    0.301    0.448   82.756
  319.250   11.164    0.310    0.450   77.852
  319.500   11.170    0.317    0.441   75.399
  319.750   11.176    0.331    0.444   72.946
  320.000   10.973    0.344    0.451   72.331
  320.250   10.980    0.358    0.448   77.223
  320.500   10.984    0.355    0.444   77.832
  320.750   10.785    0.349    0.452   76.604
  321.000   10.790    0.338    0.441   74.148
  321.250   10.798    0.333    0.434   74.146
  321.500   10.604    0.326    0.428   75.978
  321.750   10.609    0.317    0.432   77.809
  322.000   10.614    0.312    0.435   79.029
  322.250   10.618    0.320    0.437   79.026
  322.500   10.625    0.333    0.438   79.634
  322.750   10.632    0.330    0.435   80.853
  323.000   10.437    0.342    0.426   82.074
  323.250   10.442    0.349    0.419   83.295
  323.500   10.449    0.337    0.416   82.678
  323.750   10.656    0.332    0.421   80.837
  324.000   10.661    0.331    0.430   77.770
  324.250   10.666    0.322    0.439   75.316
  324.500   10.674    0.319    0.445   74.089
  324.750   10.681    0.322    0.439   72.861
  325.000   10.891    0.327    0.431   75.305
  325.250   10.897    0.322    0.422   80.195
  325.500   10.900    0.316    0.419   83.252
  325.750   10.906    0.300    0.426   84.475
  326.000   11.121    0.292    0.432   87.531
  326.250   11.128    0.279    0.436   89.364
  326.500   11.134    0.270    0.429   90.584
  326.750   11.354    0.288    0.421   91.192
  327.000   11.359    0.300    0.412   88.739
  327.250   11.365    0.308    0.405   85.062
  327.500   11.371    0.311    0.405   81.383
  327.750   11.378    0.315    0.421   80.155
  328.000   11.385    0.288    0.426   85.049
  328.250   10.563    0.252    0.431  100.350
  328.500   10.174    0.225    0.436  113.815
  328.750    9.087    0.211    0.437  121.157
  329.000    8.116    0.216    0.437  124.826
  329.250    7.388    0.224    0.437  127.882
  329.500    7.118    0.234    0.423  128.490
  329.750    7.258    0.255    0.407  126.648
  330.000    7.687    0.260    0.401  126.033
  330.250    7.987    0.262    0.398  127.253
  330.500    8.299    0.271    0.396  125.412
  330.750    8.624    0.275    0.401  123.571
  331.000    9.310    0.282    0.395  116.219
  331.250    9.672    0.294    0.394  110.706
  331.500   10.439    0.292    0.398  102.130
  331.750   10.249    0.296    0.406   97.840
  332.000    9.874    0.288    0.404  103.957
  332.250    9.336    0.277    0.406  113.748
  332.500    9.164    0.266    0.417  118.642
  332.750    8.665    0.264    0.425  119.862
  333.000    8.347    0.265    0.436  121.692
  333.250    8.196    0.275    0.431  122.302
