~VERSION INFORMATION
 VERS.                 2.0:   CWLS LOG ASCII STANDARD -VERSION 2.0
 WRAP.                  NO:   ONE LINE PER DEPTH STEP
~WELL INFORMATION BLOCK
#MNEM.UNIT           DATA                    DESCRIPTION OF MNEMONIC
#---------    -------------------            -------------------------------
# Generated from Intellog Unique Number	CS_71_72/WELL/838
WELL.         AMOCO AEC IPIATIK              : Well_name    - WELL
LOC .         00/08-16-072-05W4/0            : Location     - LOCATION
UWI .         00/08-16-072-05W4/0            : Uwi          - UNIQUE WELL ID
ENTR.         SP                             : Entered      - ENTERED BY
SRVC.         SCHLUMBERGER                   : Scn          - SERVICE COMPANY
STRT.M        320                            : top_depth    - START DEPTH
STOP.M        560                            : bot_depth    - STOP DEPTH
STEP.M        0.25                           : increment    - STEP LENGTH
 NULL. -999.2500:NULL Value
~CURVE INFORMATION BLOCK
#MNEM UNIT       ERCB CURVE CODE    CURVE DESCRIPTION
#-----------   ------------------   ----------------------------------
DEPT.M        00 001 00 00         : DEPTH        - DEPTH
GR  .API      00 310 00 00         : GR           - GAMMA RAY
NPHI.V/V      00 330 00 00         : PHIN         - NEUTRON POROSITY (LIMESTONE)
DPHI.V/V      00 890 00 00         : PHID         - DENSITY POROSITY (LIMESTONE)
ILD .OHMM     00 120 00 00         : RESD         - DEEP RESISTIVITY (DIL)
~PARAMETER INFORMATION
#MNEM.UNIT           DATA             DESCRIPTION OF MNEMONIC
#---------         -----------     ------------------------------
GL  .M        697.9                : gl           - GROUND LEVEL ELEVATION
EREF.M        702.17               : kb           - ELEVATION OF DEPTH REFERENCE
DATM.M        697.9                : datum        - DATUM ELEVATION
TDD .M        583                  : tdd          - TOTAL DEPTH DRILLER
RUN .         ONE                  : Run          - RUN NUMBER
ENG .         BILL                 : Engineer     - RECORDING ENGINEER
WIT .         JIM                  : Witness      - WITNESSED BY
MUD .         GEL                  : Mud_type     - MUD TYPE
MATR.         LIMESTONE            : Logunit      - NEUTRON MATRIX
TMAX.C        20                   : BHT          - MAXIMUM RECORDED TEMPERATURE
BHTD.M        583                  : BHTDEP       - MAXIMUM RECORDED TEMPERATURE
MATR.         1                    : LOGUNIT      - NEUTRON MATRIX
RMT .C        25                   : MDTP         - TEMPERATURE OF MUD
NEUT.         1                    : NEUTRON      - NEUTRON TYPE
RESI.         0                    : RESIST       - RESISTIVITY TYPE
RMC .OHMM     0.25                 : RMC          - RESISTIVITY OF MUD CAKE
RMF .OHMM     0.25                 : RMF          - RESISTIVITY OF MUD FILTRATE
SUFT.C        15                   : SUFT         - SURFACE TEMPERATURE
~A  DEPTH       GR     PHIN     PHID     RESD
# ...
  537.500   25.301    0.407    0.320    2.809
  537.750   24.096    0.413    0.329    2.758
  538.000   24.096    0.413    0.340    2.707
  538.250   24.096    0.400    0.330    2.657
  538.500   24.699    0.396    0.324    2.562
  538.750   25.301    0.390    0.314    2.560
  539.000   25.904    0.392    0.314    2.514
  539.250   26.506    0.391    0.312    2.602
  539.500   25.904    0.386    0.306    2.696
  539.750   25.301    0.378    0.288    2.791
  540.000   25.301    0.371    0.273    2.789
  540.250   25.301    0.384    0.290    2.837
  540.500   25.301    0.399    0.312    2.784
  540.750   25.904    0.409    0.316    2.734
  541.000   27.108    0.418    0.319    2.682
  541.250   28.313    0.411    0.312    2.681
  541.500   28.313    0.393    0.299    2.680
  541.750   27.711    0.395    0.292    2.677
  542.000   27.108    0.403    0.305    2.675
  542.250   27.711    0.400    0.311    2.579
  542.500   28.313    0.401    0.324    2.578
  542.750   28.916    0.408    0.318    2.530
  543.000   28.916    0.393    0.313    2.528
  543.250   28.916    0.385    0.310    2.481
  543.500   28.313    0.379    0.310    2.480
  543.750   27.711    0.376    0.312    2.433
  544.000   26.506    0.388    0.316    2.389
  544.250   25.301    0.400    0.319    2.387
  544.500   25.301    0.407    0.310    2.386
  544.750   25.301    0.401    0.324    2.426
  545.000   26.506    0.383    0.316    2.468
  545.250   28.916    0.371    0.310    2.555
  545.500   28.916    0.371    0.306    2.694
  545.750   30.120    0.377    0.301    2.693
  546.000   30.120    0.367    0.298    2.739
  546.250   28.916    0.359    0.299    2.737
  546.500   27.711    0.366    0.304    2.735
  546.750   26.506    0.369    0.306    2.733
  547.000   25.301    0.373    0.316    2.683
  547.250   23.494    0.384    0.329    2.681
  547.500   22.892    0.389    0.336    2.584
  547.750   22.289    0.390    0.343    2.492
  548.000   24.096    0.380    0.339    2.446
  548.250   25.904    0.383    0.337    2.401
  548.500   26.506    0.394    0.339    2.357
  548.750   27.711    0.405    0.343    2.356
  549.000   28.313    0.414    0.331    2.353
  549.250   27.711    0.404    0.322    2.394
  549.500   26.506    0.399    0.313    2.393
  549.750   24.699    0.408    0.305    2.477
  550.000   22.892    0.410    0.307    2.476
  550.250   20.482    0.400    0.316    2.473
  550.500   21.084    0.396    0.307    2.471
  550.750   22.289    0.399    0.312    2.427
  551.000   22.892    0.400    0.321    2.381
  551.250   22.892    0.396    0.328    2.338
  551.500   22.892    0.390    0.320    2.336
  551.750   22.892    0.382    0.316    2.293
  552.000   23.494    0.377    0.317    2.291
  552.250   24.096    0.389    0.327    2.290
  552.500   24.096    0.395    0.322    2.248
  552.750   23.494    0.400    0.323    2.245
  553.000   23.494    0.392    0.316    2.244
  553.250   24.096    0.388    0.321    2.203
  553.500   25.301    0.389    0.335    2.201
  553.750   26.506    0.406    0.342    2.239
  554.000   27.711    0.431    0.353    2.238
  554.250   29.518    0.451    0.350    2.317
  554.500   29.518    0.369    0.037    2.577
  554.750   25.301    0.133   -0.015    2.917
  555.000   22.892    0.118   -0.009    3.188
  555.250   21.084    0.112   -0.010    6.056
  555.500   19.880    0.108   -0.004   10.904
  555.750   18.675    0.114   -0.001   16.427
  556.000   18.675    0.129   -0.005   23.876
  556.250   18.072    0.135   -0.004   27.521
  556.500   17.470    0.137    0.005   30.059
  556.750   16.867    0.137    0.023   32.260
  557.000   16.867    0.135    0.030   34.008
  557.250   16.867    0.131    0.032   35.220
  557.500   16.867    0.135    0.018   37.133
  557.750   16.867    0.136    0.004   39.146
  558.000   16.867    0.135    0.008   40.532
  558.250   16.867    0.130   -0.004   41.240
  558.500   16.867    0.126    0.002   41.940
  558.750   17.470    0.124    0.002   43.434
  559.000   17.470    0.121    0.008   44.979
  559.250   17.470    0.121   -0.002   47.423
  559.500   17.470    0.126    0.005   49.112
  559.750   17.470    0.135    0.019   50.850
  560.000   18.072    0.141    0.013   51.719
