~VERSION INFORMATION
 VERS.                 2.0:   CWLS LOG ASCII STANDARD -VERSION 2.0
 WRAP.                  NO:   ONE LINE PER DEPTH STEP
~WELL INFORMATION BLOCK
#MNEM.UNIT           DATA                    DESCRIPTION OF MNEMONIC
#---------    -------------------            -------------------------------
# Generated from Intellog Unique Number	CS_67_68/WELL/2169
WELL.         CHIEFCO et al TWEEDIE          : Well_name    - WELL
LOC .         00/06-13-067-12W4/0            : Location     - LOCATION
UWI .         00/06-13-067-12W4/0            : Uwi          - UNIQUE WELL ID
ENTR.         SP                             : Entered      - ENTERED BY
SRVC.         SCHLUMBERGER                   : Scn          - SERVICE COMPANY
STRT.M        320                            : top_depth    - START DEPTH
STOP.M        525                            : bot_depth    - STOP DEPTH
STEP.M        0.25                           : increment    - STEP LENGTH
 NULL. -999.2500:NULL Value
~CURVE INFORMATION BLOCK
#MNEM UNIT       ERCB CURVE CODE    CURVE DESCRIPTION
#-----------   ------------------   ----------------------------------
DEPT.M        00 001 00 00         : DEPTH        - DEPTH
ILD .OHMM     00 120 00 00         : RESD         - DEEP RESISTIVITY (DIL)
DPHI.V/V      00 890 00 00         : PHID         - DENSITY POROSITY (LIMESTONE)
NPHI.V/V      00 330 00 00         : PHIN         - NEUTRON POROSITY (LIMESTONE)
GR  .API      00 310 00 00         : GR           - GAMMA RAY
CALI.MM       00 280 01 00         : CAL          - CALIPER
~PARAMETER INFORMATION
#MNEM.UNIT           DATA             DESCRIPTION OF MNEMONIC
#---------         -----------     ------------------------------
GL  .M        604.6                : gl           - GROUND LEVEL ELEVATION
EREF.M        607.6                : kb           - ELEVATION OF DEPTH REFERENCE
DATM.M        607.6                : datum        - DATUM ELEVATION
TDD .M        532                  : tdd          - TOTAL DEPTH DRILLER
RUN .         ONE                  : Run          - RUN NUMBER
ENG .         BILL                 : Engineer     - RECORDING ENGINEER
WIT .         JIM                  : Witness      - WITNESSED BY
MUD .         GEL                  : Mud_type     - MUD TYPE
MATR.         LIMESTONE            : Logunit      - NEUTRON MATRIX
TMAX.C        20                   : BHT          - MAXIMUM RECORDED TEMPERATURE
BHTD.M        529                  : BHTDEP       - MAXIMUM RECORDED TEMPERATURE
MATR.         1                    : LOGUNIT      - NEUTRON MATRIX
RMT .C        25                   : MDTP         - TEMPERATURE OF MUD
NEUT.         1                    : NEUTRON      - NEUTRON TYPE
RESI.         0                    : RESIST       - RESISTIVITY TYPE
RMC .OHMM     0.25                 : RMC          - RESISTIVITY OF MUD CAKE
RMF .OHMM     0.25                 : RMF          - RESISTIVITY OF MUD FILTRATE
SUFT.C        15                   : SUFT         - SURFACE TEMPERATURE
~A  DEPTH     RESD     PHID     PHIN       GR      CAL
# ...
  429.500    1.367    0.318    0.335   53.930  142.493
  429.750    1.355    0.315    0.343   53.067  142.484
  430.000    1.369    0.312    0.347   51.532  142.678
  430.250    1.388    0.307    0.349   53.361  142.665
  430.500    1.440    0.304    0.354   56.780  142.860
  430.750    1.466    0.307    0.356   55.916  143.154
  431.000    1.478    0.318    0.354   55.176  143.550
  431.250    1.476    0.328    0.356   55.353  144.154
  431.500    1.462    0.316    0.362   54.367  144.854
  431.750    1.444    0.311    0.357   52.342  145.049
  432.000    1.435    0.317    0.354   51.663  145.343
  432.250    1.439    0.320    0.352   52.758  145.334
  432.500    1.456    0.321    0.356   56.850  145.322
  432.750    1.499    0.309    0.358   61.555  145.311
  433.000    1.578    0.293    0.360   69.562  145.403
  433.250    1.648    0.280    0.354   73.532  145.494
  433.500    1.748    0.280    0.348   73.035  145.583
  433.750    1.885    0.283    0.350   76.760  145.574
  434.000    2.032    0.274    0.359   80.425  145.564
  434.250    2.240    0.267    0.359   77.604  145.757
  434.500    2.545    0.272    0.353   71.663  145.848
  434.750    2.918    0.245    0.346   69.333  145.836
  435.000    3.618    0.160    0.319   67.368  145.825
  435.250    4.436    0.105    0.296   67.117  145.509
  435.500    5.250    0.074    0.268   65.276  145.295
  435.750    5.975    0.083    0.254   63.678  145.079
  436.000    6.324    0.105    0.250   63.550  144.865
  436.250    4.545    0.098    0.265   70.149  144.854
  436.500    3.770    0.149    0.289   74.793  144.739
  436.750    3.375    0.204    0.306   72.217  144.732
  437.000    3.397    0.211    0.319   71.048  144.720
  437.250    3.946    0.178    0.310   73.305  144.506
  437.500    4.635    0.100    0.284   73.727  144.494
  437.750    5.315    0.057    0.265   59.773  144.278
  438.000    5.709    0.040    0.248   52.181  144.167
  438.250    5.920    0.122    0.240   62.817  144.259
  438.500    5.290    0.145    0.285   69.113  144.451
  438.750    4.332    0.156    0.309   74.368  144.441
  439.000    3.951    0.165    0.309   75.768  144.633
  439.250    3.718    0.173    0.327   78.086  144.623
  439.500    3.547    0.185    0.339   82.300  144.715
  439.750    3.439    0.185    0.335   86.576  144.703
  440.000    3.366    0.186    0.329   90.302  144.998
  440.250    3.283    0.196    0.334   90.111  145.191
  440.500    3.190    0.200    0.345   88.637  145.588
  440.750    3.246    0.200    0.354   87.713  146.088
  441.000    3.392    0.196    0.360   86.361  146.689
  441.250    3.550    0.192    0.344   86.966  147.493
  441.500    3.681    0.191    0.336   90.140  147.992
  441.750    3.853    0.198    0.327   92.397  148.084
  442.000    4.071    0.197    0.321   90.249  148.073
  442.250    4.497    0.146    0.313   80.027  148.063
  442.500    4.886    0.039    0.303   70.844  148.052
  442.750    5.258    0.009    0.293   61.662  148.038
  443.000    5.659    0.001    0.279   63.245  148.029
  443.250    5.890    0.063    0.242   74.618  148.223
  443.500    5.483    0.110    0.317   87.091  148.620
  443.750    4.917    0.157    0.334   93.691  149.119
  444.000    4.603    0.164    0.341   88.729  149.516
  444.250    4.382    0.163    0.348   89.334  150.015
  444.500    4.281    0.156    0.350   92.082  150.411
  444.750    4.199    0.150    0.352   88.527  150.503
  445.000    4.156    0.155    0.363   85.095  150.491
  445.250    4.091    0.150    0.366   86.801  150.583
  445.500    3.960    0.146    0.358   89.791  150.471
  445.750    3.862    0.141    0.351   91.009  150.868
  446.000    3.801    0.154    0.356   87.271  151.061
  446.250    3.720    0.166    0.366   84.756  151.050
  446.500    3.601    0.161    0.366   84.321  151.345
  446.750    3.415    0.143    0.365   89.209  152.150
  447.000    3.162    0.125    0.359   95.686  152.750
  447.250    2.921    0.157    0.357   95.681  153.250
  447.500    2.699    0.190    0.375   96.468  153.443
  447.750    2.513    0.217    0.391  100.806  153.432
  448.000    2.339    0.232    0.404  105.143  153.522
  448.250    2.173    0.237    0.419  102.444  153.614
  448.500    1.956    0.221    0.440  102.010  153.908
  448.750    1.784    0.210    0.428  103.410  153.897
  449.000    1.652    0.199    0.420  104.444  153.786
  449.250    1.552    0.199    0.416  105.233  153.979
  449.500    1.598    0.210    0.414  100.822  154.070
  449.750    1.678    0.221    0.411  100.265  154.263
  450.000    1.793    0.231    0.412  102.400  154.456
  450.250    1.908    0.219    0.409  101.842  154.649
  450.500    2.038    0.209    0.401   99.572  154.638
  450.750    2.166    0.200    0.397   97.914  154.626
  451.000    2.271    0.190    0.409  101.333  154.617
  451.250    2.408    0.180    0.414   96.127  154.403
  451.500    2.478    0.175    0.409   93.183  154.086
  451.750    2.584    0.180    0.417   94.340  153.565
  452.000    2.726    0.184    0.429   96.780  152.534
  452.250    2.950    0.185    0.412  101.668  152.013
  452.500    3.175    0.189    0.396   95.606  151.493
  452.750    3.423    0.196    0.380   92.296  150.871
  453.000    3.597    0.164    0.369   88.925  150.452
  453.250    3.702    0.062    0.356   90.019  150.136
  453.500    3.775    0.087    0.348   93.010  149.819
  453.750    3.815    0.139    0.342   95.388  149.604
  454.000    3.825    0.176    0.344   95.016  149.389
  454.250    3.772    0.182    0.347   95.866  148.969
  454.500    3.769    0.180    0.348   96.838  148.858
  454.750    3.886    0.179    0.343   96.281  148.439
  455.000    4.113    0.173    0.337   93.277  148.326
  455.250    4.394    0.169    0.337   89.234  148.212
  455.500    4.765    0.166    0.335   84.576  148.509
  455.750    4.996    0.085    0.330   81.696  148.803
  456.000    5.210    0.051    0.322   79.059  149.300
  456.250    5.274    0.034    0.310   79.052  149.395
  456.500    5.115    0.093    0.299   80.514  149.690
  456.750    4.596    0.155    0.299   85.891  150.697
  457.000    4.168    0.176    0.313   88.209  151.501
  457.250    3.916    0.186    0.333   87.347  152.205
  457.500    3.777    0.191    0.345   82.752  152.500
  457.750    3.710    0.175    0.340   78.586  152.490
  458.000    3.652    0.156    0.338   76.622  152.887
  458.250    3.622    0.143    0.338   88.177  153.182
  458.500    3.605    0.147    0.335   89.149  153.988
  458.750    3.615    0.169    0.330   89.938  154.486
  459.000    3.612    0.181    0.333   90.787  154.679
  459.250    3.562    0.186    0.340   91.638  154.975
  459.500    3.506    0.188    0.344   90.531  155.371
  459.750    3.464    0.191    0.347   84.283  155.360
  460.000    3.417    0.194    0.349   82.809  154.942
  460.250    3.425    0.203    0.347   86.779  154.421
  460.500    3.500    0.206    0.350   89.832  154.614
  460.750    3.602    0.143    0.354   90.008  153.074
  461.000    3.646    0.095    0.349   83.334  151.633
  461.250    3.629    0.061    0.341   83.816  150.707
  461.500    3.579    0.164    0.333   88.276  149.675
  461.750    3.523    0.190    0.327   92.001  148.953
  462.000    3.487    0.201    0.339   95.297  148.229
  462.250    3.504    0.187    0.350   97.922  147.911
  462.500    3.586    0.179    0.357   94.796  148.103
  462.750    3.753    0.173    0.355   89.222  148.196
  463.000    3.965    0.169    0.356   85.240  148.287
  463.250    4.189    0.177    0.357   88.903  148.786
  463.500    4.417    0.162    0.351   80.210  148.776
  463.750    4.624    0.147    0.343   78.613  148.663
  464.000    4.804    0.135    0.338   82.521  148.448
  464.250    4.889    0.167    0.338   88.388  148.129
  464.500    4.922    0.199    0.337   92.725  147.916
  464.750    4.898    0.183    0.333   99.876  147.804
  465.000    4.795    0.159    0.328  104.396  147.792
  465.250    4.659    0.123    0.330  107.143  148.189
  465.500    4.663    0.096    0.332   93.740  148.383
  465.750    4.703    0.098    0.325   95.629  148.576
