~VERSION INFORMATION
 VERS.                 2.0:   CWLS LOG ASCII STANDARD -VERSION 2.0
 WRAP.                  NO:   ONE LINE PER DEPTH STEP
~WELL INFORMATION BLOCK
#MNEM.UNIT           DATA                    DESCRIPTION OF MNEMONIC
#---------    -------------------            -------------------------------
# Generated from Intellog Unique Number	CS_67_68/WELL/620
WELL.         AEC FISH CREEK                 : Well_name    - WELL
LOC .         00/01-26-068-08W4/0            : Location     - LOCATION
UWI .         00/01-26-068-08W4/0            : Uwi          - UNIQUE WELL ID
ENTR.         SP                             : Entered      - ENTERED BY
SRVC.         SCHLUMBERGER                   : Scn          - SERVICE COMPANY
STRT.M        270                            : top_depth    - START DEPTH
STOP.M        495                            : bot_depth    - STOP DEPTH
STEP.M        0.25                           : increment    - STEP LENGTH
 NULL. -999.2500:NULL Value
~CURVE INFORMATION BLOCK
#MNEM UNIT       ERCB CURVE CODE    CURVE DESCRIPTION
#-----------   ------------------   ----------------------------------
DEPT.M        00 001 00 00         : DEPTH        - DEPTH
ILD .OHMM     00 120 00 00         : RESD         - DEEP RESISTIVITY (DIL)
DPHI.V/V      00 890 00 00         : PHID         - DENSITY POROSITY (LIMESTONE)
NPHI.V/V      00 330 00 00         : PHIN         - NEUTRON POROSITY (LIMESTONE)
GR  .API      00 310 00 00         : GR           - GAMMA RAY
~PARAMETER INFORMATION
#MNEM.UNIT           DATA             DESCRIPTION OF MNEMONIC
#---------         -----------     ------------------------------
GL  .M        602.15               : gl           - GROUND LEVEL ELEVATION
EREF.M        605.73               : kb           - ELEVATION OF DEPTH REFERENCE
DATM.M        602.15               : datum        - DATUM ELEVATION
TDD .M        505                  : tdd          - TOTAL DEPTH DRILLER
RUN .         ONE                  : Run          - RUN NUMBER
ENG .         BILL                 : Engineer     - RECORDING ENGINEER
WIT .         JIM                  : Witness      - WITNESSED BY
MUD .         GEL                  : Mud_type     - MUD TYPE
MATR.         LIMESTONE            : Logunit      - NEUTRON MATRIX
TMAX.C        22                   : BHT          - MAXIMUM RECORDED TEMPERATURE
BHTD.M        505                  : BHTDEP       - MAXIMUM RECORDED TEMPERATURE
MATR.         1                    : LOGUNIT      - NEUTRON MATRIX
RMT .C        25                   : MDTP         - TEMPERATURE OF MUD
NEUT.         1                    : NEUTRON      - NEUTRON TYPE
RESI.         0                    : RESIST       - RESISTIVITY TYPE
RMC .OHMM     0.25                 : RMC          - RESISTIVITY OF MUD CAKE
RMF .OHMM     0.25                 : RMF          - RESISTIVITY OF MUD FILTRATE
SUFT.C        15                   : SUFT         - SURFACE TEMPERATURE
~A  DEPTH     RESD     PHID     PHIN       GR
# ...
  357.000    3.915    0.431    0.423   85.124
  357.250    3.945    0.396    0.431   77.510
  357.500    3.997    0.374    0.448   73.276
  357.750    4.074    0.401    0.465   76.973
  358.000    4.159    0.425    0.456   80.855
  358.250    4.303    0.428    0.441   84.246
  358.500    4.537    0.379    0.431   81.180
  358.750    4.783    0.350    0.422   75.656
  359.000    4.967    0.337    0.419   76.770
  359.250    5.188    0.333    0.425   72.598
  359.500    5.490    0.330    0.423   68.612
  359.750    5.955    0.327    0.426   71.632
  360.000    6.581    0.324    0.428   75.083
  360.250    7.165    0.319    0.392   77.920
  360.500    8.162    0.302    0.361   80.572
  360.750    9.493    0.169    0.304   76.831
  361.000   11.316    0.063    0.188   71.060
  361.250   12.181    0.030    0.167   62.339
  361.500   12.250    0.018    0.299   57.061
  361.750   10.336    0.154    0.362   63.033
  362.000    8.786    0.274    0.398   66.545
  362.250    7.569    0.314    0.420   70.059
  362.500    6.657    0.323    0.426   74.370
  362.750    6.137    0.324    0.421   77.944
  363.000    5.789    0.326    0.432   79.428
  363.250    5.627    0.331    0.453   76.609
  363.500    5.480    0.332    0.461   72.069
  363.750    5.378    0.329    0.461   69.250
  364.000    5.277    0.326    0.435   72.332
  364.250    5.208    0.330    0.419   71.110
  364.500    5.149    0.335    0.411   70.935
  364.750    5.101    0.335    0.415   76.354
  365.000    5.091    0.323    0.414   81.341
  365.250    5.101    0.306    0.413   86.207
  365.500    5.110    0.287    0.413   90.581
  365.750    5.159    0.272    0.422   92.433
  366.000    5.198    0.263    0.431   93.179
  366.250    5.159    0.259    0.441   94.787
  366.500    5.091    0.258    0.448   96.762
  366.750    5.053    0.268    0.453   98.799
  367.000    5.053    0.276    0.427   93.889
  367.250    5.072    0.279    0.415   89.657
  367.500    5.091    0.283    0.418   92.370
  367.750    5.130    0.289    0.425   90.534
  368.000    5.188    0.293    0.430   91.219
  368.250    5.258    0.277    0.430   93.749
  368.500    5.338    0.264    0.441   95.417
  368.750    5.439    0.257    0.459   97.271
  369.000    5.533    0.254    0.473   98.262
  369.250    5.617    0.257    0.443   98.455
  369.500    5.659    0.260    0.422   95.144
  369.750    5.746    0.262    0.405   92.878
  370.000    5.811    0.263    0.396   92.210
  370.250    5.789    0.261    0.406   93.633
  370.500    5.746    0.253    0.426   94.871
  370.750    5.692    0.246    0.440   97.156
  371.000    5.628    0.242    0.435   99.314
  371.250    5.554    0.244    0.431   98.954
  371.500    5.460    0.241    0.427   95.458
  371.750    5.338    0.239    0.420   97.374
  372.000    5.248    0.236    0.418   99.225
  372.250    5.189    0.233    0.431  100.279
  372.500    5.073    0.232    0.449   98.936
  372.750    4.959    0.237    0.460   97.591
  373.000    4.839    0.243    0.444   97.355
  373.250    4.721    0.251    0.438   97.978
  373.500    4.598    0.256    0.428   95.098
  373.750    4.512    0.259    0.450   92.769
  374.000    4.361    0.249    0.487   98.742
  374.250    4.248    0.254    0.500  102.992
  374.500    4.160    0.278    0.480  102.447
  374.750    4.052    0.282    0.476  101.656
  375.000    3.939    0.284    0.481  106.830
  375.250    3.786    0.292    0.469  110.403
  375.500    3.673    0.304    0.461  112.441
  375.750    3.517    0.318    0.473  108.453
  376.000    3.393    0.335    0.482  106.741
  376.250    3.267    0.359    0.468  107.118
  376.500    3.134    0.326    0.458  106.204
  376.750    3.041    0.311    0.462  103.325
  377.000    2.967    0.316    0.471  101.734
  377.250    2.928    0.332    0.475  100.759
  377.500    2.890    0.343    0.474  103.780
  377.750    2.879    0.353    0.460  108.154
  378.000    3.001    0.366    0.451  111.297
  378.250    3.140    0.376    0.443  101.653
  378.500    3.298    0.304    0.445   96.068
  378.750    3.537    0.289    0.458   92.634
  379.000    3.750    0.279    0.469   95.224
  379.250    3.873    0.274    0.451  100.397
  379.500    3.917    0.264    0.440  106.677
  379.750    3.946    0.257    0.436  109.389
  380.000    3.961    0.254    0.431  107.370
  380.250    3.976    0.276    0.427  104.673
  380.500    4.007    0.292    0.442  102.530
  380.750    4.007    0.309    0.419   98.297
  381.000    3.947    0.327    0.412   93.264
  381.250    3.917    0.337    0.426   90.322
  381.500    3.902    0.336    0.436   87.196
  381.750    3.924    0.335    0.438   84.561
  382.000    3.954    0.335    0.444   81.925
  382.250    3.977    0.334    0.451   78.000
  382.500    3.992    0.333    0.451   74.012
  382.750    4.014    0.330    0.451   72.422
  383.000    4.029    0.327    0.454   75.689
  383.250    4.060    0.325    0.444   78.282
  383.500    4.083    0.323    0.444   79.272
  383.750    3.984    0.321    0.450   80.326
  384.000    4.161    0.319    0.445   82.241
  384.250    4.429    0.322    0.408   85.508
  384.500    4.731    0.328    0.346   87.791
  384.750    5.200    0.334    0.283   83.865
  385.000    5.682    0.116    0.212   75.083
  385.250    6.071    0.074    0.197   69.988
  385.500    5.736    0.225    0.238   61.328
  385.750    5.141    0.294    0.398   64.165
  386.000    4.858    0.318    0.447   71.490
  386.250    4.634    0.331    0.476   77.215
  386.500    4.488    0.333    0.469   80.851
  386.750    4.479    0.325    0.337   82.213
  387.000    5.103    0.281    0.295   82.159
  387.250    6.245    0.124    0.264   81.122
  387.500    7.347    0.067    0.233   77.504
  387.750    8.740    0.032    0.214   68.415
  388.000   10.128    0.016    0.203   61.844
  388.250   11.891    0.040    0.239   57.489
  388.500   10.478    0.260    0.297   59.956
  388.750    8.975    0.292    0.398   67.219
  389.000    7.630    0.311    0.436   75.160
  389.250    6.622    0.310    0.463   79.040
  389.500    5.758    0.294    0.450   82.983
  389.750    5.074    0.273    0.438   86.312
  390.000    4.522    0.258    0.453   87.488
  390.250    4.022    0.247    0.452   83.562
  390.500    3.605    0.242    0.430   87.321
  390.750    3.337    0.241    0.417   93.785
  391.000    3.159    0.243    0.425   97.542
  391.250    3.053    0.243    0.443   99.396
  391.500    3.053    0.241    0.447   97.499
  391.750    3.237    0.238    0.437   98.614
  392.000    3.505    0.234    0.429  103.233
  392.250    3.765    0.232    0.433  107.483
  392.500    4.030    0.238    0.436   99.438
  392.750    4.249    0.254    0.433   96.927
  393.000    4.379    0.263    0.432  102.223
  393.250    4.454    0.273    0.433  104.751
  393.500    4.388    0.266    0.432  103.407
  393.750    4.413    0.257    0.438   99.543
  394.000    4.463    0.254    0.449   98.384
  394.250    4.488    0.254    0.456   99.868
  394.500    4.505    0.251    0.445  100.859
  394.750    4.488    0.248    0.439  101.298
  395.000    4.438    0.247    0.456  100.386
  395.250    4.273    0.248    0.466  101.255
  395.500    3.716    0.246    0.465  103.294
  395.750    3.201    0.274    0.476  104.776
  396.000    2.805    0.379    0.495  106.815
  396.250    2.481    0.421    0.520  108.606
  396.500    2.300    0.449    0.532  109.842
  396.750    2.165    0.469    0.522  110.344
  397.000    2.042    0.459    0.526  109.122
  397.250    1.937    0.447    0.486  101.631
  397.500    1.865    0.444    0.481   95.799
  397.750    1.834    0.450    0.484   98.267
  398.000    1.830    0.458    0.486  108.358
  398.250    1.848    0.460    0.500  112.853
  398.500    1.876    0.443    0.487  112.678
  398.750    1.915    0.428    0.489  107.338
  399.000    1.941    0.415    0.508  102.305
  399.250    1.963    0.405    0.523   97.580
  399.500    1.989    0.422    0.517   93.163
  399.750    2.042    0.444    0.490   91.634
  400.000    2.203    0.463    0.470   95.026
  400.250    2.371    0.481    0.453   97.493
