~V
VERS. 2.00: Ver 2.00
WRAP. NO:
VEND. PRIZM:GeoGraphix
~W
STRT.M 125.0000:START DEPTH
STOP.M 325.0000:STOP DEPTH
STEP.M 0.2500:STEP
NULL. -999.2500:NULL VALUE
WELL. 00/06-21-082-05W4/0 :WELL
COMP. :COMPANY
UWI. 00_06-21-082-05W4_0:UNIQUE WELL ID
FLD. :FIELD
CNTY. :COUNTY
STAT. :STATE
CTRY. :COUNTRY
PDAT. :PERMANENT DATUM
LMF. :LOG MEASURED FROM
DMF. :DRILLING MEASURED FROM
LOC1. :LOCATION LINE 1
LOC2. :LOCATION LINE 2
LOC3. :LOCATION LINE 3
SEC. :SECTION
TWP. :TOWNSHIP
RAN. :RANGE
SRVC. :Logging Company
BASE. :Logging Unit Location
ENG. :Logging Engineer
WITN. :Witnessed By
RUN. :Run No.
MUD_TYPE. :Type Fluid in Hole
MUDS. :Source of Mud Sample
RMFS. :Source of Mud Filtrate
RMCS. :Source of Mud Cake
LOC. :LOCATION
DATE. :LOG DATE
~C
DEPT.M :DEPTH
NPHI. :NPHI
GR.API :GR
DPHI. :Created by graphical digitiser entry.
ILD.Ohmm :ILD
~P
EKB. -999.2500:ELEVATION OF KELLY BUSHING
EDF. -999.2500:ELEVATION OF DRILLING FLOOR
EGL. -999.2500:ELEVATION OF GROUND LEVEL
EPD. -999.2500:ELEVATION OF PERMANENT DATUM
APD. -999.2500:LMF DISTANCE ABOVE PERMANENT DATUM
LAT. -999.2500:LATITUDE OF WELL LOCATION
LONG. -999.2500:LONGITUDE OF WELL LOCATION
TDD. -999.2500:Total Depth Driller
TDL. -999.2500:Total Depth Logger
LCSG1. -999.2500:Depth of Casing from Logger
CSIZE. -999.2500:Casing Size
CWT. -999.2500:Casing Weight
BS. -999.2500:Bit Size
TLI. 125.1000:Top Logged Interval
BLI. 324.9000:Bottom Logged Interval
MRT. 0.0000:Maximum Recorded Temperature
WMUD. -999.2500:Drilling Mud Density
DFV. -999.2500:Drilling Mud Viscosity
PH. -999.2500:Drilling Mud pH
DFL. -999.2500:Drilling Mud Fluid Loss
RM. -999.2500:Resistivity of Drilling Fluid
RMT. -999.2500:Measured Temp. of Drilling Fluid
RMF. -999.2500:Resistivity of Drilling Fluid Filtrate
RMFT. -999.2500:Measured Temp. of Drilling Fluid Filtrate
RMC. -999.2500:Resistivity of Mud Cake
RMCT. -999.2500:Measured Temp. of Mud Cake
PHImax.V/V 0.3900:Maximum allowable Porosity
RwBnd.OHMM 0.1500:Bound Water Resistivity
RhoHy.KG/MT 1000.0000:Hydrocarbon Bulk density
SwCutoff.V/V 0.7000:Water Saturation Cutoff
PHINsh.V/V 0.4800:New Description
Rw.OHMM 1.0000:Formation Water Resistivity
Rshl.OHMM 5.0000:Resistivity shale
Trw.DEGC 25.0000:Rw measured at Lab conditions
ShaleCutoff.V/V 0.4000:New Description
GRcln.API 45.0000:Gamma Ray clean
RhoM.KG/MT 2650.0000:Bulk Density Matrix
GRshl.API 90.0000:Gamma Ray shale
m. 2.0000:Archie "m"
n. 2.0000:Archie "n"
GasTol.V/V 0.0500:Gas Tollerance
BHTemp.DEGC 25.0000:Bottom Hole Temperature
BHTDepth.M 1000.0000:Bottom Hole Depth
PHIDsh.US/MT 0.1800:New Description
a. 1.0000:Archie "a"
Gas Tol.V/V 0.0500:Gas Tollerance
RhoF.KG/MT 1000.0000:Bulk Density Fluid
RhoShl.KG/MT 2300.0000:Bulk Density Shale
TarCutoff.V/V 0.0300:New Description
SurfTemp.DEGC 10.0000:New Description
HIshl.V/V 0.4000:Neutron Hydrogen Index shale
NULL. -999.2500:
~A
# ...
  303.7500     0.1874    40.2792     0.0023    25.5211 
  304.0000     0.1659    37.5298     0.0081    27.1941 
  304.2500     0.1516    37.8496     0.0156    29.6554 
  304.5000     0.1750    42.4086     0.0186    31.7748 
  304.7500     0.1938    41.6601     0.0212    33.6285 
  305.0000     0.1774    36.1481     0.0210    35.2521 
  305.2500     0.1564    32.7963     0.0162    36.7001 
  305.5000     0.1476    33.1708     0.0119    37.8393 
  305.7500     0.1564    36.3238     0.0142    38.2595 
  306.0000     0.1781    41.6386     0.0239    37.1841 
  306.2500     0.1900    45.4742     0.0171    34.0736 
  306.5000     0.1952    45.7245     0.0077    31.3368 
  306.7500     0.1903    43.2286     0.0049    30.4894 
  307.0000     0.1815    39.3544     0.0103    31.3749 
  307.2500     0.1753    35.6302     0.0174    33.0801 
  307.5000     0.1709    33.3767     0.0131    34.8520 
  307.7500     0.1685    33.8731     0.0022    36.3903 
  308.0000     0.1681    34.7861     0.0000    37.7698 
  308.2500     0.1709    35.7934     0.0003    38.7481 
  308.5000     0.1750    36.3992     0.0028    39.3587 
  308.7500     0.1763    36.0066     0.0082    39.8745 
  309.0000     0.1676    33.9884     0.0142    40.7717 
  309.2500     0.1584    30.6636     0.0079    42.1404 
  309.5000     0.1559    28.8410     0.0022    43.4104 
  309.7500     0.1551    28.6379     0.0000    44.5014 
  310.0000     0.1534    28.8091     0.0000    45.4805 
  310.2500     0.1507    28.1813     0.0000    46.4562 
  310.5000     0.1497    27.0868     0.0000    47.4714 
  310.7500     0.1485    27.9666     0.0000    48.4802 
  311.0000     0.1476    29.7397     0.0000    48.8348 
  311.2500     0.1486    32.3587     0.0000    48.2080 
  311.5000     0.1515    35.7779     0.0000    46.7410 
  311.7500     0.1561    39.9167     0.0000    44.6418 
  312.0000     0.1636    44.6224     0.0000    41.7840 
  312.2500     0.1744    50.9687     0.0000    37.3577 
  312.5000     0.1921    58.6053     0.0000    30.0830 
  312.7500     0.2217    67.8340     0.0010    22.4531 
  313.0000     0.2553    77.3347     0.0060    16.9307 
  313.2500     0.2838    85.5723     0.0187    14.6109 
  313.5000     0.3096    92.2030     0.0413    13.8835 
  313.7500     0.3113    95.1344     0.0555    13.5957 
  314.0000     0.2991    91.4551     0.0508    13.7485 
  314.2500     0.2826    86.8417     0.0405    14.4096 
  314.5000     0.2668    85.5870     0.0330    15.2134 
  314.7500     0.2620    89.1680     0.0321    15.6914 
  315.0000     0.2939    94.8137     0.0371    15.6038 
  315.2500     0.3192    99.4611     0.0446    15.1252 
  315.5000     0.3218   102.3485     0.0496    14.3513 
  315.7500     0.3256   103.7506     0.0495    13.5910 
  316.0000     0.3381   104.2463     0.0537    12.9402 
  316.2500     0.3543   104.6112     0.0682    12.3908 
  316.5000     0.3619   105.7109     0.0811    11.9395 
  316.7500     0.3436   105.7671     0.0851    11.7529 
  317.0000     0.3212   103.0036     0.0844    11.5971 
  317.2500     0.3016    98.8365     0.0772    11.5250 
  317.5000     0.2940    96.6031     0.0695    11.6288 
  317.7500     0.3040    98.4223     0.0659    11.9446 
  318.0000     0.3276   102.0551     0.0591    12.3566 
  318.2500     0.3077    99.3539     0.0502    12.9204 
  318.5000     0.2819    90.1701     0.0381    13.7783 
  318.7500     0.2576    77.9919     0.0279    14.8955 
  319.0000     0.2510    70.4511     0.0223    16.3160 
  319.2500     0.2684    71.4574     0.0227    18.0796 
  319.5000     0.2873    73.3316     0.0310    20.1372 
  319.7500     0.2718    69.2734     0.0338    22.7580 
  320.0000     0.2556    64.0873     0.0180    25.8069 
  320.2500     0.2422    58.1023     0.0049    29.3004 
  320.5000     0.2269    51.7241     0.0000    33.0669 
  320.7500     0.2050    45.3607     0.0000    36.7668 
  321.0000     0.1794    39.3483     0.0000    39.9120 
  321.2500     0.1666    36.1574     0.0000    41.2598 
  321.5000     0.1642    37.4760     0.0000    39.7674 
  321.7500     0.1676    41.6099     0.0000    36.4428 
  322.0000     0.1784    46.3483     0.0021    32.8023 
  322.2500     0.1966    49.4800     0.0080    30.3147 
  322.5000     0.2134    49.3110     0.0164    29.8468 
  322.7500     0.1962    46.1567     0.0089    30.7782 
  323.0000     0.1834    43.5641     0.0025    31.8150 
  323.2500     0.1804    42.7114     0.0000    32.9416 
  323.5000     0.1834    43.9687     0.0000    33.9653 
  323.7500     0.1872    47.0243     0.0004    34.5120 
  324.0000  -999.2500    51.0128     0.0024    34.0213 
  324.2500  -999.2500    54.5781     0.0087    31.9634 
  324.5000  -999.2500    58.9070     0.0150    27.5564 
  324.7500  -999.2500    66.6720     0.0238    21.8017 
  325.0000  -999.2500  -999.2500  -999.2500  -999.2500 
