~VERSION INFORMATION
 VERS.                 2.0:   CWLS LOG ASCII STANDARD -VERSION 2.0
 WRAP.                  NO:   ONE LINE PER DEPTH STEP
~WELL INFORMATION BLOCK
#MNEM.UNIT           DATA                    DESCRIPTION OF MNEMONIC
#---------    -------------------            -------------------------------
# Generated from Intellog Unique Number	CX_WELLS/WELL/3254
WELL.         PAPA ET AL GRANOR              : Well_name    - WELL
LOC .         00/06-31-083-17W4/0            : Location     - LOCATION
UWI .         00/06-31-083-17W400            : Uwi          - UNIQUE WELL ID
ENTR.         T                              : Entered      - ENTERED BY
SRVC.         SCHLUMBERGER                   : Scn          - SERVICE COMPANY
STRT.M        100                            : top_depth    - START DEPTH
STOP.M        285                            : bot_depth    - STOP DEPTH
STEP.M        0.25                           : increment    - STEP LENGTH
 NULL. -999.2500:NULL Value
~CURVE INFORMATION BLOCK
#MNEM UNIT       ERCB CURVE CODE    CURVE DESCRIPTION
#-----------   ------------------   ----------------------------------
DEPT.M        00 001 00 00         : DEPTH        - DEPTH
GR  .API      00 310 00 00         : GR           - GAMMA RAY
NPHI.V/V      00 330 00 00         : PHIN         - NEUTRON POROSITY (SANDSTONE)
DPHI.V/V      00 890 00 00         : PHID         - DENSITY POROSITY (SANDSTONE)
ILD .OHMM     00 120 00 00         : RESD         - DEEP RESISTIVITY (DIL)
~PARAMETER INFORMATION
#MNEM.UNIT           DATA             DESCRIPTION OF MNEMONIC
#---------         -----------     ------------------------------
GL  .M        537.8                : gl           - GROUND LEVEL ELEVATION
EREF.M        541.4                : kb           - ELEVATION OF DEPTH REFERENCE
DATM.M        541.4                : datum        - DATUM ELEVATION
TDD .M        285                  : tdd          - TOTAL DEPTH DRILLER
RUN .         ONE                  : Run          - RUN NUMBER
ENG .         BILL                 : Engineer     - RECORDING ENGINEER
WIT .         JIM                  : Witness      - WITNESSED BY
MUD .         GEL                  : Mud_type     - MUD TYPE
MATR.         SANDSTONE            : Logunit      - NEUTRON MATRIX
TMAX.C        22                   : BHT          - MAXIMUM RECORDED TEMPERATURE
BHTD.M        285                  : BHTDEP       - MAXIMUM RECORDED TEMPERATURE
MATR.         1                    : LOGUNIT      - NEUTRON MATRIX
RMT .C        20                   : MDTP         - TEMPERATURE OF MUD
NEUT.         1                    : NEUTRON      - NEUTRON TYPE
RESI.         5.5                  : RESIST       - RESISTIVITY TYPE
RMC .OHMM     4.4                  : RMC          - RESISTIVITY OF MUD CAKE
RMF .OHMM     7                    : RMF          - RESISTIVITY OF MUD FILTRATE
SUFT.C        4                    : SUFT         - SURFACE TEMPERATURE
~A  DEPTH       GR     PHIN     PHID     RESD
# ...
  230.500   90.885    0.443    0.206    9.291
  230.750   88.548    0.429    0.212   10.037
  231.000   87.978    0.396    0.217   10.641
  231.250   86.240    0.371    0.214   10.662
  231.500   89.304    0.367    0.208   10.483
  231.750   92.966    0.377    0.197   10.115
  232.000   94.818    0.386    0.171    9.582
  232.250   96.671    0.386    0.160    9.241
  232.500   98.523    0.382    0.164    9.086
  232.750  100.959    0.387    0.166    8.771
  233.000  102.812    0.389    0.171    8.784
  233.250  104.066    0.394    0.167    8.809
  233.500  102.955    0.425    0.138    8.818
  233.750  102.385    0.430    0.120    8.839
  234.000  101.259    0.407    0.105    8.860
  234.250  101.901    0.396    0.125    8.873
  234.500  104.964    0.391    0.151    8.886
  234.750  107.401    0.388    0.181    8.745
  235.000  109.866    0.389    0.181    8.754
  235.250  110.507    0.394    0.175    8.607
  235.500  110.564    0.394    0.166    8.623
  235.750  111.220    0.395    0.157    8.644
  236.000  112.488    0.399    0.161    8.661
  236.250  113.728    0.408    0.176    8.673
  236.500  116.777    0.454    0.182    8.690
  236.750  120.453    0.474    0.188    8.715
  237.000  122.306    0.475    0.193    8.727
  237.250  122.961    0.466    0.191    9.084
  237.500  121.807    0.466    0.189    9.447
  237.750  118.259    0.462    0.182   10.206
  238.000  114.127    0.431    0.180   10.820
  238.250  107.003    0.419    0.171   11.267
  238.500  101.091    0.386    0.144   11.068
  238.750  104.724    0.388    0.141   10.882
  239.000  108.372    0.391    0.165   10.694
  239.250  109.626    0.394    0.177   10.329
  239.500  109.084    0.396    0.189   10.146
  239.750  107.959    0.388    0.195   10.170
  240.000  106.819    0.356    0.200   10.389
  240.250  105.665    0.347    0.204   10.601
  240.500  103.941    0.340    0.215   10.819
  240.750  103.984    0.336    0.220   11.480
  241.000  102.859    0.336    0.225   11.721
  241.250  102.902    0.337    0.227   11.961
  241.500  101.178    0.339    0.232   11.984
  241.750  100.024    0.343    0.233   12.013
  242.000   97.687    0.370    0.226   12.042
  242.250   94.738    0.373    0.198   12.059
  242.500   92.401    0.382    0.171   12.077
  242.750   91.261    0.376    0.186   12.106
  243.000   89.538    0.377    0.216   12.129
  243.250   88.982    0.379    0.236   12.153
  243.500   86.674    0.385    0.247   12.176
  243.750   84.921    0.393    0.242   12.194
  244.000   82.599    0.404    0.231   12.001
  244.250   82.656    0.415    0.203   12.018
  244.500   82.699    0.429    0.187   11.811
  244.750   83.968    0.426    0.217   11.624
  245.000   84.594    0.401    0.228   11.640
  245.250   86.461    0.388    0.224   11.657
  245.500   87.102    0.391    0.230   11.462
  245.750   86.561    0.400    0.235   11.708
  246.000   84.837    0.408    0.234   12.412
  246.250   83.698    0.414    0.216   13.664
  246.500   83.142    0.415    0.191   15.321
  246.750   82.615    0.410    0.173   17.531
  247.000   82.658    0.405    0.129   18.930
  247.250   82.159    0.395    0.111   17.924
  247.500   82.202    0.278    0.092   16.040
  247.750   82.245    0.240    0.081   14.619
  248.000   82.886    0.264    0.075   13.088
  248.250   84.753    0.294    0.082   12.162
  248.500   88.400    0.325    0.103   11.521
  248.750   90.253    0.341    0.128   11.106
  249.000   90.894    0.372    0.152   10.915
  249.250   90.966    0.400    0.171   10.536
  249.500   91.008    0.407    0.185   10.557
  249.750   91.678    0.415    0.182   10.375
  250.000   92.932    0.420    0.188   10.399
  250.250   92.989    0.391    0.196   10.425
  250.500   90.638    0.381    0.201   10.440
  250.750   87.105    0.374    0.200   10.068
  251.000   87.177    0.375    0.193    9.715
  251.250   87.818    0.385    0.185    9.207
  251.500   89.670    0.400    0.186    9.049
  251.750   90.326    0.411    0.187    8.897
  252.000   88.602    0.420    0.188    8.748
  252.250   87.448    0.425    0.150    8.764
  252.500   85.126    0.423    0.134    8.781
  252.750   88.175    0.417    0.141    8.477
  253.000   91.210    0.418    0.171    8.171
  253.250   97.251    0.421    0.184    7.597
  253.500  101.526    0.423    0.192    7.062
  253.750  102.153    0.424    0.195    6.937
  254.000  102.823    0.419    0.186    6.329
  254.250  104.091    0.410    0.172    6.104
  254.500  105.373    0.404    0.149    5.782
  254.750  106.613    0.406    0.147    5.682
  255.000  106.642    0.408    0.156    5.593
  255.250  108.508    0.411    0.169    5.598
  255.500  109.178    0.413    0.174    5.609
  255.750  109.207    0.414    0.174    5.838
  256.000  107.468    0.420    0.168    5.958
  256.250  103.949    0.428    0.160    6.319
  256.500  102.183    0.429    0.142    6.571
  256.750   98.649    0.394    0.088    7.234
  257.000   94.517    0.390    0.059    8.269
  257.250   94.589    0.360    0.037   10.193
  257.500   98.251    0.331    0.065   12.569
  257.750  100.075    0.317    0.072   15.204
  258.000  102.525    0.357    0.101   15.825
  258.250  103.794    0.369    0.132   14.985
  258.500  103.836    0.378    0.170   14.726
  258.750  102.711    0.389    0.171   14.223
  259.000  100.959    0.390    0.175   14.243
  259.250   95.630    0.324    0.198   14.535
  259.500   87.309    0.280    0.218   15.425
  259.750   82.564    0.248    0.241   16.040
  260.000   74.244    0.228    0.267   16.680
  260.250   65.324    0.193    0.288   17.692
  260.500   58.215    0.176    0.298   18.397
  260.750   55.864    0.177    0.300   19.140
  261.000   55.337    0.180    0.301   19.542
  261.250   55.365    0.191    0.301   18.865
  261.500   56.619    0.216    0.301   18.194
  261.750   59.099    0.238    0.303   16.598
  262.000   59.740    0.266    0.303   15.716
  262.250   60.395    0.269    0.303   14.882
  262.500   61.664    0.294    0.298   13.828
  262.750   61.735    0.297    0.293   12.849
  263.000   62.362    0.312    0.283   11.940
  263.250   66.010    0.337    0.270   11.509
  263.500   72.051    0.369    0.253   10.700
  263.750   78.705    0.392    0.237    9.942
  264.000   82.339    0.393    0.222    9.775
  264.250   85.986    0.380    0.208    9.432
  264.500   91.444    0.371    0.192    8.764
  264.750   96.901    0.371    0.178    7.839
  265.000  101.147    0.456    0.170    5.921
  265.250  102.985    0.484    0.170    5.200
  265.500  104.837    0.496    0.171    4.832
  265.750  104.895    0.453    0.172    4.575
  266.000  104.952    0.443    0.175    4.332
  266.250  105.009    0.453    0.178    4.178
  266.500  103.271    0.457    0.181    4.033
  266.750  100.948    0.433    0.177    4.116
  267.000   98.028    0.420    0.169    4.365
  267.250   96.859    0.419    0.164    4.455
  267.500   94.523    0.427    0.150    4.635
  267.750   95.777    0.420    0.145    4.916
  268.000   99.424    0.399    0.173    4.836
  268.250  104.867    0.394    0.189    4.661
  268.500  110.923    0.402    0.196    4.334
  268.750  112.191    0.413    0.200    4.179
  269.000  111.621    0.419    0.197    4.187
  269.250  108.088    0.429    0.192    4.275
  269.500  104.554    0.458    0.183    4.619
  269.750   98.029    0.470    0.167    5.380
  270.000   92.700    0.451    0.143    7.154
  270.250   86.759    0.446    0.149    8.818
  270.500   86.816    0.440    0.156   10.271
  270.750   92.872    0.440    0.165   11.523
  271.000   93.527    0.432    0.174   11.118
  271.250   90.578    0.403    0.187   10.727
  271.500   87.643    0.369    0.200   11.373
  271.750   83.525    0.360    0.207   12.526
  272.000   83.582    0.361    0.212   13.532
  272.250   84.224    0.365    0.213   15.188
  272.500   85.492    0.374    0.215   16.712
  272.750   86.133    0.367    0.220   17.062
  273.000   89.182    0.366    0.225   14.429
  273.250   91.633    0.366    0.228   12.209
  273.500   96.492    0.373    0.228   11.780
  273.750   97.162    0.369    0.224   12.495
