~VERSION INFORMATION
 VERS.                 2.0:   CWLS LOG ASCII STANDARD -VERSION 2.0
 WRAP.                  NO:   ONE LINE PER DEPTH STEP
~WELL INFORMATION BLOCK
#MNEM.UNIT           DATA                    DESCRIPTION OF MNEMONIC
#---------    -------------------            -------------------------------
# Generated from Intellog Unique Number	CW_82_90/WELL/619
WELL.         07-11-082-25W4                 : Well_name    - WELL
LOC .         00/07-11-082-25W4/0            : Location     - LOCATION
UWI .         00/07-11-082-25W4/0            : Uwi          - UNIQUE WELL ID
ENTR.         JAYE                           : Entered      - ENTERED BY
SRVC.         SCHLUMBERGER                   : Scn          - SERVICE COMPANY
DATE.         10 MAR 77                      : Date         - LOG DATE
STRT.M        225.552                        : top_depth    - START DEPTH
STOP.M        450.802                        : bot_depth    - STOP DEPTH
STEP.M        0.25                           : increment    - STEP LENGTH
 NULL. -999.2500:NULL Value
~CURVE INFORMATION BLOCK
#MNEM UNIT       ERCB CURVE CODE    CURVE DESCRIPTION
#-----------   ------------------   ----------------------------------
DEPT.M        00 001 00 00         : DEPTH        - DEPTH
CALI.MM       00 280 01 00         : CAL          - CALIPER
GR  .API      00 310 00 00         : GR           - GAMMA RAY
NPHI.V/V      00 330 00 00         : PHIN         - NEUTRON POROSITY (SANDSTONE)
DPHI.V/V      00 890 00 00         : PHID         - DENSITY POROSITY (SANDSTONE)
ILD .OHMM     00 120 00 00         : RESD         - DEEP RESISTIVITY (DIL)
~PARAMETER INFORMATION
#MNEM.UNIT           DATA             DESCRIPTION OF MNEMONIC
#---------         -----------     ------------------------------
GL  .M        580.339              : gl           - GROUND LEVEL ELEVATION
EREF.M        583.387              : kb           - ELEVATION OF DEPTH REFERENCE
DATM.M        580.339              : datum        - DATUM ELEVATION
TDD .M        452.933              : tdd          - TOTAL DEPTH DRILLER
RUN .         ONE                  : Run          - RUN NUMBER
BASE.         EDMONTON             : Branch       - HOME BASE OF LOGGING UNIT
MATR.         SANDSTONE            : Logunit      - NEUTRON MATRIX
TMAX.C        17.2222              : BHT          - MAXIMUM RECORDED TEMPERATURE
BHTD.M        452.933              : BHTDEP       - MAXIMUM RECORDED TEMPERATURE
RMT .C        9.44444              : MDTP         - TEMPERATURE OF MUD
MUDD.KG/M     1100                 : MWT          - MUD DENSITY
NEUT.         1                    : NEUTRON      - NEUTRON TYPE
RESI.         0                    : RESIST       - RESISTIVITY TYPE
RM  .OHMM     6.3                  : RM           - RESISTIVITY OF MUD
RMC .OHMM     0.25                 : RMC          - RESISTIVITY OF MUD CAKE
RMF .OHMM     0.25                 : RMF          - RESISTIVITY OF MUD FILTRATE
SUFT.C        4                    : SUFT         - SURFACE TEMPERATURE
~A  DEPTH      CAL       GR     PHIN     PHID     RESD
# ...
  335.052  167.105   98.090    0.411    0.277   14.908
  335.302  167.023   98.543    0.429    0.247   14.872
  335.552  166.301   99.309    0.449    0.245   14.230
  335.802  165.793   96.497    0.459    0.249   12.960
  336.052  165.923   97.203    0.469    0.236   12.350
  336.302  165.945   97.655    0.472    0.234   12.248
  336.552  165.650   96.603    0.466    0.248   12.292
  336.802  165.358   95.549    0.449    0.240   12.531
  337.052  165.270   94.807    0.453    0.237   12.877
  337.302  165.187   90.616    0.473    0.244   13.549
  337.552  165.318   91.006    0.488    0.275   14.202
  337.802  165.233   95.225    0.483    0.218   14.855
  338.052  166.218   92.477    0.410    0.191   15.295
  338.302  167.093   86.902    0.368    0.155   15.626
  338.552  167.323   82.081    0.337    0.051   16.248
  338.802  167.031   83.350    0.301    0.053   16.532
  339.052  166.520   86.377    0.291    0.090   16.360
  339.302  166.968   93.612    0.315    0.140   15.656
  339.552  168.055   95.384    0.333    0.207   13.705
  339.802  167.977   89.118    0.436    0.235   10.867
  340.052  167.464   90.953    0.488    0.246    9.683
  340.302  167.168   91.846    0.477    0.254    9.174
  340.552  167.723   92.675    0.463    0.263    9.062
  340.802  168.172   92.690    0.465    0.254    9.074
  341.052  168.511   93.896    0.464    0.242    9.307
  341.302  168.429   96.861    0.450    0.245    9.794
  341.552  168.451   99.575    0.435    0.249   10.184
  341.802  168.157  102.476    0.426    0.242   10.403
  342.052  168.071  107.012    0.429    0.255   10.646
  342.302  168.094  110.038    0.433    0.248   10.769
  342.552  168.015  112.816    0.436    0.223   10.957
  342.802  167.610  111.635    0.456    0.217   11.193
  343.052  167.634  107.378    0.455    0.221   11.479
  343.302  167.341  106.576    0.437    0.213   11.634
  343.552  167.045  108.222    0.437    0.216   11.674
  343.802  167.172  111.313    0.442    0.221   11.646
  344.052  168.047  109.317    0.444    0.230   11.502
  344.302  169.025  102.989    0.445    0.240   11.361
  344.552  170.855  106.644    0.441    0.235   11.131
  344.802  171.304  110.740    0.444    0.245   10.995
  345.052  171.328  113.893    0.439    0.241   10.753
  345.302  171.351  117.486    0.440    0.247   10.454
  345.552  171.585  115.363    0.449    0.236   10.184
  345.802  172.141  115.754    0.450    0.229   10.098
  346.052  172.698  112.818    0.438    0.224   10.336
  346.302  172.719  110.256    0.431    0.212   10.621
  346.552  172.746  112.216    0.431    0.199   10.743
  346.802  172.977  116.626    0.441    0.195   10.802
  347.052  173.425  119.527    0.460    0.182   10.711
  347.302  174.298  118.662    0.467    0.195   10.412
  347.552  175.279  119.742    0.468    0.206   10.103
  347.802  176.581  119.821    0.466    0.211   10.239
  348.052  175.645  115.186    0.461    0.207   10.774
  348.302  172.800  110.805    0.429    0.210   11.656
  348.552  170.480  101.965    0.372    0.208   12.561
  348.802  167.956  103.988    0.363    0.275   14.110
  349.052  166.916  104.441    0.382    0.292   15.570
  349.302  166.194  102.384    0.403    0.269   17.353
  349.552  165.365   98.379    0.368    0.291   19.111
  349.802  164.648  102.096    0.354    0.305   20.552
  350.052  164.453  109.518    0.365    0.291   21.842
  350.302  163.946  103.505    0.357    0.260   23.350
  350.552  163.754   93.975    0.357    0.289   24.620
  350.802  163.883   91.728    0.350    0.286   25.754
  351.052  165.396   90.423    0.336    0.225   26.994
  351.302  165.630   86.607    0.331    0.192   28.351
  351.552  164.911   82.978    0.326    0.098   29.364
  351.802  164.615   83.746    0.315    0.156   26.217
  352.052  163.470   88.217    0.384    0.192   21.076
  352.302  163.277   99.846    0.432    0.211   19.195
  352.552  163.195   98.605    0.420    0.214   18.440
  352.802  163.112   98.116    0.398    0.195   18.799
  353.052  163.561   94.551    0.390    0.153   19.319
  353.302  164.543   92.116    0.301    0.107   20.288
  353.552  165.413   92.822    0.311    0.165   21.182
  353.802  165.331   98.924    0.383    0.203   21.939
  354.052  164.609  102.014    0.407    0.202   22.322
  354.302  164.421  100.458    0.391    0.177   20.369
  354.552  164.659  100.785    0.372    0.159   17.794
  354.802  164.680  104.316    0.421    0.191   16.596
  355.052  164.810  102.508    0.450    0.215   15.661
  355.302  165.047  103.339    0.440    0.200   15.408
  355.552  165.281   99.962    0.405    0.123   15.524
  355.802  165.412   97.151    0.336    0.105   16.334
  356.052  165.753   93.774    0.312    0.104   17.989
  356.302  165.882   96.298    0.349    0.124   19.043
  356.552  166.222  106.421    0.382    0.173   19.569
  356.802  167.207  111.585    0.426    0.235   18.540
  357.052  167.545  113.042    0.445    0.228   16.456
  357.302  167.887  112.929    0.436    0.210   14.898
  357.552  167.170  111.687    0.424    0.209   13.921
  357.802  166.445  115.091    0.445    0.209   13.507
  358.052  166.255  115.042    0.451    0.213   13.314
  358.302  166.811  112.042    0.440    0.220   13.547
  358.552  167.367  113.122    0.427    0.204   13.812
  358.802  168.131  118.222    0.435    0.196   14.165
  359.052  169.223  118.236    0.426    0.200   14.384
  359.302  169.560  114.608    0.414    0.174   14.376
  359.552  169.158  111.924    0.421    0.170   14.370
  359.802  168.649  114.949    0.436    0.202   14.137
  360.052  167.506  112.827    0.460    0.199   13.879
  360.302  167.206  111.523    0.447    0.190   13.845
  360.552  167.657  112.919    0.427    0.191   13.648
  360.802  168.635  113.810    0.416    0.186   13.642
  361.052  170.149  112.694    0.433    0.168   13.580
  361.302  170.921  110.513    0.449    0.158   13.521
  361.552  170.621  110.272    0.431    0.155   13.487
  361.802  169.153  110.789    0.415    0.173   13.453
  362.052  170.349  112.748    0.428    0.187   13.394
  362.302  172.605  118.413    0.445    0.179   13.335
  362.552  174.007  120.624    0.464    0.193   13.328
  362.802  173.818  119.758    0.482    0.191   13.295
  363.052  170.012  115.503    0.470    0.177   13.473
  363.302  166.315  110.745    0.419    0.204   14.319
  363.552  164.319  106.803    0.369    0.253   15.523
  363.802  163.279  103.677    0.359    0.230   16.661
  364.052  162.878  101.744    0.363    0.211   18.864
  364.302  163.646   98.556    0.362    0.227   20.168
  364.552  163.986   91.914    0.343    0.270   22.926
  364.802  164.434   89.855    0.336    0.269   25.598
  365.052  165.628   89.996    0.338    0.271   27.421
  365.302  166.717   93.901    0.336    0.271   29.028
  365.552  166.949   96.677    0.340    0.268   29.130
  365.802  166.334   99.266    0.341    0.273   25.803
  366.052  165.293  103.423    0.331    0.263   24.594
  366.302  165.318  106.073    0.345    0.262   24.482
  366.552  165.447  101.818    0.347    0.281   25.109
  366.802  165.790   97.122    0.323    0.299   26.633
  367.052  166.235   89.226    0.303    0.313   30.154
  367.302  166.897   88.298    0.281    0.260   33.012
  367.552  167.771   89.817    0.305    0.212   35.712
  367.802  168.113   86.314    0.329    0.145   38.794
  368.052  167.392   77.663    0.311    0.013   42.386
  368.302  166.245   73.030    0.257    0.009   43.729
  368.552  165.844   59.733    0.190    0.011   47.873
  368.802  165.974   59.558    0.182    0.022   54.419
  369.052  166.851   66.918    0.192    0.037   62.600
  369.302  166.657   73.463    0.219    0.058   73.890
  369.552  164.978   82.391    0.268    0.106   69.046
  369.802  163.835   96.909    0.347    0.148   41.740
  370.052  163.749  101.758    0.380    0.209   27.860
  370.302  164.517  101.897    0.402    0.227   23.908
  370.552  165.603  105.364    0.415    0.198   19.070
  370.802  166.054  112.849    0.423    0.177   17.997
  371.052  166.395  100.117    0.402    0.144   19.011
  371.302  166.736   91.528    0.338    0.073   20.569
