~VERSION INFORMATION
 VERS.                 2.0:   CWLS LOG ASCII STANDARD -VERSION 2.0
 WRAP.                  NO:   ONE LINE PER DEPTH STEP
~WELL INFORMATION BLOCK
#MNEM.UNIT           DATA                    DESCRIPTION OF MNEMONIC
#---------    -------------------            -------------------------------
# Generated from Intellog Unique Number	CW_79_81/WELL/2460
WELL.         GULF PELICAN                   : Well_name    - WELL
LOC .         00/07-21-081-21W4/0            : Location     - LOCATION
UWI .         00/07-21-081-21W4/0            : Uwi          - UNIQUE WELL ID
ENTR.         MAX                            : Entered      - ENTERED BY
SRVC.         SCHLUMBERGER                   : Scn          - SERVICE COMPANY
STRT.M        185                            : top_depth    - START DEPTH
STOP.M        429.75                         : bot_depth    - STOP DEPTH
STEP.M        0.25                           : increment    - STEP LENGTH
 NULL. -999.2500:NULL Value
~CURVE INFORMATION BLOCK
#MNEM UNIT       ERCB CURVE CODE    CURVE DESCRIPTION
#-----------   ------------------   ----------------------------------
DEPT.M        00 001 00 00         : DEPTH        - DEPTH
ILD .OHMM     00 120 00 00         : RESD         - DEEP RESISTIVITY (DIL)
NPHI.V/V      00 330 00 00         : PHIN         - NEUTRON POROSITY (SANDSTONE)
DPHI.V/V      00 890 00 00         : PHID         - DENSITY POROSITY (SANDSTONE)
GR  .API      00 310 00 00         : GR           - GAMMA RAY
CALI.MM       00 280 01 00         : CAL          - CALIPER
~PARAMETER INFORMATION
#MNEM.UNIT           DATA             DESCRIPTION OF MNEMONIC
#---------         -----------     ------------------------------
GL  .M        613.45               : gl           - GROUND LEVEL ELEVATION
EREF.M        616.75               : kb           - ELEVATION OF DEPTH REFERENCE
DATM.M        613.45               : datum        - DATUM ELEVATION
TDD .M        432                  : tdd          - TOTAL DEPTH DRILLER
RUN .         ONE                  : Run          - RUN NUMBER
ENG .         BILL                 : Engineer     - RECORDING ENGINEER
WIT .         JIM                  : Witness      - WITNESSED BY
MUD .         GEL                  : Mud_type     - MUD TYPE
MATR.         SANDSTONE            : Logunit      - NEUTRON MATRIX
TMAX.C        19.4                 : BHT          - MAXIMUM RECORDED TEMPERATURE
BHTD.M        432                  : BHTDEP       - MAXIMUM RECORDED TEMPERATURE
MATR.         1                    : LOGUNIT      - NEUTRON MATRIX
RMT .C        17.8                 : MDTP         - TEMPERATURE OF MUD
NEUT.         1                    : NEUTRON      - NEUTRON TYPE
RESI.         0                    : RESIST       - RESISTIVITY TYPE
RMC .OHMM     2.81                 : RMC          - RESISTIVITY OF MUD CAKE
RMF .OHMM     2.05                 : RMF          - RESISTIVITY OF MUD FILTRATE
SUFT.C        -20                  : SUFT         - SURFACE TEMPERATURE
~A  DEPTH     RESD     PHIN     PHID       GR      CAL
  185.000    4.553    0.504    0.238  109.673  227.661
  185.250    5.485    0.451    0.239  106.412  228.069
  185.500    5.845    0.437    0.235  102.510  228.142
  185.750    5.932    0.446    0.238  100.461  226.929
  186.000    5.866    0.464    0.247  101.476  224.917
  186.250    5.536    0.469    0.253  105.335  224.772
  186.500    5.172    0.485    0.256  107.832  228.098
  186.750    4.733    0.512    0.252  108.788  226.087
  187.000    4.309    0.516    0.251  109.383  224.374
  187.250    4.070    0.507    0.251  109.737  223.563
  187.500    4.011    0.496    0.251  108.709  223.452
  187.750    4.214    0.494    0.249  102.643  222.872
  188.000    5.362    0.481    0.245   96.377  222.028
  188.250    7.100    0.413    0.230   80.265  220.814
  188.500    8.935    0.379    0.228   66.858  219.902
  188.750   11.465    0.368    0.239   55.073  219.290
  189.000   15.492    0.370    0.260   45.572  218.979
  189.250   19.335    0.380    0.285   40.757  219.052
  189.500   19.782    0.400    0.296   40.750  219.460
  189.750   15.438    0.403    0.305   43.148  219.850
  190.000   11.429    0.413    0.314   47.890  219.639
  190.250    8.249    0.428    0.314   55.216  220.230
  190.500    6.339    0.443    0.300   62.181  221.723
  190.750    5.762    0.449    0.263   61.351  222.746
  191.000    6.672    0.426    0.257   54.835  221.899
  191.250    9.255    0.363    0.251   43.050  220.286
  191.500   13.834    0.345    0.243   33.069  219.274
  191.750   19.463    0.341    0.247   26.331  219.265
  192.000   22.140    0.337    0.267   23.501  220.458
  192.250   22.292    0.344    0.303   25.106  222.599
  192.500   21.462    0.360    0.312   28.354  221.334
  192.750   20.234    0.396    0.309   31.713  220.924
  193.000   20.166    0.412    0.322   33.090  222.017
  193.250   20.388    0.411    0.335   32.123  221.607
  193.500   20.348    0.400    0.338   30.314  218.992
  193.750   19.453    0.385    0.318   31.227  216.692
  194.000   18.037    0.374    0.306   32.223  221.274
  194.250   17.132    0.368    0.304   33.659  221.264
  194.500   16.092    0.371    0.304   35.276  219.149
  194.750   15.469    0.380    0.302   36.472  217.736
  195.000   15.328    0.390    0.298   37.007  217.827
  195.250   15.440    0.387    0.304   36.498  218.215
  195.500   15.439    0.365    0.316   33.988  218.204
  195.750   14.992    0.376    0.311   35.664  218.595
  196.000   14.236    0.404    0.322   38.964  218.684
  196.250   13.015    0.422    0.322   42.804  217.872
  196.500   11.168    0.423    0.309   47.666  217.563
  196.750    8.386    0.416    0.304   57.144  221.156
  197.000    6.663    0.439    0.289   64.899  221.145
  197.250    4.849    0.468    0.285   73.067  223.138
  197.500    4.221    0.483    0.294   80.692  222.428
  197.750    4.032    0.472    0.287   82.489  220.214
  198.000    4.082    0.439    0.259   77.796  219.403
  198.250    4.379    0.399    0.232   70.476  224.515
  198.500    4.838    0.390    0.250   69.970  224.087
  198.750    5.164    0.416    0.268   71.405  223.276
  199.000    5.138    0.436    0.273   72.300  223.066
  199.250    4.896    0.445    0.280   73.616  223.055
  199.500    4.522    0.448    0.290   75.654  223.446
  199.750    3.927    0.460    0.284   79.704  225.538
  200.000    3.482    0.475    0.285   87.960  228.032
  200.250    3.116    0.497    0.282   92.762  230.025
  200.500    2.790    0.505    0.279   97.383  233.820
  200.750    2.579    0.502    0.274  100.502  238.418
  201.000    2.465    0.489    0.269  102.059  241.713
  201.250    2.394    0.472    0.263  103.352  240.332
  201.500    2.394    0.464    0.258  103.846  239.487
  201.750    2.429    0.461    0.251  102.879  241.479
  202.000    2.559    0.476    0.244   99.749  242.872
  202.250    2.789    0.484    0.240   95.656  242.261
  202.500    3.245    0.470    0.238   90.242  238.845
  202.750    4.819    0.424    0.216   79.627  231.922
  203.000    7.561    0.363    0.170   69.856  229.407
  203.250    9.099    0.348    0.164   62.639  226.994
  203.500    9.744    0.360    0.207   54.339  223.678
  203.750    9.707    0.380    0.244   50.487  221.664
  204.000    9.374    0.400    0.265   52.103  221.353
  204.250    8.755    0.422    0.303   56.002  221.342
  204.500    8.057    0.427    0.303   57.498  221.331
  204.750    7.766    0.424    0.293   57.973  222.122
  205.000    7.739    0.413    0.279   59.890  223.213
  205.250    8.020    0.406    0.275   60.365  223.804
  205.500    8.804    0.405    0.285   58.255  223.593
  205.750   10.833    0.395    0.307   52.810  222.865
  206.000   11.605    0.392    0.316   46.043  223.270
  206.250   11.352    0.406    0.308   46.998  223.260
  206.500   10.617    0.407    0.308   50.116  223.250
  206.750    9.759    0.401    0.308   52.394  223.441
  207.000    9.117    0.393    0.304   52.749  223.732
  207.250    8.957    0.387    0.296   52.921  223.802
  207.500    8.821    0.398    0.283   57.422  224.208
  207.750    8.693    0.402    0.290   58.857  224.199
  208.000    8.472    0.407    0.291   57.951  224.189
  208.250    8.073    0.414    0.279   58.787  224.579
  208.500    7.561    0.418    0.257   62.326  225.169
  208.750    7.062    0.408    0.238   66.154  225.156
  209.000    6.955    0.400    0.248   64.895  225.148
  209.250    6.954    0.407    0.247   63.448  225.137
  209.500    6.840    0.407    0.222   63.442  225.728
  209.750    6.617    0.411    0.219   64.758  226.919
  210.000    6.297    0.421    0.240   67.276  228.511
  210.250    5.797    0.439    0.252   71.625  230.519
  210.500    5.335    0.452    0.265   75.376  232.597
  210.750    4.846    0.474    0.268   80.657  238.196
  211.000    4.506    0.495    0.268   83.776  248.602
  211.250    4.219    0.491    0.263   86.174  248.191
  211.500    3.989    0.463    0.254   88.332  238.365
  211.750    3.869    0.442    0.250   89.516  237.386
  212.000    3.839    0.443    0.255   88.258  236.540
  212.250    3.895    0.438    0.263   86.088  236.530
  212.500    3.995    0.431    0.271   82.296  238.922
  212.750    4.040    0.428    0.283   80.487  239.312
  213.000    3.980    0.434    0.291   82.043  237.400
  213.250    3.790    0.459    0.281   86.273  237.236
  213.500    3.567    0.489    0.266   87.018  238.478
  213.750    3.414    0.508    0.292   85.570  238.870
  214.000    3.230    0.527    0.305   86.825  241.664
  214.250    3.058    0.530    0.303   87.660  243.857
  214.500    2.906    0.520    0.287   87.353  245.449
  214.750    2.741    0.523    0.267   87.836  250.529
  215.000    2.638    0.549    0.291   89.083  255.945
  215.250    2.543    0.556    0.295   89.317  251.928
  215.500    2.465    0.575    0.291   89.190  249.712
  215.750    2.394    0.590    0.279   88.824  249.100
  216.000    2.330    0.588    0.272   88.278  249.292
  216.250    2.262    0.561    0.297   88.301  249.131
  216.500    2.177    0.533    0.317   92.050  250.371
  216.750    2.099    0.545    0.317   93.727  249.558
  217.000    2.046    0.544    0.307   94.322  248.447
  217.250    2.001    0.543    0.296   94.797  247.637
  217.500    1.962    0.547    0.292   95.091  247.628
  217.750    1.924    0.551    0.294   93.671  249.150
  218.000    1.881    0.552    0.295   91.411  250.809
  218.250    1.867    0.562    0.294   91.646  252.801
  218.500    1.863    0.564    0.287   91.159  254.795
  218.750    1.870    0.561    0.279   90.552  254.986
  219.000    1.884    0.556    0.273   90.124  253.073
  219.250    1.897    0.557    0.273   89.777  249.837
  219.500    1.897    0.563    0.268   89.270  247.740
  219.750    1.911    0.567    0.265   88.783  242.123
  220.000    1.915    0.564    0.277   86.313  238.007
  220.250    1.921    0.561    0.280   86.548  237.396
  220.500    1.939    0.563    0.274   90.207  238.787
  220.750    1.979    0.565    0.277   94.095  237.004
  221.000    2.040    0.561    0.277   94.340  236.161
  221.250    2.131    0.549    0.264   95.053  233.345
