~VERSION INFORMATION
 VERS.                 2.0:   CWLS LOG ASCII STANDARD -VERSION 2.0
 WRAP.                  NO:   ONE LINE PER DEPTH STEP
~WELL INFORMATION BLOCK
#MNEM.UNIT           DATA                    DESCRIPTION OF MNEMONIC
#---------    -------------------            -------------------------------
# Generated from Intellog Unique Number	CC_84_87/WELL/1045
NULL.         -999.25                        : NULL_VALUE
WELL.         PARA ET AL GRANOR              : Location     - LOCATION          
UWI .         00/01-21-084-17W400            : Uwi          - UNIQUE WELL ID    
ENTR.         JHS                            : Entered      - ENTERED BY        
SRVC.         COMPUTALOG                     : Scn          - SERVICE COMPANY   
DATE.         17 FEB 82                      : Date         - LOG DATE
STRT.M        95                             : top_depth    - START DEPTH       
STOP.M        293                            : bot_depth    - STOP DEPTH        
STEP.M        0.3                            : increment    - STEP LENGTH       
~CURVE INFORMATION BLOCK
#MNEM UNIT       ERCB CURVE CODE    CURVE DESCRIPTION
#-----------   ------------------   ----------------------------------
DEPT.M        00 001 00 00         : DEPTH        - DEPTH                       
DPHI.V/V      00 890 00 00         : PHID         - DENSITY POROSITY (LIMESTONE)
NPHI.V/V      00 330 00 00         : PHIN         - NEUTRON POROSITY (LIMESTONE)
GR  .API      00 310 00 00         : GR           - GAMMA RAY                   
ILD .OHMM     00 120 00 00         : RESD         - DEEP RESISTIVITY (DIL)      
~PARAMETER INFORMATION       
#MNEM.UNIT           DATA             DESCRIPTION OF MNEMONIC
#---------         -----------     ------------------------------
GL  .M        520.21               : gl           - GROUND LEVEL ELEVATION      
EREF.M        523.81               : kb           - ELEVATION OF DEPTH REFERENCE
DATM.M        523.81               : datum        - DATUM ELEVATION             
TDD .M        293                  : tdd          - TOTAL DEPTH DRILLER         
RUN .         ONE                  : Run          - RUN NUMBER                  
ENG .         BILL                 : Engineer     - RECORDING ENGINEER          
WIT .         JIM                  : Witness      - WITNESSED BY                
MUD .         GEL                  : Mud_type     - MUD TYPE                    
MATR.         LIMESTONE            : Logunit      - NEUTRON MATRIX              
TMAX.C        22                   : BHT          - MAXIMUM RECORDED TEMPERATURE
BHTD.M        293                  : BHTDEP       - MAXIMUM RECORDED TEMPERATURE
MATR.         1                    : LOGUNIT      - NEUTRON MATRIX              
RMT .C        25                   : MDTP         - TEMPERATURE OF MUD          
NEUT.         1                    : NEUTRON      - NEUTRON TYPE                
RESI.         0                    : RESIST       - RESISTIVITY TYPE            
RMC .OHMM     0.25                 : RMC          - RESISTIVITY OF MUD CAKE     
RMF .OHMM     0.25                 : RMF          - RESISTIVITY OF MUD FILTRATE 
SUFT.C        15                   : SUFT         - SURFACE TEMPERATURE         
~A  DEPTH     PHID     PHIN       GR     RESD
# ...
  251.602    0.243    0.355   65.034   13.561
  251.902    0.247    0.341   69.940   10.660
  252.202    0.235    0.361   77.895    8.379
  252.502    0.213    0.349   96.215    7.360
  252.802    0.196    0.344  101.118    5.894
  253.102    0.204    0.353   99.323    4.808
  253.402    0.229    0.367  102.395    3.850
  253.702    0.238    0.411  110.345    3.445
  254.002    0.231    0.432  114.031    3.320
  254.302    0.208    0.436  112.230    3.320
  254.602    0.205    0.460  114.083    3.510
  254.902    0.200    0.486  109.844    3.996
  255.202    0.180    0.431  103.160    4.383
  255.502    0.126    0.321   96.480    4.466
  255.802    0.149    0.329  100.777    4.303
  256.102    0.201    0.417  109.947    3.996
  256.402    0.202    0.416  117.901    3.643
  256.702    0.206    0.404  121.586    3.576
  257.002    0.194    0.394  117.959    3.711
  257.302    0.184    0.380  111.888    4.071
  257.602    0.168    0.359  105.812    4.991
  257.902    0.141    0.355   98.521    6.007
  258.202    0.151    0.363   91.839    8.230
  258.502    0.183    0.335   90.651    9.029
  258.802    0.206    0.309   87.622    9.905
  259.102    0.224    0.346   83.383   11.276
  259.401    0.238    0.366   77.919   12.370
  259.701    0.238    0.336   71.237   13.322
  260.001    0.221    0.327   72.486   15.450
  260.301    0.204    0.362   74.340   15.739
  260.601    0.204    0.394   77.417   15.167
  260.901    0.208    0.367   81.710   14.616
  261.201    0.206    0.346   86.615   13.324
  261.501    0.201    0.360   87.253   12.146
  261.801    0.183    0.380   90.939   10.669
  262.101    0.181    0.387   94.622   11.072
  262.401    0.192    0.356   87.330   12.605
  262.701    0.201    0.385   73.333   16.037
  263.001    0.204    0.367   69.699   22.382
  263.301    0.198    0.309   80.095   24.104
  263.601    0.195    0.327  105.730   22.802
  263.901    0.194    0.358  113.075   18.948
  264.201    0.174    0.340  108.838   16.955
  264.501    0.151    0.335  113.738   14.353
  264.801    0.153    0.342  121.691   12.608
  265.101    0.159    0.360  119.893   11.927
  265.401    0.165    0.358  115.648   12.150
  265.701    0.156    0.377  110.793   12.609
  266.001    0.164    0.356  103.503   13.579
  266.301    0.174    0.319   95.603   14.623
  266.601    0.192    0.327   95.632   16.343
  266.901    0.193    0.345   96.267   17.277
  267.201    0.185    0.336   97.510   17.929
  267.501    0.171    0.313   98.759   18.606
  267.801    0.161    0.295   95.734   18.607
  268.101    0.162    0.284   92.712   17.930
  268.401    0.159    0.294   97.006   17.279
  268.701    0.169    0.331   98.863   17.931
  269.001    0.174    0.344   90.351   19.311
  269.301    0.198    0.327   86.722   20.415
  269.601    0.195    0.303   92.848   21.186
  269.901    0.175    0.307   94.095   20.797
  270.201    0.167    0.299   94.116   19.674
  270.501    0.176    0.313  102.679   18.270
  270.801    0.166    0.348  103.318   18.960
  271.101    0.178    0.350   82.610   20.800
  271.401    0.200    0.340   74.710   19.676
  271.701    0.200    0.307   82.052   16.656
  272.001    0.168    0.423  101.592   14.363
  272.301    0.161    0.383  108.936   12.617
  272.601    0.173    0.343  108.354   12.158
  272.901    0.187    0.411  104.111   12.853
  273.201    0.224    0.422   93.770   15.469
  273.501    0.243    0.367   87.090   19.319
  273.801    0.237    0.359   88.336   25.038
  274.101    0.223    0.368   92.633   26.469
  274.401    0.194    0.406   79.851   28.505
  274.701    0.219    0.391   64.023   31.856
  275.001    0.249    0.377   43.316   35.600
  275.301    0.259    0.327   37.246   41.287
  275.601    0.232    0.296   46.419   42.060
  275.901    0.216    0.287   61.082   36.947
  276.201    0.203    0.304   70.864   34.310
  276.501    0.204    0.318   76.988   31.861
  276.801    0.160    0.322   79.454   30.703
  277.101    0.160    0.330   83.750   28.512
  277.401    0.179    0.316   91.092   25.046
  277.701    0.179    0.328   99.657   22.002
  278.001    0.164    0.305  104.560   18.624
  278.301    0.149    0.293  118.003   16.977
  278.601    0.132    0.307  125.346   14.640
  278.901    0.133    0.317  123.544   12.624
  279.201    0.139    0.297  121.134   11.723
  279.501    0.145    0.295  122.380   11.297
  279.801    0.139    0.284  128.501   11.090
  280.101    0.160    0.297  126.093   11.509
  280.401    0.185    0.309  117.578   12.626
  280.701    0.199    0.312  108.458   14.111
  281.001    0.203    0.291  106.655   15.480
  281.301    0.209    0.299  101.805   16.064
  281.601    0.216    0.313  101.224   16.671
  281.901    0.212    0.316  105.514   16.983
  282.201    0.189    0.296  111.035   15.197
  282.501    0.168    0.270  112.891   12.865
  282.801    0.135    0.274  117.180   10.690
  283.101    0.131    0.299  128.183    9.218
  283.401    0.137    0.335  132.481    8.720
  283.701    0.149    0.380  131.894    8.721
  284.000    0.150    0.410  123.385    9.219
  284.300    0.175    0.394  108.778   10.691
  284.600    0.195    0.369  103.923   13.602
  284.900    0.211    0.362  102.122   15.775
  285.200    0.222    0.370  104.591   16.677
  285.500    0.219    0.355  107.663   16.677
  285.800    0.195    0.322  111.347   14.924
  286.100    0.172    0.277  118.082   11.731
  286.400    0.157    0.291  125.424    9.930
  286.700    0.144    0.326  132.160    8.886
  287.000    0.150    0.346  135.237    8.406
  287.300    0.157    0.362  135.873    8.406
  287.600    0.139    0.344  131.021    9.053
  287.900    0.156    0.322  124.951   10.306
  288.200    0.173    0.318  124.974   11.952
  288.500    0.162    0.324  125.610   13.861
  288.800    0.164    0.330  125.643   17.312
  289.100    0.198    0.313  125.054   20.077
  289.400    0.238    0.321  126.303   25.074
  289.700    0.255    0.347  125.719   30.740
  290.000    0.270    0.384  124.522   34.354
  290.300    0.248    0.386  122.722   33.724
  290.600    0.229    0.376  122.140   30.178
  290.900    0.245    0.376  122.167   29.626
  291.200    0.270    0.373  121.580   29.083
  291.500    0.282    0.385  122.829   29.084
  291.800    0.298    0.410  125.296   28.551
  292.100    0.299    0.392  127.764   28.552
  292.400    0.289    0.380  129.005   28.552
  292.700    0.265    0.369  130.253   28.029
  293.000    0.236    0.348  130.278   28.030
