~VERSION INFORMATION
 VERS.                 2.0:   CWLS LOG ASCII STANDARD -VERSION 2.0
 WRAP.                  NO:   ONE LINE PER DEPTH STEP
~WELL INFORMATION BLOCK
#MNEM.UNIT           DATA                    DESCRIPTION OF MNEMONIC
#---------    -------------------            -------------------------------
# Generated from Intellog Unique Number	CW_82_90/WELL/549
WELL.         MIAMI AMOCO WABASCA 06-34      : Well_name    - WELL
LOC .         00/06-34-084-01W5/0            : Location     - LOCATION
UWI .         00/06-34-084-01W5/0            : Uwi          - UNIQUE WELL ID
ENTR.         JAYE                           : Entered      - ENTERED BY
SRVC.         SCHLUMBERGER                   : Scn          - SERVICE COMPANY
DATE.         29 JAN 75                      : Date         - LOG DATE
STRT.M        274.32                         : top_depth    - START DEPTH
STOP.M        475.57                         : bot_depth    - STOP DEPTH
STEP.M        0.25                           : increment    - STEP LENGTH
 NULL. -999.2500:NULL Value
~CURVE INFORMATION BLOCK
#MNEM UNIT       ERCB CURVE CODE    CURVE DESCRIPTION
#-----------   ------------------   ----------------------------------
DEPT.M        00 001 00 00         : DEPTH        - DEPTH
CALI.MM       00 280 01 00         : CAL          - CALIPER
GR  .API      00 310 00 00         : GR           - GAMMA RAY
NPHI.V/V      00 330 00 00         : PHIN         - NEUTRON POROSITY (SANDSTONE)
DPHI.V/V      00 890 00 00         : PHID         - DENSITY POROSITY (SANDSTONE)
ILD .OHMM     00 120 00 00         : RESD         - DEEP RESISTIVITY (DIL)
~PARAMETER INFORMATION
#MNEM.UNIT           DATA             DESCRIPTION OF MNEMONIC
#---------         -----------     ------------------------------
GL  .M        627.583              : gl           - GROUND LEVEL ELEVATION
EREF.M        630.875              : kb           - ELEVATION OF DEPTH REFERENCE
DATM.M        627.583              : datum        - DATUM ELEVATION
TDD .M        475.488              : tdd          - TOTAL DEPTH DRILLER
RUN .         ONE                  : Run          - RUN NUMBER
ENG .         CROCKFORD            : Engineer     - RECORDING ENGINEER
WIT .         RUDD                 : Witness      - WITNESSED BY
BASE.         EDMONTON             : Branch       - HOME BASE OF LOGGING UNIT
MUD .         DAPP                 : Mud_type     - MUD TYPE
MATR.         SANDSTONE            : Logunit      - NEUTRON MATRIX
TMAX.C        25                   : BHT          - MAXIMUM RECORDED TEMPERATURE
BHTD.M        475.488              : BHTDEP       - MAXIMUM RECORDED TEMPERATURE
RMT .C        17.7778              : MDTP         - TEMPERATURE OF MUD
MUDD.KG/M     9600                 : MWT          - MUD DENSITY
NEUT.         1                    : NEUTRON      - NEUTRON TYPE
RESI.         0                    : RESIST       - RESISTIVITY TYPE
RM  .OHMM     2.8                  : RM           - RESISTIVITY OF MUD
RMC .OHMM     0                    : RMC          - RESISTIVITY OF MUD CAKE
RMF .OHMM     2.34                 : RMF          - RESISTIVITY OF MUD FILTRATE
SUFT.C        -17.7778             : SUFT         - SURFACE TEMPERATURE
~A  DEPTH      CAL       GR     PHIN     PHID     RESD
# ...
  456.820  165.543   95.193    0.426    0.123    7.282
  457.070  166.404   95.651    0.430    0.142    7.050
  457.320  167.169   95.787    0.433    0.168    6.776
  457.570  167.926   94.830    0.436    0.167    6.682
  457.820  168.069   92.653    0.422    0.151    6.517
  458.070  167.899   93.714    0.411    0.125    6.229
  458.320  167.105   96.730    0.438    0.100    5.877
  458.570  166.524   96.754    0.450    0.099    4.312
  458.820  168.012   99.034    0.432    0.179    3.987
  459.070  167.741  107.919    0.416    0.164    4.147
  459.320  167.045  122.183    0.423    0.150    4.616
  459.570  166.876  138.341    0.423    0.150    5.083
  459.820  167.540  176.753    0.419    0.170    5.658
  460.070  168.190  183.984    0.423    0.155    6.173
  460.320  168.335  211.940    0.433    0.166    6.396
  460.570  168.164  159.273    0.418    0.165    6.496
  460.820  167.992  153.365    0.422    0.137    6.524
  461.070  168.028  132.176    0.427    0.142    6.457
  461.320  168.170  121.684    0.411    0.140    6.333
  461.570  168.723  125.680    0.400    0.113    6.143
  461.820  169.590  127.415    0.416    0.122    5.936
  462.070  169.005  123.034    0.426    0.137    5.550
  462.320  167.904  113.704    0.409    0.067    5.189
  462.570  166.912  113.362    0.418    0.005    4.860
  462.820  167.563  117.781    0.423    0.100    4.654
  463.070  170.294  126.483    0.423    0.119    4.614
  463.320  171.260  134.635    0.435    0.137    4.746
  463.570  171.297  141.745    0.430    0.162    4.973
  463.820  171.542  142.196    0.431    0.144    5.288
  464.070  171.056  141.363    0.440    0.136    5.490
  464.320  169.753  142.972    0.435    0.095    5.464
  464.570  169.577  148.373    0.443    0.057    5.358
  464.820  169.304  154.630    0.435    0.084    5.178
  465.070  168.311  148.049    0.413    0.047    4.894
  465.320  167.618  135.969    0.436    0.106    4.645
  465.570  167.347  135.991    0.450    0.110    4.588
  465.820  168.417  134.615    0.447    0.109    4.599
  466.070  170.115  133.221    0.437    0.111    4.688
  466.320  170.359  128.964    0.409    0.105    4.867
  466.570  169.877  114.927    0.428    0.125    5.118
  466.820  169.391  102.479    0.465    0.134    5.584
  467.070  167.670   86.608    0.466    0.156    6.170
  467.320  164.603   80.579    0.431    0.178    6.907
  467.570  165.159   92.398    0.415    0.175    7.344
  467.820  166.440   99.877    0.426    0.144    7.582
  468.070  166.993   96.909    0.446    0.124    7.234
  468.320  167.645   91.123    0.457    0.116    6.764
  468.570  166.652   79.587    0.441    0.099    6.174
  468.820  162.232   77.776    0.450    0.112    5.698
  469.070  164.962   79.635    0.467    0.127    6.037
  469.320  166.244   82.464    0.456    0.139    6.562
  469.570  164.934   87.743    0.427    0.178    7.523
  469.820  164.350   90.151    0.421    0.196    8.389
  470.070  165.526   89.316    0.421    0.204    8.726
  470.320  166.182   88.115    0.422    0.188    8.732
  470.570  165.597   85.266    0.422    0.181    8.516
  470.820  165.114   82.352    0.421    0.177    8.141
  471.070  163.396   79.072    0.424    0.164    8.071
  471.320  164.363   74.757    0.450    0.176    8.598
  471.570  164.193   73.372    0.453    0.190   10.020
  471.820  163.708   72.477    0.453    0.191   13.653
  472.070  161.469   72.007    0.453    0.271   22.642
  472.320  160.470   73.497    0.452    0.292   22.911
  472.570  161.442   77.491    0.447    0.354   22.386
  472.820  162.309   82.893    0.443    0.386   19.482
  473.070  158.927   86.947    0.438    0.386   12.521
  473.320  162.177   90.513    0.434    0.373    9.996
  473.570  164.384   89.807    0.426    0.280   10.570
  473.820  165.247   88.726    0.420    0.204   11.075
  474.070  164.868   85.446    0.411    0.229   11.186
  474.320  163.144   80.701    0.325    0.258   11.051
  474.570  162.974   76.626    0.307    0.245   10.467
  474.820  164.567   78.118    0.304    0.221    9.624
  475.070  164.290   80.156    0.304    0.206    8.044
  475.320  164.952   83.231    0.304    0.188    7.065
  475.570  165.092   86.004    0.304    0.166    6.778
