~VERSION INFORMATION
 VERS.                 2.0:   CWLS LOG ASCII STANDARD -VERSION 2.0
 WRAP.                  NO:   ONE LINE PER DEPTH STEP
~WELL INFORMATION BLOCK
#MNEM.UNIT           DATA                    DESCRIPTION OF MNEMONIC
#---------    -------------------            -------------------------------
# Generated from Intellog Unique Number	CS_67_68/WELL/776
WELL.         FISHER CREEK                   : Well_name    - WELL
LOC .         00/07-27-068-06W4/0            : Location     - LOCATION
UWI .         00/07-27-068-06W4/0            : Uwi          - UNIQUE WELL ID
ENTR.         SP                             : Entered      - ENTERED BY
SRVC.         SCHLUMBERGER                   : Scn          - SERVICE COMPANY
STRT.M        360                            : top_depth    - START DEPTH
STOP.M        580                            : bot_depth    - STOP DEPTH
STEP.M        0.25                           : increment    - STEP LENGTH
 NULL. -999.2500:NULL Value
~CURVE INFORMATION BLOCK
#MNEM UNIT       ERCB CURVE CODE    CURVE DESCRIPTION
#-----------   ------------------   ----------------------------------
DEPT.M        00 001 00 00         : DEPTH        - DEPTH
ILD .OHMM     00 120 00 00         : RESD         - DEEP RESISTIVITY (DIL)
DPHI.V/V      00 890 00 00         : PHID         - DENSITY POROSITY (LIMESTONE)
NPHI.V/V      00 330 00 00         : PHIN         - NEUTRON POROSITY (LIMESTONE)
GR  .API      00 310 00 00         : GR           - GAMMA RAY
~PARAMETER INFORMATION
#MNEM.UNIT           DATA             DESCRIPTION OF MNEMONIC
#---------         -----------     ------------------------------
GL  .M        704.1                : gl           - GROUND LEVEL ELEVATION
EREF.M        707.7                : kb           - ELEVATION OF DEPTH REFERENCE
DATM.M        704.1                : datum        - DATUM ELEVATION
TDD .M        582                  : tdd          - TOTAL DEPTH DRILLER
RUN .         ONE                  : Run          - RUN NUMBER
ENG .         BILL                 : Engineer     - RECORDING ENGINEER
WIT .         JIM                  : Witness      - WITNESSED BY
MUD .         GEL                  : Mud_type     - MUD TYPE
MATR.         LIMESTONE            : Logunit      - NEUTRON MATRIX
TMAX.C        18                   : BHT          - MAXIMUM RECORDED TEMPERATURE
BHTD.M        582                  : BHTDEP       - MAXIMUM RECORDED TEMPERATURE
MATR.         1                    : LOGUNIT      - NEUTRON MATRIX
RMT .C        25                   : MDTP         - TEMPERATURE OF MUD
NEUT.         1                    : NEUTRON      - NEUTRON TYPE
RESI.         0                    : RESIST       - RESISTIVITY TYPE
RMC .OHMM     0.25                 : RMC          - RESISTIVITY OF MUD CAKE
RMF .OHMM     0.25                 : RMF          - RESISTIVITY OF MUD FILTRATE
SUFT.C        15                   : SUFT         - SURFACE TEMPERATURE
~A  DEPTH     RESD     PHID     PHIN       GR
# ...
  534.000    8.789    0.199    0.362   83.080
  534.250    9.183    0.237    0.395   79.340
  534.500    9.778    0.260    0.415   75.354
  534.750   10.890    0.258    0.420   67.429
  535.000   12.357    0.246    0.414   54.029
  535.250   14.588    0.257    0.410   51.457
  535.500   19.025    0.287    0.399   52.639
  535.750   24.487    0.298    0.404   45.207
  536.000   28.799    0.293    0.421   40.359
  536.250   31.360    0.313    0.432   36.433
  536.500   29.941    0.328    0.424   42.907
  536.750   12.964    0.339    0.350   56.026
  537.000   10.086    0.296    0.353   73.082
  537.250    8.620    0.276    0.370   80.725
  537.500    7.635    0.272    0.385   84.306
  537.750    7.221    0.280    0.392   87.703
  538.000    6.920    0.265    0.372   92.148
  538.250    6.707    0.255    0.356   94.928
  538.500    6.538    0.249    0.359   96.417
  538.750    6.384    0.247    0.373   96.925
  539.000    6.294    0.252    0.388   97.121
  539.250    6.357    0.258    0.397   97.257
  539.500    6.705    0.245    0.388   98.009
  539.750    7.385    0.234    0.378   96.914
  540.000    8.162    0.227    0.371   92.126
  540.250   10.099    0.223    0.369   83.463
  540.500   13.624    0.238    0.373   74.062
  540.750   15.578    0.281    0.380   66.876
  541.000   16.965    0.308    0.388   62.398
  541.250   17.790    0.330    0.399   61.918
  541.500   17.406    0.337    0.399   64.331
  541.750   16.156    0.323    0.386   66.191
  542.000   14.636    0.310    0.380   66.880
  542.250   12.938    0.298    0.376   70.092
  542.500   11.121    0.291    0.371   70.966
  542.750   10.130    0.285    0.365   71.717
  543.000    9.297    0.279    0.359   78.683
  543.250    8.343    0.267    0.353   85.094
  543.500    7.558    0.251    0.355   93.968
  543.750    7.108    0.235    0.361  101.732
  544.000    7.073    0.228    0.371  105.744
  544.250    7.198    0.224    0.373   97.821
  544.500    8.757    0.208    0.358   86.819
  544.750   12.288    0.161    0.350   77.234
  545.000   14.589    0.011    0.360   65.740
  545.250   16.312    0.023    0.273   48.402
  545.500   17.105    0.167    0.241   50.815
  545.750   17.739    0.233    0.292   57.042
  546.000   17.752    0.258    0.335   62.285
  546.250   17.013    0.268    0.359   58.729
  546.500   16.062    0.277    0.378   55.296
  546.750   15.107    0.225    0.405   56.847
  547.000   13.865    0.192    0.396   59.752
  547.250   12.559    0.209    0.347   62.410
  547.500   11.208    0.244    0.356   65.745
  547.750   10.019    0.261    0.366   78.064
  548.000    8.725    0.250    0.359   95.306
  548.250    8.100    0.209    0.345  100.917
  548.500    7.835    0.186    0.341  104.437
  548.750    7.680    0.178    0.348  102.912
  549.000    7.614    0.179    0.353  104.095
  549.250    7.576    0.167    0.354  105.522
  549.500    7.566    0.151    0.363  104.920
  549.750    7.644    0.139    0.374  104.441
  550.000    7.706    0.153    0.380  105.254
  550.250    7.888    0.167    0.375  105.944
  550.500    7.997    0.168    0.374  106.140
  550.750    8.078    0.162    0.376  103.877
  551.000    8.145    0.161    0.378  102.659
  551.250    8.180    0.164    0.377  103.410
  551.500    8.233    0.166    0.373  102.007
  551.750    8.285    0.165    0.370  102.698
  552.000    8.321    0.157    0.382  105.910
  552.250    8.517    0.151    0.390  102.848
  552.500    8.684    0.147    0.398   96.891
  552.750    8.990    0.163    0.399   92.535
  553.000    9.183    0.181    0.389   88.425
  553.250    9.469    0.187    0.377   84.007
  553.500    9.819    0.192    0.358   73.683
  553.750   10.240    0.197    0.353   68.651
  554.000   10.661    0.212    0.357   70.387
  554.250   10.890    0.228    0.350   72.184
  554.500   10.918    0.243    0.340   73.060
  554.750   10.482    0.216    0.335   75.902
  555.000    9.804    0.207    0.331   80.284
  555.250    9.308    0.196    0.333   84.172
  555.500    8.937    0.187    0.339   89.354
  555.750    8.711    0.180    0.344   92.811
  556.000    8.619    0.176    0.341   95.040
  556.250    8.657    0.173    0.341   96.838
  556.500    8.828    0.170    0.349  100.418
  556.750    8.984    0.164    0.365  105.601
  557.000    9.143    0.160    0.377  107.827
  557.250    9.324    0.157    0.382  106.795
  557.500    9.418    0.154    0.373  109.576
  557.750    9.548    0.152    0.368  106.698
  558.000    9.555    0.156    0.372   98.343
  558.250    9.508    0.156    0.369   95.033
  558.500    9.357    0.153    0.353   92.030
  558.750    9.274    0.151    0.343   88.723
  559.000    9.245    0.153    0.360   86.520
  559.250    9.356    0.161    0.371   83.639
  559.500    9.505    0.172    0.358   78.422
  559.750    9.564    0.181    0.342   76.343
  560.000    9.572    0.157    0.330   77.280
  560.250    9.577    0.124    0.321   78.645
  560.500    9.512    0.123    0.310   75.582
  560.750    9.307    0.146    0.319   71.288
  561.000    9.191    0.164    0.337   68.225
  561.250    9.060    0.176    0.346   66.882
  561.500    8.814    0.196    0.351   67.695
  561.750    8.641    0.241    0.342   68.693
  562.000    8.549    0.235    0.337   68.091
  562.250    8.506    0.219    0.341   66.872
  562.500    8.545    0.215    0.344   67.501
  562.750    8.615    0.221    0.336   67.145
  563.000    8.718    0.221    0.333   65.865
  563.250    8.806    0.216    0.340   69.817
  563.500    8.879    0.214    0.346   73.274
  563.750    8.769    0.201    0.337   68.734
  564.000    8.372    0.226    0.334   63.209
  564.250    7.800    0.259    0.338   56.392
  564.500    7.133    0.274    0.350   48.837
  564.750    6.401    0.296    0.366   41.220
  565.000    5.997    0.312    0.382   36.187
  565.250    5.620    0.327    0.391   30.971
  565.500    5.571    0.323    0.389   31.476
  565.750    5.756    0.329    0.379   42.010
  566.000    5.902    0.339    0.354   54.267
  566.250    6.018    0.328    0.327   65.478
  566.500    6.205    0.218    0.316   68.629
  566.750    6.496    0.207    0.314   61.012
  567.000    6.636    0.224    0.329   50.258
  567.250    6.591    0.250    0.336   44.179
  567.500    6.473    0.267    0.333   49.177
  567.750    6.321    0.278    0.340   54.419
  568.000    6.254    0.277    0.343   59.046
  568.250    6.353    0.266    0.331   63.858
  568.500    6.564    0.252    0.322   60.365
  568.750    6.630    0.252    0.334   48.686
  569.000    6.672    0.275    0.346   53.130
  569.250    6.664    0.288    0.339   58.372
  569.500    6.582    0.275    0.322   59.369
  569.750    6.623    0.256    0.333   55.444
  570.000    6.881    0.213    0.347   61.117
  570.250    7.016    0.194    0.347   66.791
  570.500    6.904    0.203    0.327   68.405
  570.750    6.604    0.223    0.331   65.956
  571.000    6.165    0.243    0.342   59.754
  571.250    5.701    0.262    0.350   42.538
  571.500    5.444    0.278    0.353   39.476
  571.750    5.316    0.302    0.350   38.749
  572.000    5.172    0.305    0.346   39.010
  572.250    5.097    0.303    0.344   38.960
  572.500    5.044    0.306    0.354   37.064
  572.750    5.057    0.313    0.369   35.050
  573.000    5.435    0.318    0.384   36.475
  573.250    6.030    0.298    0.342   54.577
  573.500    6.973    0.260    0.312   69.665
  573.750    8.709    0.213    0.331   72.079
  574.000   11.792    0.181    0.377   62.247
  574.250   15.758    0.138    0.383   58.629
  574.500   23.705    0.064    0.357   55.444
  574.750   30.565    0.059    0.177   54.532
  575.000   39.564    0.048    0.155   56.084
  575.250   47.591    0.040    0.146   58.127
  575.500   53.909    0.029    0.140   59.493
  575.750   58.264    0.010    0.135   60.860
  576.000   60.423    0.021    0.131   58.349
  576.250   61.725    0.040    0.126   42.979
  576.500   62.233    0.046    0.123   35.178
  576.750   60.659    0.052    0.121   29.284
  577.000   56.414    0.063    0.121   28.314
  577.250   53.456    0.088    0.124   27.895
