~VERSION INFORMATION
 VERS.                 2.0:   CWLS LOG ASCII STANDARD -VERSION 2.0
 WRAP.                  NO:   ONE LINE PER DEPTH STEP
~WELL INFORMATION BLOCK
#MNEM.UNIT           DATA                    DESCRIPTION OF MNEMONIC
#---------    -------------------            -------------------------------
# Generated from Intellog Unique Number	CW_70_72/WELL/3003
NULL.         -999.25                        : NULL_VALUE
WELL.         BRASCAN ET AL MEYER 04-11      : Well_name    - WELL              
LOC .         04-11-070-25W4                 : Location     - LOCATION          
UWI .         00/04-11-070-25W4/0            : Uwi          - UNIQUE WELL ID    
ENTR.         J                              : Entered      - ENTERED BY        
SRVC.         WESTERN ATLAS                  : Scn          - SERVICE COMPANY   
DATE.         27 JULY 80                     : Date         - LOG DATE          
STRT.M        485                            : top_depth    - START DEPTH       
STOP.M        685                            : bot_depth    - STOP DEPTH        
STEP.M        0.25                           : increment    - STEP LENGTH       
~CURVE INFORMATION BLOCK
#MNEM UNIT       ERCB CURVE CODE    CURVE DESCRIPTION
#-----------   ------------------   ----------------------------------
DEPT.M        00 001 00 00         : DEPTH        - DEPTH                       
ILD .OHMM     00 120 00 00         : RESD         - DEEP RESISTIVITY (DIL)      
CALI.MM       00 280 01 00         : CAL          - CALIPER                     
GR  .API      00 310 00 00         : GR           - GAMMA RAY                   
NPHI.V/V      00 330 00 00         : PHIN         - NEUTRON POROSITY (SANDSTONE)
DPHI.V/V      00 890 00 00         : PHID         - DENSITY POROSITY (SANDSTONE)
~PARAMETER INFORMATION       
#MNEM.UNIT           DATA             DESCRIPTION OF MNEMONIC
#---------         -----------     ------------------------------
GL  .M        670.9                : gl           - GROUND LEVEL ELEVATION      
EREF.M        674.46               : kb           - ELEVATION OF DEPTH REFERENCE
DATM.M        670.9                : datum        - DATUM ELEVATION             
TDD .M        726                  : tdd          - TOTAL DEPTH DRILLER         
RUN .         ONE                  : Run          - RUN NUMBER                  
ENG .         WEBER                : Engineer     - RECORDING ENGINEER          
WIT .         GOULD                : Witness      - WITNESSED BY                
MUD .         GEL CHEMX            : Mud_type     - MUD TYPE                    
MATR.         SANDSTONE            : Logunit      - NEUTRON MATRIX              
TMAX.C        35                   : BHT          - MAXIMUM RECORDED TEMPERATURE
BHTD.M        728.1                : BHTDEP       - MAXIMUM RECORDED TEMPERATURE
RMT .C        12                   : MDTP         - TEMPERATURE OF MUD          
MUDD.KG/M     9.5                  : MWT          - MUD DENSITY                 
NEUT.         1                    : NEUTRON      - NEUTRON TYPE                
RESI.         0                    : RESIST       - RESISTIVITY TYPE            
RM  .OHMM     3.9                  : RM           - RESISTIVITY OF MUD          
RMC .OHMM     4.5                  : RMC          - RESISTIVITY OF MUD CAKE     
RMF .OHMM     3.2                  : RMF          - RESISTIVITY OF MUD FILTRATE 
SUFT.C        0                    : SUFT         - SURFACE TEMPERATURE         
~A  DEPTH     RESD      CAL       GR     PHIN     PHID
# ...
  521.500    2.875  167.799   79.581    0.402    0.320
  521.750    2.828  165.609   79.807    0.406    0.308
  522.000    2.813  164.859   80.400    0.409    0.301
  522.250    2.825  166.260   82.844    0.413    0.300
  522.500    2.852  166.946   87.321    0.418    0.299
  522.750    2.879  167.630   89.699    0.418    0.298
  523.000    2.935  168.210   86.476    0.414    0.297
  523.250    2.991  168.994   83.559    0.408    0.297
  523.500    3.042  167.613   82.742    0.400    0.297
  523.750    3.164  167.583   88.384    0.396    0.294
  524.000    3.249  167.334   91.263    0.399    0.291
  524.250    3.323  167.320   93.398    0.407    0.287
  524.500    3.361  168.208   96.272    0.413    0.282
  524.750    3.432  167.147   98.467    0.417    0.280
  525.000    3.504  166.291   95.615    0.419    0.278
  525.250    3.564  166.566   88.634    0.420    0.278
  525.500    3.673  167.547   85.410    0.419    0.268
  525.750    3.779  167.830   88.034    0.417    0.253
  526.000    3.836  167.381   91.957    0.414    0.239
  526.250    3.852  167.146   95.327    0.409    0.243
  526.500    3.789  167.112   97.155    0.400    0.256
  526.750    3.686  166.550   94.176    0.395    0.266
  527.000    3.526  167.752   83.926    0.395    0.274
  527.250    3.329  168.440   79.352    0.396    0.282
  527.500    3.161  169.436   74.464    0.398    0.289
  527.750    3.007  169.497   77.334    0.401    0.295
  528.000    2.904  169.671   78.672    0.408    0.298
  528.250    2.862  169.539   81.298    0.419    0.300
  528.500    2.852  168.987   86.023    0.434    0.298
  528.750    2.885  169.161   91.546    0.445    0.294
  529.000    2.929  169.333   97.071    0.441    0.286
  529.250    3.087  172.887   95.695    0.425    0.279
  529.500    3.229  173.258   91.238    0.420    0.267
  529.750    3.415  169.945   87.027    0.418    0.251
  530.000    3.770  167.859   86.571    0.418    0.244
  530.250    4.048  166.801   87.232    0.417    0.234
  530.500    4.362  166.969   87.213    0.417    0.225
  530.750    4.563  167.245   88.236    0.416    0.218
  531.000    4.955  167.918   89.573    0.419    0.212
  531.250    4.992  164.913   94.599    0.432    0.209
  531.500    5.031  162.005   98.710    0.441    0.210
  531.750    4.940  164.231  104.543    0.438    0.222
  532.000    4.761  166.552  100.452    0.428    0.238
  532.250    4.606  168.882   95.077    0.421    0.250
  532.500    4.497  171.828   88.463    0.411    0.259
  532.750    4.374  171.383   83.698    0.403    0.260
  533.000    4.279  169.598   83.924    0.406    0.261
  533.250    4.186  166.990   82.547    0.422    0.269
  533.500    4.186  165.312   81.479    0.433    0.274
  533.750    4.186  164.160   80.104    0.435    0.283
  534.000    3.811  161.761   79.529    0.429    0.288
  534.250    3.762  161.728   78.950    0.424    0.289
  534.500    3.606  162.518   79.610    0.421    0.287
  534.750    3.525  163.099   83.345    0.413    0.281
  535.000    3.368  163.783   86.099    0.409    0.279
  535.250    3.252  163.741   88.175    0.408    0.283
  535.500    3.060  163.299   88.338    0.410    0.292
  535.750    3.049  163.981   82.341    0.414    0.296
  536.000    3.010  164.672   78.010    0.418    0.301
  536.250    2.994  164.020   74.417    0.422    0.297
  536.500    2.995  163.674   75.008    0.425    0.284
  536.750    3.030  163.950   76.594    0.422    0.271
  537.000    3.054  165.868   77.311    0.419    0.266
  537.250    3.112  166.236   76.737    0.412    0.274
  537.500    3.112  167.020   75.484    0.405    0.285
  537.750    3.318  168.022   73.861    0.397    0.290
  538.000    3.356  169.221   73.591    0.390    0.287
  538.250    3.497  165.690   74.680    0.384    0.282
  538.500    3.685  163.092   76.201    0.381    0.278
  538.750    4.076  161.004   78.395    0.391    0.277
  539.000    4.303  159.946   80.286    0.405    0.276
  539.250    4.467  160.106   83.286    0.419    0.274
  539.500    4.605  160.801   86.468    0.433    0.272
  539.750    4.580  162.403   85.585    0.426    0.271
  540.000    4.472  165.249   86.603    0.420    0.273
  540.250    4.153  170.139   86.587    0.413    0.277
  540.500    4.054  172.365   83.429    0.406    0.287
  540.750    3.800  172.632   77.987    0.398    0.294
  541.000    3.696  170.650   73.589    0.391    0.292
  541.250    3.510  166.924   70.551    0.407    0.287
  541.500    3.478  164.012   70.038    0.415    0.284
  541.750    3.390  163.563   70.203    0.420    0.283
  542.000    3.391  164.251   70.798    0.421    0.287
  542.250    3.417  165.652   72.806    0.419    0.281
  542.500    3.412  166.749   75.623    0.414    0.272
  542.750    3.320  167.946   77.384    0.413    0.276
  543.000    3.290  168.526   75.951    0.419    0.288
  543.250    3.206  167.774   71.740    0.416    0.295
  543.500    3.107  165.996   68.456    0.405    0.301
  543.750    3.034  163.394   65.603    0.401    0.307
  544.000    3.150  163.463   61.640    0.399    0.312
  544.250    2.909  166.503   58.970    0.407    0.312
  544.500    2.824  167.603   60.672    0.409    0.308
  544.750    2.778  169.416   62.437    0.407    0.302
  545.000    2.743  170.406   65.803    0.399    0.300
  545.250    2.713  169.246   67.757    0.393    0.308
  545.500    2.669  167.774   70.011    0.386    0.306
  545.750    2.631  165.992   70.057    0.376    0.304
  546.000    2.636  164.923   68.311    0.368    0.299
  546.250    2.671  164.991   63.668    0.358    0.291
  546.500    2.717  165.573   61.001    0.341    0.284
  546.750    2.832  165.961   58.759    0.327    0.273
  547.000    2.973  166.229   57.631    0.309    0.258
  547.250    3.122  166.195   56.567    0.281    0.249
  547.500    3.557  166.369   57.654    0.262    0.229
  547.750    4.046  166.740   58.495    0.244    0.209
  548.000    4.610  168.045   58.412    0.218    0.189
  548.250    5.166  170.778   58.455    0.265    0.180
  548.500    5.139  173.621   61.820    0.310    0.218
  548.750    4.980  172.143   65.621    0.411    0.269
  549.000    4.641  167.286   70.279    0.427    0.271
  549.250    4.091  162.636   74.445    0.434    0.260
  549.500    3.863  165.056   78.553    0.428    0.257
  549.750    3.648  166.055   80.381    0.416    0.262
  550.000    3.595  163.864   82.080    0.399    0.264
  550.250    3.570  163.101   83.175    0.391    0.242
  550.500    3.624  164.517   86.906    0.373    0.229
  550.750    3.672  166.428   89.415    0.356    0.216
  551.000    3.792  166.698   89.702    0.313    0.199
  551.250    3.981  167.383   87.343    0.278    0.182
  551.500    4.306  169.508   79.677    0.249    0.164
  551.750    4.632  171.734   74.489    0.227    0.145
  552.000    5.010  171.907   66.522    0.190    0.131
  552.250    5.552  171.970   58.491    0.146    0.120
  552.500    5.584  171.934   58.533    0.150    0.109
  552.750    4.895  171.591   59.190    0.159    0.124
  553.000    4.503  170.942   57.999    0.178    0.151
  553.250    4.066  169.886   58.650    0.202    0.174
  553.500    3.428  169.132   59.309    0.237    0.192
  553.750    3.206  167.141   59.967    0.298    0.217
  554.000    2.805  164.547   60.316    0.334    0.252
  554.250    2.382  162.153   60.726    0.373    0.275
  554.500    2.253  162.422   61.262    0.398    0.290
  554.750    2.213  163.931   62.346    0.405    0.291
  555.000    2.201  165.230   63.192    0.408    0.295
  555.250    2.226  165.496   64.215    0.408    0.302
  555.500    2.256  165.779   65.062    0.406    0.307
  555.750    2.299  166.351   65.897    0.401    0.311
  556.000    2.387  166.724   66.618    0.397    0.314
  556.250    2.428  166.591   67.460    0.392    0.316
  556.500    2.559  166.662   67.871    0.390    0.317
  556.750    2.657  166.529   68.098    0.388    0.318
  557.000    2.723  165.460   67.828    0.387    0.318
  557.250    2.718  164.613   67.812    0.387    0.316
  557.500    2.718  162.422   67.722    0.391    0.312
  557.750    2.616  163.612   67.825    0.389    0.310
