~VERSION INFORMATION
 VERS.                 2.0:   CWLS LOG ASCII STANDARD -VERSION 2.0
 WRAP.                  NO:   ONE LINE PER DEPTH STEP
~WELL INFORMATION BLOCK
#MNEM.UNIT           DATA                    DESCRIPTION OF MNEMONIC
#---------    -------------------            -------------------------------
# Generated from Intellog Unique Number	CN_94_101/WELL/2602
WELL.         PARAMOUNT RESOURCES LTD.       : Well_name    - WELL
LOC .         00/05-24-094-18W4/0            : Location     - LOCATION
UWI .         00/05-24-094-18W400            : Uwi          - UNIQUE WELL ID
ENTR.         JOETTE                         : Entered      - ENTERED BY
SRVC.         COMPUTALOG                     : Scn          - SERVICE COMPANY
DATE.         06/12/92                       : Date         - LOG DATE
STRT.M        95                             : top_depth    - START DEPTH
STOP.M        275                            : bot_depth    - STOP DEPTH
STEP.M        0.25                           : increment    - STEP LENGTH
 NULL. -999.2500:NULL Value
~CURVE INFORMATION BLOCK
#MNEM UNIT       ERCB CURVE CODE    CURVE DESCRIPTION
#-----------   ------------------   ----------------------------------
DEPT.M        00 001 00 00         : DEPTH        - DEPTH
CALI.MM       00 280 01 00         : CAL          - CALIPER
GR  .API      00 310 00 00         : GR           - GAMMA RAY
NPHI.V/V      00 330 00 00         : PHIN         - NEUTRON POROSITY (SANDSTONE)
DPHI.V/V      00 890 00 00         : PHID         - DENSITY POROSITY (SANDSTONE)
ILD .OHMM     00 120 00 00         : RESD         - DEEP RESISTIVITY (DIL)
~PARAMETER INFORMATION
#MNEM.UNIT           DATA             DESCRIPTION OF MNEMONIC
#---------         -----------     ------------------------------
GL  .M        539.64               : gl           - GROUND LEVEL ELEVATION
EREF.M        543.44               : kb           - ELEVATION OF DEPTH REFERENCE
DATM.M        543.44               : datum        - DATUM ELEVATION
TDD .M        278.1                : tdd          - TOTAL DEPTH DRILLER
RUN .         ONE                  : Run          - RUN NUMBER
ENG .         JO                   : Engineer     - RECORDING ENGINEER
WIT .         TIM                  : Witness      - WITNESSED BY
MUD .         GEL                  : Mud_type     - MUD TYPE
MATR.         SANDSTONE            : Logunit      - NEUTRON MATRIX
TMAX.C        23                   : BHT          - MAXIMUM RECORDED TEMPERATURE
BHTD.M        278.1                : BHTDEP       - MAXIMUM RECORDED TEMPERATURE
RMT .C        20                   : MDTP         - TEMPERATURE OF MUD
MUDD.KG/M     1100                 : MWT          - MUD DENSITY
NEUT.         1                    : NEUTRON      - NEUTRON TYPE
RESI.         0                    : RESIST       - RESISTIVITY TYPE
RM  .OHMM     5.3                  : RM           - RESISTIVITY OF MUD
RMC .OHMM     5.3                  : RMC          - RESISTIVITY OF MUD CAKE
RMF .OHMM     7.5                  : RMF          - RESISTIVITY OF MUD FILTRATE
SUFT.C        4                    : SUFT         - SURFACE TEMPERATURE
~A  DEPTH      CAL       GR     PHIN     PHID     RESD
   95.000  171.542   90.615    0.405    0.245    5.434
   95.250  169.446   90.599    0.405    0.249    5.537
   95.500  169.425   86.238    0.406    0.252    5.642
   95.750  169.398   88.704    0.432    0.260    5.533
   96.000  171.439   92.411    0.446    0.261    5.221
   96.250  173.480   92.395    0.455    0.251    5.119
   96.500  177.591   87.413    0.433    0.254    5.216
   96.750  180.666   83.052    0.407    0.260    5.630
   97.000  182.701   79.932    0.403    0.265    6.437
   97.250  181.639   77.433    0.407    0.263    6.686
   97.500  180.577   91.692    0.429    0.246    6.684
   97.750  177.446   93.537    0.440    0.197    6.306
   98.000  174.316   90.417    0.436    0.152    5.837
   98.250  169.116   81.091    0.407    0.134    5.403
   98.500  163.917   79.833    0.413    0.207    5.198
   98.750  160.772  101.536    0.428    0.239    4.812
   99.000  159.724  104.006    0.443    0.254    4.540
   99.250  162.786  104.606    0.442    0.278    4.539
   99.500  165.869  101.490    0.417    0.268    4.714
   99.750  168.951   95.263    0.411    0.255    4.992
  100.000  169.958   95.867    0.421    0.253    5.185
  100.250  169.931   97.096    0.439    0.252    5.282
  100.500  168.862   98.929    0.450    0.252    4.889
  100.750  167.800   98.921    0.459    0.256    4.795
  101.000  167.773   97.039    0.467    0.258    4.524
  101.250  167.745   93.923    0.472    0.263    4.269
  101.500  167.718   88.937    0.464    0.272    4.267
  101.750  168.732   82.714    0.422    0.271    4.519
  102.000  173.869   78.978    0.408    0.264    5.368
  102.250  175.918   74.617    0.387    0.251    7.156
  102.500  176.918   71.497    0.376    0.216    7.875
  102.750  172.752   66.511    0.363    0.192    9.003
  103.000  167.553   64.637    0.354    0.200    9.533
  103.250  163.388   68.344    0.381    0.253    9.528
  103.500  164.395   72.052    0.419    0.302    9.166
  103.750  170.574   70.794    0.380    0.316    8.650
  104.000  176.739   72.019    0.375    0.313    8.007
  104.250  177.760   76.968    0.381    0.301    7.271
  104.500  179.801   80.675    0.391    0.288    6.602
  104.750  180.801   82.520    0.440    0.276    5.770
  105.000  175.595   81.879    0.475    0.273    5.140
  105.250  171.443   81.867    0.454    0.277    4.758
  105.500  167.278   81.850    0.404    0.274    4.576
  105.750  170.347   83.692    0.392    0.271    4.939
  106.000  174.464   78.710    0.401    0.276    5.435
  106.250  181.657   73.728    0.428    0.282    6.213
  106.500  182.671   82.401    0.438    0.281    6.455
  106.750  181.623   89.832    0.438    0.272    5.860
  107.000  176.409   94.156    0.443    0.261    5.530
  107.250  174.327   94.760    0.454    0.237    5.218
  107.500  178.437   90.403    0.459    0.234    5.117
  107.750  182.540   77.353    0.460    0.239    5.738
  108.000  177.348   72.992    0.405    0.256    6.195
  108.250  166.962   72.968    0.382    0.223    7.503
  108.500  161.770   75.442    0.375    0.204    8.098
  108.750  160.701   86.593    0.401    0.219    7.214
  109.000  165.852   90.305    0.428    0.267    6.184
  109.250  174.100   92.767    0.449    0.289    5.403
  109.500  178.204   89.026    0.459    0.281    5.099
  109.750  178.169   85.906    0.460    0.270    5.096
  110.000  179.190   84.032    0.453    0.269    5.294
  110.250  183.293   80.908    0.448    0.272    5.393
  110.500  184.307   79.655    0.446    0.265    5.392
  110.750  180.135   76.531    0.410    0.259    5.186
  111.000  174.942   73.411    0.402    0.253    4.989
  111.250  167.674   77.739    0.453    0.285    4.618
  111.500  163.502   82.067    0.474    0.295    4.528
  111.750  162.433   81.426    0.446    0.268    4.440
  112.000  162.413   82.030    0.443    0.264    4.438
  112.250  162.392   83.259    0.443    0.267    4.522
  112.500  160.282   85.100    0.440    0.265    4.608
  112.750  160.268   86.325    0.442    0.252    4.879
  113.000  159.206   86.305    0.456    0.243    5.166
  113.250  159.179   86.292    0.466    0.244    5.684
  113.500  161.213   82.548    0.463    0.246    7.874
  113.750  162.213   80.057    0.430    0.240    8.662
  114.000  165.289   71.972    0.375    0.190    9.173
  114.250  169.393   65.128    0.347    0.163   10.093
  114.500  171.441   63.871    0.373    0.119    9.164
  114.750  171.413   68.819    0.370    0.182    6.485
  115.000  166.214   74.389    0.360    0.234    5.888
  115.250  165.145   78.713    0.367    0.266    5.245
  115.500  167.193   80.558    0.398    0.272    4.856
  115.750  169.242   82.404    0.413    0.276    4.582
  116.000  169.200   82.391    0.419    0.271    4.851
  116.250  168.145   81.754    0.415    0.264    5.338
  116.500  161.904   78.634    0.418    0.253    7.254
  116.750  159.815   68.683    0.420    0.256    7.830
  117.000  157.726   72.387    0.425    0.323    8.783
  117.250  156.664   72.370    0.438    0.378   10.434
  117.500  157.671   66.151    0.355    0.300   13.910
  117.750  158.678   58.066    0.321    0.249   14.450
  118.000  160.719   55.563    0.332    0.201   15.897
  118.250  162.760   54.305    0.350    0.306   16.514
  118.500  165.836   51.186    0.365    0.340   17.151
  118.750  164.760   49.311    0.368    0.353   17.474
  119.000  163.699   46.812    0.362    0.344   16.810
  119.250  162.644   46.175    0.362    0.339   16.170
  119.500  161.582   46.154    0.367    0.339   14.403
  119.750  160.520   46.138    0.376    0.341   13.332
  120.000  160.492   46.121    0.378    0.340   12.107
  120.250  159.430   47.346    0.371    0.330   10.994
  120.500  160.431   49.812    0.377    0.298   10.576
  120.750  160.396   52.279    0.400    0.297    9.422
  121.000  161.403   56.611    0.411    0.294    8.392
  121.250  163.458   61.559    0.377    0.274    7.768
  121.500  169.624   67.745    0.365    0.276    7.055
  121.750  172.706   68.974    0.381    0.274    6.530
  122.000  175.789   74.544    0.371    0.269    6.281
  122.250  177.823   75.764    0.369    0.272    6.159
  122.500  175.734   75.744    0.390    0.281    6.039
  122.750  170.527   78.831    0.385    0.294    6.272
  123.000  166.362   81.921    0.379    0.297    6.393
  123.250  167.376   81.284    0.388    0.266    6.899
  123.500  173.548   75.682    0.417    0.252    7.167
  123.750  174.562   70.080    0.396    0.307    7.735
  124.000  172.459   64.473    0.373    0.328    8.190
  124.250  168.287   66.319    0.365    0.323    8.507
  124.500  167.232   64.440    0.395    0.318    8.502
  124.750  166.177   60.704    0.411    0.324    8.336
  125.000  166.136   58.205    0.424    0.333    8.175
  125.250  167.150   60.050    0.419    0.331    8.017
  125.500  167.122   59.413    0.431    0.331    8.013
  125.750  169.157   58.155    0.428    0.336    7.857
  126.000  169.136   64.966    0.400    0.340    7.854
  126.250  169.102   68.674    0.402    0.335    8.157
  126.500  169.074   64.933    0.399    0.325    8.804
  126.750  169.047   59.952    0.366    0.326    9.688
  127.000  169.026   51.862    0.368    0.356   10.258
  127.250  170.019   51.846    0.397    0.347    9.865
  127.500  168.971   60.514    0.407    0.332    9.132
  127.750  162.737   59.257    0.391    0.330    8.786
  128.000  159.606   56.141    0.382    0.337    7.978
  128.250  158.545   59.228    0.392    0.335    6.971
  128.500  158.510   65.418    0.442    0.306    6.331
  128.750  159.524   72.849    0.452    0.285    5.639
  129.000  160.524   78.419    0.454    0.264    5.221
  129.250  162.565   84.609    0.424    0.242    4.740
  129.500  163.566   90.799    0.413    0.210    4.738
  129.750  163.552   86.438    0.441    0.310    4.828
  130.000  163.518   79.594    0.434    0.285    5.015
  130.250  162.462   75.229    0.441    0.264    5.517
  130.500  163.449   77.074    0.437    0.254    5.842
  130.750  164.463   77.054    0.410    0.236    6.552
  131.000  166.511   76.425    0.400    0.211    6.938
  131.250  171.649   73.922    0.396    0.232    7.207
