~VERSION INFORMATION
 VERS.                 2.0:   CWLS LOG ASCII STANDARD -VERSION 2.0
 WRAP.                  NO:   ONE LINE PER DEPTH STEP
~WELL INFORMATION BLOCK
#MNEM.UNIT           DATA                    DESCRIPTION OF MNEMONIC
#---------    -------------------            -------------------------------
# Generated from Intellog Unique Number	CS_77_79/WELL/881
WELL.         DOME PETROLEUM LIMITED         : Well_name    - WELL
LOC .         00/06-24-077-16W4/0            : Location     - LOCATION
UWI .         00/06-24-077-16W4/0            : Uwi          - UNIQUE WELL ID
ENTR.         SP                             : Entered      - ENTERED BY
SRVC.         SCHLUMBERGER                   : Scn          - SERVICE COMPANY
STRT.M        260                            : top_depth    - START DEPTH
STOP.M        485                            : bot_depth    - STOP DEPTH
STEP.M        0.25                           : increment    - STEP LENGTH
 NULL. -999.2500:NULL Value
~CURVE INFORMATION BLOCK
#MNEM UNIT       ERCB CURVE CODE    CURVE DESCRIPTION
#-----------   ------------------   ----------------------------------
DEPT.M        00 001 00 00         : DEPTH        - DEPTH
ILD .OHMM     00 120 00 00         : RESD         - DEEP RESISTIVITY (DIL)
DPHI.V/V      00 890 00 00         : PHID         - DENSITY POROSITY (LIMESTONE)
NPHI.V/V      00 330 00 00         : PHIN         - NEUTRON POROSITY (LIMESTONE)
GR  .API      00 310 00 00         : GR           - GAMMA RAY
~PARAMETER INFORMATION
#MNEM.UNIT           DATA             DESCRIPTION OF MNEMONIC
#---------         -----------     ------------------------------
GL  .M        653.8                : gl           - GROUND LEVEL ELEVATION
EREF.M        657.6                : kb           - ELEVATION OF DEPTH REFERENCE
DATM.M        653.8                : datum        - DATUM ELEVATION
TDD .M        499                  : tdd          - TOTAL DEPTH DRILLER
RUN .         ONE                  : Run          - RUN NUMBER
ENG .         BILL                 : Engineer     - RECORDING ENGINEER
WIT .         JIM                  : Witness      - WITNESSED BY
MUD .         GEL                  : Mud_type     - MUD TYPE
MATR.         LIMESTONE            : Logunit      - NEUTRON MATRIX
TMAX.C        21                   : BHT          - MAXIMUM RECORDED TEMPERATURE
BHTD.M        499                  : BHTDEP       - MAXIMUM RECORDED TEMPERATURE
MATR.         1                    : LOGUNIT      - NEUTRON MATRIX
RMT .C        25                   : MDTP         - TEMPERATURE OF MUD
NEUT.         1                    : NEUTRON      - NEUTRON TYPE
RESI.         0                    : RESIST       - RESISTIVITY TYPE
RMC .OHMM     0.25                 : RMC          - RESISTIVITY OF MUD CAKE
RMF .OHMM     0.25                 : RMF          - RESISTIVITY OF MUD FILTRATE
SUFT.C        15                   : SUFT         - SURFACE TEMPERATURE
~A  DEPTH     RESD     PHID     PHIN       GR
# ...
  347.000   11.053    0.335    0.388   52.892
  347.250   11.057    0.320    0.388   53.502
  347.500   10.856    0.314    0.389   53.515
  347.750   10.861    0.316    0.393   53.522
  348.000   10.865    0.325    0.398   52.930
  348.250   10.869    0.326    0.403   53.542
  348.500   10.874    0.320    0.409   54.756
  348.750   10.877    0.320    0.412   54.766
  349.000   11.088    0.322    0.415   52.969
  349.250   11.091    0.333    0.410   51.779
  349.500   11.097    0.342    0.403   51.184
  349.750   11.100    0.343    0.397   51.797
  350.000   11.313    0.334    0.393   53.013
  350.250   11.320    0.326    0.395   54.225
  350.500   11.323    0.314    0.395   54.837
  350.750   11.117    0.311    0.398   56.054
  351.000   10.713    0.312    0.399   56.663
  351.250   10.520    0.306    0.398   56.071
  351.500   10.329    0.310    0.402   54.878
  351.750   10.528    0.315    0.406   53.683
  352.000   10.532    0.316    0.412   52.489
  352.250   10.536    0.329    0.406   52.501
  352.500   10.739    0.338    0.404   53.112
  352.750   10.743    0.334    0.400   53.124
  353.000   10.952    0.320    0.396   53.734
  353.250   10.954    0.301    0.394   54.951
  353.500   10.960    0.294    0.390   55.559
  353.750   11.170    0.296    0.386   57.982
  354.000   10.969    0.311    0.385   58.591
  354.250   10.974    0.323    0.385   59.810
  354.500   10.977    0.334    0.385   60.419
  354.750   10.778    0.332    0.392   61.031
  355.000   10.782    0.324    0.402   62.249
  355.250   10.585    0.316    0.411   63.465
  355.500   10.393    0.311    0.417   64.076
  355.750    9.830    0.306    0.425   65.288
  356.000    9.471    0.305    0.435   68.311
  356.250    8.629    0.312    0.452   70.733
  356.500    8.161    0.322    0.465   74.361
  356.750    7.574    0.319    0.476   76.174
  357.000    7.031    0.317    0.460   79.198
  357.250    6.775    0.301    0.446   81.012
  357.500    6.530    0.283    0.429   82.831
  357.750    6.531    0.264    0.421   83.443
  358.000    6.534    0.257    0.429   83.451
  358.250    6.660    0.259    0.427   84.067
  358.500    6.917    0.268    0.421   84.676
  358.750    6.919    0.273    0.425   85.897
  359.000    6.923    0.274    0.432   85.905
  359.250    6.797    0.254    0.439   85.910
  359.500    6.674    0.242    0.443   84.717
  359.750    6.552    0.236    0.438   84.126
  360.000    6.433    0.246    0.427   84.140
  360.250    6.318    0.258    0.419   84.749
  360.500    6.203    0.257    0.414   85.362
  360.750    6.089    0.258    0.411   85.371
  361.000    6.091    0.253    0.425   85.982
  361.250    5.980    0.255    0.437   86.595
  361.500    5.765    0.253    0.445   86.609
  361.750    5.555    0.246    0.445   86.011
  362.000    5.454    0.248    0.442   84.818
  362.250    5.355    0.244    0.434   83.621
  362.500    5.258    0.238    0.431   81.224
  362.750    5.162    0.249    0.429   80.031
  363.000    5.163    0.255    0.443   80.040
  363.250    5.069    0.260    0.456   81.253
  363.500    4.978    0.280    0.461   82.468
  363.750    4.979    0.293    0.466   83.081
  364.000    5.076    0.290    0.463   83.092
  364.250    5.077    0.284    0.458   80.692
  364.500    5.273    0.267    0.455   78.293
  364.750    5.477    0.262    0.452   77.698
  365.000    5.688    0.273    0.447   77.710
  365.250    5.798    0.276    0.447   77.716
  365.500    5.693    0.281    0.463   80.740
  365.750    5.589    0.282    0.477   84.364
  366.000    4.997    0.276    0.498   89.195
  366.250    4.467    0.271    0.512   95.834
  366.500    3.439    0.267    0.525   98.250
  366.750    2.962    0.270    0.540  101.876
  367.000    2.599    0.268    0.535  103.091
  367.250    2.324    0.262    0.523  104.304
  367.500    2.282    0.271    0.509  103.712
  367.750    2.199    0.276    0.506  101.316
  368.000    2.159    0.283    0.502   99.518
  368.250    2.120    0.289    0.508   97.719
  368.500    2.120    0.297    0.504   94.717
  368.750    2.121    0.291    0.503   95.933
  369.000    2.162    0.289    0.496   98.353
  369.250    2.204    0.271    0.486   99.565
  369.500    2.289    0.252    0.477  101.382
  369.750    2.377    0.245    0.463  101.394
  370.000    2.611    0.244    0.449   98.996
  370.250    2.923    0.244    0.444   95.991
  370.500    3.272    0.240    0.436   94.193
  370.750    3.398    0.246    0.431   93.002
  371.000    3.733    0.264    0.427   92.408
  371.250    4.101    0.285    0.418   90.007
  371.500    4.505    0.310    0.413   84.597
  371.750    4.949    0.342    0.404   79.185
  372.000    5.436    0.359    0.397   74.978
  372.250    5.973    0.352    0.389   71.974
  372.500    6.321    0.347    0.383   68.370
  372.750    6.442    0.342    0.381   67.777
  373.000    6.566    0.352    0.383   67.789
  373.250    6.447    0.364    0.393   67.796
  373.500    6.330    0.354    0.399   67.811
  373.750    6.215    0.344    0.408   67.819
  374.000    6.219    0.338    0.415   67.827
  374.250    6.338    0.331    0.418   69.049
  374.500    6.340    0.339    0.418   69.659
  374.750    6.462    0.355    0.400   70.271
  375.000    6.712    0.365    0.392   70.277
  375.250    6.714    0.361    0.388   69.686
  375.500    7.106    0.353    0.387   68.491
  375.750    7.242    0.328    0.395   66.695
  376.000    7.521    0.317    0.400   66.708
  376.250    7.666    0.316    0.401   67.316
  376.500    8.115    0.325    0.401   69.739
  376.750    8.271    0.320    0.400   70.950
  377.000    8.274    0.315    0.400   73.974
  377.250    8.434    0.306    0.402   75.788
  377.500    8.436    0.303    0.402   75.798
  377.750    8.439    0.304    0.404   73.402
  378.000    8.441    0.306    0.405   71.002
  378.250    8.446    0.311    0.414   69.808
  378.500    8.292    0.318    0.412   69.814
  378.750    7.992    0.324    0.410   69.826
  379.000    7.845    0.327    0.405   68.635
  379.250    7.848    0.333    0.397   68.038
  379.500    7.852    0.328    0.386   68.049
  379.750    7.710    0.328    0.384   69.262
  380.000    7.712    0.344    0.385   74.094
  380.250    7.295    0.352    0.386   75.910
  380.500    7.296    0.362    0.387   74.112
  380.750    7.031    0.369    0.389   71.113
  381.000    7.440    0.366    0.385   69.316
  381.250    7.874    0.338    0.367   66.913
  381.500    8.489    0.290    0.341   68.131
  381.750    9.325    0.247    0.291   69.344
  382.000   10.836    0.139    0.260   68.147
  382.250   13.073    0.050    0.233   65.748
  382.500   14.908    0.042    0.132   62.745
  382.750   17.003    0.033    0.110   56.734
  383.000   17.991    0.032    0.126   56.743
  383.250   15.496    0.150    0.180   58.562
  383.500   11.706    0.228    0.253   59.773
  383.750    9.532    0.302    0.343   64.002
  384.000    8.683    0.325    0.438   68.231
  384.250    7.910    0.342    0.449   74.267
  384.500    7.207    0.369    0.441   76.080
  384.750    6.690    0.369    0.433   79.101
  385.000    6.446    0.363    0.417   82.124
  385.250    6.212    0.354    0.409   81.533
  385.500    6.213    0.359    0.398   80.341
  385.750    6.216    0.358    0.393   79.749
  386.000    6.220    0.327    0.392   79.155
  386.250    6.222    0.321    0.397   78.560
  386.500    6.342    0.324    0.401   78.569
  386.750    5.777    0.322    0.406   80.392
  387.000    5.779    0.315    0.412   81.603
  387.250    5.675    0.297    0.418   82.816
  387.500    5.677    0.287    0.418   84.641
  387.750    5.786    0.288    0.417   85.853
  388.000    5.898    0.283    0.417   86.461
  388.250    5.900    0.284    0.418   88.883
  388.500    6.014    0.282    0.418   90.099
  388.750    6.130    0.273    0.420   90.709
  389.000    6.132    0.269    0.423   90.120
  389.250    6.134    0.272    0.423   89.524
  389.500    6.023    0.276    0.423   86.525
  389.750    6.025    0.276    0.422   84.125
  390.000    6.029    0.276    0.422   83.529
  390.250    6.031    0.273    0.423   87.156
