~VERSION INFORMATION
 VERS.                 2.0:   CWLS LOG ASCII STANDARD -VERSION 2.0
 WRAP.                  NO:   ONE LINE PER DEPTH STEP
~WELL INFORMATION BLOCK
#MNEM.UNIT           DATA                    DESCRIPTION OF MNEMONIC
#---------    -------------------            -------------------------------
# Generated from Intellog Unique Number	CW_73_75/WELL/189
WELL.         06-24-074-25W4                 : Well_name    - WELL
LOC .         00/06-24-074-25W4/0            : Location     - LOCATION
UWI .         00/06-24-074-25W4/0            : Uwi          - UNIQUE WELL ID
ENTR.         JJ                             : Entered      - ENTERED BY
SRVC.         WESTERN ATLAS                  : Scn          - SERVICE COMPANY
DATE.         11 JAN 69                      : Date         - LOG DATE
STRT.M        496.824                        : top_depth    - START DEPTH
STOP.M        624.824                        : bot_depth    - STOP DEPTH
STEP.M        0.25                           : increment    - STEP LENGTH
 NULL. -999.2500:NULL Value
~CURVE INFORMATION BLOCK
#MNEM UNIT       ERCB CURVE CODE    CURVE DESCRIPTION
#-----------   ------------------   ----------------------------------
DEPT.M        00 001 00 00         : DEPTH        - DEPTH
DELT.US/F     00 520 00 00         : DELT         - SONIC TRAVEL TIME
GR  .API      00 310 00 00         : GR           - GAMMA RAY
ILD .OHMM     00 120 00 00         : RESD         - DEEP RESISTIVITY (DIL)
~PARAMETER INFORMATION
#MNEM.UNIT           DATA             DESCRIPTION OF MNEMONIC
#---------         -----------     ------------------------------
GL  .M        678.302              : gl           - GROUND LEVEL ELEVATION
EREF.M        681.746              : kb           - ELEVATION OF DEPTH REFERENCE
DATM.M        678.302              : datum        - DATUM ELEVATION
TDD .M        627.888              : tdd          - TOTAL DEPTH DRILLER
RUN .         ONE                  : Run          - RUN NUMBER
ENG .         KOWALCHUK            : Engineer     - RECORDING ENGINEER
WIT .         PASCHKE              : Witness      - WITNESSED BY
BASE.         V.V.                 : Branch       - HOME BASE OF LOGGING UNIT
MUD .         MUD                  : Mud_type     - MUD TYPE
MATR.         SANDSTONE            : Logunit      - NEUTRON MATRIX
TMAX.C        25.5556              : BHT          - MAXIMUM RECORDED TEMPERATURE
BHTD.M        627.888              : BHTDEP       - MAXIMUM RECORDED TEMPERATURE
RMT .C        11.1111              : MDTP         - TEMPERATURE OF MUD
MUDD.KG/M     1128                 : MWT          - MUD DENSITY
NEUT.         1                    : NEUTRON      - NEUTRON TYPE
RESI.         0                    : RESIST       - RESISTIVITY TYPE
RM  .OHMM     3                    : RM           - RESISTIVITY OF MUD
RMC .OHMM     3.5                  : RMC          - RESISTIVITY OF MUD CAKE
RMF .OHMM     2.4                  : RMF          - RESISTIVITY OF MUD FILTRATE
SUFT.C        5                    : SUFT         - SURFACE TEMPERATURE
~A  DEPTH     DELT       GR     RESD
  496.824  354.261   52.815    6.112
  497.074  356.573   55.187    5.415
  497.324  359.947   57.020    5.127
  497.574  363.197   58.344    4.755
  497.824  371.545   61.020    4.671
  498.074  380.897   63.489    4.667
  498.324  384.077   68.505    4.827
  498.574  370.540   65.800    5.270
  498.824  335.526   59.255    5.593
  499.074  316.754   53.209    5.875
  499.324  299.462   56.287    6.074
  499.574  305.192   61.599    6.111
  499.824  364.350   65.764    6.025
  500.074  380.818   64.853    5.901
  500.324  382.920   65.683    5.652
  500.574  384.554   68.108    5.321
  500.824  385.991   67.046    5.196
  501.074  387.755   69.222    4.825
  501.324  389.727   71.245    4.535
  501.574  389.684   68.290    4.328
  501.824  388.435   67.884    4.285
  502.074  387.926   66.067    4.036
  502.324  383.516   64.061    3.910
  502.574  392.402   64.587    3.825
  502.824  407.194   67.611    3.903
  503.074  400.235   66.448    3.981
  503.324  403.543   65.487    4.059
  503.574  389.341   64.225    4.136
  503.824  371.579   60.620    4.131
  504.074  385.897   54.626    4.046
  504.324  384.711   56.608    4.003
  504.574  379.568   54.941    4.039
  504.824  385.971   54.131    4.116
  505.074  401.296   53.963    4.154
  505.324  434.684   54.544    4.272
  505.574  372.686   58.363    4.311
  505.824  380.088   60.489    4.429
  506.074  369.243   55.142    4.628
  506.324  340.805   54.779    4.869
  506.574  350.763   55.311    5.395
  506.824  395.888   54.449    5.718
  507.074  332.081   53.333    7.711
  507.324  294.112   50.326   10.233
  507.574  276.145   46.423   10.882
  507.824  262.746   47.006    8.841
  508.074  264.915   50.276    7.166
  508.324  282.328   52.705    6.020
  508.574  312.689   55.227    5.528
  508.824  366.614   56.602    5.239
  509.074  380.258   56.788    5.113
  509.324  384.983   58.116    5.109
  509.574  387.487   59.447    5.107
  509.824  385.502   58.181    5.184
  510.074  379.825   55.875    5.138
  510.324  373.268   58.797    5.095
  510.574  364.166   57.639    4.887
  510.824  372.244   56.822    4.719
  511.074  377.559   56.961    4.636
  511.324  373.564   56.039    4.632
  511.574  384.598   57.619    4.587
  511.824  384.073   58.351    4.501
  512.074  382.552   60.724    4.376
  512.324  382.255   63.450    4.331
  512.574  398.853   60.541    4.206
  512.824  381.228   62.224    4.161
  513.074  385.279   61.952    4.239
  513.324  377.574   56.308    4.520
  513.574  373.110   58.191    4.924
  513.824  366.550   59.361    5.450
  514.074  367.580   59.445    5.731
  514.324  359.822   56.093    5.850
  514.574  337.293   55.429    5.968
  514.824  348.191   56.859    6.168
  515.074  355.061   57.638    6.165
  515.324  361.793   57.223    6.202
  515.574  363.698   56.959    6.199
  515.824  292.909   54.150    6.153
  516.074  271.384   51.042    5.987
  516.324  277.114   48.190    5.861
  516.574  300.027   50.171    6.061
  516.824  401.069   49.299    6.995
  517.074  370.960   46.002    9.395
  517.324  247.003   45.082   11.959
  517.574  238.031   44.819   13.096
  517.824  229.728   46.202   11.951
  518.074  240.095   47.827    9.869
  518.324  263.874   49.350    8.112
  518.574  327.672   51.677    7.213
  518.824  385.692   54.752    6.394
  519.074  343.561   58.569    5.819
  519.324  273.909   56.913    5.409
  519.574  315.618   54.253    5.037
  519.824  374.107   57.421    4.830
  520.074  362.584   60.196    4.541
  520.324  362.742   56.443    4.496
  520.574  362.425   56.828    4.493
  520.824  361.782   59.649    4.531
  521.074  367.107   58.290    4.568
  521.324  373.369   56.976    4.563
  521.574  374.672   56.061    4.642
  521.824  371.402   56.097    4.922
  522.074  362.440   57.480    5.164
  522.324  333.667   58.802    5.486
  522.574  275.958   59.934    5.686
  522.824  303.374   59.622    5.723
  523.074  349.709   58.854    5.515
  523.324  354.367   58.785    5.430
  523.574  367.749   58.720    5.303
  523.824  371.196   58.908    5.381
  524.074  369.400   59.933    5.459
  524.324  369.769   60.772    5.741
  524.574  372.604   58.508    6.022
  524.824  367.066   57.392    6.426
  525.074  349.566   57.078    6.545
  525.324  329.178   58.558    6.582
  525.574  321.754   58.987    6.497
  525.824  344.605   57.229    6.411
  526.074  364.025   59.108    6.285
  526.324  365.992   63.869    6.282
  526.574  354.611   66.049    6.276
  526.824  355.106   65.180    6.273
  527.074  375.535   64.618    6.270
  527.324  373.742   65.201    6.348
  527.574  368.869   67.825    6.426
  527.824  366.466   68.304    6.504
  528.074  368.715   65.949    6.500
  528.324  367.466   65.679    6.617
  528.574  369.092   70.448    6.695
  528.824  369.524   69.535    6.692
  529.074  368.872   67.477    6.608
  529.324  368.903   68.004    6.400
  529.574  368.052   70.431    6.355
  529.824  369.821   68.923    6.310
  530.074  369.368   69.549    6.307
  530.324  370.068   69.886    6.222
  530.574  370.220   69.915    6.136
  530.824  369.648   71.594    6.051
  531.074  367.860   74.521    5.926
  531.324  365.465   74.156    5.881
  531.574  380.528   73.589    5.877
  531.824  405.723   73.028    5.792
  532.074  378.558   72.958    5.788
  532.324  362.744   73.790    5.783
  532.574  368.938   74.124    5.739
  532.824  369.703   73.159    5.654
  533.074  376.509   71.695    5.610
  533.324  389.888   70.885    5.607
  533.574  384.678   70.919    5.602
  533.824  374.767   72.941    5.517
  534.074  370.090   75.713    5.514
  534.324  372.464   74.953    5.388
  534.574  373.227   73.191    5.302
  534.824  366.198   71.433    5.257
  535.074  367.562   72.362    5.212
  535.324  369.062   72.497    5.291
  535.574  367.011   72.731    5.247
  535.824  366.162   73.706    5.242
  536.074  369.809   75.033    5.280
  536.324  370.365   78.157    5.358
  536.574  368.711   71.865    5.435
  536.824  366.793   72.899    5.432
  537.074  365.543   74.419    5.468
  537.324  370.263   71.015    5.506
  537.574  370.547   70.355    5.705
  537.824  369.973   70.786    5.742
  538.074  373.019   71.318    5.820
  538.324  378.818   70.751    5.898
  538.574  366.695   69.789    5.976
  538.824  367.112   71.317    5.973
  539.074  364.728   68.465    5.846
  539.324  364.678   68.697    5.801
  539.574  360.346   68.677    5.716
  539.824  363.857   67.067    5.591
  540.074  360.794   66.400    5.505
  540.324  362.820   66.832    5.501
  540.574  366.877   68.610    5.539
  540.824  371.605   70.989    5.617
  541.074  374.580   69.074    5.775
  541.324  369.425   65.520    6.138
  541.574  365.229   65.462    6.420
  541.824  362.771   65.292    6.946
  542.074  366.357   64.476    8.369
  542.324  360.733   62.615   10.402
  542.574  355.793   64.148   11.947
  542.824  361.247   65.822   14.144
  543.074  368.795   52.408   15.771
  543.324  376.939   49.994   15.522
  543.574  383.407   47.487   14.785
  543.824  380.616   46.626   14.781
  544.074  376.064   46.310   16.366
  544.324  376.570   50.728   17.952
  544.574  379.078   47.271   20.719
  544.824  377.355   50.693   23.445
  545.074  344.757   50.227   26.172
  545.324  312.023   45.229   26.046
  545.574  289.360   42.824   22.946
  545.824  236.084   42.908   17.359
  546.074  322.232   45.281   13.566
  546.324  362.729   47.903   12.787
  546.574  387.793   46.144   14.128
  546.824  414.798   46.379   15.389
  547.074  433.888   50.002   16.973
  547.324  376.588   51.028   17.376
  547.574  367.345   47.076   17.617
  547.824  362.000   47.456   17.776
  548.074  360.347   48.393   17.813
  548.324  361.645   48.478   17.892
  548.574  364.758   47.808   17.929
  548.824  370.354   46.892   18.170
  549.074  366.011   45.484   18.329
  549.324  368.586   45.066   18.406
  549.574  368.138   44.554   18.526
  549.824  368.827   44.335   18.440
  550.074  370.538   44.869   18.314
  550.324  371.365   45.748   18.188
  550.574  371.178   47.380   18.144
  550.824  371.078   47.310   18.017
