~VERSION INFORMATION
 VERS.                 2.0:   CWLS LOG ASCII STANDARD -VERSION 2.0
 WRAP.                  NO:   ONE LINE PER DEPTH STEP
~WELL INFORMATION BLOCK
#MNEM.UNIT           DATA                    DESCRIPTION OF MNEMONIC
#---------    -------------------            -------------------------------
# Generated from Intellog Unique Number	CX_WELLS/WELL/3164
LOC .         00/03-13-083-10W4/0            : Location     - LOCATION
UWI .         00/03-13-083-10W400            : Uwi          - UNIQUE WELL ID
ENTR.         DW                             : Entered      - ENTERED BY
SRVC.         SCHLUMBERGER                   : Scn          - SERVICE COMPANY
STRT.F        738.189                        : top_depth    - START DEPTH
STOP.F        1573.98                        : bot_depth    - STOP DEPTH
STEP.F        0.82                           : increment    - STEP LENGTH
 NULL. -999.2500:NULL Value
~CURVE INFORMATION BLOCK
#MNEM UNIT       ERCB CURVE CODE    CURVE DESCRIPTION
#-----------   ------------------   ----------------------------------
DEPT.F        00 001 00 00         : DEPTH        - DEPTH
NPHI.V/V      00 330 00 00         : PHIN         - NEUTRON POROSITY (SANDSTONE)
DPHI.V/V      00 890 00 00         : PHID         - DENSITY POROSITY (SANDSTONE)
GR  .API      00 310 00 00         : GR           - GAMMA RAY
ILD .OHMM     00 120 00 00         : RESD         - DEEP RESISTIVITY (DIL)
~PARAMETER INFORMATION
#MNEM.UNIT           DATA             DESCRIPTION OF MNEMONIC
#---------         -----------     ------------------------------
GL  .F        2341.54              : gl           - GROUND LEVEL ELEVATION
EREF.F        2354                 : kb           - ELEVATION OF DEPTH REFERENCE
DATM.F        2354                 : datum        - DATUM ELEVATION
TDD .F        1587.93              : tdd          - TOTAL DEPTH DRILLER
RUN .         ONE                  : Run          - RUN NUMBER
ENG .         BILL                 : Engineer     - RECORDING ENGINEER
WIT .         JIM                  : Witness      - WITNESSED BY
MUD .         GEL                  : Mud_type     - MUD TYPE
MATR.         SANDSTONE            : Logunit      - NEUTRON MATRIX
TMAX.F        69.8                 : BHT          - MAXIMUM RECORDED TEMPERATURE
BHTD.F        1587.93              : BHTDEP       - MAXIMUM RECORDED TEMPERATURE
MATR.         1                    : LOGUNIT      - NEUTRON MATRIX
RMT .F        77                   : MDTP         - TEMPERATURE OF MUD
NEUT.         1                    : NEUTRON      - NEUTRON TYPE
RESI.         0                    : RESIST       - RESISTIVITY TYPE
RMC .OHMM     0.25                 : RMC          - RESISTIVITY OF MUD CAKE
RMF .OHMM     0.25                 : RMF          - RESISTIVITY OF MUD FILTRATE
SUFT.F        59                   : SUFT         - SURFACE TEMPERATURE
~A  DEPTH     PHIN     PHID       GR     RESD
# ...
 1023.620    0.440    0.364   49.859   19.853
 1024.440    0.425    0.358   49.683   19.874
 1025.260    0.417    0.353   51.408   19.910
 1026.080    0.411    0.356   53.335   19.931
 1026.900    0.427    0.364   53.066   19.583
 1027.720    0.453    0.367   51.357   19.611
 1028.540    0.444    0.364   51.647   19.646
 1029.360    0.429    0.363   55.172   19.675
 1030.180    0.425    0.363   58.081   19.338
 1031.000    0.432    0.362   55.247   19.373
 1031.820    0.451    0.362   52.526   19.034
 1032.640    0.471    0.365   54.432   19.055
 1033.460    0.474    0.368   55.235   19.096
 1034.280    0.459    0.371   53.855   19.110
 1035.100    0.449    0.373   50.820   19.137
 1035.930    0.445    0.375   48.288   18.816
 1036.750    0.461    0.373   47.869   18.843
 1037.570    0.480    0.367   49.378   18.514
 1038.390    0.467    0.361   51.437   18.541
 1039.210    0.448    0.360   52.609   18.224
 1040.030    0.424    0.361   52.209   18.250
 1040.850    0.431    0.361   52.042   17.937
 1041.670    0.452    0.360   51.601   17.970
 1042.490    0.455    0.363   50.625   17.656
 1043.310    0.452    0.368   50.701   17.360
 1044.130    0.445    0.374   49.875   17.063
 1044.950    0.431    0.381   46.650   16.771
 1045.770    0.419    0.377   42.940   16.478
 1046.590    0.429    0.370   40.709   16.819
 1047.410    0.452    0.372   44.114   16.843
 1048.230    0.460    0.373   51.234   17.186
 1049.050    0.469    0.373   46.718   17.541
 1049.870    0.459    0.372   44.276   17.554
 1050.690    0.451    0.370   46.794   17.579
 1051.510    0.452    0.365   48.035   17.937
 1052.330    0.454    0.355   46.500   17.976
 1053.150    0.453    0.349   45.536   18.334
 1053.970    0.456    0.352   45.286   18.361
 1054.790    0.459    0.357   47.600   18.387
 1055.610    0.461    0.354   49.303   18.414
 1056.430    0.461    0.352   48.883   18.433
 1057.250    0.454    0.355   48.690   18.460
 1058.070    0.439    0.359   49.786   18.486
 1058.890    0.432    0.363   49.402   18.513
 1059.710    0.432    0.366   47.769   18.540
 1060.530    0.440    0.368   47.042   18.579
 1061.350    0.448    0.370   47.473   18.599
 1062.170    0.449    0.370   48.926   18.620
 1062.990    0.441    0.365   52.187   18.646
 1063.810    0.429    0.358   55.175   18.680
 1064.630    0.430    0.355   53.283   18.700
 1065.450    0.443    0.356   51.279   18.733
 1066.270    0.454    0.360   50.331   18.413
 1067.090    0.457    0.363   50.731   18.433
 1067.910    0.456    0.364   53.930   18.473
 1068.730    0.447    0.363   52.218   18.143
 1069.550    0.447    0.361   47.854   18.183
 1070.370    0.441    0.359   48.080   18.195
 1071.190    0.427    0.355   52.924   18.222
 1072.010    0.429    0.349   56.822   18.261
 1072.830    0.451    0.346   57.529   18.281
 1073.650    0.474    0.347   57.561   18.313
 1074.480    0.487    0.349   57.055   18.327
 1075.300    0.487    0.349   56.800   18.366
 1076.120    0.476    0.348   56.902   18.045
 1076.940    0.460    0.346   58.834   18.065
 1077.760    0.445    0.344   63.678   18.110
 1078.580    0.437    0.344   66.147   18.130
 1079.400    0.439    0.336   64.122   18.149
 1080.220    0.448    0.339   61.772   18.169
 1081.040    0.445    0.339   60.650   18.201
 1081.860    0.428    0.322   60.659   18.228
 1082.680    0.429    0.318   62.295   17.916
 1083.500    0.480    0.332   62.460   17.948
 1084.320    0.490    0.334   61.327   17.634
 1085.140    0.439    0.331   63.825   17.333
 1085.960    0.402    0.334   67.920   16.411
 1086.780    0.413    0.341   67.987   15.532
 1087.600    0.428    0.343   65.260   13.394
 1088.420    0.433    0.343   65.584   12.211
 1089.240    0.428    0.343   67.177    9.590
 1090.060    0.423    0.333   68.448    8.270
 1090.880    0.424    0.315   70.779    6.999
 1091.700    0.435    0.313   72.657    6.752
 1092.520    0.463    0.330   70.086    6.892
 1093.340    0.486    0.332   66.910    7.578
 1094.160    0.479    0.305   70.834    8.487
 1094.980    0.462    0.286   75.380    9.687
 1095.800    0.462    0.315   71.513   11.058
 1096.620    0.481    0.363   63.074   11.495
 1097.440    0.500    0.348   60.106   11.516
 1098.260    0.504    0.281   60.768   11.315
 1099.080    0.461    0.286   65.300   10.522
 1099.900    0.437    0.311   70.304   10.147
 1100.720    0.446    0.317   68.786    9.607
 1101.540    0.447    0.318   65.935    9.271
 1102.360    0.438    0.306   71.855    9.113
 1103.180    0.437    0.305   74.074    9.119
 1104.000    0.439    0.309   69.401    9.139
 1104.820    0.442    0.316   65.932    8.976
 1105.640    0.449    0.326   65.239    8.829
 1106.460    0.460    0.340   66.024    8.675
 1107.280    0.467    0.352   70.511    8.684
 1108.100    0.460    0.347   75.772    8.535
 1108.920    0.455    0.312   79.042    8.395
 1109.740    0.452    0.294   77.543    8.249
 1110.560    0.451    0.310   75.876    8.107
 1111.380    0.452    0.313   80.697    7.824
 1112.200    0.454    0.285   87.724    7.685
 1113.020    0.455    0.272   86.034    7.141
 1113.850    0.455    0.264   88.043    6.392
 1114.670    0.456    0.264   90.192    5.616
 1115.490    0.459    0.278   85.387    4.843
 1116.310    0.459    0.295   81.754    4.417
 1117.130    0.458    0.296   89.566    4.181
 1117.950    0.457    0.282   96.937    3.960
 1118.770    0.453    0.270   95.997    3.820
 1119.590    0.504    0.276   89.911    3.753
 1120.410    0.535    0.283   92.501    3.623
 1121.230    0.510    0.277  101.684    3.560
 1122.050    0.523    0.270  101.719    3.498
 1122.870    0.551    0.273  101.425    3.438
 1123.690    0.565    0.272  103.960    3.380
 1124.510    0.560    0.269  104.955    3.324
 1125.330    0.552    0.271  105.104    3.264
 1126.150    0.549    0.277  107.101    3.212
 1126.970    0.537    0.284  107.813    3.214
 1127.790    0.525    0.270  103.747    3.218
 1128.610    0.521    0.267   99.989    3.224
 1129.430    0.529    0.282   98.346    3.228
 1130.250    0.532    0.287   99.134    3.173
 1131.070    0.521    0.283  100.337    3.004
 1131.890    0.518    0.298  100.315    2.791
 1132.710    0.546    0.304  104.572    2.498
 1133.530    0.546    0.295  110.867    2.365
 1134.350    0.521    0.288  105.421    2.326
 1135.170    0.537    0.296   94.960    2.419
 1135.990    0.580    0.308   93.036    2.514
 1136.810    0.569    0.307   96.522    2.662
 1137.630    0.561    0.297   98.924    2.819
 1138.450    0.563    0.290   97.418    3.042
 1139.270    0.577    0.299   95.352    3.283
 1140.090    0.590    0.316   93.923    3.478
 1140.910    0.589    0.324   92.396    3.897
 1141.730    0.572    0.328   90.776    4.284
 1142.550    0.558    0.325   87.314    5.371
 1143.370    0.540    0.302   82.435    7.391
 1144.190    0.514    0.271   78.819    9.616
 1145.010    0.514    0.273   69.157   14.002
 1145.830    0.523    0.314   60.122   22.799
 1146.650    0.424    0.363   67.250   30.223
 1147.470    0.206    0.436   69.879   37.191
 1148.290    0.154    0.491   61.320   37.947
 1149.110    0.171    0.519   55.536   35.289
 1149.930    0.168    0.528   58.449   33.400
 1150.750    0.176    0.535   60.589   32.209
 1151.570    0.180    0.520   57.123   29.366
 1152.400    0.184    0.426   58.974   25.323
 1153.220    0.185    0.444   61.624   21.035
 1154.040    0.193    0.490   62.134   17.473
 1154.860    0.180    0.491   62.145   14.788
 1155.680    0.232    0.476   60.671   14.001
 1156.500    0.409    0.440   55.730   13.507
 1157.320    0.452    0.386   52.447   13.531
 1158.140    0.462    0.368   51.135   13.555
 1158.960    0.464    0.370   53.161   13.821
 1159.780    0.458    0.366   57.789   14.373
 1160.600    0.459    0.375   62.050   15.230
 1161.420    0.461    0.369   63.114   15.241
 1162.240    0.461    0.239   58.849   15.268
 1163.060    0.456    0.145   51.111   15.002
 1163.880    0.420    0.199   47.755   14.209
 1164.700    0.372    0.311   51.935   13.702
 1165.520    0.372    0.367   57.719   13.218
