~VERSION INFORMATION
 VERS.                 2.0:   CWLS LOG ASCII STANDARD -VERSION 2.0
 WRAP.                  NO:   ONE LINE PER DEPTH STEP
~WELL INFORMATION BLOCK
#MNEM.UNIT           DATA                    DESCRIPTION OF MNEMONIC
#---------    -------------------            -------------------------------
# Generated from Intellog Unique Number	CX_WELLS/WELL/2773
WELL.         CHARD                          : Well_name    - WELL
LOC .         00/08-01-081-06W4/0            : Location     - LOCATION
UWI .         00/08-01-081-06W4/0            : Uwi          - UNIQUE WELL ID
ENTR.         T                              : Entered      - ENTERED BY
SRVC.         SCHLUMBERGER                   : Scn          - SERVICE COMPANY
STRT.M        175                            : top_depth    - START DEPTH
STOP.M        280                            : bot_depth    - STOP DEPTH
STEP.M        0.25                           : increment    - STEP LENGTH
 NULL. -999.2500:NULL Value
~CURVE INFORMATION BLOCK
#MNEM UNIT       ERCB CURVE CODE    CURVE DESCRIPTION
#-----------   ------------------   ----------------------------------
DEPT.M        00 001 00 00         : DEPTH        - DEPTH
GR  .API      00 310 00 00         : GR           - GAMMA RAY
NPHI.V/V      00 330 00 00         : PHIN         - NEUTRON POROSITY (SANDSTONE)
DPHI.V/V      00 890 00 00         : PHID         - DENSITY POROSITY (SANDSTONE)
ILD .OHMM     00 120 00 00         : RESD         - DEEP RESISTIVITY (DLL)
~PARAMETER INFORMATION
#MNEM.UNIT           DATA             DESCRIPTION OF MNEMONIC
#---------         -----------     ------------------------------
GL  .M        473.7                : gl           - GROUND LEVEL ELEVATION
EREF.M        476.9                : kb           - ELEVATION OF DEPTH REFERENCE
DATM.M        476.9                : datum        - DATUM ELEVATION
TDD .M        284                  : tdd          - TOTAL DEPTH DRILLER
RUN .         ONE                  : Run          - RUN NUMBER
ENG .         BILL                 : Engineer     - RECORDING ENGINEER
WIT .         JIM                  : Witness      - WITNESSED BY
MUD .         GEL                  : Mud_type     - MUD TYPE
MATR.         SANDSTONE            : Logunit      - NEUTRON MATRIX
TMAX.C        18                   : BHT          - MAXIMUM RECORDED TEMPERATURE
BHTD.M        284                  : BHTDEP       - MAXIMUM RECORDED TEMPERATURE
MATR.         1                    : LOGUNIT      - NEUTRON MATRIX
RMT .C        12.5                 : MDTP         - TEMPERATURE OF MUD
NEUT.         1                    : NEUTRON      - NEUTRON TYPE
RESI.         4.2                  : RESIST       - RESISTIVITY TYPE
RMC .OHMM     2                    : RMC          - RESISTIVITY OF MUD CAKE
RMF .OHMM     3.9                  : RMF          - RESISTIVITY OF MUD FILTRATE
SUFT.C        4                    : SUFT         - SURFACE TEMPERATURE
~A  DEPTH       GR     PHIN     PHID     RESD
# ...
  218.500   82.709    0.197    0.401   24.562
  218.750   88.809    0.231    0.376   21.001
  219.000   93.081    0.249    0.353   19.419
  219.250   99.791    0.265    0.319   18.672
  219.500  107.110    0.280    0.294   19.801
  219.750  107.116    0.279    0.249   20.997
  220.000  105.295    0.268    0.253   24.079
  220.250  102.863    0.221    0.269   28.716
  220.500  101.040    0.180    0.358   33.581
  220.750   97.998    0.173    0.374   31.665
  221.000   88.254    0.180    0.378   28.155
  221.250   85.212    0.190    0.355   26.548
  221.500  101.673    0.231    0.296   29.276
  221.750  105.945    0.266    0.284   32.922
  222.000   92.545    0.160    0.372   40.038
  222.250   88.283    0.092    0.407   50.635
  222.500   82.805    0.093    0.408   55.837
  222.750   79.153    0.103    0.404   37.749
  223.000   75.504    0.123    0.394   32.914
  223.250   79.774    0.157    0.384   25.024
  223.500  102.331    0.198    0.305   23.139
  223.750  109.041    0.271    0.250   20.175
  224.000  115.141    0.310    0.241   20.979
  224.250  115.147    0.320    0.262   23.135
  224.500  111.496    0.290    0.364   27.055
  224.750  106.017    0.216    0.374   32.903
  225.000   93.834    0.220    0.375   38.478
  225.250   89.573    0.226    0.373   37.730
  225.500   82.267    0.244    0.368   37.728
  225.750   81.662    0.281    0.306   37.726
  226.000   84.717    0.323    0.303   38.470
  226.250   82.285    0.346    0.308   40.004
  226.500   81.072    0.360    0.320   43.260
  226.750   82.906    0.383    0.306   46.780
  227.000   83.521    0.390    0.304   48.645
  227.250   82.308    0.364    0.305   48.643
  227.500   79.876    0.359    0.309   49.602
  227.750   75.616    0.356    0.313   49.598
  228.000   67.090    0.359    0.313   49.597
  228.250   67.095    0.368    0.313   49.594
  228.500   70.759    0.377    0.313   50.572
  228.750   71.984    0.377    0.316   55.768
  229.000   68.944    0.374    0.320   60.307
  229.250   63.464    0.373    0.324   66.504
  229.500   56.767    0.374    0.329   70.523
  229.750   57.992    0.376    0.328   71.911
  230.000   62.872    0.380    0.323   70.515
  230.250   70.800    0.379    0.312   65.200
  230.500   78.729    0.376    0.311   60.289
  230.750   81.173    0.376    0.319   51.548
  231.000   80.569    0.378    0.309   45.835
  231.250   84.231    0.381    0.299   41.560
  231.500   84.848    0.385    0.292   38.428
  231.750   82.418    0.386    0.305   37.682
  232.000   83.641    0.388    0.321   35.531
  232.250   90.960    0.388    0.314   34.166
  232.500   96.451    0.384    0.285   29.212
  232.750  103.161    0.378    0.270   25.471
  233.000  106.214    0.371    0.255   22.647
  233.250  105.002    0.376    0.263   18.621
  233.500  103.180    0.388    0.273   16.557
  233.750   98.920    0.393    0.284   16.556
  234.000  101.363    0.391    0.291   16.555
  234.250  110.511    0.390    0.281   15.919
  234.500  116.611    0.389    0.245   15.010
  234.750  120.274    0.386    0.236   14.153
  235.000  118.453    0.385    0.237   13.346
  235.250  120.287    0.385    0.237   12.584
  235.500  122.729    0.388    0.237   12.340
  235.750  127.001    0.395    0.248   11.866
  236.000  134.323    0.405    0.262   11.409
  236.250  136.157    0.411    0.253   11.409
  236.500  135.554    0.415    0.240   11.408
  236.750  133.122    0.426    0.241   12.098
  237.000  128.860    0.419    0.257   13.082
  237.250  121.552    0.411    0.272   13.873
  237.500  113.635    0.400    0.286   15.298
  237.750   94.748    0.393    0.306   15.599
  238.000   85.613    0.388    0.310   15.598
  238.250   79.524    0.390    0.278   15.296
  238.500   99.641    0.393    0.251   15.295
  238.750  111.836    0.399    0.260   15.294
  239.000  110.015    0.399    0.277   15.904
  239.250   97.223    0.394    0.300   16.538
  239.500   90.525    0.393    0.290   16.537
  239.750  106.986    0.391    0.276   17.536
  240.000  111.259    0.390    0.307   19.338
  240.250   96.637    0.389    0.315   23.062
  240.500   74.702    0.390    0.331   23.981
  240.750   63.738    0.389    0.347   25.430
  241.000   71.057    0.384    0.336   29.739
  241.250   82.033    0.381    0.325   34.779
  241.500   86.915    0.380    0.332   41.476
  241.750   73.513    0.379    0.344   49.462
  242.000   61.331    0.381    0.357   60.153
  242.250   54.633    0.387    0.357   71.736
  242.500   52.812    0.390    0.346   88.964
  242.750   51.599    0.380    0.341  106.092
  243.000   50.386    0.370    0.338  110.322
  243.250   49.173    0.360    0.342  108.179
  243.500   47.958    0.362    0.346  108.175
  243.750   46.745    0.367    0.351  102.000
  244.000   45.535    0.374    0.356  100.019
  244.250   45.538    0.380    0.362   92.482
  244.500   44.934    0.385    0.364   87.204
  244.750   45.554    0.387    0.364   80.633
  245.000   46.166    0.384    0.365   76.032
  245.250   46.172    0.379    0.365   71.692
  245.500   44.351    0.374    0.365   68.937
  245.750   41.919    0.375    0.365   65.003
  246.000   41.925    0.379    0.365   61.292
  246.250   45.591    0.382    0.364   58.936
  246.500   46.811    0.385    0.360   58.934
  246.750   49.256    0.385    0.348   57.788
  247.000   50.479    0.381    0.347   58.928
  247.250   51.707    0.379    0.347   60.090
  247.500   52.322    0.372    0.346   61.273
  247.750   52.328    0.366    0.347   61.271
  248.000   52.333    0.368    0.348   61.268
  248.250   52.338    0.375    0.350   61.265
  248.500   52.346    0.376    0.348   58.910
  248.750   51.133    0.373    0.348   57.766
  249.000   50.528    0.367    0.350   54.469
  249.250   49.924    0.365    0.350   51.360
  249.500   49.322    0.368    0.352   46.570
  249.750   49.328    0.376    0.353   41.408
  250.000   49.946    0.382    0.355   35.405
  250.250   50.560    0.389    0.352   29.685
  250.500   51.783    0.394    0.345   24.890
  250.750   54.837    0.391    0.337   20.464
  251.000   59.108    0.386    0.312   16.180
  251.250   69.474    0.386    0.281   12.063
  251.500   90.811    0.395    0.259    9.537
  251.750  101.787    0.404    0.258    7.690
  252.000  108.498    0.410    0.304    5.962
  252.250   92.658    0.414    0.312    4.622
  252.500   83.522    0.410    0.312    4.359
  252.750   82.309    0.398    0.312    4.358
  253.000   81.098    0.391    0.313    4.358
  253.250   81.104    0.388    0.317    4.358
  253.500   78.672    0.386    0.322    4.029
  253.750   77.457    0.386    0.339    3.951
  254.000   63.446    0.381    0.360    3.799
  254.250   59.185    0.383    0.372    3.513
  254.500   56.754    0.387    0.383    3.445
  254.750   56.759    0.380    0.387    3.445
  255.000   62.252    0.372    0.386    3.653
  255.250   68.961    0.378    0.378    3.798
  255.500   73.843    0.382    0.337    4.107
  255.750   78.724    0.386    0.316    4.271
  256.000   83.606    0.383    0.299    4.529
  256.250   89.706    0.380    0.283    4.803
  256.500   94.587    0.373    0.252    4.710
  256.750  100.688    0.370    0.257    4.529
  257.000  102.522    0.362    0.263    4.529
  257.250   98.873    0.357    0.287    4.354
  257.500   95.831    0.367    0.309    4.354
  257.750   89.743    0.378    0.317    4.106
  258.000   84.874    0.386    0.327    3.948
  258.250   84.269    0.381    0.334    3.796
  258.500   81.837    0.373    0.337    3.650
  258.750   75.139    0.369    0.333    3.579
  259.000   69.052    0.364    0.332    3.510
  259.250   70.275    0.354    0.336    3.442
  259.500   70.281    0.356    0.337    3.441
  259.750   66.022    0.364    0.342    3.375
  260.000   64.809    0.362    0.351    3.374
  260.250   62.987    0.358    0.351    3.374
  260.500   59.947    0.358    0.346    3.309
  260.750   63.000    0.359    0.339    3.309
  261.000   67.270    0.364    0.332    3.308
  261.250   72.761    0.372    0.322    3.440
  261.500   77.643    0.381    0.309    3.577
  261.750   81.916    0.386    0.299    3.720
