~VERSION INFORMATION
 VERS.                 2.0:   CWLS LOG ASCII STANDARD -VERSION 2.0
 WRAP.                  NO:   ONE LINE PER DEPTH STEP
~WELL INFORMATION BLOCK
#MNEM.UNIT           DATA                    DESCRIPTION OF MNEMONIC
#---------    -------------------            -------------------------------
# Generated from Intellog Unique Number	CC_80_83/WELL/2299
NULL.         -999.25                        : NULL_VALUE
WELL.         HB HORSER                      : Well_name    - WELL              
LOC .         07-23-083-13W4                 : Location     - LOCATION          
UWI .         00/07-23-083-13W400            : Uwi          - UNIQUE WELL ID    
ENTR.         DW                             : Entered      - ENTERED BY        
SRVC.         SCHLUMBERGER                   : Scn          - SERVICE COMPANY   
DATE.         17 MAR 75                      : Date         - LOG DATE
STRT.M        91.44                          : top_depth    - START DEPTH       
STOP.M        338.328                        : bot_depth    - STOP DEPTH        
STEP.M        0.3048                         : increment    - STEP LENGTH       
~CURVE INFORMATION BLOCK
#MNEM UNIT       ERCB CURVE CODE    CURVE DESCRIPTION
#-----------   ------------------   ----------------------------------
DEPT.M        00 001 00 00         : DEPTH        - DEPTH                       
DPHI.V/V      00 890 00 00         : PHID         - DENSITY POROSITY (LIMESTONE)
NPHI.V/V      00 330 00 00         : PHIN         - NEUTRON POROSITY (LIMESTONE)
GR  .API      00 310 00 00         : GR           - GAMMA RAY                   
ILD .OHMM     00 120 00 00         : RESD         - DEEP RESISTIVITY (DIL)      
~PARAMETER INFORMATION       
#MNEM.UNIT           DATA             DESCRIPTION OF MNEMONIC
#---------         -----------     ------------------------------
GL  .M        561.442              : gl           - GROUND LEVEL ELEVATION      
EREF.M        563.88               : kb           - ELEVATION OF DEPTH REFERENCE
DATM.M        563.88               : datum        - DATUM ELEVATION             
TDD .M        353.263              : tdd          - TOTAL DEPTH DRILLER         
RUN .         ONE                  : Run          - RUN NUMBER                  
ENG .         BILL                 : Engineer     - RECORDING ENGINEER          
WIT .         JIM                  : Witness      - WITNESSED BY                
MUD .         GEL                  : Mud_type     - MUD TYPE                    
MATR.         LIMESTONE            : Logunit      - NEUTRON MATRIX              
TMAX.C        23.8889              : BHT          - MAXIMUM RECORDED TEMPERATURE
BHTD.M        353.263              : BHTDEP       - MAXIMUM RECORDED TEMPERATURE
MATR.         1                    : LOGUNIT      - NEUTRON MATRIX              
RMT .C        25                   : MDTP         - TEMPERATURE OF MUD          
NEUT.         1                    : NEUTRON      - NEUTRON TYPE                
RESI.         0                    : RESIST       - RESISTIVITY TYPE            
RMC .OHMM     0.25                 : RMC          - RESISTIVITY OF MUD CAKE     
RMF .OHMM     0.25                 : RMF          - RESISTIVITY OF MUD FILTRATE 
SUFT.C        4                    : SUFT         - SURFACE TEMPERATURE         
~A  DEPTH     PHID     PHIN       GR     RESD
# ...
  144.475    0.304    0.453   92.017   10.202
  144.780    0.264    0.447   98.878   15.647
  145.085    0.224    0.444  108.994   15.661
  145.390    0.214    0.442  103.670   15.097
  145.694    0.267    0.465   92.656   13.767
  145.999    0.284    0.478   94.239   12.555
  146.304    0.274    0.487  107.197   12.105
  146.609    0.235    0.476  123.808   11.672
  146.913    0.193    0.467  129.447   10.448
  147.218    0.218    0.479  122.098    8.847
  147.523    0.242    0.491  106.208    9.359
  147.828    0.266    0.459  106.977   10.088
  148.133    0.280    0.456  110.593   11.709
  148.437    0.270    0.457  114.206   14.111
  148.742    0.277    0.489  111.718   14.651
  149.047    0.248    0.488  105.992   14.660
  149.352    0.252    0.468   99.856   13.623
  149.657    0.245    0.447   91.286   13.383
  149.961    0.308    0.431   83.928   13.640
  150.266    0.340    0.391   79.010   14.430
  150.571    0.350    0.319   66.780   16.139
  150.876    0.329    0.347   67.141   19.088
  151.181    0.309    0.399   66.283   20.194
  151.485    0.316    0.441   62.587   20.211
  151.790    0.306    0.472   59.703   19.481
  152.095    0.305    0.462   60.467   18.099
  152.400    0.302    0.448   66.522   17.451
  152.705    0.282    0.442   72.165   17.794
  153.009    0.224    0.448   76.591   17.800
  153.314    0.221    0.457   83.861   16.235
  153.619    0.229    0.441   98.037   13.243
  153.924    0.218    0.458  104.077   10.220
  154.229    0.182    0.471  107.693    8.337
  154.533    0.178    0.472  110.501    7.191
  154.838    0.211    0.490  112.482    6.681
  155.143    0.218    0.489  114.070    6.323
  155.448    0.169    0.486  111.184    6.212
  155.753    0.174    0.507  122.510    6.331
  156.057    0.172    0.525  126.932    6.454
  156.362    0.200    0.490  127.299    6.223
  156.667    0.199    0.496  132.534    6.000
  156.972    0.207    0.513  132.496    6.004
  157.276    0.221    0.534  120.264    6.471
  157.581    0.245    0.499  112.505    7.373
  157.886    0.232    0.461  105.962    9.219
  158.191    0.219    0.476  105.101    9.576
  158.496    0.230    0.469  106.279    9.404
  158.800    0.201    0.452  103.800    9.237
  159.105    0.235    0.509  104.159    9.417
  159.410    0.245    0.525  108.995    9.966
  159.715    0.261    0.500  114.639   10.156
  160.020    0.285    0.501  102.410   11.153
  160.324    0.275    0.473  107.241   11.798
  160.629    0.289    0.485  106.387   12.027
  160.934    0.275    0.471  107.559   12.035
  161.239    0.258    0.456  114.426   12.043
  161.544    0.261    0.489  111.534   11.829
  161.848    0.264    0.493  104.991   11.405
  162.153    0.262    0.437  100.885   11.844
  162.458    0.234    0.464   91.906   12.530
  162.763    0.231    0.492   86.176   13.256
  163.068    0.267    0.439   79.227   14.556
  163.372    0.295    0.443   72.686   15.689
  163.677    0.288    0.466   67.360   16.598
  163.982    0.308    0.473   62.037   17.240
  164.287    0.318    0.486   65.648   17.252
  164.592    0.292    0.472   65.609   17.258
  164.896    0.296    0.471   70.437   16.957
  165.201    0.290    0.470   73.639   16.651
  165.506    0.290    0.486   74.418   16.355
  165.811    0.257    0.511   76.398   15.770
  166.116    0.280    0.534   79.610   14.926
  166.420    0.272    0.527   84.437   13.612
  166.725    0.251    0.515   90.491   11.960
  167.030    0.258    0.502   93.696   10.906
  167.335    0.264    0.530   97.313    9.947
  167.639    0.268    0.521  101.331    9.241
  167.944    0.223    0.480  105.756    8.585
  168.249    0.194    0.459  112.618    7.684
  168.554    0.206    0.495  119.076    6.880
  168.859    0.198    0.527  115.378    6.511
  169.163    0.194    0.528  106.396    6.162
  169.468    0.174    0.535  109.197    5.943
  169.773    0.178    0.533  117.280    5.946
  170.078    0.175    0.488  118.858    6.061
  170.383    0.192    0.504  122.879    6.065
  170.687    0.214    0.524  116.741    6.183
  170.992    0.191    0.538  119.139    6.073
  171.297    0.167    0.485  121.123    6.076
  171.602    0.181    0.500  126.361    6.080
  171.907    0.185    0.536  123.883    6.434
  172.211    0.202    0.556  119.373    6.557
  172.516    0.177    0.565  112.419    6.441
  172.821    0.163    0.523  120.094    6.097
  173.126    0.178    0.504  128.180    5.664
  173.431    0.186    0.507  131.792    5.563
  173.735    0.176    0.527  130.517    5.465
  174.040    0.162    0.540  128.453    5.571
  174.345    0.165    0.547  125.154    5.575
  174.650    0.160    0.573  121.865    5.579
  174.955    0.152    0.541  118.972    5.480
  175.259    0.145    0.527  118.940    5.283
  175.564    0.151    0.561  122.958    5.189
  175.869    0.156    0.573  119.667    5.192
  176.174    0.219    0.550  107.843    5.595
  176.479    0.246    0.558   91.954    6.376
  176.783    0.291    0.574   77.695    7.541
  177.088    0.301    0.579   63.840   12.228
  177.393    0.320    0.529   63.391   13.678
  177.698    0.316    0.488   64.564   13.947
  178.003    0.316    0.476   65.739   13.954
  178.307    0.304    0.483   66.507   13.708
  178.612    0.325    0.512   63.624   13.462
  178.917    0.320    0.481   59.511   12.979
  179.222    0.317    0.481   59.469   12.750
  179.526    0.291    0.482   63.897   12.761
  179.831    0.308    0.491   68.729   12.766
  180.136    0.321    0.508   70.308   13.015
  180.441    0.311    0.512   65.799   13.021
  180.746    0.291    0.498   69.819   13.276
  181.050    0.299    0.510   75.055   13.535
  181.355    0.304    0.499   74.609   13.794
  181.660    0.304    0.514   70.496   13.804
  181.965    0.303    0.503   72.900   13.812
  182.270    0.307    0.501   70.816   13.568
  182.574    0.304    0.503   71.994   13.576
  182.879    0.301    0.487   72.766   13.585
  183.184    0.301    0.475   71.914   13.850
  183.489    0.301    0.478   73.495   13.858
  183.794    0.295    0.490   75.071   13.867
  184.098    0.288    0.505   77.043   13.878
  184.403    0.275    0.515   77.832   13.633
  184.708    0.282    0.491   79.818   13.638
  185.013    0.298    0.477   80.180   13.650
  185.318    0.305    0.471   78.512   13.656
  185.622    0.291    0.491   70.351   13.667
  185.927    0.309    0.500   67.868   13.674
  186.232    0.306    0.518   72.700   13.683
  186.537    0.314    0.532   73.876   13.694
  186.842    0.316    0.518   76.266   13.450
  187.146    0.303    0.506   77.849   13.457
  187.451    0.308    0.506   76.178   12.975
  187.756    0.297    0.503   74.107   12.743
  188.061    0.302    0.497   74.060   12.062
  188.366    0.319    0.476   74.831   11.848
  188.670    0.323    0.479   76.414   11.856
  188.975    0.288    0.505   77.588   12.084
  189.280    0.288    0.525   72.269   12.786
  189.585    0.306    0.531   71.401   12.795
  189.889    0.287    0.534   73.807   12.567
  190.194    0.285    0.508   79.859   11.675
  190.499    0.308    0.519   82.245   11.049
  190.804    0.322    0.514   74.895   10.853
  191.109    0.289    0.503   76.069   11.273
  191.413    0.266    0.508   80.499   10.868
  191.718    0.293    0.517   79.637   10.675
  192.023    0.289    0.518   79.187    9.734
  192.328    0.271    0.522   76.305    8.554
  192.633    0.271    0.507   78.701    7.242
  192.937    0.273    0.515   79.055    6.984
  193.242    0.248    0.531   86.332    7.119
  193.547    0.201    0.477   93.596    7.672
  193.852    0.250    0.503   91.524    8.582
  194.157    0.271    0.547   85.391    9.250
  194.461    0.295    0.540   74.380    9.430
  194.766    0.270    0.523   73.522    9.437
  195.071    0.294    0.510   75.107    9.267
  195.376    0.281    0.538   82.375    9.104
  195.681    0.283    0.471   86.392    8.941
  195.985    0.264    0.500   86.755    8.464
  196.290    0.252    0.519   83.462    8.159
  196.595    0.275    0.515   83.010    7.304
  196.900    0.238    0.536   91.908    6.184
  197.205    0.240    0.534   92.677    5.334
