~VERSION INFORMATION
 VERS.                 2.0:   CWLS LOG ASCII STANDARD -VERSION 2.0
 WRAP.                  NO:   ONE LINE PER DEPTH STEP
~WELL INFORMATION BLOCK
#MNEM.UNIT           DATA                    DESCRIPTION OF MNEMONIC
#---------    -------------------            -------------------------------
# Generated from Intellog Unique Number	CW_79_81/WELL/2444
WELL.         04-12-081-23W4                 : Well_name    - WELL
LOC .         00/04-12-081-23W4/0            : Location     - LOCATION
UWI .         00/04-12-081-23W4/0            : Uwi          - UNIQUE WELL ID
ENTR.         MAX                            : Entered      - ENTERED BY
SRVC.         SCHLUMBERGER                   : Scn          - SERVICE COMPANY
STRT.M        240                            : top_depth    - START DEPTH
STOP.M        454.75                         : bot_depth    - STOP DEPTH
STEP.M        0.25                           : increment    - STEP LENGTH
 NULL. -999.2500:NULL Value
~CURVE INFORMATION BLOCK
#MNEM UNIT       ERCB CURVE CODE    CURVE DESCRIPTION
#-----------   ------------------   ----------------------------------
DEPT.M        00 001 00 00         : DEPTH        - DEPTH
ILD .OHMM     00 120 00 00         : RESD         - DEEP RESISTIVITY (DIL)
NPHI.V/V      00 330 00 00         : PHIN         - NEUTRON POROSITY (SANDSTONE)
DPHI.V/V      00 890 00 00         : PHID         - DENSITY POROSITY (SANDSTONE)
GR  .API      00 310 00 00         : GR           - GAMMA RAY
CALI.MM       00 280 01 00         : CAL          - CALIPER
~PARAMETER INFORMATION
#MNEM.UNIT           DATA             DESCRIPTION OF MNEMONIC
#---------         -----------     ------------------------------
GL  .M        601                  : gl           - GROUND LEVEL ELEVATION
EREF.M        604.6                : kb           - ELEVATION OF DEPTH REFERENCE
DATM.M        601                  : datum        - DATUM ELEVATION
TDD .M        459.2                : tdd          - TOTAL DEPTH DRILLER
RUN .         ONE                  : Run          - RUN NUMBER
ENG .         BILL                 : Engineer     - RECORDING ENGINEER
WIT .         JIM                  : Witness      - WITNESSED BY
MUD .         GEL                  : Mud_type     - MUD TYPE
MATR.         SANDSTONE            : Logunit      - NEUTRON MATRIX
TMAX.C        24                   : BHT          - MAXIMUM RECORDED TEMPERATURE
BHTD.M        459.2                : BHTDEP       - MAXIMUM RECORDED TEMPERATURE
MATR.         1                    : LOGUNIT      - NEUTRON MATRIX
RMT .C        21                   : MDTP         - TEMPERATURE OF MUD
NEUT.         1                    : NEUTRON      - NEUTRON TYPE
RESI.         0                    : RESIST       - RESISTIVITY TYPE
RMC .OHMM     5.18                 : RMC          - RESISTIVITY OF MUD CAKE
RMF .OHMM     5.48                 : RMF          - RESISTIVITY OF MUD FILTRATE
SUFT.C        -10                  : SUFT         - SURFACE TEMPERATURE
~A  DEPTH     RESD     PHIN     PHID       GR      CAL
# ...
  349.500    6.486    0.455    0.269   70.879  243.124
  349.750    6.540    0.443    0.265   71.634  245.570
  350.000    6.558    0.447    0.256   70.958  244.448
  350.250    6.539    0.444    0.249   70.755  243.120
  350.500    6.532    0.432    0.247   71.681  243.273
  350.750    6.646    0.435    0.253   73.450  245.676
  351.000    6.704    0.484    0.260   74.974  249.454
  351.250    6.660    0.479    0.258   75.246  251.101
  351.500    6.544    0.479    0.259   74.992  252.461
  351.750    6.455    0.485    0.260   74.795  253.317
  352.000    6.426    0.492    0.258   75.126  253.964
  352.250    6.431    0.483    0.259   76.356  254.811
  352.500    6.437    0.464    0.264   76.392  252.822
  352.750    6.444    0.447    0.265   74.767  250.504
  353.000    6.485    0.440    0.269   72.792  248.201
  353.250    6.585    0.444    0.269   71.403  246.483
  353.500    6.749    0.452    0.260   70.663  245.251
  353.750    7.042    0.449    0.235   69.666  243.662
  354.000    7.495    0.444    0.225   69.203  243.316
  354.250    8.240    0.444    0.233   69.004  243.775
  354.500    9.161    0.451    0.265   69.158  244.819
  354.750   10.201    0.464    0.280   69.315  245.078
  355.000   11.283    0.475    0.270   68.584  244.355
  355.250   12.529    0.458    0.238   64.300  243.805
  355.500   13.541    0.406    0.138   58.150  244.696
  355.750   15.537    0.290    0.054   52.962  245.546
  356.000   19.414    0.225    0.069   49.375  245.509
  356.250   24.238    0.192    0.115   47.513  244.976
  356.500   28.185    0.186    0.160   48.088  244.444
  356.750   29.567    0.222    0.220   52.855  244.615
  357.000   23.160    0.269    0.269   55.118  245.087
  357.250   16.987    0.381    0.306   55.398  245.145
  357.500   13.723    0.426    0.313   56.034  245.212
  357.750   12.106    0.442    0.313   56.547  245.273
  358.000   11.396    0.454    0.316   56.996  245.327
  358.250   11.080    0.470    0.320   58.382  245.489
  358.500   11.088    0.480    0.314   60.410  245.981
  358.750   10.937    0.472    0.310   60.678  246.428
  359.000   10.668    0.461    0.317   60.777  247.182
  359.250   10.368    0.459    0.323   61.650  248.037
  359.500   10.040    0.468    0.322   63.590  248.695
  359.750    9.438    0.481    0.315   66.736  249.102
  360.000    8.627    0.474    0.299   69.251  250.818
  360.250    8.019    0.476    0.260   70.948  252.070
  360.500    7.799    0.467    0.224   70.154  252.134
  360.750    7.862    0.450    0.223   69.004  251.600
  361.000    8.089    0.436    0.252   69.103  250.767
  361.250    8.264    0.446    0.265   71.973  249.322
  361.500    8.210    0.466    0.251   74.236  247.745
  361.750    8.466    0.451    0.248   75.228  247.407
  362.000    8.534    0.452    0.252   75.143  247.370
  362.250    8.569    0.455    0.261   75.059  247.236
  362.500    8.639    0.454    0.268   75.216  247.001
  362.750    8.725    0.446    0.266   74.976  247.072
  363.000    8.801    0.441    0.261   74.772  247.138
  363.250    8.808    0.454    0.257   74.573  247.604
  363.500    8.816    0.462    0.259   74.546  248.056
  363.750    8.791    0.477    0.259   74.939  248.708
  364.000    8.686    0.497    0.254   75.632  249.566
  364.250    8.379    0.499    0.248   75.806  250.610
  364.500    8.074    0.470    0.251   74.126  251.488
  364.750    7.731    0.453    0.248   73.674  252.357
  365.000    7.488    0.438    0.246   73.949  252.612
  365.250    7.305    0.425    0.248   75.293  253.066
  365.500    7.153    0.424    0.250   77.229  253.822
  365.750    6.983    0.465    0.245   78.760  254.376
  366.000    6.884    0.518    0.241   80.285  254.849
  366.250    6.739    0.510    0.249   81.752  255.321
  366.500    6.599    0.492    0.268   82.501  255.478
  366.750    6.581    0.478    0.283   83.373  254.746
  367.000    6.800    0.478    0.289   83.236  253.329
  367.250    7.663    0.494    0.288   78.252  252.128
  367.500    9.026    0.487    0.281   74.581  251.775
  367.750   10.284    0.471    0.250   73.190  251.846
  368.000   11.313    0.447    0.240   68.954  251.902
  368.250   11.891    0.432    0.250   66.619  251.965
  368.500   11.946    0.436    0.262   66.774  251.937
  368.750   11.567    0.456    0.238   64.923  251.524
  369.000   11.307    0.455    0.203   60.261  251.185
  369.250   13.344    0.424    0.152   55.074  250.450
  369.500   15.939    0.341    0.081   51.130  250.315
  369.750   19.043    0.269    0.057   49.147  250.375
  370.000   21.250    0.243    0.092   49.720  250.434
  370.250   18.417    0.278    0.151   55.161  250.511
  370.500   14.425    0.329    0.189   64.360  250.578
  370.750   11.701    0.374    0.204   66.770  250.635
  371.000    9.686    0.402    0.220   70.608  250.702
  371.250    8.305    0.428    0.228   74.923  250.766
  371.500    7.441    0.454    0.228   78.762  250.929
  371.750    6.984    0.470    0.228   80.593  251.500
  372.000    6.782    0.475    0.232   77.660  251.959
  372.250    6.837    0.462    0.228   74.614  252.029
  372.500    7.160    0.450    0.221   73.876  252.085
  372.750    7.784    0.433    0.215   73.672  252.145
  373.000    8.688    0.414    0.212   73.237  252.212
  373.250    9.634    0.407    0.222   72.959  252.285
  373.500    9.569    0.413    0.229   73.737  252.358
  373.750    9.163    0.416    0.234   74.010  252.019
  374.000    9.474    0.419    0.235   71.612  251.983
  374.250   10.229    0.421    0.228   68.085  252.439
  374.500   11.249    0.422    0.214   64.738  253.095
  374.750   12.242    0.416    0.205   62.445  252.897
  375.000   11.930    0.417    0.203   61.444  251.520
  375.250   11.760    0.413    0.204   64.068  251.567
  375.500   11.723    0.407    0.206   66.511  251.315
  375.750   11.903    0.404    0.206   66.773  250.961
  376.000   12.268    0.403    0.205   65.974  250.705
  376.250   12.666    0.395    0.209   68.657  250.674
  376.500   12.773    0.390    0.221   70.160  250.307
  376.750   12.313    0.411    0.237   70.191  249.956
  377.000   11.669    0.434    0.239   70.212  250.487
  377.250   10.834    0.450    0.230   70.470  251.317
  377.500   10.156    0.457    0.219   71.500  251.657
  377.750   10.240    0.455    0.216   74.377  250.438
  378.000   10.651    0.432    0.233   75.629  250.063
  378.250   10.736    0.461    0.243   75.423  249.327
  378.500   10.642    0.455    0.237   76.450  248.580
  378.750   10.609    0.435    0.229   78.010  247.837
  379.000   10.534    0.421    0.223   79.513  247.291
  379.250    9.996    0.425    0.217   80.781  247.571
  379.500    9.925    0.416    0.228   82.285  248.845
  379.750   10.379    0.425    0.239   83.727  248.888
  380.000   10.329    0.431    0.237   83.223  249.222
  380.250   10.108    0.427    0.226   82.065  249.855
  380.500    9.929    0.414    0.213   80.963  250.491
  380.750    9.876    0.401    0.210   80.001  250.049
  381.000    9.959    0.388    0.219   79.779  247.627
  381.250   10.039    0.392    0.221   76.258  247.276
  381.500    9.951    0.395    0.218   75.219  247.807
  381.750    9.773    0.409    0.213   75.953  249.427
  382.000    9.583    0.434    0.212   77.573  251.146
  382.250    9.434    0.456    0.220   79.169  250.462
  382.500    9.367    0.446    0.221   79.934  248.865
  382.750    9.372    0.450    0.216   77.833  248.518
  383.000    9.481    0.452    0.214   76.084  248.164
  383.250    9.768    0.441    0.217   75.281  247.808
  383.500   10.164    0.422    0.224   75.424  247.651
  383.750   10.400    0.408    0.235   76.073  248.261
  384.000   10.405    0.407    0.234   76.843  249.135
  384.250   10.411    0.406    0.229   78.047  250.743
  384.500   10.475    0.419    0.234   79.606  251.768
  384.750   10.675    0.434    0.233   81.283  251.613
  385.000   10.819    0.441    0.227   81.957  249.981
  385.250   10.354    0.434    0.228   79.528  245.728
  385.500    9.970    0.434    0.222   79.056  240.025
  385.750    9.975    0.410    0.215   80.972  245.190
