~VERSION INFORMATION
 VERS.                 2.0:   CWLS LOG ASCII STANDARD -VERSION 2.0
 WRAP.                  NO:   ONE LINE PER DEPTH STEP
~WELL INFORMATION BLOCK
#MNEM.UNIT           DATA                    DESCRIPTION OF MNEMONIC
#---------    -------------------            -------------------------------
# Generated from Intellog Unique Number	CW_76_78/WELL/702
NULL.         -999.25                        : NULL_VALUE
WELL.         ERSKINE-MARTEN HILLS 08-09     : Well_name    - WELL              
LOC .         00/08-09-077-02W5/0            : Location     - LOCATION          
UWI .         00/08-09-077-02W5/0            : Uwi          - UNIQUE WELL ID    
ENTR.         JAYE                           : Entered      - ENTERED BY        
SRVC.         WESTERN ATLAS                  : Scn          - SERVICE COMPANY   
DATE.         24 NOV 77                      : Date         - LOG DATE          
STRT.M        450                            : top_depth    - START DEPTH       
STOP.M        650                            : bot_depth    - STOP DEPTH        
STEP.M        0.25                           : increment    - STEP LENGTH       
~CURVE INFORMATION BLOCK
#MNEM UNIT       ERCB CURVE CODE    CURVE DESCRIPTION
#-----------   ------------------   ----------------------------------
DEPT.M        00 001 00 00         : DEPTH        - DEPTH                       
DPHI.V/V      00 890 00 00         : PHID         - DENSITY POROSITY (SANDSTONE)
NPHI.V/V      00 330 00 00         : PHIN         - NEUTRON POROSITY (SANDSTONE)
GR  .API      00 310 00 00         : GR           - GAMMA RAY                   
CALI.IN       00 280 01 00         : CAL          - CALIPER                     
ILD .OHMM     00 120 00 00         : RESD         - DEEP RESISTIVITY (DIL)      
~PARAMETER INFORMATION       
#MNEM.UNIT           DATA             DESCRIPTION OF MNEMONIC
#---------         -----------     ------------------------------
GL  .M        742.1                : gl           - GROUND LEVEL ELEVATION      
EREF.M        745.1                : kb           - ELEVATION OF DEPTH REFERENCE
DATM.M        742.1                : datum        - DATUM ELEVATION             
TDD .M        656                  : tdd          - TOTAL DEPTH DRILLER         
RUN .         ONE                  : Run          - RUN NUMBER                  
ENG .         WHERLEY              : Engineer     - RECORDING ENGINEER          
WIT .         FITZSIMMONS          : Witness      - WITNESSED BY                
BASE.         LEDUC                : Branch       - HOME BASE OF LOGGING UNIT   
MUD .         GEL CHEM             : Mud_type     - MUD TYPE                    
MATR.         SANDSTONE            : Logunit      - NEUTRON MATRIX              
TMAX.C        28                   : BHT          - MAXIMUM RECORDED TEMPERATURE
BHTD.M        656.1                : BHTDEP       - MAXIMUM RECORDED TEMPERATURE
RMT .C        18                   : MDTP         - TEMPERATURE OF MUD          
MUDD.KG/M     1150                 : MWT          - MUD DENSITY                 
NEUT.         1                    : NEUTRON      - NEUTRON TYPE                
RESI.         0                    : RESIST       - RESISTIVITY TYPE            
RM  .OHMM     4.1                  : RM           - RESISTIVITY OF MUD          
RMC .OHMM     3.2                  : RMC          - RESISTIVITY OF MUD CAKE     
RMF .OHMM     4.9                  : RMF          - RESISTIVITY OF MUD FILTRATE 
SUFT.C        4.5                  : SUFT         - SURFACE TEMPERATURE         
~A  DEPTH     PHID     PHIN       GR      CAL     RESD
  450.000    0.166    0.430  106.639    6.934    2.640
  450.250    0.172    0.410  100.965    6.960    2.613
  450.500    0.183    0.410  104.657    6.975    2.585
  450.750    0.184    0.430  106.027    7.014    2.606
  451.000    0.182    0.476  105.577    7.017    2.650
  451.250    0.181    0.483  110.975    6.991    2.686
  451.500    0.182    0.429  109.119    6.994    2.723
  451.750    0.182    0.426   95.964    6.996    2.775
  452.000    0.181    0.415   96.734    7.011    2.838
  452.250    0.190    0.408   99.324    7.002    2.931
  452.500    0.199    0.415  103.194    6.992    3.043
  452.750    0.194    0.407   94.661    6.982    3.217
  453.000    0.167    0.377   88.618    6.977    3.409
  453.250    0.162    0.337   87.257    6.951    3.671
  453.500    0.148    0.313   72.765    6.888    3.926
  453.750    0.137    0.327   53.531    6.794    4.503
  454.000    0.180    0.335   61.291    6.711    5.052
  454.250    0.197    0.344   88.022    6.625    5.026
  454.500    0.193    0.364  101.738    6.635    4.680
  454.750    0.178    0.386   97.276    6.719    4.324
  455.000    0.175    0.392  101.327    6.851    4.140
  455.250    0.189    0.382   97.900    7.016    4.034
  455.500    0.186    0.396   89.549    7.112    3.994
  455.750    0.177    0.396   79.069    7.134    3.943
  456.000    0.184    0.369   72.421    7.165    3.918
  456.250    0.192    0.381   96.715    7.253    3.812
  456.500    0.198    0.390   87.148    7.357    3.576
  456.750    0.198    0.400   91.929    7.302    3.335
  457.000    0.198    0.418   90.152    7.119    3.398
  457.250    0.199    0.439   91.829    7.113    3.495
  457.500    0.202    0.453   88.882    7.197    3.656
  457.750    0.208    0.407   88.617    7.155    3.953
  458.000    0.219    0.353   75.340    7.008    4.636
  458.250    0.256    0.351   68.388    6.933    5.672
  458.500    0.249    0.364   66.117    6.851    7.955
  458.750    0.255    0.356   53.083    6.792    9.971
  459.000    0.272    0.351   49.898    6.750   11.500
  459.250    0.310    0.365   48.418    6.740   12.689
  459.500    0.313    0.366   42.801    6.755   13.618
  459.750    0.310    0.348   49.103    6.778   15.024
  460.000    0.308    0.347   49.507    6.825   16.761
  460.250    0.308    0.356   44.923    6.856   18.528
  460.500    0.309    0.363   41.436    6.900   19.596
  460.750    0.311    0.377   45.183    6.918   19.933
  461.000    0.305    0.370   49.599    6.912   20.018
  461.250    0.299    0.371   56.750    6.858   20.857
  461.500    0.304    0.366   50.892    6.808   22.176
  461.750    0.310    0.358   41.751    6.778   22.982
  462.000    0.315    0.370   44.346    6.748   23.162
  462.250    0.309    0.371   47.909    6.711   23.006
  462.500    0.292    0.361   48.127    6.701   20.948
  462.750    0.290    0.358   46.342    6.679   19.006
  463.000    0.292    0.357   46.987    6.694   17.629
  463.250    0.288    0.356   49.949    6.737   16.382
  463.500    0.280    0.357   50.166    6.804   15.196
  463.750    0.273    0.355   53.123    6.888   14.543
  464.000    0.274    0.367   51.585    6.927   14.602
  464.250    0.278    0.361   52.227    6.905   14.721
  464.500    0.280    0.354   51.477    6.880   14.837
  464.750    0.300    0.353   51.025    6.841   14.253
  465.000    0.308    0.371   50.274    6.820   13.668
  465.250    0.306    0.360   53.475    6.814   13.179
  465.500    0.304    0.359   51.930    6.845   12.778
  465.750    0.306    0.361   52.153    6.884   12.434
  466.000    0.305    0.366   54.260    6.907   12.148
  466.250    0.299    0.357   52.775    6.897   11.909
  466.500    0.299    0.350   52.146    6.872   11.741
  466.750    0.304    0.353   55.469    6.842   11.551
  467.000    0.311    0.366   54.170    6.836   11.389
  467.250    0.314    0.391   53.420    6.855   11.166
  467.500    0.313    0.379   57.102    6.890   10.983
  467.750    0.308    0.364   50.149    6.921   10.971
  468.000    0.299    0.363   47.088    6.931   11.019
  468.250    0.293    0.367   54.185    6.930   11.063
  468.500    0.300    0.377   55.493    6.912   11.088
  468.750    0.318    0.396   56.566    6.890   11.137
  469.000    0.314    0.402   49.672    6.857   11.184
  469.250    0.296    0.388   46.732    6.847   11.274
  469.500    0.282    0.365   50.114    6.830   11.383
  469.750    0.289    0.358   53.802    6.824   11.453
  470.000    0.300    0.364   46.117    6.826   11.459
  470.250    0.309    0.379   43.785    6.850   11.316
  470.500    0.305    0.391   46.926    6.860   11.155
  470.750    0.300    0.372   45.383    6.866   11.142
  471.000    0.292    0.358   51.560    6.873   11.084
  471.250    0.290    0.363   47.221    6.880   11.070
  471.500    0.297    0.373   52.184    6.886   11.114
  471.750    0.293    0.363   52.830    6.889   11.183
  472.000    0.285    0.358   51.836    6.907   11.169
  472.250    0.287    0.361   49.686    6.926   11.156
  472.500    0.289    0.378   48.936    6.970   11.098
  472.750    0.288    0.381   50.978    7.021   11.065
  473.000    0.293    0.361   58.433    7.048   11.050
  473.250    0.295    0.355   62.119    7.034   11.053
  473.500    0.297    0.361   54.983    6.972   11.082
  473.750    0.307    0.372   41.404    6.917   11.107
  474.000    0.308    0.364   47.703    6.887   11.112
  474.250    0.301    0.374   47.925    6.906   11.261
  474.500    0.298    0.368   56.717    6.937   11.394
  474.750    0.302    0.375   57.303    6.964   11.678
  475.000    0.307    0.371   55.396    6.975   12.055
  475.250    0.312    0.373   57.747    6.941   12.286
  475.500    0.315    0.377   54.743    6.891   12.568
  475.750    0.327    0.378   54.661    6.849   12.785
  476.000    0.333    0.387   53.241    6.839   13.127
  476.250    0.335    0.379   49.812    6.866   13.578
  476.500    0.334    0.378   55.566    6.909   14.199
  476.750    0.332    0.367   52.624    6.948   14.524
  477.000    0.310    0.340   48.347    6.983   14.640
  477.250    0.252    0.240   51.914    6.989   13.859
  477.500    0.138    0.263   48.547    6.980   12.831
  477.750    0.210    0.298   44.146    6.974   11.662
  478.000    0.211    0.316   45.886    6.977   10.797
  478.250    0.199    0.286   35.834    6.976   10.182
  478.500    0.194    0.292   36.847    6.966    9.945
  478.750    0.205    0.303   43.450    6.965    9.931
  479.000    0.215    0.306   45.375    6.955   10.012
  479.250    0.213    0.316   42.917    6.974   10.054
  479.500    0.206    0.315   37.424    7.033   10.170
  479.750    0.196    0.314   33.087    7.105   10.287
  480.000    0.193    0.308   31.420    7.131   10.238
  480.250    0.205    0.324   35.471    7.118    9.817
  480.500    0.220    0.349   45.422    7.023    9.106
  480.750    0.239    0.364   50.200    6.981    8.462
  481.000    0.260    0.356   47.625    7.016    7.864
  481.250    0.273    0.347   50.462    7.091    7.161
  481.500    0.257    0.339   79.437    7.127    6.678
  481.750    0.229    0.352   89.872    7.088    6.548
  482.000    0.211    0.372   95.928    6.994    6.537
  482.250    0.214    0.362   91.895    6.879    6.579
  482.500    0.214    0.356   76.916    6.869    6.655
  482.750    0.206    0.352   87.290    7.006    6.708
  483.000    0.193    0.367   93.589    7.146    6.823
  483.250    0.185    0.375  110.530    7.250    7.163
  483.500    0.201    0.399   99.016    7.276    8.185
  483.750    0.375    0.445   63.063    7.251    9.099
  484.000    0.324    0.436   46.138    7.034   10.474
  484.250    0.302    0.358   49.642    6.907   11.431
  484.500    0.235    0.337   50.047    6.886   12.519
  484.750    0.258    0.353   51.484    6.896   13.535
  485.000    0.273    0.361   55.716    6.907   14.446
  485.250    0.280    0.359   54.416    6.918   14.695
  485.500    0.286    0.352   49.837    6.920   14.512
  485.750    0.279    0.345   51.941    6.939   14.151
  486.000    0.280    0.338   52.408    6.982   13.368
  486.250    0.279    0.339   57.796    7.033   12.702
