~V
VERS. 2.00: Ver 2.00
WRAP. NO:
VEND. PRIZM:GeoGraphix
~W
STRT.M 125.0000:START DEPTH
STOP.M 325.0000:STOP DEPTH
STEP.M 0.2500:STEP
NULL. -999.2500:NULL VALUE
WELL. 00/06-21-082-05W4/0 :WELL
COMP. :COMPANY
UWI. 00_06-21-082-05W4_0:UNIQUE WELL ID
FLD. :FIELD
CNTY. :COUNTY
STAT. :STATE
CTRY. :COUNTRY
PDAT. :PERMANENT DATUM
LMF. :LOG MEASURED FROM
DMF. :DRILLING MEASURED FROM
LOC1. :LOCATION LINE 1
LOC2. :LOCATION LINE 2
LOC3. :LOCATION LINE 3
SEC. :SECTION
TWP. :TOWNSHIP
RAN. :RANGE
SRVC. :Logging Company
BASE. :Logging Unit Location
ENG. :Logging Engineer
WITN. :Witnessed By
RUN. :Run No.
MUD_TYPE. :Type Fluid in Hole
MUDS. :Source of Mud Sample
RMFS. :Source of Mud Filtrate
RMCS. :Source of Mud Cake
LOC. :LOCATION
DATE. :LOG DATE
~C
DEPT.M :DEPTH
NPHI. :NPHI
GR.API :GR
DPHI. :Created by graphical digitiser entry.
ILD.Ohmm :ILD
~P
EKB. -999.2500:ELEVATION OF KELLY BUSHING
EDF. -999.2500:ELEVATION OF DRILLING FLOOR
EGL. -999.2500:ELEVATION OF GROUND LEVEL
EPD. -999.2500:ELEVATION OF PERMANENT DATUM
APD. -999.2500:LMF DISTANCE ABOVE PERMANENT DATUM
LAT. -999.2500:LATITUDE OF WELL LOCATION
LONG. -999.2500:LONGITUDE OF WELL LOCATION
TDD. -999.2500:Total Depth Driller
TDL. -999.2500:Total Depth Logger
LCSG1. -999.2500:Depth of Casing from Logger
CSIZE. -999.2500:Casing Size
CWT. -999.2500:Casing Weight
BS. -999.2500:Bit Size
TLI. 125.1000:Top Logged Interval
BLI. 324.9000:Bottom Logged Interval
MRT. 0.0000:Maximum Recorded Temperature
WMUD. -999.2500:Drilling Mud Density
DFV. -999.2500:Drilling Mud Viscosity
PH. -999.2500:Drilling Mud pH
DFL. -999.2500:Drilling Mud Fluid Loss
RM. -999.2500:Resistivity of Drilling Fluid
RMT. -999.2500:Measured Temp. of Drilling Fluid
RMF. -999.2500:Resistivity of Drilling Fluid Filtrate
RMFT. -999.2500:Measured Temp. of Drilling Fluid Filtrate
RMC. -999.2500:Resistivity of Mud Cake
RMCT. -999.2500:Measured Temp. of Mud Cake
PHImax.V/V 0.3900:Maximum allowable Porosity
RwBnd.OHMM 0.1500:Bound Water Resistivity
RhoHy.KG/MT 1000.0000:Hydrocarbon Bulk density
SwCutoff.V/V 0.7000:Water Saturation Cutoff
PHINsh.V/V 0.4800:New Description
Rw.OHMM 1.0000:Formation Water Resistivity
Rshl.OHMM 5.0000:Resistivity shale
Trw.DEGC 25.0000:Rw measured at Lab conditions
ShaleCutoff.V/V 0.4000:New Description
GRcln.API 45.0000:Gamma Ray clean
RhoM.KG/MT 2650.0000:Bulk Density Matrix
GRshl.API 90.0000:Gamma Ray shale
m. 2.0000:Archie "m"
n. 2.0000:Archie "n"
GasTol.V/V 0.0500:Gas Tollerance
BHTemp.DEGC 25.0000:Bottom Hole Temperature
BHTDepth.M 1000.0000:Bottom Hole Depth
PHIDsh.US/MT 0.1800:New Description
a. 1.0000:Archie "a"
Gas Tol.V/V 0.0500:Gas Tollerance
RhoF.KG/MT 1000.0000:Bulk Density Fluid
RhoShl.KG/MT 2300.0000:Bulk Density Shale
TarCutoff.V/V 0.0300:New Description
SurfTemp.DEGC 10.0000:New Description
HIshl.V/V 0.4000:Neutron Hydrogen Index shale
NULL. -999.2500:
~A
# ...
  232.2500     0.4049    34.9784     0.3135     1.2157 
  232.5000     0.4057    34.2903     0.3115     1.2096 
  232.7500     0.4010    33.7353     0.3226     1.2106 
  233.0000     0.3875    33.3463     0.3203     1.2167 
  233.2500     0.3735    33.4622     0.3175     1.2247 
  233.5000     0.3665    34.4235     0.3202     1.2383 
  233.7500     0.3688    36.1813     0.3262     1.2646 
  234.0000     0.3741    37.9070     0.3245     1.3108 
  234.2500     0.3774    39.3353     0.3129     1.3700 
  234.5000     0.3751    40.3883     0.3067     1.4360 
  234.7500     0.3750    41.2351     0.3099     1.4912 
  235.0000     0.3787    42.3676     0.3173     1.5229 
  235.2500     0.3849    44.0044     0.3215     1.5260 
  235.5000     0.3920    45.4959     0.3191     1.5049 
  235.7500     0.3977    44.5561     0.3234     1.4177 
  236.0000     0.3922    42.6140     0.3305     1.3505 
  236.2500     0.3934    42.9265     0.3266     1.3388 
  236.5000     0.3982    45.4292     0.3115     1.3699 
  236.7500     0.3966    48.3518     0.2954     1.4155 
  237.0000     0.3854    49.8331     0.2942     1.4634 
  237.2500     0.3847    47.4208     0.2949     1.5134 
  237.5000     0.3856    43.2383     0.2983     1.5222 
  237.7500     0.3860    39.6614     0.3063     1.4650 
  238.0000     0.3890    37.0788     0.3171     1.3772 
  238.2500     0.3961    35.0403     0.3253     1.3054 
  238.5000     0.4008    33.4036     0.3230     1.2597 
  238.7500     0.3889    33.7883     0.3237     1.2149 
  239.0000     0.3796    35.0560     0.3196     1.1798 
  239.2500     0.3763    35.3314     0.3132     1.1624 
  239.5000     0.3802    34.3574     0.3090     1.1562 
  239.7500     0.3879    33.0901     0.3093     1.1511 
  240.0000     0.3879    33.2937     0.3110     1.1451 
  240.2500     0.3808    34.0564     0.3087     1.1346 
  240.5000     0.3793    34.7540     0.3076     1.1202 
  240.7500     0.3776    35.2075     0.3105     1.1048 
  241.0000     0.3767    35.0882     0.3167     1.0896 
  241.2500     0.3812    34.1747     0.3241     1.0748 
  241.5000     0.3951    32.6092     0.3314     1.0615 
  241.7500     0.3973    32.1910     0.3333     1.0501 
  242.0000     0.3976    33.6623     0.3320     1.0419 
  242.2500     0.3945    35.5686     0.3329     1.0405 
  242.5000     0.3929    36.8434     0.3385     1.0446 
  242.7500     0.3991    36.9569     0.3475     1.0508 
  243.0000     0.4148    36.0656     0.3540     1.0570 
  243.2500     0.4288    35.0047     0.3531     1.0634 
  243.5000     0.4208    35.2419     0.3496     1.0699 
  243.7500     0.4146    36.2090     0.3510     1.0754 
  244.0000     0.4136    37.5176     0.3538     1.0747 
  244.2500     0.4129    38.7346     0.3533     1.0618 
  244.5000     0.4107    39.1569     0.3529     1.0331 
  244.7500     0.4028    37.9464     0.3485     1.0173 
  245.0000     0.3964    37.5308     0.3542     1.0235 
  245.2500     0.4005    37.9253     0.3686     1.0394 
  245.5000     0.4157    39.2306     0.3847     1.0605 
  245.7500     0.4411    41.1937     0.3972     1.0859 
  246.0000     0.4812    42.7694     0.4090     1.1126 
  246.2500     0.5110    42.8086     0.4092     1.1249 
  246.5000     0.5289    41.0776     0.3954     1.1132 
  246.7500     0.5081    38.7051     0.3817     1.0938 
  247.0000     0.4648    36.6279     0.3721     1.0723 
  247.2500     0.4303    35.3818     0.3661     1.0481 
  247.5000     0.4232    34.8928     0.3638     1.0198 
  247.7500     0.4199    34.7935     0.3571     0.9908 
  248.0000     0.4174    34.9039     0.3526     0.9677 
  248.2500     0.4109    35.1353     0.3514     0.9556 
  248.5000     0.4029    35.3691     0.3508     0.9511 
  248.7500     0.3991    35.4638     0.3458     0.9492 
  249.0000     0.4045    35.2596     0.3303     0.9505 
  249.2500     0.4096    34.9343     0.3180     0.9615 
  249.5000     0.4095    34.6023     0.3241     0.9754 
  249.7500     0.4033    34.2761     0.3329     0.9895 
  250.0000     0.3971    34.0366     0.3358     1.0023 
  250.2500     0.3954    33.9843     0.3318     1.0131 
  250.5000     0.3947    34.1925     0.3273     1.0225 
  250.7500     0.3935    34.2759     0.3185     1.0326 
  251.0000     0.3892    34.0744     0.3146     1.0445 
  251.2500     0.3806    33.9950     0.3151     1.0584 
  251.5000     0.3697    34.6478     0.3151     1.0745 
  251.7500     0.3620    36.3082     0.3117     1.0939 
  252.0000     0.3671    38.3795     0.3121     1.1197 
  252.2500     0.3798    38.0623     0.3088     1.1383 
  252.5000     0.3940    35.1946     0.3164     1.1385 
  252.7500     0.4085    32.2650     0.3295     1.1257 
  253.0000     0.4148    30.4619     0.3428     1.0957 
  253.2500     0.4121    29.9907     0.3503     1.0499 
  253.5000     0.4224    30.3919     0.3441     1.0107 
  253.7500     0.4227    31.2071     0.3446     1.0128 
  254.0000     0.4132    32.6433     0.3436     1.0381 
  254.2500     0.4159    34.4476     0.3370     1.0919 
  254.5000     0.4274    36.6599     0.3279     1.1618 
  254.7500     0.4337    39.4469     0.3208     1.2309 
  255.0000     0.4237    42.9348     0.3141     1.2907 
  255.2500     0.4134    45.4949     0.3075     1.3034 
  255.5000     0.4068    45.3747     0.3102     1.2871 
  255.7500     0.4049    41.9706     0.3232     1.2494 
  256.0000     0.4047    37.6990     0.3370     1.2009 
  256.2500     0.4022    34.9927     0.3438     1.1508 
  256.5000     0.3940    33.2960     0.3493     1.1020 
  256.7500     0.4008    33.7050     0.3512     1.0595 
  257.0000     0.3991    34.3132     0.3515     1.0245 
  257.2500     0.4014    34.8661     0.3505     1.0012 
  257.5000     0.4113    35.3087     0.3507     0.9909 
  257.7500     0.4252    35.6070     0.3537     0.9901 
  258.0000     0.4354    35.5711     0.3573     0.9903 
  258.2500     0.4451    34.8833     0.3617     0.9932 
  258.5000     0.4244    34.0837     0.3637     0.9986 
  258.7500     0.4039    33.1044     0.3602     1.0088 
  259.0000     0.3941    31.9534     0.3554     1.0261 
  259.2500     0.3945    30.7465     0.3519     1.0527 
  259.5000     0.4019    29.7392     0.3432     1.0915 
  259.7500     0.3844    29.4935     0.3229     1.1217 
  260.0000     0.3596    29.7634     0.3054     1.1338 
  260.2500     0.3581    30.5944     0.3062     1.1280 
  260.5000     0.3731    31.9808     0.3192     1.1067 
  260.7500     0.3867    34.1046     0.3316     1.0805 
  261.0000     0.3969    37.5739     0.3387     1.0759 
  261.2500     0.4031    41.5666     0.3327     1.1046 
  261.5000     0.4022    42.5781     0.3144     1.1438 
  261.7500     0.3896    40.7649     0.2995     1.1891 
  262.0000     0.3771    38.6114     0.2923     1.2305 
  262.2500     0.3764    38.6504     0.2874     1.2587 
  262.5000     0.3825    41.1817     0.2709     1.2713 
  262.7500     0.3952    42.2180     0.2824     1.2625 
  263.0000     0.4081    40.9154     0.3054     1.2331 
  263.2500     0.4148    40.1143     0.3192     1.1917 
  263.5000     0.4132    40.7059     0.3202     1.1446 
  263.7500     0.4065    42.4533     0.3153     1.1001 
  264.0000     0.4047    44.8128     0.3157     1.0719 
  264.2500     0.4383    45.8859     0.3140     1.0666 
  264.5000     0.4521    44.1547     0.3152     1.0638 
  264.7500     0.4369    40.6656     0.3178     1.0707 
  265.0000     0.4063    37.5069     0.3095     1.0911 
  265.2500     0.3801    36.6134     0.2869     1.1225 
  265.5000     0.3674    38.5705     0.2749     1.1546 
  265.7500     0.3906    41.1955     0.2876     1.1907 
  266.0000     0.4035    42.8819     0.3042     1.2302 
  266.2500     0.4081    44.1767     0.3157     1.2709 
  266.5000     0.4107    45.9952     0.3179     1.3126 
  266.7500     0.4176    48.6266     0.3115     1.3558 
  267.0000     0.4323    50.7389     0.3013     1.4001 
  267.2500     0.4270    51.0758     0.2966     1.4394 
  267.5000     0.4163    52.1590     0.3067     1.4678 
  267.7500     0.4150    54.7376     0.3101     1.4769 
