~VERSION INFORMATION
 VERS.                 2.0:   CWLS LOG ASCII STANDARD -VERSION 2.0
 WRAP.                  NO:   ONE LINE PER DEPTH STEP
~WELL INFORMATION BLOCK
#MNEM.UNIT           DATA                    DESCRIPTION OF MNEMONIC
#---------    -------------------            -------------------------------
# Generated from Intellog Unique Number	CW_70_72/WELL/3004
NULL.         -999.25                        : NULL_VALUE
WELL.         SULPETRO BREND MITSUE 05-20    : Well_name    - WELL              
LOC .         05-20-070-05W5                 : Location     - LOCATION          
UWI .         00/05-20-070-05W5/0            : Uwi          - UNIQUE WELL ID    
ENTR.         JAYE                           : Entered      - ENTERED BY        
SRVC.         SCHLUMBERGER                   : Scn          - SERVICE COMPANY   
DATE.         5 FEB 80                       : Date         - LOG DATE          
STRT.M        635                            : top_depth    - START DEPTH       
STOP.M        885                            : bot_depth    - STOP DEPTH        
STEP.M        0.25                           : increment    - STEP LENGTH       
~CURVE INFORMATION BLOCK
#MNEM UNIT       ERCB CURVE CODE    CURVE DESCRIPTION
#-----------   ------------------   ----------------------------------
DEPT.M        00 001 00 00         : DEPTH        - DEPTH                       
ILD .OHMM     00 120 00 00         : RESD         - DEEP RESISTIVITY (DIL)      
CALI.MM       00 280 01 00         : CAL          - CALIPER                     
GR  .API      00 310 00 00         : GR           - GAMMA RAY                   
NPHI.V/V      00 330 00 00         : PHIN         - NEUTRON POROSITY (SANDSTONE)
DPHI.V/V      00 890 00 00         : PHID         - DENSITY POROSITY (SANDSTONE)
~PARAMETER INFORMATION       
#MNEM.UNIT           DATA             DESCRIPTION OF MNEMONIC
#---------         -----------     ------------------------------
GL  .M        738.2                : gl           - GROUND LEVEL ELEVATION      
EREF.M        742                  : kb           - ELEVATION OF DEPTH REFERENCE
DATM.M        738.2                : datum        - DATUM ELEVATION             
TDD .M        898                  : tdd          - TOTAL DEPTH DRILLER         
RUN .         ONE                  : Run          - RUN NUMBER                  
ENG .         DECKER               : Engineer     - RECORDING ENGINEER          
WIT .         CIAVARELLA           : Witness      - WITNESSED BY                
BASE.         EDM                  : Branch       - HOME BASE OF LOGGING UNIT   
MUD .         GEL CHEM             : Mud_type     - MUD TYPE                    
MATR.         SANDSTONE            : Logunit      - NEUTRON MATRIX              
TMAX.C        31.1                 : BHT          - MAXIMUM RECORDED TEMPERATURE
BHTD.M        899.5                : BHTDEP       - MAXIMUM RECORDED TEMPERATURE
RMT .C        12.7                 : MDTP         - TEMPERATURE OF MUD          
MUDD.KG/M     1000                 : MWT          - MUD DENSITY                 
NEUT.         1                    : NEUTRON      - NEUTRON TYPE                
RESI.         0                    : RESIST       - RESISTIVITY TYPE            
RM  .OHMM     0.25                 : RM           - RESISTIVITY OF MUD          
RMC .OHMM     0.25                 : RMC          - RESISTIVITY OF MUD CAKE     
RMF .OHMM     5                    : RMF          - RESISTIVITY OF MUD FILTRATE 
SUFT.C        0                    : SUFT         - SURFACE TEMPERATURE         
~A  DEPTH     RESD      CAL       GR     PHIN     PHID
# ...
  781.000    1.234  149.004   62.604    0.417    0.285
  781.250    1.322  151.301   59.454    0.388    0.276
  781.500    1.487  153.906   56.551    0.355    0.248
  781.750    1.750  157.341   55.448    0.285    0.204
  782.000    1.998  158.086   58.128    0.381    0.239
  782.250    2.089  158.108   60.808    0.404    0.280
  782.500    2.080  157.817   63.550    0.407    0.303
  782.750    1.911  157.738   64.556    0.417    0.318
  783.000    1.735  157.448   63.514    0.429    0.294
  783.250    1.661  157.364   60.363    0.418    0.276
  783.500    1.679  156.974   57.708    0.417    0.285
  783.750    1.713  156.683   55.364    0.407    0.275
  784.000    1.829  156.501   58.292    0.396    0.256
  784.250    1.981  156.623   56.258    0.398    0.261
  784.500    2.220  156.548   60.489    0.433    0.254
  784.750    2.525  156.563   66.024    0.448    0.271
  785.000    2.655  156.585   69.511    0.430    0.299
  785.250    2.649  156.606   72.935    0.409    0.263
  785.500    2.447  156.526   76.795    0.392    0.235
  785.750    2.230  156.648   78.544    0.387    0.222
  786.000    1.958  156.674   71.052    0.401    0.233
  786.250    1.713  157.004   65.233    0.413    0.225
  786.500    1.559  157.339   59.600    0.407    0.255
  786.750    1.467  157.462   55.084    0.371    0.269
  787.000    1.358  157.583   50.444    0.299    0.201
  787.250    1.252  157.506   54.055    0.314    0.236
  787.500    1.159  157.420   57.109    0.375    0.286
  787.750    1.095  157.440   59.975    0.394    0.313
  788.000    1.058  157.670   60.235    0.408    0.319
  788.250    1.051  157.483   59.814    0.401    0.329
  788.500    1.041  155.953   60.137    0.395    0.325
  788.750    1.027  152.464   58.475    0.396    0.318
  789.000    1.028  150.517   55.449    0.395    0.309
  789.250    1.051  149.917   53.725    0.391    0.300
  789.500    1.084  152.525   52.310    0.386    0.301
  789.750    1.123  155.028   51.888    0.389    0.296
  790.000    1.174  157.323   53.639    0.379    0.276
  790.250    1.242  158.277   53.714    0.366    0.258
  790.500    1.271  157.986   52.113    0.370    0.256
  790.750    1.236  156.870   55.476    0.366    0.276
  791.000    1.169  155.861   55.613    0.368    0.286
  791.250    1.120  154.845   57.054    0.379    0.294
  791.500    1.092  151.558   59.114    0.388    0.300
  791.750    1.075  150.340   59.125    0.398    0.311
  792.000    1.066  150.774   56.905    0.406    0.327
  792.250    1.062  152.553   58.345    0.404    0.327
  792.500    1.063  154.952   55.133    0.417    0.317
  792.750    1.077  156.734   55.145    0.427    0.320
  793.000    1.096  157.477   57.392    0.400    0.335
  793.250    1.127  158.428   59.141    0.395    0.322
  793.500    1.165  158.761   58.100    0.417    0.310
  793.750    1.209  159.092   56.315    0.408    0.317
  794.000    1.267  157.873   57.132    0.418    0.305
  794.250    1.299  154.896   58.447    0.422    0.304
  794.500    1.321  151.299   60.757    0.412    0.305
  794.750    1.320  150.597   62.507    0.418    0.304
  795.000    1.310  150.308   63.077    0.405    0.303
  795.250    1.289  150.329   62.594    0.395    0.302
  795.500    1.267  151.079   61.490    0.393    0.303
  795.750    1.252  151.926   62.247    0.396    0.314
  796.000    1.294  154.116   65.922    0.384    0.328
  796.250    1.492  157.652   69.283    0.405    0.312
  796.500    1.663  159.020   74.073    0.424    0.304
  796.750    1.822  159.663   78.056    0.423    0.305
  797.000    2.088  160.304   83.281    0.430    0.280
  797.250    2.375  160.219   87.574    0.451    0.257
  797.500    2.722  160.349   87.524    0.444    0.249
  797.750    2.900  160.367   84.497    0.435    0.242
  798.000    3.032  160.491   83.083    0.427    0.223
  798.250    3.059  160.513   82.477    0.423    0.236
  798.500    3.063  160.535   87.452    0.439    0.250
  798.750    2.999  160.557   88.147    0.446    0.257
  799.000    2.914  160.268   87.353    0.445    0.242
  799.250    2.779  159.879   83.210    0.434    0.245
  799.500    2.611  159.381   80.121    0.435    0.259
  799.750    2.434  158.781   80.196    0.436    0.251
  800.000    2.308  158.765   79.290    0.445    0.278
  800.250    2.248  158.480   77.457    0.471    0.291
  800.500    2.180  157.993   76.915    0.455    0.282
  800.750    2.147  157.712   78.662    0.416    0.274
  801.000    2.117  157.534   79.233    0.434    0.281
  801.250    2.092  157.151   84.190    0.450    0.278
  801.500    2.083  156.146   84.021    0.441    0.265
  801.750    2.086  153.805   81.816    0.428    0.271
  802.000    2.074  150.441   79.794    0.420    0.267
  802.250    2.049  149.950   75.549    0.412    0.270
  802.500    2.025  151.936   73.034    0.416    0.275
  802.750    2.013  153.813   74.285    0.424    0.275
  803.000    1.996  156.002   75.907    0.429    0.274
  803.250    1.974  156.852   76.110    0.432    0.272
  803.500    1.954  156.676   75.632    0.435    0.270
  803.750    1.934  156.085   74.289    0.442    0.262
  804.000    1.911  155.700   74.800    0.444    0.257
  804.250    1.886  156.038   79.573    0.430    0.251
  804.500    1.874  156.378   79.033    0.422    0.259
  804.750    1.866  156.915   75.221    0.420    0.273
  805.000    1.862  157.563   73.939    0.416    0.271
  805.250    1.857  158.000   74.945    0.423    0.261
  805.500    1.849  157.926   76.505    0.417    0.255
  805.750    1.845  157.644   77.263    0.409    0.264
  806.000    1.847  157.055   73.513    0.425    0.273
  806.250    1.867  157.184   72.169    0.443    0.279
  806.500    1.884  157.111   74.780    0.428    0.264
  806.750    1.901  157.034   73.565    0.423    0.261
  807.000    1.954  154.800   73.023    0.406    0.254
  807.250    2.066  152.354   73.162    0.369    0.219
  807.500    2.351  160.307   75.156    0.321    0.181
  807.750    2.716  161.878   76.036    0.325    0.156
  808.000    2.856  162.008   77.412    0.340    0.204
  808.250    2.770  161.211   79.590    0.374    0.216
  808.500    2.657  160.316   77.630    0.393    0.229
  808.750    2.538  159.214   75.053    0.406    0.239
  809.000    2.629  158.618   73.712    0.400    0.236
  809.250    2.806  157.728   72.617    0.374    0.213
  809.500    2.727  157.542   73.745    0.355    0.193
  809.750    2.567  157.574   78.145    0.367    0.204
  810.000    2.466  157.910   81.805    0.386    0.224
  810.250    2.401  158.147   79.845    0.392    0.229
  810.500    2.422  158.485   78.504    0.385    0.222
  810.750    2.509  159.021   82.411    0.379    0.204
  811.000    2.599  159.973   87.306    0.385    0.187
  811.250    2.662  161.338   88.186    0.398    0.176
  811.500    2.706  162.394   92.772    0.411    0.177
  811.750    2.719  163.247   93.407    0.407    0.194
  812.000    2.749  163.378   97.067    0.391    0.219
  812.250    2.794  163.510  100.356    0.387    0.203
  812.500    2.846  163.538   97.841    0.382    0.181
  812.750    2.898  163.565   97.363    0.384    0.171
  813.000    2.985  163.382   97.195    0.388    0.165
  813.250    3.075  163.516   99.310    0.371    0.157
  813.500    3.161  164.160  100.376    0.388    0.131
  813.750    3.311  165.627  106.321    0.373    0.147
  814.000    3.502  166.375  102.200    0.358    0.145
  814.250    3.717  165.995   98.697    0.339    0.121
  814.500    3.814  164.990  105.632    0.344    0.120
  814.750    3.617  163.888  106.449    0.359    0.139
  815.000    3.482  163.404  101.279    0.361    0.144
  815.250    3.620  163.528   96.294    0.361    0.121
  815.500    4.004  163.454   92.668    0.345    0.125
  815.750    4.497  163.377   87.620    0.324    0.099
  816.000    4.919  162.583   82.572    0.330    0.090
  816.250    5.301  161.684   87.591    0.314    0.089
  816.500    5.339  161.507   93.722    0.328    0.066
  816.750    5.128  161.840   95.219    0.351    0.082
  817.000    4.800  162.176   94.928    0.361    0.116
  817.250    4.500  161.689  101.242    0.352    0.130
