~VERSION INFORMATION
 VERS.                 2.0:   CWLS LOG ASCII STANDARD -VERSION 2.0
 WRAP.                  NO:   ONE LINE PER DEPTH STEP
~WELL INFORMATION BLOCK
#MNEM.UNIT           DATA                    DESCRIPTION OF MNEMONIC
#---------    -------------------            -------------------------------
# Generated from Intellog Unique Number	CS_77_79/WELL/922
WELL.         CANADIAN WORLDWIDE ENERGY      : Well_name    - WELL
LOC .         00/09-06-077-04W4/0            : Location     - LOCATION
UWI .         00/09-06-077-04W4/0            : Uwi          - UNIQUE WELL ID
ENTR.         SP                             : Entered      - ENTERED BY
SRVC.         SCHLUMBERGER                   : Scn          - SERVICE COMPANY
STRT.M        150                            : top_depth    - START DEPTH
STOP.M        392                            : bot_depth    - STOP DEPTH
STEP.M        0.25                           : increment    - STEP LENGTH
 NULL. -999.2500:NULL Value
~CURVE INFORMATION BLOCK
#MNEM UNIT       ERCB CURVE CODE    CURVE DESCRIPTION
#-----------   ------------------   ----------------------------------
DEPT.M        00 001 00 00         : DEPTH        - DEPTH
ILD .OHMM     00 120 00 00         : RESD         - DEEP RESISTIVITY (DIL)
DPHI.V/V      00 890 00 00         : PHID         - DENSITY POROSITY (LIMESTONE)
NPHI.V/V      00 330 00 00         : PHIN         - NEUTRON POROSITY (LIMESTONE)
GR  .API      00 310 00 00         : GR           - GAMMA RAY
~PARAMETER INFORMATION
#MNEM.UNIT           DATA             DESCRIPTION OF MNEMONIC
#---------         -----------     ------------------------------
GL  .M        576.6                : gl           - GROUND LEVEL ELEVATION
EREF.M        579.8                : kb           - ELEVATION OF DEPTH REFERENCE
DATM.M        576.6                : datum        - DATUM ELEVATION
TDD .M        397                  : tdd          - TOTAL DEPTH DRILLER
RUN .         ONE                  : Run          - RUN NUMBER
ENG .         BILL                 : Engineer     - RECORDING ENGINEER
WIT .         JIM                  : Witness      - WITNESSED BY
MUD .         GEL                  : Mud_type     - MUD TYPE
MATR.         LIMESTONE            : Logunit      - NEUTRON MATRIX
TMAX.C        19                   : BHT          - MAXIMUM RECORDED TEMPERATURE
BHTD.M        397                  : BHTDEP       - MAXIMUM RECORDED TEMPERATURE
MATR.         1                    : LOGUNIT      - NEUTRON MATRIX
RMT .C        25                   : MDTP         - TEMPERATURE OF MUD
NEUT.         1                    : NEUTRON      - NEUTRON TYPE
RESI.         0                    : RESIST       - RESISTIVITY TYPE
RMC .OHMM     0.25                 : RMC          - RESISTIVITY OF MUD CAKE
RMF .OHMM     0.25                 : RMF          - RESISTIVITY OF MUD FILTRATE
SUFT.C        15                   : SUFT         - SURFACE TEMPERATURE
~A  DEPTH     RESD     PHID     PHIN       GR
# ...
  324.000    5.186    0.217    0.470   94.841
  324.250    5.812    0.226    0.464   96.084
  324.500    5.816    0.231    0.422   95.478
  324.750    6.159    0.230    0.406   94.268
  325.000    6.647    0.220    0.418   91.828
  325.250    7.310    0.206    0.437   85.108
  325.500    8.038    0.197    0.423   77.159
  325.750    9.179    0.186    0.402   69.212
  326.000   10.095    0.116    0.359   64.325
  326.250   11.103    0.120    0.303   68.014
  326.500   11.756    0.197    0.279   74.764
  326.750   11.991    0.286    0.295   79.056
  327.000   11.554    0.287    0.306   76.009
  327.250   11.560    0.289    0.298   72.345
  327.500   12.013    0.292    0.279   68.073
  327.750   12.485    0.268    0.258   75.438
  328.000   11.366    0.263    0.248   80.955
  328.250    6.833    0.297    0.256   89.537
  328.500    4.869    0.297    0.279   92.620
  328.750    4.189    0.251    0.353   93.246
  329.000    4.272    0.262    0.434   93.256
  329.250    5.362    0.295    0.488   84.076
  329.500    7.257    0.340    0.390   77.355
  329.750    9.822    0.374    0.229   73.693
  330.000   11.215    0.373    0.224   76.153
  330.250   13.301    0.344    0.262   84.737
  330.500   15.191    0.313    0.289   62.708
  330.750   17.025    0.282    0.212   57.829
  331.000   18.027    0.340    0.159   58.448
  331.250   18.042    0.382    0.209   76.215
  331.500   16.120    0.257    0.246   84.800
  331.750   10.649    0.217    0.268   90.320
  332.000    9.163    0.173    0.300   97.684
  332.250    8.188    0.160    0.334  101.978
  332.500    8.195    0.151    0.353  105.051
  332.750    8.845    0.172    0.360   98.331
  333.000    9.364    0.205    0.303   76.913
  333.250   10.899    0.255    0.267   70.804
  333.500   12.211    0.268    0.260   67.142
  333.750   14.758    0.261    0.264   62.871
  334.000   15.925    0.283    0.267   61.655
  334.250   15.639    0.303    0.261   68.403
  334.500   14.240    0.304    0.273   81.888
  334.750   12.966    0.248    0.299   89.858
  335.000   11.587    0.216    0.336   94.153
  335.250   10.751    0.209    0.340   85.597
  335.500   10.361    0.208    0.320   81.322
  335.750   10.767    0.203    0.327   78.885
  336.000   11.402    0.221    0.310   76.449
  336.250   11.628    0.245    0.278   73.403
  336.500   10.996    0.263    0.261   71.575
  336.750    9.825    0.259    0.252   74.035
  337.000    8.777    0.198    0.273   86.906
  337.250    7.992    0.184    0.316   97.325
  337.500    7.278    0.180    0.362  104.071
  337.750    6.756    0.176    0.380  106.533
  338.000    6.633    0.173    0.392  102.259
  338.250    6.512    0.173    0.375   94.926
  338.500    6.394    0.196    0.364   99.842
  338.750    6.400    0.205    0.371  102.912
  339.000    6.404    0.201    0.412  110.883
  339.250    6.531    0.184    0.432  114.565
  339.500    6.534    0.187    0.434  107.843
  339.750    6.663    0.189    0.413  101.735
  340.000    6.925    0.186    0.400   99.301
  340.250    7.336    0.182    0.387   98.697
  340.500    7.768    0.176    0.373   96.873
  340.750    8.072    0.174    0.382   91.985
  341.000    8.230    0.174    0.366   86.488
  341.250    8.392    0.196    0.369   81.604
  341.500    8.557    0.203    0.372   76.717
  341.750    8.895    0.211    0.374   68.158
  342.000    9.071    0.232    0.356   53.476
  342.250    9.249    0.293    0.320   64.509
  342.500    9.430    0.269    0.290   84.726
  342.750    9.261    0.196    0.318   93.921
  343.000    9.267    0.170    0.348   90.260
  343.250    9.099    0.198    0.369   87.822
  343.500    8.606    0.209    0.360   98.857
  343.750    8.290    0.187    0.381   95.807
  344.000    8.615    0.193    0.371   87.860
  344.250    9.657    0.191    0.326   75.014
  344.500   10.422    0.196    0.331   70.744
  344.750   10.828    0.212    0.340   69.528
  345.000   11.043    0.226    0.340   68.929
  345.250   11.049    0.218    0.334   72.615
  345.500   10.062    0.192    0.341   78.138
  345.750    9.698    0.181    0.351   82.436
  346.000    9.521    0.188    0.353   81.222
  346.250    9.348    0.190    0.339   84.915
  346.500    9.012    0.190    0.353   87.986
  346.750    8.681    0.190    0.367   91.055
  347.000    8.209    0.177    0.361   97.189
  347.250    7.763    0.158    0.367  104.548
  347.500    7.623    0.158    0.388  103.337
  347.750    7.630    0.168    0.377   99.070
  348.000    7.780    0.171    0.377   96.630
  348.250    7.935    0.177    0.382   93.577
  348.500    8.091    0.206    0.368   90.531
  348.750    8.250    0.196    0.353   97.892
  349.000    8.255    0.168    0.351  100.962
  349.250    8.417    0.163    0.388   98.527
  349.500    8.584    0.186    0.399   89.352
  349.750    8.752    0.204    0.356   87.529
  350.000   10.648    0.181    0.377   90.982
  350.250   11.482    0.193    0.393   82.390
  350.500   12.383    0.206    0.379   73.803
  350.750   12.862    0.215    0.378   70.740
  351.000   12.630    0.244    0.361   67.680
  351.250   11.942    0.208    0.345   93.514
  351.500   10.092    0.186    0.355   94.149
  351.750    9.191    0.187    0.342   92.316
  352.000    9.369    0.176    0.353   89.256
  352.250   10.297    0.181    0.370   81.278
  352.500   11.969    0.198    0.385   70.842
  352.750   14.999    0.236    0.406   57.334
  353.000   13.920    0.263    0.368   66.568
  353.250   12.212    0.294    0.322   81.339
  353.500   10.714    0.182    0.341   91.188
  353.750   10.132    0.179    0.350   91.208
  354.000    9.581    0.180    0.353   88.761
  354.250    9.585    0.179    0.345   85.700
  354.500    9.955    0.185    0.356   79.566
  354.750   11.794    0.196    0.381   70.359
  355.000   12.962    0.237    0.382   62.999
  355.250   13.463    0.244    0.345   65.470
  355.500   13.723    0.223    0.334   72.250
  355.750   12.978    0.216    0.329   77.180
  356.000   12.505    0.194    0.330   78.424
  356.250   11.177    0.148    0.332   79.053
  356.500   10.373    0.153    0.330   80.298
  356.750    9.628    0.170    0.331   82.772
  357.000    9.277    0.190    0.341   84.631
  357.250    9.281    0.176    0.350   86.488
  357.500    9.112    0.190    0.347   87.732
  357.750    9.289    0.202    0.326   84.674
  358.000    9.293    0.214    0.319   81.001
  358.250    9.297    0.210    0.316   82.861
  358.500    9.477    0.202    0.323   83.488
  358.750    9.305    0.189    0.330   78.585
  359.000    8.967    0.180    0.311   85.367
  359.250    8.480    0.173    0.319   89.063
  359.500    8.172    0.166    0.333   98.297
  359.750    8.174    0.171    0.347  102.003
  360.000    8.026    0.174    0.349   97.713
  360.250    7.881    0.172    0.343   87.892
  360.500    7.883    0.171    0.351   68.235
  360.750    8.036    0.231    0.336   63.945
  361.000    8.999    0.257    0.302   75.641
  361.250   11.277    0.233    0.296   88.565
  361.500   20.571    0.205    0.322   79.976
  361.750   28.852    0.231    0.352   71.998
  362.000   42.016    0.255    0.413   48.652
  362.250   57.838    0.287    0.397   41.903
  362.500   63.557    0.323    0.375   43.766
  362.750   62.409    0.308    0.359   45.629
  363.000   59.013    0.301    0.353   47.484
  363.250   50.810    0.309    0.378   48.109
  363.500   43.740    0.302    0.361   46.280
  363.750   32.408    0.291    0.338   54.285
  364.000   26.372    0.264    0.329   62.908
  364.250   19.910    0.240    0.331   68.454
  364.500   15.316    0.236    0.345   74.001
  364.750   12.941    0.231    0.350   82.623
  365.000   11.569    0.220    0.329   88.787
  365.250   11.146    0.203    0.318   93.717
  365.500   10.944    0.186    0.345   94.960
  365.750   11.159    0.193    0.358   86.370
  366.000   10.956    0.213    0.351   81.468
  366.250   10.959    0.226    0.330   87.627
  366.500   10.363    0.207    0.340   88.873
  366.750    9.617    0.194    0.341   85.810
  367.000    9.094    0.179    0.332   92.588
  367.250    8.763    0.169    0.322   95.062
