~VERSION INFORMATION
 VERS.                 2.0:   CWLS LOG ASCII STANDARD -VERSION 2.0
 WRAP.                  NO:   ONE LINE PER DEPTH STEP
~WELL INFORMATION BLOCK
#MNEM.UNIT           DATA                    DESCRIPTION OF MNEMONIC
#---------    -------------------            -------------------------------
# Generated from Intellog Unique Number	CW_73_75/WELL/2726
WELL.         UNIGAS ET AL TOMATO 05-02      : Well_name    - WELL
LOC .         00/05-02-073-23W4/0            : Location     - LOCATION
UWI .         00/05-02-073-23W4/0            : Uwi          - UNIQUE WELL ID
ENTR.         JAYE                           : Entered      - ENTERED BY
SRVC.         SCHLUMBERGER                   : Scn          - SERVICE COMPANY
DATE.         14 DEC 80                      : Date         - LOG DATE
STRT.M        325                            : top_depth    - START DEPTH
STOP.M        622                            : bot_depth    - STOP DEPTH
STEP.M        0.25                           : increment    - STEP LENGTH
 NULL. -999.2500:NULL Value
~CURVE INFORMATION BLOCK
#MNEM UNIT       ERCB CURVE CODE    CURVE DESCRIPTION
#-----------   ------------------   ----------------------------------
DEPT.M        00 001 00 00         : DEPTH        - DEPTH
ILD .OHMM     00 120 00 00         : RESD         - DEEP RESISTIVITY (DIL)
NPHI.V/V      00 330 00 00         : PHIN         - NEUTRON POROSITY (SANDSTONE)
DPHI.V/V      00 890 00 00         : PHID         - DENSITY POROSITY (SANDSTONE)
GR  .API      00 310 00 00         : GR           - GAMMA RAY
CALI.MM       00 280 01 00         : CAL          - CALIPER
~PARAMETER INFORMATION
#MNEM.UNIT           DATA             DESCRIPTION OF MNEMONIC
#---------         -----------     ------------------------------
GL  .M        625                  : gl           - GROUND LEVEL ELEVATION
EREF.M        627.5                : kb           - ELEVATION OF DEPTH REFERENCE
DATM.M        625                  : datum        - DATUM ELEVATION
TDD .M        624                  : tdd          - TOTAL DEPTH DRILLER
RUN .         ONE                  : Run          - RUN NUMBER
ENG .         KUZIO                : Engineer     - RECORDING ENGINEER
BASE.         EDM                  : Branch       - HOME BASE OF LOGGING UNIT
MUD .         GEL CHEM             : Mud_type     - MUD TYPE
MATR.         SANDSTONE            : Logunit      - NEUTRON MATRIX
TMAX.C        23.3                 : BHT          - MAXIMUM RECORDED TEMPERATURE
BHTD.M        625                  : BHTDEP       - MAXIMUM RECORDED TEMPERATURE
RMT .C        16.6                 : MDTP         - TEMPERATURE OF MUD
MUDD.KG/M     1110                 : MWT          - MUD DENSITY
NEUT.         1                    : NEUTRON      - NEUTRON TYPE
RESI.         0                    : RESIST       - RESISTIVITY TYPE
RM  .OHMM     3.19                 : RM           - RESISTIVITY OF MUD
RMC .OHMM     0                    : RMC          - RESISTIVITY OF MUD CAKE
RMF .OHMM     3.11                 : RMF          - RESISTIVITY OF MUD FILTRATE
SUFT.C        0                    : SUFT         - SURFACE TEMPERATURE
~A  DEPTH     RESD     PHIN     PHID       GR      CAL
# ...
  507.500    8.046    0.304    0.159   63.998  165.332
  507.750    7.471    0.309    0.180   67.888  164.419
  508.000    7.059    0.344    0.160   72.089  165.074
  508.250    7.365    0.373    0.142   77.230  167.082
  508.500    8.248    0.386    0.155   81.246  168.879
  508.750    9.670    0.399    0.184   83.761  169.949
  509.000   11.779    0.413    0.196   83.278  169.457
  509.250   14.375    0.425    0.200   80.736  168.444
  509.500   17.916    0.317    0.167   72.504  167.639
  509.750   22.936    0.282    0.125   61.276  167.043
  510.000   25.488    0.260    0.049   54.358  166.556
  510.250   17.638    0.249    0.048   49.127  166.477
  510.500   12.998    0.223    0.043   50.519  166.507
  510.750    9.635    0.193    0.023   57.973  166.433
  511.000    7.420    0.196    0.023   65.798  165.940
  511.250    6.519    0.220    0.051   78.998  165.137
  511.500    6.230    0.297    0.137   83.702  164.642
  511.750    6.127    0.354    0.165   85.280  164.262
  512.000    6.049    0.396    0.177   84.547  164.495
  512.250    6.029    0.399    0.188   79.505  165.042
  512.500    6.031    0.394    0.196   75.463  165.697
  512.750    6.069    0.396    0.212   80.163  166.252
  513.000    6.166    0.405    0.197   84.305  166.490
  513.250    6.385    0.391    0.184   85.383  166.619
  513.500    6.791    0.395    0.169   86.275  166.649
  513.750    7.167    0.409    0.175   86.982  166.887
  514.000    7.800    0.403    0.187   86.311  167.020
  514.250    8.169    0.400    0.189   79.769  167.045
  514.500    8.142    0.395    0.188   74.911  167.383
  514.750    7.841    0.388    0.178   70.242  167.832
  515.000    7.508    0.378    0.170   68.949  168.170
  515.250    7.148    0.370    0.167   71.401  168.613
  515.500    6.909    0.353    0.167   80.415  171.038
  515.750    6.743    0.364    0.164   84.556  172.001
  516.000    6.593    0.399    0.160   84.698  172.030
  516.250    6.289    0.403    0.153   83.778  171.749
  516.500    6.045    0.392    0.162   83.671  169.694
  516.750    5.888    0.388    0.162   81.940  165.766
  517.000    5.791    0.392    0.156   81.645  163.504
  517.250    5.728    0.398    0.164   84.662  163.742
  517.500    5.697    0.397    0.180   87.989  164.188
  517.750    5.625    0.400    0.177   92.691  164.216
  518.000    5.649    0.409    0.161   85.773  164.452
  518.250    5.839    0.414    0.168   80.854  164.488
  518.500    6.127    0.400    0.175   83.809  164.512
  518.750    6.954    0.395    0.179   86.950  164.432
  519.000    7.892    0.407    0.191   86.405  164.361
  519.250    7.911    0.418    0.178   81.736  164.386
  519.500    7.361    0.424    0.157   83.632  164.312
  519.750    6.681    0.427    0.139   83.395  164.342
  520.000    6.216    0.419    0.122   81.478  164.164
  520.250    5.839    0.402    0.125   81.556  163.985
  520.500    5.475    0.404    0.153   82.135  163.802
  520.750    5.172    0.423    0.165   83.901  163.422
  521.000    4.868    0.408    0.173   87.167  163.344
  521.250    4.452    0.392    0.167   92.996  163.471
  521.500    4.271    0.387    0.152   95.450  164.125
  521.750    4.348    0.408    0.152   95.155  165.298
  522.000    4.519    0.421    0.162   93.484  167.204
  522.250    4.788    0.436    0.167   93.563  168.584
  522.500    5.034    0.440    0.166   94.644  169.970
  522.750    5.193    0.417    0.157   95.847  170.933
  523.000    5.367    0.403    0.153   98.551  171.591
  523.250    5.526    0.392    0.166   92.071  171.724
  523.500    5.625    0.394    0.174   94.462  171.651
  523.750    5.671    0.422    0.159   98.167  171.363
  524.000    5.728    0.433    0.148   98.246  170.975
  524.250    5.797    0.425    0.140   95.766  170.375
  524.500    5.833    0.418    0.142   94.657  170.095
  524.750    5.892    0.414    0.146   93.553  169.703
  525.000    5.928    0.412    0.152   92.754  169.738
  525.250    5.921    0.409    0.159   91.212  169.766
  525.500    5.923    0.403    0.163   90.226  169.998
  525.750    5.903    0.395    0.167   88.682  170.030
  526.000    5.873    0.389    0.172   87.013  169.950
  526.250    5.853    0.391    0.174   87.156  169.876
  526.500    5.823    0.393    0.170   88.420  169.695
  526.750    5.803    0.414    0.163   84.753  169.418
  527.000    5.795    0.423    0.160   83.020  169.234
  527.250    5.776    0.411    0.151   84.349  169.265
  527.500    5.713    0.399    0.159   85.740  169.299
  527.750    5.619    0.404    0.170   88.507  169.324
  528.000    5.610    0.410    0.166   90.585  169.451
  528.250    5.613    0.413    0.154   77.420  169.688
  528.500    5.659    0.414    0.144   78.937  170.344
  528.750    5.727    0.419    0.131   84.017  170.789
  529.000    5.829    0.425    0.140   87.906  170.921
  529.250    6.048    0.422    0.139   91.234  170.948
  529.500    6.445    0.414    0.137   91.440  171.087
  529.750    7.013    0.405    0.132   89.269  171.006
  530.000    7.749    0.408    0.137   90.537  170.310
  530.250    8.778    0.405    0.152   93.365  169.919
  530.500    9.681    0.392    0.174   88.696  169.636
  530.750    9.686    0.392    0.193   81.905  169.041
  531.000    8.675    0.400    0.212   76.736  168.759
  531.250    7.769    0.388    0.162   72.566  168.471
  531.500    6.607    0.360    0.110   68.524  168.188
  531.750    6.020    0.328    0.088   65.728  167.802
  532.000    5.677    0.314    0.081   67.494  167.622
  532.250    5.519    0.323    0.093   74.822  168.065
  532.500    5.490    0.342    0.117   78.713  168.930
  532.750    5.482    0.366    0.148   82.542  169.479
  533.000    5.517    0.383    0.183   86.933  170.132
  533.250    5.551    0.405    0.173   93.198  170.679
  533.500    5.565    0.412    0.155   98.649  171.129
  533.750    5.567    0.408    0.149   95.607  171.158
  534.000    5.613    0.406    0.143   91.250  171.182
  534.250    5.724    0.403    0.147   87.144  171.111
  534.500    6.111    0.399    0.145   90.473  171.034
  534.750    6.537    0.397    0.135   92.425  171.166
  535.000    7.033    0.410    0.137   91.193  171.298
  535.250    7.268    0.421    0.140   94.273  171.329
  535.500    7.342    0.430    0.141   97.975  171.357
  535.750    7.290    0.437    0.137  105.553  171.281
  536.000    7.237    0.418    0.126  105.946  170.268
  536.250    7.090    0.399    0.135   99.841  168.942
  536.500    6.802    0.383    0.148   95.669  167.410
  536.750    6.767    0.380    0.156   88.877  166.710
  537.000    7.238    0.377    0.165   78.023  166.322
  537.250    8.029    0.364    0.120   70.980  166.351
  537.500    9.359    0.348    0.115   78.557  166.379
  537.750   11.958    0.331    0.135   79.699  166.409
  538.000   13.163    0.345    0.159   82.716  166.435
  538.250   11.654    0.352    0.179   86.231  166.463
  538.500    9.487    0.354    0.181   92.246  166.499
  538.750    8.037    0.361    0.149   85.456  166.522
  539.000    6.902    0.390    0.111   77.038  166.549
  539.250    6.446    0.349    0.074   69.932  166.585
  539.500    6.231    0.327    0.075   63.702  166.922
  539.750    6.294    0.336    0.103   58.907  168.095
  540.000    6.407    0.345    0.105   64.985  169.271
  540.250    6.472    0.317    0.105   72.062  170.026
  540.500    6.549    0.333    0.109   80.576  170.684
  540.750    6.666    0.353    0.115   84.966  171.547
  541.000    6.746    0.387    0.121   85.671  172.096
  541.250    6.788    0.405    0.129   86.064  172.225
  541.500    6.831    0.399    0.137   88.518  172.253
  541.750    6.834    0.397    0.145   91.096  172.280
  542.000    6.970    0.405    0.144   92.925  172.102
  542.250    6.946    0.407    0.141   92.131  172.128
  542.500    6.858    0.404    0.136   89.275  171.847
  542.750    6.809    0.405    0.127   86.544  171.772
  543.000    6.683    0.402    0.121   86.123  171.799
  543.250    6.585    0.395    0.130   84.639  171.518
  543.500    6.588    0.390    0.142   83.158  171.444
  543.750    6.693    0.390    0.140   84.112  171.473
