~VERSION INFORMATION
 VERS.                 2.0:   CWLS LOG ASCII STANDARD -VERSION 2.0
 WRAP.                  NO:   ONE LINE PER DEPTH STEP
~WELL INFORMATION BLOCK
#MNEM.UNIT           DATA                    DESCRIPTION OF MNEMONIC
#---------    -------------------            -------------------------------
# Generated from Intellog Unique Number	CW_70_72/WELL/3008
NULL.         -999.25                        : NULL_VALUE
WELL.         CHIEFCO ET AL RANCH 06-18      : Well_name    - WELL              
LOC .         06-18-070-26W4                 : Location     - LOCATION          
UWI .         00/06-18-070-26W4/0            : Uwi          - UNIQUE WELL ID    
ENTR.         J                              : Entered      - ENTERED BY        
SRVC.         SCHLUMBERGER                   : Scn          - SERVICE COMPANY   
DATE.         9 AUG 76                       : Date         - LOG DATE          
STRT.M        454.152                        : top_depth    - START DEPTH       
STOP.M        710.152                        : bot_depth    - STOP DEPTH        
STEP.M        0.25                           : increment    - STEP LENGTH       
~CURVE INFORMATION BLOCK
#MNEM UNIT       ERCB CURVE CODE    CURVE DESCRIPTION
#-----------   ------------------   ----------------------------------
DEPT.M        00 001 00 00         : DEPTH        - DEPTH                       
ILD .OHMM     00 120 00 00         : RESD         - DEEP RESISTIVITY (DIL)      
CALI.MM       00 280 01 00         : CAL          - CALIPER                     
GR  .API      00 310 00 00         : GR           - GAMMA RAY                   
NPHI.V/V      00 330 00 00         : PHIN         - NEUTRON POROSITY (SANDSTONE)
DPHI.V/V      00 890 00 00         : PHID         - DENSITY POROSITY (SANDSTONE)
~PARAMETER INFORMATION       
#MNEM.UNIT           DATA             DESCRIPTION OF MNEMONIC
#---------         -----------     ------------------------------
GL  .M        623.316              : gl           - GROUND LEVEL ELEVATION      
EREF.M        626.059              : kb           - ELEVATION OF DEPTH REFERENCE
DATM.M        623.316              : datum        - DATUM ELEVATION             
TDD .M        723.9                : tdd          - TOTAL DEPTH DRILLER         
RUN .         ONE                  : Run          - RUN NUMBER                  
ENG .         MUNRO/SEDGWICK       : Engineer     - RECORDING ENGINEER          
BASE.         EDM                  : Branch       - HOME BASE OF LOGGING UNIT   
MUD .         GEL                  : Mud_type     - MUD TYPE                    
MATR.         SANDSTONE            : Logunit      - NEUTRON MATRIX              
TMAX.C        28.3333              : BHT          - MAXIMUM RECORDED TEMPERATURE
BHTD.M        722.681              : BHTDEP       - MAXIMUM RECORDED TEMPERATURE
RMT .C        22.2222              : MDTP         - TEMPERATURE OF MUD          
MUDD.KG/M     1116                 : MWT          - MUD DENSITY                 
NEUT.         1                    : NEUTRON      - NEUTRON TYPE                
RESI.         0                    : RESIST       - RESISTIVITY TYPE            
RM  .OHMM     3.29                 : RM           - RESISTIVITY OF MUD          
RMC .OHMM     2.5                  : RMC          - RESISTIVITY OF MUD CAKE     
RMF .OHMM     3.04                 : RMF          - RESISTIVITY OF MUD FILTRATE 
SUFT.C        -17.7778             : SUFT         - SURFACE TEMPERATURE         
~A  DEPTH     RESD      CAL       GR     PHIN     PHID
# ...
  636.652    1.916  164.900  100.164    0.543    0.256
  636.902    2.184  180.082   94.866    0.553    0.260
  637.152    2.526  182.474   89.812    0.463    0.201
  637.402    3.031  174.115   85.117    0.396    0.172
  637.652    3.460  165.656   88.706    0.385    0.110
  637.902    4.129  157.300   95.252    0.384    0.082
  638.152    4.162  152.321  100.652    0.392    0.122
  638.402    3.857  150.106   99.164    0.405    0.153
  638.652    3.660  149.732   98.155    0.411    0.154
  638.902    3.538  151.607   98.843    0.397    0.147
  639.152    3.450  156.567  103.273    0.399    0.124
  639.402    3.353  158.844  108.916    0.408    0.118
  639.652    3.380  160.822  107.548    0.418    0.148
  639.902    3.548  161.471  105.938    0.417    0.169
  640.152    3.623  161.511  104.564    0.428    0.139
  640.402    3.679  161.031  101.688    0.433    0.132
  640.652    3.764  159.941   99.775    0.410    0.127
  640.902    3.801  158.542   98.886    0.415    0.115
  641.152    3.763  157.147  100.358    0.410    0.144
  641.402    3.711  156.468  103.038    0.397    0.127
  641.652    3.653  156.299  107.957    0.412    0.130
  641.902    3.662  156.332  110.453    0.402    0.146
  642.152    3.746  156.165  108.420    0.404    0.132
  642.402    3.896  155.992  106.022    0.402    0.142
  642.652    4.112  155.828  105.864    0.386    0.158
  642.902    4.444  155.762  105.225    0.386    0.144
  643.152    4.812  155.589  104.336    0.379    0.138
  643.402    4.904  155.110  102.423    0.349    0.129
  643.652    4.621  153.105  100.026    0.333    0.108
  643.902    4.392  151.198   97.868    0.340    0.083
  644.152    3.996  150.204   94.323    0.349    0.084
  644.402    3.557  150.749   94.103    0.368    0.104
  644.652    3.307  153.857  101.256    0.427    0.135
  644.902    3.093  164.433  100.312    0.519    0.152
  645.152    3.223  174.290   95.860    0.443    0.174
  645.402    3.838  160.206   91.950    0.411    0.163
  645.652    4.555  153.589   91.608    0.384    0.140
  645.902    4.851  153.216   96.949    0.397    0.128
  646.152    5.073  152.839   95.644    0.411    0.136
  646.402    5.171  152.270   92.335    0.373    0.149
  646.652    5.128  152.192   87.947    0.351    0.135
  646.902    4.957  152.024   85.128    0.326    0.105
  647.152    4.695  152.274   89.497    0.343    0.118
  647.402    4.537  152.507   98.647    0.364    0.163
  647.652    4.393  153.152  104.708    0.384    0.144
  647.902    4.132  155.032  110.713    0.398    0.150
  648.152    4.059  156.809  108.740    0.401    0.172
  648.402    4.237  157.766  106.466    0.393    0.154
  648.652    4.463  158.824  106.485    0.370    0.140
  648.902    4.860  159.369  105.175    0.349    0.129
  649.152    5.175  159.406  100.241    0.342    0.115
  649.402    5.584  159.033   95.309    0.350    0.090
  649.652    5.618  158.455   91.519    0.348    0.073
  649.902    5.350  157.978   88.277    0.338    0.056
  650.152    4.851  156.992   91.501    0.348    0.110
  650.402    4.519  156.415   98.352    0.359    0.148
  650.652    4.142  155.931  103.088    0.376    0.159
  650.902    3.974  155.562  105.222    0.393    0.168
  651.152    3.758  155.089  106.331    0.420    0.182
  651.402    3.678  154.817  104.781    0.409    0.179
  651.652    3.737  154.748  103.593    0.395    0.131
  651.902    3.807  155.089  102.467    0.386    0.153
  652.152    3.930  155.226  101.523    0.395    0.108
  652.402    4.029  155.162  101.180    0.402    0.130
  652.652    4.009  155.194  101.805    0.391    0.164
  652.902    3.889  155.435  104.664    0.368    0.162
  653.152    3.814  156.084  112.905    0.384    0.143
  653.402    3.876  156.736  114.861    0.428    0.142
  653.652    3.898  157.078  110.166    0.405    0.147
  653.902    4.017  157.214  104.506    0.368    0.118
  654.152    4.017  157.456  103.502    0.359    0.096
  654.402    4.276  157.186  109.986    0.384    0.112
  654.652    4.341  156.808  112.611    0.425    0.160
  654.902    4.555  155.715  107.553    0.406    0.164
  655.152    4.555  154.218   99.595    0.372    0.153
  655.402    5.770  152.410   88.010    0.354    0.166
  655.652    5.932  150.714   83.925    0.354    0.156
  655.902    6.496  149.718   80.740    0.354    0.118
  656.152    6.729  148.529   75.625    0.335    0.102
  656.402    6.729  148.053   70.205    0.307    0.082
  656.652    7.122  148.197   64.908    0.301    0.076
  656.902    6.819  148.839   69.585    0.312    0.078
  657.152    6.239  150.614   75.769    0.319    0.099
  657.402    5.844  151.360   82.135    0.326    0.093
  657.652    5.271  151.807   90.255    0.339    0.114
  657.902    5.130  151.543  100.491    0.353    0.122
  658.152    5.031  151.568  107.460    0.365    0.117
  658.402    5.072  151.502  100.835    0.346    0.120
  658.652    5.324  151.333   92.818    0.333    0.142
  658.902    5.577  150.964   87.639    0.338    0.133
  659.152    5.876  151.000   92.135    0.342    0.107
  659.402    6.000  152.062   95.722    0.338    0.102
  659.652    6.038  152.805   99.431    0.323    0.116
  659.902    6.042  153.866  101.687    0.327    0.125
  660.152    5.970  154.725  103.584    0.343    0.137
  660.402    5.918  155.163  104.628    0.353    0.143
  660.652    5.795  155.920  105.737    0.347    0.133
  660.902    5.715  156.465  106.547    0.333    0.137
  661.152    5.615  156.605  107.107    0.324    0.138
  661.402    5.548  156.647  106.824    0.331    0.129
  661.652    5.452  156.673  105.638    0.346    0.121
  661.902    5.436  156.308  103.966    0.352    0.117
  662.152    5.430  156.024  101.085    0.346    0.131
  662.402    5.404  155.755   99.173    0.328    0.146
  662.652    5.349  155.378   98.410    0.328    0.140
  662.902    5.381  154.803   97.464    0.328    0.133
  663.152    5.385  154.329   97.665    0.330    0.130
  663.402    5.516  154.054  103.004    0.342    0.133
  663.652    5.646  153.685  106.831    0.348    0.142
  663.902    5.872  153.000  106.249    0.335    0.127
  664.152    6.794  152.316   97.873    0.330    0.123
  664.402    7.287  150.919   91.424    0.348    0.126
  664.652    8.616  148.604   79.721    0.362    0.126
  664.902    9.677  146.289   64.815    0.321    0.131
  665.152   10.868  143.669   58.491    0.290    0.116
  665.402   12.207  142.266   60.867    0.277    0.108
  665.652   13.291  141.888   62.096    0.264    0.101
  665.902   12.181  142.133   61.697    0.269    0.090
  666.152   10.663  142.779   65.405    0.240    0.081
  666.402    9.543  144.654   69.531    0.245    0.064
  666.652    8.540  147.452   75.720    0.285    0.097
  666.902    7.601  149.844   81.000    0.326    0.138
  667.152    7.082  151.923   85.850    0.356    0.148
  667.402    7.379  149.302   80.072    0.361    0.139
  667.652    7.976  144.934   74.894    0.324    0.136
  667.902    8.525  141.186   77.519    0.321    0.187
  668.152    8.721  140.090   80.257    0.339    0.233
  668.402    7.891  139.513   83.662    0.352    0.227
  668.652    7.154  141.296   87.306    0.355    0.208
  668.902    6.740  143.171   92.164    0.353    0.227
  669.152    6.584  145.764   97.928    0.352    0.205
  669.402    6.435  149.383  101.814    0.363    0.187
  669.652    6.464  151.151  105.824    0.374    0.188
  669.902    6.504  149.244  108.987    0.385    0.176
  670.152    6.629  148.458  102.782    0.352    0.153
  670.402    6.857  148.497   93.195    0.322    0.160
  670.652    7.196  147.713   90.796    0.328    0.163
  670.902    7.735  147.249   96.441    0.334    0.159
  671.152    8.406  146.866   93.618    0.328    0.139
  671.402    9.322  146.388   86.570    0.320    0.117
  671.652    9.535  146.217   79.341    0.268    0.094
  671.902    9.032  146.873   72.347    0.247    0.065
  672.152    8.113  147.721   75.813    0.242    0.046
  672.402    7.340  149.193   79.823    0.290    0.046
  672.652    6.690  150.353   81.657    0.316    0.067
  672.902    6.720  152.535   85.968    0.341    0.066
