~VERSION INFORMATION
 VERS.                 2.0:   CWLS LOG ASCII STANDARD -VERSION 2.0
 WRAP.                  NO:   ONE LINE PER DEPTH STEP
~WELL INFORMATION BLOCK
#MNEM.UNIT           DATA                    DESCRIPTION OF MNEMONIC
#---------    -------------------            -------------------------------
# Generated from Intellog Unique Number	CW_73_75/WELL/529
WELL.         CZAR ET AL CHERPETA 06-06      : Well_name    - WELL
LOC .         00/06-06-074-19W4/0            : Location     - LOCATION
UWI .         00/06-06-074-19W4/0            : Uwi          - UNIQUE WELL ID
ENTR.         JAYE                           : Entered      - ENTERED BY
SRVC.         SCHLUMBERGER                   : Scn          - SERVICE COMPANY
DATE.         32 JAN 80                      : Date         - LOG DATE
STRT.M        370                            : top_depth    - START DEPTH
STOP.M        570                            : bot_depth    - STOP DEPTH
STEP.M        0.25                           : increment    - STEP LENGTH
 NULL. -999.2500:NULL Value
~CURVE INFORMATION BLOCK
#MNEM UNIT       ERCB CURVE CODE    CURVE DESCRIPTION
#-----------   ------------------   ----------------------------------
DEPT.M        00 001 00 00         : DEPTH        - DEPTH
GR  .API      00 310 00 00         : GR           - GAMMA RAY
CALI.MM       00 280 01 00         : CAL          - CALIPER
DPHI.V/V      00 890 00 00         : PHID         - DENSITY POROSITY (SANDSTONE)
NPHI.V/V      00 330 00 00         : PHIN         - NEUTRON POROSITY (SANDSTONE)
ILD .OHMM     00 120 00 00         : RESD         - DEEP RESISTIVITY (DIL)
~PARAMETER INFORMATION
#MNEM.UNIT           DATA             DESCRIPTION OF MNEMONIC
#---------         -----------     ------------------------------
GL  .M        687.19               : gl           - GROUND LEVEL ELEVATION
EREF.M        690.09               : kb           - ELEVATION OF DEPTH REFERENCE
DATM.M        687.19               : datum        - DATUM ELEVATION
TDD .M        605                  : tdd          - TOTAL DEPTH DRILLER
RUN .         ONE                  : Run          - RUN NUMBER
ENG .         SARK                 : Engineer     - RECORDING ENGINEER
WIT .         EARLE                : Witness      - WITNESSED BY
BASE.         EDMONTON             : Branch       - HOME BASE OF LOGGING UNIT
MUD .         GEL CHEM             : Mud_type     - MUD TYPE
MATR.         SANDSTONE            : Logunit      - NEUTRON MATRIX
TMAX.C        25                   : BHT          - MAXIMUM RECORDED TEMPERATURE
BHTD.M        604.5                : BHTDEP       - MAXIMUM RECORDED TEMPERATURE
RMT .C        20                   : MDTP         - TEMPERATURE OF MUD
MUDD.KG/M     1110                 : MWT          - MUD DENSITY
NEUT.         1                    : NEUTRON      - NEUTRON TYPE
RESI.         0                    : RESIST       - RESISTIVITY TYPE
RM  .OHMM     2.68                 : RM           - RESISTIVITY OF MUD
RMC .OHMM     0                    : RMC          - RESISTIVITY OF MUD CAKE
RMF .OHMM     3.14                 : RMF          - RESISTIVITY OF MUD FILTRATE
SUFT.C        4.5                  : SUFT         - SURFACE TEMPERATURE
~A  DEPTH       GR      CAL     PHID     PHIN     RESD
# ...
  479.500   65.897  178.934    0.324    0.441    5.455
  479.750   68.961  179.843    0.316    0.444    5.440
  480.000   70.612  181.571    0.306    0.432    5.425
  480.250   70.112  184.015    0.314    0.426    5.461
  480.500   67.341  186.050    0.314    0.422    5.508
  480.750   67.641  188.084    0.302    0.424    5.514
  481.000   68.800  188.789    0.287    0.434    5.529
  481.250   70.820  189.595    0.289    0.443    5.514
  481.500   70.812  193.370    0.297    0.453    5.520
  481.750   70.251  196.223    0.286    0.456    5.516
  482.000   71.411  198.362    0.293    0.443    5.490
  482.250   74.535  200.498    0.282    0.436    5.465
  482.500   77.537  202.226    0.278    0.442    5.420
  482.750   80.171  204.566    0.290    0.455    5.325
  483.000   82.375  206.397    0.295    0.450    5.262
  483.250   83.473  208.535    0.290    0.435    5.237
  483.500   82.053  210.978    0.281    0.434    5.223
  483.750   79.465  213.013    0.266    0.447    5.268
  484.000   77.185  214.946    0.271    0.447    5.353
  484.250   72.386  218.311    0.279    0.438    5.531
  484.500   72.686  220.960    0.276    0.434    5.526
  484.750   74.153  222.790    0.268    0.431    5.450
  485.000   74.882  223.699    0.266    0.441    5.265
  485.250   75.734  224.404    0.270    0.456    5.115
  485.500   77.631  225.107    0.288    0.462    4.906
  485.750   79.773  227.039    0.310    0.456    4.626
  486.000   80.871  230.302    0.287    0.484    4.180
  486.250   81.600  235.408    0.301    0.524    3.897
  486.500   82.330  240.924    0.298    0.539    3.780
  486.750   83.550  242.140    0.304    0.536    3.741
  487.000   85.263  224.315    0.299    0.502    3.844
  487.250   86.238  215.600    0.277    0.470    4.085
  487.500   83.958  213.643    0.255    0.455    4.423
  487.750   81.248  213.835    0.264    0.463    4.878
  488.000   81.056  214.231    0.280    0.457    5.585
  488.250   78.100  214.116    0.282    0.443    6.046
  488.500   76.987  214.104    0.278    0.445    6.189
  488.750   78.392  214.398    0.270    0.456    5.946
  489.000   81.517  214.898    0.259    0.447    5.545
  489.250   86.177  215.807    0.252    0.439    5.258
  489.500   89.302  216.920    0.253    0.448    5.147
  489.750   90.584  218.341    0.234    0.457    5.029
  490.000   94.693  219.864    0.216    0.440    4.988
  490.250   96.343  222.410    0.194    0.420    5.058
  490.500   94.186  222.806    0.222    0.430    5.168
  490.750   92.520  222.692    0.230    0.441    5.300
  491.000   90.300  222.474    0.218    0.450    5.497
  491.250   89.618  222.564    0.235    0.465    5.554
  491.500   90.470  222.142    0.221    0.459    5.519
  491.750   89.111  222.130    0.230    0.455    5.392
  492.000   86.401  223.038    0.218    0.467    5.358
  492.250   86.701  223.128    0.216    0.479    5.413
  492.500   86.325  218.406    0.226    0.480    5.500
  492.750   85.211  215.425    0.265    0.471    5.758
  493.000   82.747  212.034    0.273    0.454    5.949
  493.250   82.555  208.336    0.233    0.436    6.102
  493.500   85.188  205.660    0.192    0.415    6.200
  493.750   87.024  204.114    0.191    0.405    6.253
  494.000   87.078  202.564    0.217    0.407    6.294
  494.250   87.684  201.222    0.224    0.423    6.360
  494.500   87.430  199.367    0.216    0.438    6.390
  494.750   85.642  196.384    0.215    0.434    6.457
  495.000   82.624  194.223    0.211    0.432    6.511
  495.250   80.467  192.265    0.207    0.433    6.591
  495.500   76.959  190.410    0.199    0.439    6.659
  495.750   71.915  189.271    0.181    0.422    6.754
  496.000   73.258  188.542    0.165    0.400    7.005
  496.250   78.901  188.017    0.178    0.381    7.333
  496.500   72.076  188.312    0.203    0.397    7.807
  496.750   70.103  189.937    0.176    0.379    8.067
  497.000   75.685  192.074    0.125    0.353    7.955
  497.250   80.775  194.722    0.162    0.344    7.405
  497.500   84.883  200.034    0.197    0.377    6.828
  497.750   85.919  208.723    0.223    0.402    6.343
  498.000   84.069  214.750    0.233    0.418    5.872
  498.250   83.693  220.162    0.222    0.431    5.589
  498.500   83.133  224.654    0.243    0.448    5.420
  498.750   83.862  229.146    0.256    0.464    5.296
  499.000   84.960  226.267    0.300    0.462    5.203
  499.250   85.628  227.483    0.263    0.464    5.121
  499.500   82.733  232.896    0.245    0.475    5.014
  499.750   78.978  232.473    0.266    0.483    4.972
  500.000   76.576  225.807    0.260    0.479    4.968
  500.250   72.883  221.187    0.275    0.470    5.076
  500.500   64.338  218.411    0.280    0.463    5.294
  500.750   58.803  216.145    0.283    0.467    5.542
  501.000   54.496  214.290    0.310    0.461    6.079
  501.250   52.830  212.332    0.335    0.473    7.051
  501.500   52.699  210.477    0.347    0.454    7.835
  501.750   54.104  208.520    0.332    0.434    8.325
  502.000   54.833  205.232    0.309    0.407    8.555
  502.250   52.001  201.739    0.272    0.378    8.692
  502.500   49.230  198.859    0.202    0.346    8.684
  502.750   48.669  195.878    0.160    0.288    8.565
  503.000   49.890  192.076    0.174    0.341    8.183
  503.250   51.479  188.993    0.225    0.387    7.338
  503.500   53.928  186.218    0.266    0.408    6.280
  503.750   55.456  179.960    0.310    0.424    5.610
  504.000   56.800  172.474    0.342    0.434    5.203
  504.250   57.284  168.572    0.329    0.436    5.121
  504.500   56.539  169.378    0.315    0.440    5.108
  504.750   56.654  171.004    0.325    0.441    5.160
  505.000   56.647  173.242    0.329    0.432    5.185
  505.250   55.841  174.867    0.342    0.419    5.210
  505.500   55.096  175.776    0.328    0.409    5.235
  505.750   55.150  176.276    0.313    0.406    5.358
  506.000   55.510  176.776    0.299    0.415    5.537
  506.250   56.424  177.376    0.279    0.424    5.752
  506.500   57.338  178.386    0.269    0.427    5.922
  506.750   57.700  179.911    0.301    0.419    6.352
  507.000   56.708  182.560    0.270    0.366    6.915
  507.250   54.920  185.413    0.224    0.365    7.570
  507.500   54.421  186.424    0.235    0.358    7.678
  507.750   54.966  185.899    0.204    0.341    7.335
  508.000   55.757  185.272    0.231    0.344    6.777
  508.250   56.487  184.441    0.295    0.430    6.065
  508.500   56.110  184.531    0.337    0.445    5.625
  508.750   55.058  184.314    0.337    0.449    5.120
  509.000   55.235  183.892    0.331    0.441    4.891
  509.250   56.395  182.035    0.332    0.432    4.851
  509.500   57.492  179.874    0.327    0.436    4.829
  509.750   57.669  176.585    0.333    0.447    4.816
  510.000   57.108  174.116    0.335    0.452    4.794
  510.250   56.365  173.590    0.331    0.429    4.790
  510.500   55.435  172.862    0.314    0.407    4.785
  510.750   54.691  172.440    0.304    0.397    4.782
  511.000   54.253  172.428    0.306    0.395    4.777
  511.250   51.728  173.336    0.301    0.398    4.624
  511.500   48.649  174.961    0.286    0.398    4.519
  511.750   47.597  176.792    0.326    0.394    4.473
  512.000   49.862  178.007    0.321    0.395    4.528
  512.250   52.312  179.735    0.328    0.408    4.583
  512.500   53.410  180.541    0.325    0.421    4.674
  512.750   53.340  175.614    0.320    0.418    4.758
  513.000   52.780  175.090    0.317    0.413    4.862
  513.250   52.711  177.023    0.318    0.409    4.958
  513.500   53.809  174.758    0.333    0.408    5.047
  513.750   55.030  172.697    0.338    0.409    5.100
  514.000   55.943  172.992    0.325    0.415    5.133
  514.250   56.120  173.901    0.324    0.427    5.168
  514.500   55.744  175.013    0.331    0.418    5.183
  514.750   56.290  175.821    0.323    0.409    5.179
  515.000   57.695  176.934    0.320    0.411    5.126
  515.250   59.714  179.070    0.326    0.420    5.093
  515.500   60.996  181.311    0.319    0.422    5.042
  515.750   61.787  183.857    0.319    0.418    4.981
