~VERSION INFORMATION
 VERS.                 2.0:   CWLS LOG ASCII STANDARD -VERSION 2.0
 WRAP.                  NO:   ONE LINE PER DEPTH STEP
~WELL INFORMATION BLOCK
#MNEM.UNIT           DATA                    DESCRIPTION OF MNEMONIC
#---------    -------------------            -------------------------------
# Generated from Intellog Unique Number	CS_67_68/WELL/2182
WELL.         07-36-067-03W4                 : Well_name    - WELL
LOC .         00/07-36-067-03W4/0            : Location     - LOCATION
UWI .         00/07-36-067-03W4/0            : Uwi          - UNIQUE WELL ID
ENTR.         SP                             : Entered      - ENTERED BY
SRVC.         SCHLUMBERGER                   : Scn          - SERVICE COMPANY
STRT.M        370                            : top_depth    - START DEPTH
STOP.M        616                            : bot_depth    - STOP DEPTH
STEP.M        0.25                           : increment    - STEP LENGTH
 NULL. -999.2500:NULL Value
~CURVE INFORMATION BLOCK
#MNEM UNIT       ERCB CURVE CODE    CURVE DESCRIPTION
#-----------   ------------------   ----------------------------------
DEPT.M        00 001 00 00         : DEPTH        - DEPTH
GR  .API      00 310 00 00         : GR           - GAMMA RAY
DPHI.V/V      00 890 00 00         : PHID         - DENSITY POROSITY (LIMESTONE)
NPHI.V/V      00 330 00 00         : PHIN         - NEUTRON POROSITY (LIMESTONE)
CALI.MM       00 280 01 00         : CAL          - CALIPER
ILD .OHMM     00 120 00 00         : RESD         - DEEP RESISTIVITY (DIL)
~PARAMETER INFORMATION
#MNEM.UNIT           DATA             DESCRIPTION OF MNEMONIC
#---------         -----------     ------------------------------
GL  .M        701.08               : gl           - GROUND LEVEL ELEVATION
EREF.M        704.28               : kb           - ELEVATION OF DEPTH REFERENCE
DATM.M        704.28               : datum        - DATUM ELEVATION
TDD .M        622                  : tdd          - TOTAL DEPTH DRILLER
RUN .         ONE                  : Run          - RUN NUMBER
ENG .         BILL                 : Engineer     - RECORDING ENGINEER
WIT .         JIM                  : Witness      - WITNESSED BY
MUD .         GEL                  : Mud_type     - MUD TYPE
MATR.         LIMESTONE            : Logunit      - NEUTRON MATRIX
TMAX.C        28.8                 : BHT          - MAXIMUM RECORDED TEMPERATURE
BHTD.M        622.2                : BHTDEP       - MAXIMUM RECORDED TEMPERATURE
MATR.         1                    : LOGUNIT      - NEUTRON MATRIX
RMT .C        25                   : MDTP         - TEMPERATURE OF MUD
NEUT.         1                    : NEUTRON      - NEUTRON TYPE
RESI.         0                    : RESIST       - RESISTIVITY TYPE
RMC .OHMM     0.25                 : RMC          - RESISTIVITY OF MUD CAKE
RMF .OHMM     0.25                 : RMF          - RESISTIVITY OF MUD FILTRATE
SUFT.C        15                   : SUFT         - SURFACE TEMPERATURE
~A  DEPTH       GR     PHID     PHIN      CAL     RESD
# ...
  479.500   61.849    0.244    0.503  173.365    5.248
  479.750   57.259    0.265    0.455  168.738    5.256
  480.000   50.976    0.287    0.439  165.018    5.293
  480.250   55.455    0.302    0.424  162.607    5.360
  480.500   62.111    0.292    0.409  161.205    5.540
  480.750   66.710    0.264    0.414  161.516    5.683
  481.000   62.604    0.281    0.436  161.726    5.778
  481.250   60.916    0.305    0.446  162.036    5.872
  481.500   58.926    0.317    0.414  161.944    6.025
  481.750   56.876    0.291    0.421  161.147    6.239
  482.000   56.699    0.286    0.427  160.751    6.438
  482.250   59.243    0.300    0.431  160.054    6.617
  482.500   62.392    0.306    0.438  159.458    6.739
  482.750   64.754    0.308    0.452  158.861    6.824
  483.000   63.067    0.308    0.463  158.063    6.884
  483.250   59.324    0.310    0.449  157.366    6.906
  483.500   61.444    0.314    0.439  156.570    6.903
  483.750   62.417    0.320    0.433  156.274    6.899
  484.000   60.065    0.320    0.445  156.284    6.857
  484.250   58.859    0.318    0.443  156.696    6.841
  484.500   58.200    0.315    0.443  157.004    6.812
  484.750   58.507    0.311    0.439  157.718    6.796
  485.000   58.935    0.310    0.432  158.130    6.766
  485.250   58.578    0.314    0.432  158.642    6.788
  485.500   57.736    0.319    0.440  158.852    6.797
  485.750   55.927    0.327    0.447  159.064    6.808
  486.000   54.299    0.331    0.457  159.170    6.802
  486.250   53.337    0.332    0.465  159.179    6.813
  486.500   53.463    0.334    0.463  159.189    6.771
  486.750   53.892    0.336    0.450  159.096    6.744
  487.000   53.171    0.338    0.441  159.005    6.703
  487.250   53.660    0.340    0.432  159.014    6.674
  487.500   55.115    0.342    0.440  158.917    6.621
  487.750   57.055    0.343    0.449  158.929    6.581
  488.000   58.511    0.335    0.455  159.137    6.528
  488.250   59.967    0.328    0.443  159.347    6.489
  488.500   61.604    0.338    0.431  159.456    6.437
  488.750   63.121    0.344    0.421  158.959    6.386
  489.000   64.093    0.331    0.436  158.971    6.299
  489.250   64.522    0.328    0.449  158.976    6.273
  489.500   64.224    0.320    0.439  159.186    6.259
  489.750   59.997    0.310    0.430  159.294    6.174
  490.000   59.094    0.302    0.448  159.908    5.435
  490.250   67.081    0.305    0.460  160.421    4.214
  490.500   73.978    0.304    0.451  161.032    3.717
  490.750   78.699    0.276    0.454  161.747    3.506
  491.000   83.056    0.261    0.490  162.762    3.325
  491.250   81.309    0.279    0.519  165.290    3.287
  491.500   81.011    0.294    0.519  168.222    3.316
  491.750   82.104    0.299    0.522  170.042    3.389
  492.000   83.500    0.296    0.530  172.067    3.197
  492.250   85.198    0.293    0.531  172.780    2.921
  492.500   86.775    0.283    0.520  172.386    2.756
  492.750   88.472    0.267    0.534  171.990    2.634
  493.000   90.473    0.251    0.551  171.695    2.584
  493.250   91.143    0.243    0.544  170.998    2.558
  493.500   91.691    0.249    0.520  170.402    2.533
  493.750   94.055    0.251    0.507  168.900    2.504
  494.000   96.115    0.252    0.486  166.992    2.657
  494.250   98.115    0.254    0.488  165.087    3.089
  494.500   90.200    0.261    0.502  165.094    4.210
  494.750   77.327    0.271    0.512  165.809    6.623
  495.000   69.230    0.294    0.523  165.919    9.457
  495.250   64.096    0.314    0.498  164.917   13.304
  495.500   61.320    0.322    0.470  163.213   16.575
  495.750   59.874    0.323    0.453  161.208   19.709
  496.000   58.488    0.319    0.460  160.308   22.118
  496.250   57.828    0.329    0.467  159.913   24.225
  496.500   56.866    0.340    0.460  159.520   25.655
  496.750   57.233    0.342    0.454  159.527   24.381
  497.000   57.783    0.332    0.450  159.435   22.239
  497.250   58.936    0.325    0.448  159.745   20.397
  497.500   60.211    0.328    0.459  160.357   20.048
  497.750   61.365    0.329    0.468  161.273   20.111
  498.000   62.277    0.327    0.471  162.188   20.291
  498.250   61.495    0.326    0.470  161.994   20.856
  498.500   59.324    0.325    0.477  161.096   22.128
  498.750   57.999    0.328    0.483  160.298   23.177
  499.000   58.124    0.340    0.485  159.399   24.865
  499.250   60.971    0.343    0.482  158.703   26.189
  499.500   63.757    0.327    0.472  158.309   27.839
  499.750   63.097    0.331    0.459  158.516   29.155
  500.000   59.053    0.337    0.448  159.030   30.474
  500.250   57.183    0.334    0.450  159.643   31.036
  500.500   56.280    0.330    0.462  160.053   31.137
  500.750   57.011    0.326    0.460  160.464   30.318
  501.000   57.621    0.327    0.467  160.574   28.599
  501.250   58.169    0.332    0.471  160.784   26.527
  501.500   58.840    0.330    0.468  161.095   24.149
  501.750   59.328    0.325    0.461  161.505   22.526
  502.000   59.998    0.327    0.454  162.220   20.660
  502.250   59.519    0.339    0.451  162.731   18.496
  502.500   58.980    0.345    0.446  163.545   15.714
  502.750   61.101    0.337    0.441  164.361   14.173
  503.000   60.501    0.321    0.436  165.074   12.501
  503.250   59.056    0.311    0.433  165.486   10.404
  503.500   59.544    0.303    0.445  166.300    9.176
  503.750   60.879    0.296    0.455  167.114    8.480
  504.000   62.275    0.290    0.460  168.331    7.749
  504.250   64.517    0.288    0.468  169.851    7.282
  504.500   66.698    0.339    0.480  171.673    6.895
  504.750   69.364    0.368    0.487  172.689    6.651
  505.000   71.061    0.345    0.465  173.704    6.321
  505.250   68.225    0.326    0.491  172.203    5.995
  505.500   65.630    0.348    0.518  171.405    5.741
  505.750   65.877    0.297    0.511  171.009    5.517
  506.000   69.811    0.276    0.496  171.018    5.402
  506.250   70.362    0.263    0.484  171.329    5.260
  506.500   69.217    0.251    0.488  171.538    5.179
  506.750   68.678    0.270    0.488  171.143    5.186
  507.000   69.106    0.292    0.480  170.546    5.204
  507.250   70.261    0.283    0.470  168.842    5.309
  507.500   71.111    0.273    0.466  166.936    5.426
  507.750   73.172    0.276    0.464  164.727    5.526
  508.000   75.172    0.269    0.459  163.123    5.617
  508.250   76.870    0.263    0.451  161.419    5.709
  508.500   77.177    0.257    0.461  160.721    5.792
  508.750   75.307    0.257    0.466  160.730    5.833
  509.000   74.768    0.263    0.469  160.738    5.906
  509.250   75.197    0.269    0.459  160.948    5.992
  509.500   75.867    0.265    0.450  161.764    6.045
  509.750   77.081    0.263    0.473  162.476    6.042
  510.000   79.202    0.265    0.471  163.493    6.039
  510.250   81.445    0.261    0.459  163.903    5.958
  510.500   81.932    0.252    0.457  164.718    5.790
  510.750   79.640    0.238    0.459  165.733    5.606
  511.000   77.045    0.224    0.459  167.555    5.328
  511.250   75.659    0.214    0.459  169.075    5.140
  511.500   75.604    0.242    0.470  169.587    5.215
  511.750   72.284    0.260    0.491  165.465    6.052
  512.000   66.061    0.269    0.509  162.955    9.311
  512.250   60.201    0.295    0.519  161.853   12.361
  512.500   59.361    0.302    0.489  161.459   15.145
  512.750   61.663    0.301    0.467  161.067   19.046
  513.000   63.965    0.308    0.466  160.971   23.117
  513.250   66.570    0.291    0.476  160.979   25.037
  513.500   70.021    0.263    0.468  160.891   24.931
  513.750   73.472    0.234    0.435  161.201   11.895
  514.000   76.198    0.255    0.409  161.307   10.890
  514.250   74.691    0.276    0.446  161.616   10.643
  514.500   69.859    0.293    0.474  162.737   10.001
  514.750   68.716    0.307    0.458  163.448    9.071
  515.000   74.706    0.293    0.434  164.765    7.882
  515.250   79.367    0.267    0.421  167.395    6.560
  515.500   83.846    0.248    0.416  169.014    5.430
  515.750   86.088    0.233    0.441  171.340    4.674
