~VERSION INFORMATION
 VERS.                 2.0:   CWLS LOG ASCII STANDARD -VERSION 2.0
 WRAP.                  NO:   ONE LINE PER DEPTH STEP
~WELL INFORMATION BLOCK
#MNEM.UNIT           DATA                    DESCRIPTION OF MNEMONIC
#---------    -------------------            -------------------------------
# Generated from Intellog Unique Number	CS_77_79/WELL/874
WELL.         ICGR LOCHIEL CHARD             : Well_name    - WELL
LOC .         00/06-12-079-06W4/0            : Location     - LOCATION
UWI .         00/06-12-079-06W4/0            : Uwi          - UNIQUE WELL ID
ENTR.         JHS                            : Entered      - ENTERED BY
SRVC.         SCHLUMBERGER                   : Scn          - SERVICE COMPANY
STRT.M        125                            : top_depth    - START DEPTH
STOP.M        305                            : bot_depth    - STOP DEPTH
STEP.M        0.25                           : increment    - STEP LENGTH
 NULL. -999.2500:NULL Value
~CURVE INFORMATION BLOCK
#MNEM UNIT       ERCB CURVE CODE    CURVE DESCRIPTION
#-----------   ------------------   ----------------------------------
DEPT.M        00 001 00 00         : DEPTH        - DEPTH
DPHI.V/V      00 890 00 00         : PHID         - DENSITY POROSITY (LIMESTONE)
NPHI.V/V      00 330 00 00         : PHIN         - NEUTRON POROSITY (LIMESTONE)
GR  .API      00 310 00 00         : GR           - GAMMA RAY
ILD .OHMM     00 120 00 00         : RESD         - DEEP RESISTIVITY (DIL)
RHOB.KG/M3    00 350 00 00         : DENS         - BULK DENSITY
~PARAMETER INFORMATION
#MNEM.UNIT           DATA             DESCRIPTION OF MNEMONIC
#---------         -----------     ------------------------------
GL  .M        475.8                : gl           - GROUND LEVEL ELEVATION
EREF.M        479.3                : kb           - ELEVATION OF DEPTH REFERENCE
DATM.M        479.3                : datum        - DATUM ELEVATION
TDD .M        313                  : tdd          - TOTAL DEPTH DRILLER
RUN .         ONE                  : Run          - RUN NUMBER
ENG .         BILL                 : Engineer     - RECORDING ENGINEER
WIT .         JIM                  : Witness      - WITNESSED BY
MUD .         GEL                  : Mud_type     - MUD TYPE
MATR.         LIMESTONE            : Logunit      - NEUTRON MATRIX
TMAX.C        20                   : BHT          - MAXIMUM RECORDED TEMPERATURE
BHTD.M        313                  : BHTDEP       - MAXIMUM RECORDED TEMPERATURE
MATR.         1                    : LOGUNIT      - NEUTRON MATRIX
RMT .C        25                   : MDTP         - TEMPERATURE OF MUD
NEUT.         1                    : NEUTRON      - NEUTRON TYPE
RESI.         0                    : RESIST       - RESISTIVITY TYPE
RMC .OHMM     0.25                 : RMC          - RESISTIVITY OF MUD CAKE
RMF .OHMM     0.25                 : RMF          - RESISTIVITY OF MUD FILTRATE
SUFT.C        15                   : SUFT         - SURFACE TEMPERATURE
~A  DEPTH     PHID     PHIN       GR     RESD     DENS
# ...
  161.500    0.262    0.497   85.650    9.729    0.000
  161.750    0.262    0.468   84.463   10.101    0.000
  162.000    0.266    0.451   84.507    9.729    0.000
  162.250    0.268    0.449   82.709    8.858    0.000
  162.500    0.256    0.459   82.127    7.915    0.000
  162.750    0.230    0.471   90.734    6.685    0.000
  163.000    0.240    0.469   98.735    5.862    0.000
  163.250    0.265    0.470   96.933    4.859    0.000
  163.500    0.243    0.478   95.751    3.952    0.000
  163.750    0.247    0.525  101.297    3.466    0.000
  164.000    0.272    0.561  105.618    3.215    0.000
  164.250    0.276    0.566  106.880    3.155    0.000
  164.500    0.277    0.584  102.628    3.215    0.000
  164.750    0.284    0.594   97.767    3.532    0.000
  165.000    0.297    0.595   97.809    4.952    0.000
  165.250    0.309    0.540   97.230    7.208    0.000
  165.500    0.327    0.474   89.314    8.696    0.000
  165.750    0.325    0.438   80.782    9.918    0.000
  166.000    0.324    0.455   75.921   10.297    0.000
  166.250    0.332    0.453   75.955    9.918    0.000
  166.500    0.339    0.439   74.772    9.375    0.000
  166.750    0.339    0.443   74.193    8.536    0.000
  167.000    0.324    0.461   79.139    7.771    0.000
  167.250    0.300    0.455   84.675    7.209    0.000
  167.500    0.282    0.462   89.609    7.209    0.000
  167.750    0.275    0.492   95.162    7.346    0.000
  168.000    0.277    0.481   97.646    7.919    0.000
  168.250    0.280    0.479   94.617    8.222    0.000
  168.500    0.269    0.487   89.764    8.379    0.000
  168.750    0.264    0.477   93.468    8.379    0.000
  169.000    0.265    0.499   99.021    8.379    0.000
  169.250    0.266    0.523   99.664    8.223    0.000
  169.500    0.262    0.500   91.750    7.773    0.000
  169.750    0.271    0.476   85.052    7.487    0.000
  170.000    0.268    0.459   90.597    7.211    0.000
  170.250    0.257    0.474   94.924    7.077    0.000
  170.500    0.256    0.492   96.797    6.946    0.000
  170.750    0.259    0.496   94.999    6.946    0.000
  171.000    0.261    0.487   91.360    6.817    0.000
  171.250    0.257    0.478   86.504    6.566    0.000
  171.500    0.251    0.478   90.216    6.207    0.000
  171.750    0.246    0.495   98.817    5.758    0.000
  172.000    0.252    0.514  106.814    5.145    0.000
  172.250    0.247    0.525  103.183    4.428    0.000
  172.500    0.253    0.542   97.709    3.469    0.000
  172.750    0.276    0.538   96.517    2.769    0.000
  173.000    0.298    0.512   98.392    2.474    0.000
  173.250    0.295    0.575  102.104    2.383    0.000
  173.500    0.289    0.615  106.425    2.339    0.000
  173.750    0.322    0.607  107.701    2.383    0.000
  174.000    0.300    0.567  108.335    2.475    0.000
  174.250    0.291    0.560  109.594    2.668    0.000
  174.500    0.290    0.572  106.574    2.876    0.000
  174.750    0.275    0.580  106.010    3.042    0.000
  175.000    0.265    0.559  106.648    3.342    0.000
  175.250    0.259    0.536  107.296    3.671    0.000
  175.500    0.260    0.552  106.116    4.266    0.000
  175.750    0.276    0.568  101.252    4.774    0.000
  176.000    0.293    0.536   95.783    5.244    0.000
  176.250    0.287    0.501   96.438    5.654    0.000
  176.500    0.275    0.496   94.641    5.870    0.000
  176.750    0.269    0.510   93.440    6.095    0.000
  177.000    0.281    0.513   94.102    6.448    0.000
  177.250    0.293    0.472   90.460    6.695    0.000
  177.500    0.273    0.450   86.208    7.217    0.000
  177.750    0.268    0.450   81.355    7.493    0.000
  178.000    0.287    0.475   80.778    7.635    0.000
  178.250    0.298    0.497   82.041    7.928    0.000
  178.500    0.294    0.503   82.694    7.928    0.000
  178.750    0.295    0.497   81.499    7.928    0.000
  179.000    0.297    0.490   83.370    8.232    0.000
  179.250    0.283    0.472   80.349    8.709    0.000
  179.500    0.246    0.436   75.489   10.120    0.000
  179.750    0.221    0.362   70.016   10.707    0.000
  180.000    0.187    0.323   64.557   10.707    0.000
  180.250    0.159    0.299   69.481   11.327    0.000
  180.500    0.228    0.400   73.809   12.678    0.000
  180.750    0.223    0.462   64.660   14.190    0.000
  181.000    0.114    0.294   55.520   13.927    0.000
  181.250    0.060    0.234   53.715   12.443    0.000
  181.500    0.027    0.206   64.770   11.762    0.000
  181.750    0.196    0.341   75.828   11.118    0.000
  182.000    0.289    0.434   81.385   10.510    0.000
  182.250    0.289    0.462   81.422    9.935    0.000
  182.500    0.294    0.449   83.283    9.750    0.000
  182.750    0.296    0.443   84.550    9.751    0.000
  183.000    0.292    0.465   83.969    9.936    0.000
  183.250    0.263    0.456   84.009   10.316    0.000
  183.500    0.192    0.387   75.473   10.512    0.000
  183.750    0.160    0.362   76.127   10.316    0.000
  184.000    0.224    0.412   80.449    9.752    0.000
  184.250    0.301    0.449   79.888    9.393    0.000
  184.500    0.294    0.435   79.307    8.879    0.000
  184.750    0.289    0.429   81.179    8.714    0.000
  185.000    0.292    0.428   84.269    8.552    0.000
  185.250    0.304    0.435   89.818    8.084    0.000
  185.500    0.304    0.450   94.140    7.641    0.000
  185.750    0.287    0.457   93.565    7.223    0.000
  186.000    0.273    0.458   89.329    7.089    0.000
  186.250    0.266    0.451   91.192    6.828    0.000
  186.500    0.256    0.451   96.125    6.577    0.000
  186.750    0.252    0.468   98.621    6.577    0.000
  187.000    0.255    0.459  101.718    6.958    0.000
  187.250    0.237    0.458  105.425    7.361    0.000
  187.500    0.234    0.445  104.230    7.643    0.000
  187.750    0.243    0.436   98.152    7.788    0.000
  188.000    0.259    0.448   87.782    7.788    0.000
  188.250    0.270    0.471   81.083    7.501    0.000
  188.500    0.279    0.482   81.745    7.091    0.000
  188.750    0.276    0.447   86.059    6.578    0.000
  189.000    0.264    0.444   88.546    6.102    0.000
  189.250    0.248    0.471   93.475    5.351    0.000
  189.500    0.240    0.488  100.857    4.964    0.000
  189.750    0.249    0.501  102.732    4.872    0.000
  190.000    0.273    0.512   97.875    5.059    0.000
  190.250    0.278    0.519   93.018    5.352    0.000
  190.500    0.258    0.513   94.894    5.557    0.000
  190.750    0.245    0.484  101.051    5.352    0.000
  191.000    0.241    0.472  103.530    4.965    0.000
  191.250    0.256    0.472  102.965    4.693    0.000
  191.500    0.272    0.501  100.543    4.354    0.000
  191.750    0.264    0.527   96.915    4.273    0.000
  192.000    0.262    0.549   99.395    4.437    0.000
  192.250    0.262    0.526  101.882    4.606    0.000
  192.500    0.269    0.522  101.315    5.253 2250.350
  192.750    0.287    0.541   90.942    5.771 2219.060
  193.000    0.307    0.504   79.960    6.105 2185.670
  193.250    0.313    0.472   76.320    5.992 2175.360
  193.500    0.309    0.462   79.420    5.254 2181.740
  193.750    0.287    0.466   84.358    4.874 2219.570
  194.000    0.272    0.538   88.685    4.695 2244.810
  194.250    0.298    0.516   91.165    4.784 2200.970
  194.500    0.288    0.487   90.597    5.157 2217.840
  194.750    0.283    0.482   88.186    5.664 2226.360
  195.000    0.283    0.465   86.989    6.106 2226.510
  195.250    0.278    0.476   91.311    6.460 2234.980
  195.500    0.264    0.486   95.022    6.964 2258.170
  195.750    0.257    0.477   96.894    7.096 2270.820
  196.000    0.246    0.467   95.711    7.231 2289.810
  196.250    0.255    0.466   93.301    7.368 2273.210
  196.500    0.261    0.473   89.663    7.368 2262.860
  196.750    0.253    0.470   82.361    7.368 2277.620
  197.000    0.241    0.462   75.048    7.508 2298.680
  197.250    0.264    0.456   69.573    7.796 2259.050
  197.500    0.291    0.440   72.070    8.094 2213.100
  197.750    0.233    0.430   72.113    8.563 2311.630
