~VERSION INFORMATION
 VERS.                 2.0:   CWLS LOG ASCII STANDARD -VERSION 2.0
 WRAP.                  NO:   ONE LINE PER DEPTH STEP
~WELL INFORMATION BLOCK
#MNEM.UNIT           DATA                    DESCRIPTION OF MNEMONIC
#---------    -------------------            -------------------------------
# Generated from Intellog Unique Number	CS_73_76/WELL/2165
WELL.         AMOCO KIRBY 6-20               : Well_name    - WELL
LOC .         00/06-20-074-06W4/0            : Location     - LOCATION
UWI .         00/06-20-074-06W4/0            : Uwi          - UNIQUE WELL ID
ENTR.         SP                             : Entered      - ENTERED BY
SRVC.         SCHLUMBERGER                   : Scn          - SERVICE COMPANY
STRT.M        245                            : top_depth    - START DEPTH
STOP.M        475                            : bot_depth    - STOP DEPTH
STEP.M        0.25                           : increment    - STEP LENGTH
 NULL. -999.2500:NULL Value
~CURVE INFORMATION BLOCK
#MNEM UNIT       ERCB CURVE CODE    CURVE DESCRIPTION
#-----------   ------------------   ----------------------------------
DEPT.M        00 001 00 00         : DEPTH        - DEPTH
ILD .OHMM     00 120 00 00         : RESD         - DEEP RESISTIVITY (DIL)
DPHI.V/V      00 890 00 00         : PHID         - DENSITY POROSITY (LIMESTONE)
NPHI.V/V      00 330 00 00         : PHIN         - NEUTRON POROSITY (LIMESTONE)
GR  .API      00 310 00 00         : GR           - GAMMA RAY
~PARAMETER INFORMATION
#MNEM.UNIT           DATA             DESCRIPTION OF MNEMONIC
#---------         -----------     ------------------------------
GL  .M        640.5                : gl           - GROUND LEVEL ELEVATION
EREF.M        643.6                : kb           - ELEVATION OF DEPTH REFERENCE
DATM.M        640.5                : datum        - DATUM ELEVATION
TDD .M        480                  : tdd          - TOTAL DEPTH DRILLER
RUN .         ONE                  : Run          - RUN NUMBER
ENG .         BILL                 : Engineer     - RECORDING ENGINEER
WIT .         JIM                  : Witness      - WITNESSED BY
MUD .         GEL                  : Mud_type     - MUD TYPE
MATR.         LIMESTONE            : Logunit      - NEUTRON MATRIX
TMAX.C        21                   : BHT          - MAXIMUM RECORDED TEMPERATURE
BHTD.M        480                  : BHTDEP       - MAXIMUM RECORDED TEMPERATURE
MATR.         1                    : LOGUNIT      - NEUTRON MATRIX
RMT .C        25                   : MDTP         - TEMPERATURE OF MUD
NEUT.         1                    : NEUTRON      - NEUTRON TYPE
RESI.         0                    : RESIST       - RESISTIVITY TYPE
RMC .OHMM     0.25                 : RMC          - RESISTIVITY OF MUD CAKE
RMF .OHMM     0.25                 : RMF          - RESISTIVITY OF MUD FILTRATE
SUFT.C        15                   : SUFT         - SURFACE TEMPERATURE
~A  DEPTH     RESD     PHID     PHIN       GR
# ...
  288.500    7.428    0.275    0.428   91.299
  288.750    7.156    0.263    0.412   98.042
  289.000    6.893    0.253    0.431  107.845
  289.250    6.519    0.260    0.449  109.690
  289.500    6.399    0.268    0.441  105.412
  289.750    6.282    0.270    0.428  101.744
  290.000    6.284    0.271    0.420   95.020
  290.250    6.409    0.279    0.417   90.129
  290.500    6.412    0.286    0.423   88.298
  290.750    6.536    0.291    0.430   89.529
  291.000    6.663    0.280    0.405   98.724
  291.250    7.190    0.275    0.405  101.790
  291.500    7.330    0.276    0.423  100.573
  291.750    7.614    0.285    0.426   94.458
  292.000    7.913    0.290    0.431   89.568
  292.250    7.916    0.293    0.418   85.291
  292.500    7.920    0.294    0.410   81.013
  292.750    7.922    0.296    0.437   74.895
  293.000    7.925    0.296    0.424   81.025
  293.250    8.080    0.291    0.408   84.094
  293.500    8.085    0.282    0.398   85.940
  293.750    7.937    0.278    0.404   87.169
  294.000    7.647    0.280    0.434   82.279
  294.250    7.367    0.266    0.453   77.389
  294.500    7.097    0.267    0.464   90.866
  294.750    6.967    0.270    0.473   93.322
  295.000    6.587    0.261    0.437   83.534
  295.250    6.467    0.252    0.447   80.481
  295.500    6.594    0.245    0.438   78.041
  295.750    6.596    0.279    0.440   74.984
  296.000    6.724    0.325    0.446   65.808
  296.250    6.856    0.357    0.414   57.856
  296.500    6.990    0.353    0.407   49.905
  296.750    7.127    0.331    0.414   61.547
  297.000    7.266    0.321    0.414   65.228
  297.250    7.269    0.321    0.414   67.683
  297.500    7.271    0.331    0.411   60.344
  297.750    7.415    0.342    0.420   54.840
  298.000    7.418    0.345    0.430   57.296
  298.250    7.420    0.341    0.439   61.592
  298.500    7.424    0.341    0.428   64.046
  298.750    7.570    0.346    0.400   65.278
  299.000    7.431    0.332    0.405   67.737
  299.250    7.435    0.321    0.418   69.579
  299.500    7.300    0.301    0.428   75.709
  299.750    7.303    0.294    0.404   80.614
  300.000    7.168    0.283    0.405   76.337
  300.250    7.174    0.278    0.400   75.120
  300.500    7.176    0.274    0.411   75.126
  300.750    7.044    0.274    0.417   75.748
  301.000    7.048    0.277    0.435   72.693
  301.250    7.050    0.283    0.407   67.192
  301.500    6.923    0.304    0.397   64.137
  301.750    6.925    0.322    0.405   64.143
  302.000    6.800    0.334    0.392   64.766
  302.250    6.675    0.342    0.391   64.771
  302.500    6.554    0.332    0.396   64.777
  302.750    6.434    0.326    0.397   64.788
  303.000    6.318    0.332    0.407   64.793
  303.250    6.202    0.339    0.416   62.964
  303.500    6.204    0.345    0.411   60.522
  303.750    6.091    0.338    0.411   58.080
  304.000    6.094    0.326    0.407   62.376
  304.250    5.982    0.317    0.395   66.054
  304.500    5.764    0.302    0.414   73.409
  304.750    5.658    0.291    0.409   78.927
  305.000    5.555    0.291    0.397   74.649
  305.250    5.453    0.322    0.417   66.697
  305.500    5.157    0.348    0.418   61.806
  305.750    5.063    0.353    0.409   60.588
  306.000    4.970    0.354    0.402   58.146
  306.250    4.789    0.349    0.405   55.093
  306.500    4.701    0.350    0.412   48.979
  306.750    4.615    0.357    0.419   48.373
  307.000    4.530    0.364    0.419   54.503
  307.250    4.797    0.370    0.425   53.289
  307.500    4.709    0.368    0.436   52.070
  307.750    4.623    0.366    0.432   52.080
  308.000    4.538    0.361    0.439   52.085
  308.250    4.456    0.357    0.446   52.093
  308.500    4.293    0.355    0.445   51.486
  308.750    4.295    0.357    0.420   50.270
  309.000    4.137    0.360    0.394   49.668
  309.250    4.062    0.363    0.395   49.060
  309.500    3.988    0.365    0.410   45.395
  309.750    3.916    0.337    0.422   44.178
  310.000    3.844    0.319    0.427   43.572
  310.250    3.846    0.339    0.420   52.152
  310.500    3.776    0.355    0.413   55.833
  310.750    3.777    0.363    0.399   58.902
  311.000    3.708    0.366    0.406   61.359
  311.250    3.640    0.362    0.411   61.365
  311.500    3.574    0.358    0.422   55.862
  311.750    3.509    0.356    0.425   51.583
  312.000    3.381    0.355    0.411   46.080
  312.250    3.319    0.355    0.411   49.152
  312.500    3.259    0.358    0.398   50.382
  312.750    3.199    0.361    0.399   45.492
  313.000    3.141    0.361    0.402   43.049
  313.250    3.084    0.359    0.393   44.894
  313.500    3.085    0.364    0.386   45.513
  313.750    3.029    0.362    0.393   44.298
  314.000    2.973    0.357    0.406   43.695
  314.250    2.975    0.351    0.422   44.312
  314.500    2.920    0.352    0.426   47.381
  314.750    2.867    0.346    0.397   54.123
  315.000    2.868    0.341    0.391   60.864
  315.250    2.816    0.332    0.408   66.994
  315.500    2.765    0.333    0.411   65.777
  315.750    2.714    0.335    0.416   59.051
  316.000    2.665    0.337    0.407   57.221
  316.250    2.616    0.342    0.408   65.190
  316.500    2.568    0.334    0.412   67.644
  316.750    2.570    0.328    0.412   70.715
  317.000    2.523    0.328    0.429   65.823
  317.250    2.524    0.338    0.442   58.483
  317.500    2.477    0.350    0.451   51.755
  317.750    2.479    0.339    0.432   64.008
  318.000    2.480    0.328    0.416   73.811
  318.250    2.482    0.327    0.417   67.084
  318.500    2.483    0.340    0.427   59.133
  318.750    2.484    0.350    0.432   53.017
  319.000    2.438    0.360    0.434   50.575
  319.250    2.439    0.368    0.441   50.584
  319.500    2.440    0.371    0.444   49.366
  319.750    2.396    0.381    0.430   47.536
  320.000    2.397    0.366    0.432   45.096
  320.250    2.353    0.369    0.418   39.594
  320.500    2.354    0.380    0.407   38.987
  320.750    2.356    0.382    0.413   47.568
  321.000    2.313    0.378    0.429   51.248
  321.250    2.313    0.374    0.436   50.646
  321.500    2.315    0.373    0.424   50.649
  321.750    2.272    0.382    0.428   48.208
  322.000    2.273    0.383    0.440   45.155
  322.250    2.274    0.385    0.442   45.777
  322.500    2.276    0.382    0.414   45.783
  322.750    2.276    0.378    0.403   46.402
  323.000    2.321    0.372    0.407   47.635
  323.250    2.322    0.370    0.423   48.865
  323.500    2.324    0.367    0.434   47.649
  323.750    2.369    0.370    0.425   50.720
  324.000    2.369    0.362    0.405   56.237
  324.250    2.416    0.354    0.409   59.916
  324.500    2.510    0.356    0.418   61.760
  324.750    2.559    0.361    0.430   51.971
  325.000    2.609    0.363    0.446   48.305
  325.250    2.660    0.362    0.414   47.701
  325.500    2.661    0.363    0.409   46.486
  325.750    2.713    0.371    0.400   45.267
  326.000    2.715    0.374    0.404   45.274
  326.250    2.767    0.364    0.411   47.734
  326.500    2.821    0.357    0.440   49.578
  326.750    2.876    0.360    0.451   51.419
  327.000    2.933    0.357    0.448   50.814
  327.250    2.934    0.351    0.426   50.821
  327.500    2.991    0.345    0.412   56.342
  327.750    2.992    0.337    0.412   60.023
  328.000    3.051    0.342    0.419   61.252
  328.250    3.052    0.352    0.426   60.034
  328.500    3.053    0.357    0.430   60.042
  328.750    2.998    0.352    0.420   60.050
  329.000    2.781    0.352    0.411   58.832
  329.250    2.580    0.356    0.411   58.229
  329.500    2.393    0.351    0.414   64.972
  329.750    2.350    0.333    0.414   71.715
  330.000    2.396    0.311    0.425   77.844
  330.250    2.443    0.303    0.436   82.749
  330.500    2.586    0.301    0.441   87.042
  330.750    2.843    0.295    0.431   84.602
  331.000    3.186    0.293    0.429   79.097
  331.250    3.570    0.291    0.443   76.655
  331.500    3.779    0.294    0.439   76.051
  331.750    4.001    0.288    0.401   76.059
