~VERSION INFORMATION
 VERS.                 2.0:   CWLS LOG ASCII STANDARD -VERSION 2.0
 WRAP.                  NO:   ONE LINE PER DEPTH STEP
~WELL INFORMATION BLOCK
#MNEM.UNIT           DATA                    DESCRIPTION OF MNEMONIC
#---------    -------------------            -------------------------------
# Generated from Intellog Unique Number	CS_73_76/WELL/2161
WELL.         MANY ISLANDS PIPELINES         : Well_name    - WELL
LOC .         00/06-08-074-11W4/0            : Location     - LOCATION
UWI .         00/06-08-074-11W4/0            : Uwi          - UNIQUE WELL ID
ENTR.         SP                             : Entered      - ENTERED BY
SRVC.         SCHLUMBERGER                   : Scn          - SERVICE COMPANY
STRT.M        298.704                        : top_depth    - START DEPTH
STOP.M        536.204                        : bot_depth    - STOP DEPTH
STEP.M        0.25                           : increment    - STEP LENGTH
 NULL. -999.2500:NULL Value
~CURVE INFORMATION BLOCK
#MNEM UNIT       ERCB CURVE CODE    CURVE DESCRIPTION
#-----------   ------------------   ----------------------------------
DEPT.M        00 001 00 00         : DEPTH        - DEPTH
GR  .API      00 310 00 00         : GR           - GAMMA RAY
DPHI.V/V      00 890 00 00         : PHID         - DENSITY POROSITY (SANDSTONE)
NPHI.V/V      00 330 00 00         : PHIN         - NEUTRON POROSITY (SANDSTONE)
ILD .OHMM     00 120 00 00         : RESD         - DEEP RESISTIVITY (DIL)
~PARAMETER INFORMATION
#MNEM.UNIT           DATA             DESCRIPTION OF MNEMONIC
#---------         -----------     ------------------------------
GL  .M        661.416              : gl           - GROUND LEVEL ELEVATION
EREF.M        664.891              : kb           - ELEVATION OF DEPTH REFERENCE
DATM.M        661.416              : datum        - DATUM ELEVATION
TDD .M        553.517              : tdd          - TOTAL DEPTH DRILLER
RUN .         ONE                  : Run          - RUN NUMBER
ENG .         BILL                 : Engineer     - RECORDING ENGINEER
WIT .         JIM                  : Witness      - WITNESSED BY
MUD .         GEL                  : Mud_type     - MUD TYPE
MATR.         SANDSTONE            : Logunit      - NEUTRON MATRIX
TMAX.C        26.6667              : BHT          - MAXIMUM RECORDED TEMPERATURE
BHTD.M        553.517              : BHTDEP       - MAXIMUM RECORDED TEMPERATURE
MATR.         1                    : LOGUNIT      - NEUTRON MATRIX
RMT .C        25                   : MDTP         - TEMPERATURE OF MUD
NEUT.         1                    : NEUTRON      - NEUTRON TYPE
RESI.         0                    : RESIST       - RESISTIVITY TYPE
RMC .OHMM     0.25                 : RMC          - RESISTIVITY OF MUD CAKE
RMF .OHMM     0.25                 : RMF          - RESISTIVITY OF MUD FILTRATE
SUFT.C        15                   : SUFT         - SURFACE TEMPERATURE
~A  DEPTH       GR     PHID     PHIN     RESD
  298.704  103.615    0.247    0.586    2.213
  298.954  104.806    0.241    0.601    2.755
  299.204  103.443    0.226    0.537    2.897
  299.454  101.787    0.213    0.525    3.079
  299.704  107.227    0.212    0.542    3.215
  299.954  113.262    0.245    0.558    3.265
  300.204  115.769    0.247    0.537    3.428
  300.454  113.103    0.237    0.513    3.675
  300.704  108.862    0.221    0.486    3.942
  300.954  109.963    0.225    0.486    4.123
  301.204  111.951    0.221    0.507    4.318
  301.454  113.242    0.215    0.513    4.302
  301.704  110.258    0.225    0.525    4.122
  301.954  107.861    0.234    0.525    3.874
  302.204  109.040    0.237    0.540    3.714
  302.454  109.128    0.237    0.541    3.557
  302.704  115.558    0.225    0.520    3.513
  302.954  112.897    0.238    0.518    3.570
  303.204  108.867    0.244    0.520    3.689
  303.454  108.226    0.228    0.535    3.730
  303.704  113.022    0.225    0.514    3.858
  303.954  112.975    0.220    0.483    3.845
  304.204  112.671    0.206    0.499    3.924
  304.454  114.419    0.223    0.531    3.846
  304.704  116.373    0.230    0.555    3.829
  304.954  116.934    0.226    0.551    3.783
  305.204  120.576    0.239    0.530    3.851
  305.454  121.004    0.238    0.535    3.934
  305.704  118.679    0.230    0.532    3.922
  305.954  117.787    0.215    0.507    4.005
  306.204  114.604    0.229    0.518    3.999
  306.454  112.174    0.224    0.513    3.997
  306.704  109.776    0.232    0.507    3.964
  306.954  106.580    0.214    0.506    3.933
  307.204  108.077    0.213    0.520    4.051
  307.454  108.454    0.216    0.519    4.303
  307.704  106.693    0.222    0.480    5.022
  307.954  107.512    0.209    0.461    6.030
  308.204  109.880    0.228    0.458    7.042
  308.454  116.250    0.251    0.444    8.201
  308.704  120.691    0.235    0.438    9.181
  308.954  120.007    0.221    0.442    9.468
  309.204  113.341    0.226    0.449    9.023
  309.454  100.059    0.250    0.442    9.140
  309.704   78.631    0.253    0.456   10.195
  309.954   52.183    0.288    0.420   10.953
  310.204   42.920    0.314    0.393   11.794
  310.454   43.048    0.305    0.377   12.377
  310.704   52.600    0.303    0.375   12.742
  310.954   64.578    0.314    0.383   13.160
  311.204   69.433    0.325    0.401   13.293
  311.454   71.060    0.320    0.418   13.283
  311.704   71.220    0.324    0.431   12.164
  311.954   76.311    0.327    0.433   11.893
  312.204   82.650    0.318    0.439   11.902
  312.454   81.828    0.292    0.434   11.945
  312.704   80.832    0.271    0.427   11.941
  312.954   84.194    0.282    0.413   11.663
  313.204   86.731    0.260    0.399   11.670
  313.454   84.174    0.221    0.379   11.990
  313.704   85.460    0.168    0.399   13.084
  313.954   99.260    0.210    0.429   13.027
  314.204  102.915    0.251    0.426   12.672
  314.454  109.203    0.281    0.440   12.037
  314.704  115.201    0.252    0.432   11.473
  314.954  113.617    0.242    0.426   10.991
  315.204  112.086    0.233    0.430   10.904
  315.454  112.184    0.234    0.433   11.061
  315.704  111.504    0.235    0.439   10.627
  315.954  111.849    0.229    0.443   10.220
  316.204  112.885    0.222    0.448    9.438
  316.454  112.066    0.213    0.440    9.200
  316.704  113.569    0.207    0.424    9.012
  316.954  116.914    0.204    0.420    9.010
  317.204  113.745    0.209    0.435    9.250
  317.454  107.259    0.229    0.442    9.724
  317.704  101.885    0.248    0.432   10.193
  317.954   99.294    0.267    0.425   10.737
  318.204  101.304    0.289    0.444   11.042
  318.454  102.369    0.286    0.435   11.247
  318.704  102.634    0.290    0.425   11.455
  318.954  101.093    0.284    0.428   11.233
  319.204   95.404    0.265    0.433   11.933
  319.454   87.250    0.251    0.429   12.383
  319.704   79.337    0.263    0.390   12.769
  319.954   79.633    0.259    0.389   13.179
  320.204   77.773    0.260    0.397   13.298
  320.454   75.668    0.273    0.409   13.205
  320.704   74.070    0.285    0.427   11.891
  320.954   73.671    0.285    0.426   10.278
  321.204   83.123    0.263    0.417    8.305
  321.454   93.201    0.242    0.415    6.875
  321.704   99.246    0.227    0.438    5.946
  321.954  105.054    0.244    0.458    5.103
  322.204  106.047    0.222    0.479    4.574
  322.454  102.447    0.195    0.509    3.992
  322.704   99.336    0.195    0.524    3.576
  322.954  100.166    0.167    0.523    3.454
  323.204   95.205    0.197    0.506    3.667
  323.454   88.587    0.206    0.486    4.219
  323.704   80.165    0.223    0.458    5.409
  323.954   69.560    0.247    0.435    6.862
  324.204   65.715    0.257    0.420    8.846
  324.454   55.877    0.287    0.388   11.023
  324.704   51.587    0.290    0.407   12.309
  324.954   51.053    0.299    0.409   13.398
  325.204   54.751    0.299    0.408   13.783
  325.454   59.751    0.296    0.416   13.687
  325.704   58.480    0.297    0.405   13.262
  325.954   56.643    0.294    0.400   13.056
  326.204   54.603    0.285    0.407   13.084
  326.454   51.914    0.274    0.419   12.814
  326.704   48.499    0.294    0.418   12.829
  326.954   47.033    0.302    0.407   12.826
  327.204   50.855    0.310    0.402   12.825
  327.454   52.129    0.295    0.414   12.800
  327.704   49.224    0.288    0.415   13.093
  327.954   47.931    0.294    0.406   13.056
  328.204   47.057    0.310    0.398   13.445
  328.454   49.880    0.320    0.401   13.820
  328.704   56.125    0.317    0.395   14.019
  328.954   60.282    0.319    0.395   14.459
  329.204   61.085    0.322    0.413   14.909
  329.454   61.155    0.329    0.408   15.179
  329.704   61.589    0.326    0.398   14.748
  329.954   58.589    0.307    0.406   14.309
  330.204   54.847    0.274    0.409   13.810
  330.454   50.335    0.325    0.415   13.548
  330.704   49.624    0.316    0.409   13.317
  330.954   51.989    0.311    0.410   13.187
  331.204   54.287    0.302    0.412   12.776
  331.454   59.724    0.294    0.432   12.380
  331.704   57.678    0.299    0.428   12.370
  331.954   50.836    0.310    0.409   12.364
  332.204   47.004    0.305    0.409   12.381
  332.454   56.275    0.293    0.413   12.035
  332.704   64.598    0.261    0.415   11.402
  332.954   74.780    0.222    0.428    9.390
  333.204   89.808    0.182    0.525    7.333
  333.454  123.403    0.155    0.515    6.353
  333.704  133.740    0.171    0.498    5.734
  333.954  135.330    0.201    0.485    5.870
  334.204  130.624    0.227    0.483    6.683
  334.454  127.107    0.249    0.459    7.452
  334.704  122.833    0.250    0.437    8.546
  334.954  120.080    0.259    0.432    9.470
  335.204  113.096    0.265    0.446   10.197
  335.454  104.523    0.269    0.453   10.709
  335.704   97.934    0.286    0.464   11.039
  335.954   95.550    0.307    0.473   11.065
  336.204   91.133    0.313    0.480   11.068
  336.454   91.631    0.301    0.454   10.601
  336.704  107.192    0.271    0.445    9.969
  336.954  117.682    0.234    0.456    9.390
  337.204  121.193    0.244    0.463    8.762
  337.454  121.558    0.263    0.469    8.330
  337.704  123.695    0.240    0.468    8.243
  337.954  123.312    0.228    0.462    8.379
  338.204  119.655    0.237    0.464    8.906
  338.454  107.268    0.245    0.479    9.310
  338.704   90.100    0.282    0.491    9.899
  338.954   75.571    0.303    0.404   10.520
  339.204   65.428    0.271    0.405   11.031
  339.454   71.510    0.281    0.414   11.360
  339.704   70.815    0.298    0.425   11.709
  339.954   73.994    0.315    0.418   11.698
  340.204   81.657    0.305    0.415   11.646
  340.454   84.604    0.311    0.430   11.499
  340.704   87.984    0.310    0.420   11.281
  340.954   93.794    0.290    0.411   11.026
  341.204   96.400    0.272    0.411   10.705
  341.454  102.475    0.246    0.426   10.404
  341.704  112.304    0.233    0.420    9.882
  341.954  111.895    0.234    0.419    9.456
