~VERSION INFORMATION
 VERS.                 2.0:   CWLS LOG ASCII STANDARD -VERSION 2.0
 WRAP.                  NO:   ONE LINE PER DEPTH STEP
~WELL INFORMATION BLOCK
#MNEM.UNIT           DATA                    DESCRIPTION OF MNEMONIC
#---------    -------------------            -------------------------------
# Generated from Intellog Unique Number	CS_71_72/WELL/805
WELL.         PEX PHILLIPS AEC GRIST         : Well_name    - WELL
LOC .         00/07-09-072-08W4/0            : Location     - LOCATION
UWI .         00/07-09-072-08W4/0            : Uwi          - UNIQUE WELL ID
ENTR.         SP                             : Entered      - ENTERED BY
SRVC.         SCHLUMBERGER                   : Scn          - SERVICE COMPANY
STRT.M        315                            : top_depth    - START DEPTH
STOP.M        535                            : bot_depth    - STOP DEPTH
STEP.M        0.25                           : increment    - STEP LENGTH
 NULL. -999.2500:NULL Value
~CURVE INFORMATION BLOCK
#MNEM UNIT       ERCB CURVE CODE    CURVE DESCRIPTION
#-----------   ------------------   ----------------------------------
DEPT.M        00 001 00 00         : DEPTH        - DEPTH
ILD .OHMM     00 120 00 00         : RESD         - DEEP RESISTIVITY (DIL)
DPHI.V/V      00 890 00 00         : PHID         - DENSITY POROSITY (LIMESTONE)
NPHI.V/V      00 330 00 00         : PHIN         - NEUTRON POROSITY (LIMESTONE)
GR  .API      00 310 00 00         : GR           - GAMMA RAY
~PARAMETER INFORMATION
#MNEM.UNIT           DATA             DESCRIPTION OF MNEMONIC
#---------         -----------     ------------------------------
GL  .M        673.1                : gl           - GROUND LEVEL ELEVATION
EREF.M        676.9                : kb           - ELEVATION OF DEPTH REFERENCE
DATM.M        673.1                : datum        - DATUM ELEVATION
TDD .M        547                  : tdd          - TOTAL DEPTH DRILLER
RUN .         ONE                  : Run          - RUN NUMBER
ENG .         BILL                 : Engineer     - RECORDING ENGINEER
WIT .         JIM                  : Witness      - WITNESSED BY
MUD .         GEL                  : Mud_type     - MUD TYPE
MATR.         LIMESTONE            : Logunit      - NEUTRON MATRIX
TMAX.C        23                   : BHT          - MAXIMUM RECORDED TEMPERATURE
BHTD.M        547                  : BHTDEP       - MAXIMUM RECORDED TEMPERATURE
MATR.         1                    : LOGUNIT      - NEUTRON MATRIX
RMT .C        25                   : MDTP         - TEMPERATURE OF MUD
NEUT.         1                    : NEUTRON      - NEUTRON TYPE
RESI.         0                    : RESIST       - RESISTIVITY TYPE
RMC .OHMM     0.25                 : RMC          - RESISTIVITY OF MUD CAKE
RMF .OHMM     0.25                 : RMF          - RESISTIVITY OF MUD FILTRATE
SUFT.C        15                   : SUFT         - SURFACE TEMPERATURE
~A  DEPTH     RESD     PHID     PHIN       GR
# ...
  358.500   10.249    0.212    0.393   95.070
  358.750   10.635    0.222    0.401   87.812
  359.000   10.440    0.246    0.444   85.394
  359.250    9.878    0.268    0.469   84.186
  359.500    9.697    0.298    0.485   82.383
  359.750    9.006    0.278    0.480   84.226
  360.000    8.521    0.259    0.476   85.459
  360.250    8.212    0.263    0.476   86.083
  360.500    7.914    0.264    0.478   86.701
  360.750    7.914    0.265    0.469   86.105
  361.000    7.914    0.255    0.460   84.905
  361.250    7.914    0.249    0.476   85.529
  361.500    7.914    0.261    0.477   88.586
  361.750    7.627    0.260    0.452   90.418
  362.000    7.084    0.256    0.444   95.297
  362.250    6.702    0.265    0.460   97.738
  362.500    6.827    0.267    0.450   91.682
  362.750    7.627    0.267    0.442   81.986
  363.000    8.212    0.313    0.452   78.959
  363.250    9.697    0.326    0.459   75.941
  363.500   11.035    0.315    0.457   73.531
  363.750   11.881    0.309    0.471   72.933
  364.000   13.274    0.310    0.466   72.342
  364.250   14.030    0.313    0.437   73.578
  364.500   14.558    0.309    0.439   74.196
  364.750   14.829    0.306    0.455   74.821
  365.000   14.292    0.296    0.466   74.235
  365.250   13.773    0.286    0.449   72.429
  365.500   13.773    0.280    0.438   71.833
  365.750   13.521    0.275    0.434   71.846
  366.000   13.274    0.291    0.423   71.256
  366.250   13.274    0.302    0.414   67.021
  366.500   12.329    0.286    0.408   68.249
  366.750   10.833    0.279    0.423   72.519
  367.000   10.440    0.269    0.441   76.186
  367.250   10.833    0.279    0.447   77.409
  367.500   11.450    0.287    0.433   78.032
  367.750   11.881    0.291    0.444   78.051
  368.000   12.329    0.298    0.435   76.850
  368.250   13.031    0.309    0.429   76.864
  368.500   13.521    0.315    0.422   76.881
  368.750   13.773    0.318    0.415   74.465
  369.000   13.521    0.304    0.407   75.699
  369.250   13.031    0.275    0.411   78.759
  369.500   12.792    0.255    0.421   81.203
  369.750   11.881    0.241    0.424   83.038
  370.000   11.241    0.239    0.427   84.871
  370.250   11.241    0.237    0.424   81.849
  370.500   11.664    0.254    0.420   76.400
  370.750   11.664    0.270    0.410   72.163
  371.000   11.450    0.279    0.406   74.000
  371.250   10.635    0.271    0.403   80.707
  371.500    9.519    0.262    0.403   82.541
  371.750    8.680    0.256    0.423   84.374
  372.000    9.345    0.280    0.438   86.209
  372.250   10.249    0.307    0.480   76.515
  372.500   11.241    0.395    0.504   72.880
  372.750   12.329    0.349    0.488   64.396
  373.000   13.521    0.332    0.473   58.343
  373.250   14.558    0.332    0.441   57.137
  373.500   15.106    0.330    0.436   56.548
  373.750   15.387    0.327    0.451   55.957
  374.000   16.264    0.321    0.457   57.191
  374.250   15.387    0.320    0.460   59.022
  374.500   14.829    0.320    0.463   62.686
  374.750   13.031    0.321    0.462   65.128
  375.000   12.558    0.322    0.444   63.322
  375.250   12.103    0.326    0.426   60.310
  375.500   11.881    0.319    0.416   59.102
  375.750   11.664    0.304    0.414   65.801
  376.000   10.635    0.274    0.415   72.494
  376.250    9.519    0.262    0.417   80.409
  376.500    9.174    0.268    0.429   83.458
  376.750    9.519    0.275    0.441   84.082
  377.000   10.635    0.282    0.435   82.277
  377.250   11.241    0.286    0.450   77.433
  377.500   11.881    0.298    0.462   66.520
  377.750   12.329    0.330    0.471   60.460
  378.000   13.274    0.341    0.458   55.011
  378.250   14.829    0.343    0.448   51.989
  378.500   16.264    0.351    0.441   48.969
  378.750   16.567    0.349    0.437   45.947
  379.000   16.876    0.345    0.427   45.356
  379.250   17.191    0.333    0.407   47.196
  379.500   17.191    0.330    0.400   47.211
  379.750   17.511    0.324    0.393   47.225
  380.000   17.191    0.320    0.395   49.673
  380.250   17.191    0.322    0.400   49.081
  380.500   16.876    0.325    0.403   49.100
  380.750   16.876    0.325    0.411   49.724
  381.000   16.876    0.323    0.420   50.954
  381.250   16.567    0.323    0.412   49.750
  381.500   16.567    0.333    0.405   52.201
  381.750   16.264    0.341    0.403   52.817
  382.000   16.264    0.344    0.424   53.443
  382.250   16.264    0.349    0.436   51.031
  382.500   15.966    0.354    0.426   49.224
  382.750   15.966    0.355    0.432   48.636
  383.000   15.966    0.349    0.459   49.254
  383.250   15.674    0.348    0.465   51.090
  383.500   15.674    0.348    0.442   54.151
  383.750   15.674    0.348    0.434   54.160
  384.000   15.674    0.351    0.449   54.785
  384.250   15.674    0.360    0.448   52.378
  384.500   15.674    0.362    0.434   51.782
  384.750   15.674    0.363    0.439   54.226
  385.000   15.674    0.358    0.440   56.668
  385.250   15.674    0.357    0.441   59.112
  385.500   15.674    0.356    0.450   54.877
  385.750   15.966    0.361    0.456   51.249
  386.000   15.966    0.357    0.453   50.055
  386.250   15.966    0.353    0.442   51.284
  386.500   15.966    0.353    0.433   52.516
  386.750   15.674    0.354    0.440   52.533
  387.000   15.674    0.359    0.452   52.545
  387.250   15.674    0.365    0.463   51.353
  387.500   15.674    0.368    0.468   51.969
  387.750   15.674    0.368    0.458   53.201
  388.000   15.674    0.363    0.452   53.822
  388.250   15.674    0.360    0.442   52.627
  388.500   15.387    0.357    0.439   51.427
  388.750   15.387    0.357    0.431   50.834
  389.000   15.387    0.354    0.424   50.241
  389.250   15.387    0.350    0.425   50.256
  389.500   15.387    0.352    0.432   50.272
  389.750   15.106    0.353    0.437   52.719
  390.000   14.030    0.356    0.436   56.380
  390.250   11.664    0.360    0.423   60.654
  390.500    9.878    0.347    0.448   63.092
  390.750    7.914    0.366    0.525   65.537
  391.000    6.579    0.383    0.529   65.551
  391.250    5.781    0.377    0.501   66.783
  391.500    5.175    0.344    0.507   71.052
  391.750    4.987    0.332    0.532   75.928
  392.000    4.896    0.316    0.516   80.803
  392.250    4.464    0.307    0.507   84.457
  392.500    4.070    0.320    0.539   84.472
  392.750    3.384    0.340    0.551   85.705
  393.000    3.143    0.358    0.540   89.367
  393.250    2.813    0.344    0.562   91.811
  393.500    2.662    0.309    0.572   88.791
  393.750    2.662    0.293    0.575   85.162
  394.000    2.711    0.304    0.590   83.353
  394.250    2.762    0.303    0.604   85.797
  394.500    2.919    0.288    0.594   87.635
  394.750    3.029    0.277    0.550   88.261
  395.000    3.201    0.291    0.522   86.452
  395.250    3.384    0.308    0.542   81.616
  395.500    3.711    0.307    0.542   81.019
  395.750    4.070    0.295    0.516   81.037
  396.000    4.302    0.292    0.504   81.664
  396.250    4.632    0.291    0.476   82.281
  396.500    5.175    0.282    0.453   82.296
  396.750    5.370    0.263    0.441   82.312
  397.000    5.470    0.251    0.471   84.154
  397.250    5.470    0.243    0.469   84.171
  397.500    5.370    0.257    0.475   83.575
  397.750    5.370    0.270    0.477   82.377
  398.000    5.370    0.278    0.457   77.539
  398.250    5.370    0.264    0.452   75.128
  398.500    5.470    0.247    0.450   74.528
  398.750    5.271    0.242    0.449   77.586
  399.000    5.370    0.248    0.472   81.855
  399.250    5.470    0.265    0.481   81.867
  399.500    5.572    0.264    0.461   80.666
  399.750    5.572    0.260    0.444   77.041
  400.000    5.676    0.262    0.430   75.230
  400.250    5.676    0.270    0.438   72.214
  400.500    5.572    0.291    0.466   70.405
  400.750    5.572    0.307    0.485   67.388
  401.000    5.676    0.315    0.501   66.189
  401.250    5.889    0.308    0.471   67.414
  401.500    5.999    0.303    0.449   71.079
  401.750    5.889    0.293    0.480   72.919
