~VERSION INFORMATION
 VERS.                 2.0:   CWLS LOG ASCII STANDARD -VERSION 2.0
 WRAP.                  NO:   ONE LINE PER DEPTH STEP
~WELL INFORMATION BLOCK
#MNEM.UNIT           DATA                    DESCRIPTION OF MNEMONIC
#---------    -------------------            -------------------------------
# Generated from Intellog Unique Number	CS_77_79/WELL/926
WELL.         NOVALTA PORTAGE                : Well_name    - WELL
LOC .         00/09-25-078-16W4/0            : Location     - LOCATION
UWI .         00/09-25-078-16W4/0            : Uwi          - UNIQUE WELL ID
ENTR.         JHS                            : Entered      - ENTERED BY
SRVC.         SCHLUMBERGER                   : Scn          - SERVICE COMPANY
STRT.M        220                            : top_depth    - START DEPTH
STOP.M        435                            : bot_depth    - STOP DEPTH
STEP.M        0.25                           : increment    - STEP LENGTH
 NULL. -999.2500:NULL Value
~CURVE INFORMATION BLOCK
#MNEM UNIT       ERCB CURVE CODE    CURVE DESCRIPTION
#-----------   ------------------   ----------------------------------
DEPT.M        00 001 00 00         : DEPTH        - DEPTH
DPHI.V/V      00 890 00 00         : PHID         - DENSITY POROSITY (LIMESTONE)
NPHI.V/V      00 330 00 00         : PHIN         - NEUTRON POROSITY (LIMESTONE)
GR  .API      00 310 00 00         : GR           - GAMMA RAY
ILD .OHMM     00 120 00 00         : RESD         - DEEP RESISTIVITY (DIL)
~PARAMETER INFORMATION
#MNEM.UNIT           DATA             DESCRIPTION OF MNEMONIC
#---------         -----------     ------------------------------
GL  .M        624.14               : gl           - GROUND LEVEL ELEVATION
EREF.M        627.6                : kb           - ELEVATION OF DEPTH REFERENCE
DATM.M        627.6                : datum        - DATUM ELEVATION
TDD .M        442                  : tdd          - TOTAL DEPTH DRILLER
RUN .         ONE                  : Run          - RUN NUMBER
ENG .         BILL                 : Engineer     - RECORDING ENGINEER
WIT .         JIM                  : Witness      - WITNESSED BY
MUD .         GEL                  : Mud_type     - MUD TYPE
MATR.         LIMESTONE            : Logunit      - NEUTRON MATRIX
TMAX.C        26                   : BHT          - MAXIMUM RECORDED TEMPERATURE
BHTD.M        442                  : BHTDEP       - MAXIMUM RECORDED TEMPERATURE
MATR.         1                    : LOGUNIT      - NEUTRON MATRIX
RMT .C        25                   : MDTP         - TEMPERATURE OF MUD
NEUT.         1                    : NEUTRON      - NEUTRON TYPE
RESI.         0                    : RESIST       - RESISTIVITY TYPE
RMC .OHMM     0.25                 : RMC          - RESISTIVITY OF MUD CAKE
RMF .OHMM     0.25                 : RMF          - RESISTIVITY OF MUD FILTRATE
SUFT.C        15                   : SUFT         - SURFACE TEMPERATURE
~A  DEPTH     PHID     PHIN       GR     RESD
# ...
  394.000    0.220    0.370  106.926    8.494
  394.250    0.220    0.390  111.275    7.723
  394.500    0.216    0.403  108.806    7.294
  394.750    0.212    0.371  105.716    6.759
  395.000    0.212    0.353  105.727    6.383
  395.250    0.214    0.368  106.354    5.915
  395.500    0.214    0.382  103.885    5.586
  395.750    0.214    0.380   98.314    5.479
  396.000    0.216    0.380   95.225    5.174
  396.250    0.225    0.395   98.952    4.886
  396.500    0.242    0.412  101.441    4.528
  396.750    0.265    0.439  100.211    4.196
  397.000    0.283    0.464   96.502    3.605
  397.250    0.295    0.478   93.411    3.039
  397.500    0.296    0.482   92.803    2.421
  397.750    0.281    0.471   89.090    2.119
  398.000    0.265    0.471   84.761    1.927
  398.250    0.249    0.487   85.389    1.855
  398.500    0.236    0.429   89.738    1.819
  398.750    0.223    0.409   90.367    2.037
  399.000    0.218    0.393   85.418    2.460
  399.250    0.213    0.383   89.767    3.328
  399.500    0.203    0.378   92.878    4.096
  399.750    0.202    0.372   89.787    5.138
  400.000    0.208    0.361   86.697    6.568
  400.250    0.178    0.341   85.465    7.217
  400.500    0.165    0.327   82.376    7.781
  400.750    0.166    0.332   85.484    8.231
  401.000    0.179    0.345   90.452    8.073
  401.250    0.186    0.355   92.942    7.624
  401.500    0.187    0.355   92.330    7.065
  401.750    0.201    0.357   89.862    6.304
  402.000    0.216    0.361   91.110    5.954
  402.250    0.227    0.372   94.840    5.414
  402.500    0.232    0.387   96.088    4.740
  402.750    0.233    0.409   95.476    4.309
  403.000    0.230    0.409   94.865    3.846
  403.250    0.228    0.410   98.595    3.496
  403.500    0.225    0.426  105.423    3.430
  403.750    0.220    0.410  112.250    3.364
  404.000    0.227    0.411  116.600    3.491
  404.250    0.236    0.419  117.847    3.425
  404.500    0.215    0.393  118.478    3.359
  404.750    0.201    0.371  116.627    3.553
  405.000    0.196    0.364  109.818    3.760
  405.250    0.210    0.389  111.687    4.053
  405.500    0.224    0.427  117.276    4.208
  405.750    0.233    0.442  119.146    4.286
  406.000    0.235    0.436  117.296    4.284
  406.250    0.230    0.414  114.825    4.282
  406.500    0.219    0.401  113.592    4.280
  406.750    0.204    0.379  111.122    4.278
  407.000    0.193    0.345  104.314    4.526
  407.250    0.200    0.412   92.546    4.788
  407.500    0.220    0.430   85.117    4.608
  407.750    0.235    0.436   87.605    4.271
  408.000    0.231    0.422   94.433    3.883
  408.250    0.221    0.320   98.162    3.465
  408.500    0.214    0.284   87.013    3.736
  408.750    0.206    0.266   62.228    4.427
  409.000    0.189    0.267   52.319    5.767
  409.250    0.190    0.295   56.049    9.609
  409.500    0.213    0.321   61.635   17.267
  409.750    0.254    0.344   68.463   19.704
  410.000    0.280    0.333   57.316   21.244
  410.250    0.273    0.325   52.985   20.063
  410.500    0.230    0.316   66.012   17.899
  410.750    0.217    0.322   93.296   15.971
  411.000    0.217    0.336  105.084   14.523
  411.250    0.228    0.355  110.053   13.205
  411.500    0.238    0.358  108.202   13.450
  411.750    0.241    0.352  101.391   14.502
  412.000    0.233    0.341   93.962   15.344
  412.250    0.227    0.333   85.914   17.508
  412.500    0.215    0.338   82.825   18.876
  412.750    0.212    0.345   89.034   18.512
  413.000    0.211    0.337   93.381   17.482
  413.250    0.207    0.326   95.870   16.202
  413.500    0.201    0.327   95.258   14.456
  413.750    0.194    0.323   97.128   13.396
  414.000    0.188    0.315   98.996   13.388
  414.250    0.178    0.311   99.006   13.383
  414.500    0.164    0.303   93.438   13.890
  414.750    0.153    0.297   89.728   14.151
  415.000    0.153    0.295   89.118   15.257
  415.250    0.190    0.310   87.887   15.841
  415.500    0.252    0.328   83.555   17.077
  415.750    0.264    0.327   64.969   19.859
  416.000    0.250    0.325   68.698   21.410
  416.250    0.229    0.332   86.063   19.841
  416.500    0.211    0.337   94.751   18.041
  416.750    0.212    0.333   91.043   17.038
  417.000    0.216    0.320   89.813   16.708
  417.250    0.214    0.312   92.301   16.702
  417.500    0.212    0.315   96.031   17.014
  417.750    0.208    0.323   97.277   17.005
  418.000    0.207    0.329   97.286   16.368
  418.250    0.216    0.327   91.099   16.991
  418.500    0.218    0.317   83.048   18.317
  418.750    0.209    0.315   73.140   18.659
  419.000    0.206    0.325   75.629   17.958
  419.250    0.196    0.340   88.655   16.330
  419.500    0.185    0.387   99.203   12.763
  419.750    0.181    0.413  105.410   10.759
  420.000    0.195    0.394  107.280    9.243
  420.250    0.219    0.351   96.751    8.729
  420.500    0.230    0.324   89.321    8.726
  420.750    0.225    0.323   88.096    9.230
  421.000    0.215    0.323   91.202   10.142
  421.250    0.208    0.326   91.210   11.357
  421.500    0.203    0.332   88.739   12.959
  421.750    0.206    0.337   91.231   13.709
  422.000    0.212    0.329   92.476   13.962
  422.250    0.220    0.323   90.627   13.956
  422.500    0.219    0.320   88.778   14.218
  422.750    0.209    0.335   90.031   14.212
  423.000    0.203    0.335   85.696   14.205
  423.250    0.204    0.327   84.465   14.198
  423.500    0.208    0.324   88.816   14.192
  423.750    0.215    0.321   90.685   14.457
  424.000    0.218    0.322   87.596   14.725
  424.250    0.216    0.325   86.363   15.001
  424.500    0.219    0.320   88.231   15.867
  424.750    0.227    0.314   88.243   16.787
  425.000    0.241    0.310   85.773   17.761
  425.250    0.245    0.317   83.303   18.438
  425.500    0.247    0.335   80.212   19.503
  425.750    0.250    0.347   79.602   19.496
  426.000    0.254    0.337   77.131   19.858
  426.250    0.257    0.331   72.800   20.230
  426.500    0.251    0.325   69.090   21.399
  426.750    0.243    0.322   70.963   21.801
  427.000    0.237    0.347   73.451   22.206
  427.250    0.237    0.352   74.697   22.194
  427.500    0.243    0.343   72.229   22.186
  427.750    0.259    0.337   68.518   23.468
  428.000    0.267    0.343   64.189   23.910
  428.250    0.267    0.359   59.238   25.774
  428.500    0.259    0.353   57.390   26.757
  428.750    0.258    0.348   59.256   27.257
  429.000    0.272    0.349   69.805   26.735
  429.250    0.275    0.353   66.714   26.721
  429.500    0.262    0.348   65.484   27.739
  429.750    0.249    0.342   64.873   29.345
  430.000    0.230    0.337   61.165   29.895
  430.250    0.234    0.340   60.553   31.626
  430.500    0.248    0.358   63.042   30.436
  430.750    0.258    0.345   68.629   27.674
  431.000    0.271    0.335   69.878   27.145
  431.250    0.282    0.353   65.549   26.621
  431.500    0.279    0.355   58.121   28.161
  431.750    0.271    0.342   59.990   30.364
  432.000    0.271    0.328   61.857   31.524
  432.250    0.268    0.330   59.387   31.511
  432.500    0.253    0.354   62.498   29.754
  432.750    0.239    0.357   71.803   27.573
  433.000    0.233    0.346   77.393   25.554
  433.250    0.231    0.338   74.304   25.063
  433.500    0.242    0.341   69.972   26.017
  433.750    0.269    0.348   66.262   27.524
  434.000    0.282    0.349   65.032   30.239
  434.250    0.297    0.344   62.562   33.226
  434.500    0.307    0.343   57.612   38.639
  434.750    0.313    0.345   53.902   43.268
  435.000    0.314    0.349   48.953   52.253
