~VERSION INFORMATION
 VERS.                 2.0:   CWLS LOG ASCII STANDARD -VERSION 2.0
 WRAP.                  NO:   ONE LINE PER DEPTH STEP
~WELL INFORMATION BLOCK
#MNEM.UNIT           DATA                    DESCRIPTION OF MNEMONIC
#---------    -------------------            -------------------------------
# Generated from Intellog Unique Number	CW_73_75/WELL/3523
WELL.         08-16-075-05W5                 : Well_name    - WELL
LOC .         00/08-16-075-05W5/0            : Location     - LOCATION
UWI .         00/08-16-075-05W5/0            : Uwi          - UNIQUE WELL ID
ENTR.         JOETTE                         : Entered      - ENTERED BY
SRVC.         SCHLUMBERGER                   : Scn          - SERVICE COMPANY
DATE.         05/25/92                       : Date         - LOG DATE
STRT.M        675                            : top_depth    - START DEPTH
STOP.M        925                            : bot_depth    - STOP DEPTH
STEP.M        0.25                           : increment    - STEP LENGTH
 NULL. -999.2500:NULL Value
~CURVE INFORMATION BLOCK
#MNEM UNIT       ERCB CURVE CODE    CURVE DESCRIPTION
#-----------   ------------------   ----------------------------------
DEPT.M        00 001 00 00         : DEPTH        - DEPTH
NPHI.V/V      00 330 00 00         : PHIN         - NEUTRON POROSITY (SANDSTONE)
GR  .API      00 310 00 00         : GR           - GAMMA RAY
DPHI.V/V      00 890 00 00         : PHID         - DENSITY POROSITY (SANDSTONE)
ILD .OHMM     00 120 00 00         : RESD         - DEEP RESISTIVITY (DIL)
~PARAMETER INFORMATION
#MNEM.UNIT           DATA             DESCRIPTION OF MNEMONIC
#---------         -----------     ------------------------------
GL  .M        964.66               : gl           - GROUND LEVEL ELEVATION
EREF.M        968.35               : kb           - ELEVATION OF DEPTH REFERENCE
DATM.M        968.35               : datum        - DATUM ELEVATION
TDD .M        1221.6               : tdd          - TOTAL DEPTH DRILLER
RUN .         ONE                  : Run          - RUN NUMBER
ENG .         BILL                 : Engineer     - RECORDING ENGINEER
WIT .         JIM                  : Witness      - WITNESSED BY
MUD .         GEL                  : Mud_type     - MUD TYPE
MATR.         SANDSTONE            : Logunit      - NEUTRON MATRIX
TMAX.C        49                   : BHT          - MAXIMUM RECORDED TEMPERATURE
BHTD.M        1221.8               : BHTDEP       - MAXIMUM RECORDED TEMPERATURE
RMT .C        19                   : MDTP         - TEMPERATURE OF MUD
MUDD.KG/M     1080                 : MWT          - MUD DENSITY
NEUT.         1                    : NEUTRON      - NEUTRON TYPE
RESI.         0                    : RESIST       - RESISTIVITY TYPE
RM  .OHMM     1.9                  : RM           - RESISTIVITY OF MUD
RMC .OHMM     2.1                  : RMC          - RESISTIVITY OF MUD CAKE
RMF .OHMM     4.3                  : RMF          - RESISTIVITY OF MUD FILTRATE
SUFT.C        4                    : SUFT         - SURFACE TEMPERATURE
~A  DEPTH     PHIN       GR     PHID     RESD
# ...
  805.500    0.463   53.530    0.309    4.376
  805.750    0.458   55.278    0.306    4.449
  806.000    0.468   57.601    0.315    4.526
  806.250    0.479   55.201    0.310    4.601
  806.500    0.487   54.576    0.313    4.849
  806.750    0.485   53.951    0.318    4.932
  807.000    0.479   53.925    0.315    5.112
  807.250    0.474   53.300    0.313    5.295
  807.500    0.476   47.936    0.255    5.486
  807.750    0.400   44.354    0.236    5.580
  808.000    0.381   44.911    0.226    5.258
  808.250    0.423   46.043    0.239    4.775
  808.500    0.454   46.608    0.335    4.510
  808.750    0.483   48.340    0.350    4.020
  809.000    0.491   49.496    0.353    3.724
  809.250    0.493   50.645    0.350    3.380
  809.500    0.495   51.793    0.347    3.249
  809.750    0.502   49.986    0.349    3.180
  810.000    0.503   49.951    0.346    3.118
  810.250    0.499   51.100    0.349    3.053
  810.500    0.493   52.248    0.360    2.988
  810.750    0.484   51.032    0.360    2.928
  811.000    0.481   48.641    0.355    2.868
  811.250    0.481   48.607    0.349    2.808
  811.500    0.477   50.338    0.348    2.801
  811.750    0.468   51.478    0.354    2.793
  812.000    0.464   52.052    0.348    2.843
  812.250    0.463   55.557    0.340    2.837
  812.500    0.465   54.932    0.337    2.938
  812.750    0.466   54.307    0.330    3.041
  813.000    0.480   56.638    0.292    3.093
  813.250    0.501   60.143    0.250    3.204
  813.500    0.516   60.709    0.256    3.199
  813.750    0.522   62.448    0.255    3.131
  814.000    0.516   66.544    0.246    3.006
  814.250    0.506   68.884    0.234    3.001
  814.500    0.499   68.833    0.222    2.996
  814.750    0.501   68.816    0.214    2.987
  815.000    0.508   68.782    0.232    2.982
  815.250    0.506   69.339    0.245    2.977
  815.500    0.500   70.479    0.278    3.023
  815.750    0.494   71.636    0.336    3.020
  816.000    0.486   69.237    0.353    3.069
  816.250    0.481   59.151    0.349    3.179
  816.500    0.475   54.387    0.340    3.354
  816.750    0.472   51.970    0.318    3.478
  817.000    0.468   53.136    0.312    3.806
  817.250    0.464   55.467    0.310    3.945
  817.500    0.463   56.615    0.317    4.240
  817.750    0.465   55.399    0.323    4.236
  818.000    0.465   52.391    0.329    4.148
  818.250    0.461   51.757    0.335    3.839
  818.500    0.457   51.740    0.334    3.552
  818.750    0.464   52.880    0.336    3.416
  819.000    0.474   55.211    0.344    3.161
  819.250    0.469   56.368    0.359    2.982
  819.500    0.467   56.334    0.369    2.866
  819.750    0.476   55.118    0.364    2.861
  820.000    0.483   55.675    0.360    2.854
  820.250    0.489   59.180    0.362    2.958
  820.500    0.490   57.972    0.360    3.239
  820.750    0.484   57.929    0.355    3.551
  821.000    0.449   49.034    0.275    4.116
  821.250    0.434   46.635    0.165    4.773
  821.500    0.422   42.445    0.103    6.303
  821.750    0.404   44.785    0.087    6.173
  822.000    0.400   47.707    0.162    5.823
  822.250    0.436   50.629    0.196    5.496
  822.500    0.467   54.734    0.297    4.808
  822.750    0.475   55.891    0.334    4.130
  823.000    0.491   58.214    0.346    3.548
  823.250    0.496   59.362    0.352    3.285
  823.500    0.495   57.554    0.361    3.040
  823.750    0.489   53.955    0.363    2.759
  824.000    0.482   53.347    0.360    2.705
  824.250    0.477   53.904    0.355    2.597
  824.500    0.485   57.409    0.347    2.545
  824.750    0.487   55.019    0.346    2.494
  825.000    0.481   53.802    0.349    2.488
  825.250    0.480   53.768    0.357    2.482
  825.500    0.478   56.099    0.356    2.478
  825.750    0.476   56.056    0.348    2.471
  826.000    0.479   54.840    0.346    2.467
  826.250    0.485   53.032    0.350    2.459
  826.500    0.487   55.363    0.352    2.455
  826.750    0.484   57.694    0.344    2.449
  827.000    0.481   58.251    0.337    2.444
  827.250    0.486   60.590    0.333    2.439
  827.500    0.489   59.965    0.336    2.480
  827.750    0.486   58.740    0.341    2.520
  828.000    0.488   58.123    0.345    2.610
  828.250    0.488   59.854    0.343    2.755
  828.500    0.482   62.194    0.329    2.908
  828.750    0.478   65.116    0.291    3.012
  829.000    0.473   68.630    0.272    3.122
  829.250    0.471   67.413    0.267    3.174
  829.500    0.472   65.588    0.269    3.286
  829.750    0.476   68.519    0.260    3.343
  830.000    0.486   70.259    0.252    3.397
  830.250    0.482   67.859    0.258    3.453
  830.500    0.480   64.869    0.263    3.509
  830.750    0.485   66.600    0.255    3.505
  831.000    0.492   68.340    0.246    3.696
  831.250    0.488   68.897    0.242    3.761
  831.500    0.483   65.316    0.240    3.822
  831.750    0.477   62.925    0.237    3.888
  832.000    0.480   62.299    0.231    3.953
  832.250    0.489   62.848    0.226    4.017
  832.500    0.498   65.179    0.226    4.010
  832.750    0.501   67.510    0.226    3.925
  833.000    0.499   69.250    0.223    3.770
  833.250    0.496   70.981    0.226    3.559
  833.500    0.489   72.147    0.241    3.357
  833.750    0.488   75.060    0.252    3.108
  834.000    0.487   72.670    0.282    2.772
  834.250    0.486   67.905    0.294    2.713
  834.500    0.482   63.116    0.285    2.864
  834.750    0.474   61.916    0.277    3.081
  835.000    0.457   58.326    0.247    3.375
  835.250    0.432   58.883    0.181    3.698
  835.500    0.407   58.258    0.113    3.979
  835.750    0.358   56.450    0.100    4.362
  836.000    0.326   55.824    0.180    5.055
  836.250    0.410   56.973    0.220    5.044
  836.500    0.437   61.677    0.242    4.759
  836.750    0.447   64.600    0.248    4.484
  837.000    0.450   65.148    0.238    4.394
  837.250    0.454   65.714    0.224    4.382
  837.500    0.455   66.263    0.213    4.375
  837.750    0.460   66.828    0.216    4.284
  838.000    0.461   68.560    0.211    4.275
  838.250    0.454   69.117    0.207    4.184
  838.500    0.462   69.083    0.209    4.175
  838.750    0.483   70.231    0.204    4.091
  839.000    0.498   72.571    0.216    4.002
  839.250    0.514   82.588    0.243    3.924
  839.500    0.519   84.328    0.244    3.702
  839.750    0.515   81.338    0.233    3.490
  840.000    0.522   74.208    0.226    3.416
  840.250    0.533   70.027    0.233    3.473
  840.500    0.533   71.167    0.235    3.529
  840.750    0.524   72.324    0.242    3.590
  841.000    0.511   71.698    0.240    3.648
  841.250    0.499   70.482    0.234    3.644
  841.500    0.489   71.622    0.235    3.634
  841.750    0.494   73.361    0.239    3.559
  842.000    0.505   77.466    0.231    3.357
  842.250    0.523   79.206    0.232    3.169
  842.500    0.535   77.406    0.236    2.989
  842.750    0.542   77.372    0.230    2.664
  843.000    0.541   76.156    0.217    2.375
  843.250    0.535   73.757    0.222    2.200
  843.500    0.538   71.357    0.234    1.962
  843.750    0.538   68.950    0.234    1.685
  844.000    0.531   67.142    0.242    1.531
  844.250    0.526   66.525    0.248    1.616
  844.500    0.526   68.256    0.233    1.737
  844.750    0.524   71.778    0.227    1.702
  845.000    0.519   75.275    0.235    1.331
  845.250    0.515   75.849    0.231    1.459
  845.500    0.503   76.406    0.225    1.659
  845.750    0.495   74.581    0.216    1.959
  846.000    0.492   73.365    0.207    2.229
  846.250    0.510   73.922    0.209    2.585
  846.500    0.521   74.487    0.217    1.840
  846.750    0.529   75.636    0.215    1.581
  847.000    0.532   77.376    0.221    1.577
  847.250    0.529   79.115    0.223    1.604
  847.500    0.527   76.117    0.238    1.693
  847.750    0.516   75.491    0.233    1.889
  848.000    0.505   76.048    0.219    2.110
  848.250    0.515   77.197    0.198    2.444
  848.500    0.528   74.215    0.200    2.782
  848.750    0.540   72.407    0.236    2.882
