~VERSION INFORMATION
 VERS.                 2.0:   CWLS LOG ASCII STANDARD -VERSION 2.0
 WRAP.                  NO:   ONE LINE PER DEPTH STEP
~WELL INFORMATION BLOCK
#MNEM.UNIT           DATA                    DESCRIPTION OF MNEMONIC
#---------    -------------------            -------------------------------
# Generated from Intellog Unique Number	CC_84_87/WELL/1168
NULL.         -999.25                        : NULL_VALUE
WELL.         BP GRANOR                      : Well_name    - WELL              
LOC .         07-26-084-18W4                 : Location     - LOCATION          
UWI .         00/07-26-084-18W400            : Uwi          - UNIQUE WELL ID    
ENTR.         JHS                            : Entered      - ENTERED BY        
SRVC.         SCHLUMBERGER                   : Scn          - SERVICE COMPANY   
DATE.         01 MAR 81                      : Date         - LOG DATE
STRT.M        95                             : top_depth    - START DEPTH       
STOP.M        299.9                          : bot_depth    - STOP DEPTH        
STEP.M        0.3                            : increment    - STEP LENGTH       
~CURVE INFORMATION BLOCK
#MNEM UNIT       ERCB CURVE CODE    CURVE DESCRIPTION
#-----------   ------------------   ----------------------------------
DEPT.M        00 001 00 00         : DEPTH        - DEPTH                       
DPHI.V/V      00 890 00 00         : PHID         - DENSITY POROSITY (LIMESTONE)
NPHI.V/V      00 330 00 00         : PHIN         - NEUTRON POROSITY (LIMESTONE)
GR  .API      00 310 00 00         : GR           - GAMMA RAY                   
ILD .OHMM     00 120 00 00         : RESD         - DEEP RESISTIVITY (DIL)      
~PARAMETER INFORMATION       
#MNEM.UNIT           DATA             DESCRIPTION OF MNEMONIC
#---------         -----------     ------------------------------
GL  .M        555                  : gl           - GROUND LEVEL ELEVATION      
EREF.M        558.37               : kb           - ELEVATION OF DEPTH REFERENCE
DATM.M        558.37               : datum        - DATUM ELEVATION             
TDD .M        302                  : tdd          - TOTAL DEPTH DRILLER         
RUN .         ONE                  : Run          - RUN NUMBER                  
ENG .         BILL                 : Engineer     - RECORDING ENGINEER          
WIT .         JIM                  : Witness      - WITNESSED BY                
MUD .         GEL                  : Mud_type     - MUD TYPE                    
MATR.         LIMESTONE            : Logunit      - NEUTRON MATRIX              
TMAX.C        30                   : BHT          - MAXIMUM RECORDED TEMPERATURE
BHTD.M        302                  : BHTDEP       - MAXIMUM RECORDED TEMPERATURE
MATR.         1                    : LOGUNIT      - NEUTRON MATRIX              
RMT .C        25                   : MDTP         - TEMPERATURE OF MUD          
NEUT.         1                    : NEUTRON      - NEUTRON TYPE                
RESI.         0                    : RESIST       - RESISTIVITY TYPE            
RMC .OHMM     0.25                 : RMC          - RESISTIVITY OF MUD CAKE     
RMF .OHMM     0.25                 : RMF          - RESISTIVITY OF MUD FILTRATE 
SUFT.C        15                   : SUFT         - SURFACE TEMPERATURE         
~A  DEPTH     PHID     PHIN       GR     RESD
   95.000    0.273    0.396   60.614    7.512
   95.300    0.265    0.388   61.237    7.516
   95.600    0.248    0.372   63.691    7.246
   95.900    0.239    0.380   70.435    6.604
   96.200    0.240    0.395   75.954    5.908
   96.500    0.267    0.407   75.349    5.384
   96.800    0.291    0.401   73.521    4.554
   97.100    0.306    0.371   80.265    3.852
   97.400    0.296    0.424   84.558    3.446
   97.700    0.300    0.451   88.240    3.322
   98.000    0.291    0.434   85.798    3.143
   98.300    0.284    0.408   87.645    3.087
   98.600    0.296    0.414   90.715    3.088
   98.900    0.305    0.413   87.048    3.330
   99.200    0.281    0.290   77.260    4.409
   99.500    0.247    0.249   56.452    7.303
   99.800    0.088    0.205   27.072   11.227
  100.100    0.278    0.242   25.857   13.289
  100.400    0.319    0.345   36.273   10.629
  100.700    0.329    0.383   67.505    4.260
  101.000    0.329    0.447   97.514    2.990
  101.300    0.312    0.442   93.237    2.625
  101.600    0.287    0.419   84.062    2.438
  101.900    0.298    0.440   87.744    2.307
  102.200    0.315    0.474   95.711    2.265
  102.500    0.320    0.490  100.005    2.225
  102.800    0.342    0.507   98.176    2.268
  103.100    0.324    0.473   89.001    2.312
  103.400    0.279    0.464   83.499    2.357
  103.700    0.310    0.467   79.221    2.359
  104.000    0.356    0.454   86.577    2.316
  104.300    0.368    0.464   95.769    2.317
  104.600    0.341    0.478   99.450    2.319
  104.900    0.338    0.471   98.235    2.364
  105.200    0.329    0.397   92.732    2.410
  105.500    0.264    0.401   89.679    2.551
  105.800    0.279    0.423   89.687    2.699
  106.100    0.338    0.423   87.859    2.804
  106.400    0.330    0.455   85.419    2.859
  106.700    0.308    0.479   89.712    2.860
  107.000    0.309    0.443   92.169    2.916
  107.300    0.296    0.441   87.893    2.917
  107.600    0.286    0.460   86.064    2.919
  107.900    0.326    0.496   87.908    2.867
  108.200    0.341    0.497   91.591    2.869
  108.500    0.326    0.470   92.823    2.817
  108.800    0.319    0.433   90.995    2.872
  109.100    0.308    0.433   83.044    3.040
  109.400    0.291    0.435   80.603    3.278
  109.700    0.293    0.438   85.510    3.468
  110.000    0.289    0.458   89.191    3.810
  110.300    0.260    0.465   84.913    4.345
  110.600    0.230    0.437   87.370    5.339
  110.900    0.231    0.384   88.603    6.319
  111.200    0.263    0.367   52.489    7.764
  111.500    0.302    0.372   41.476    9.541
  111.800    0.320    0.362   37.200   11.083
  112.100    0.327    0.338   41.493   14.137
  112.400    0.327    0.376   42.726   16.424
  112.700    0.327    0.393   40.285   17.711
  113.000    0.325    0.366   40.293   18.053
  113.300    0.315    0.379   45.813   18.065
  113.600    0.318    0.368   47.044   17.746
  113.900    0.325    0.356   40.318   17.752
  114.200    0.318    0.361   44.003   17.763
  114.500    0.316    0.365   41.559   17.445
  114.800    0.316    0.360   45.853   17.786
  115.100    0.325    0.365   48.923   18.823
  115.400    0.333    0.373   45.257   19.548
  115.700    0.324    0.382   46.490   19.931
  116.000    0.320    0.395   47.723   19.942
  116.300    0.326    0.395   45.283   19.588
  116.600    0.343    0.378   41.617   19.237
  116.900    0.339    0.374   41.013   19.247
  117.200    0.329    0.382   42.247   19.258
  117.500    0.333    0.417   43.478   19.269
  117.800    0.352    0.417   47.772   19.281
  118.100    0.362    0.376   50.842   18.939
  118.400    0.340    0.383   52.687   18.949
  118.700    0.310    0.401   48.410   20.052
  119.000    0.319    0.395   44.746   20.829
  119.300    0.340    0.377   45.365   20.459
  119.600    0.338    0.356   46.597   20.090
  119.900    0.325    0.389   49.056   19.368
  120.200    0.317    0.389   49.676   19.381
  120.500    0.317    0.379   47.847   19.392
  120.800    0.323    0.407   49.080   19.770
  121.100    0.328    0.407   47.864   20.149
  121.400    0.329    0.367   47.259   20.544
  121.700    0.327    0.351   46.655   21.338
  122.000    0.316    0.349   44.215   21.757
  122.300    0.301    0.353   45.449   22.178
  122.600    0.300    0.379   48.519   22.190
  122.900    0.305    0.368   46.077   21.794
  123.200    0.303    0.311   40.574   21.808
  123.500    0.308    0.314   34.460   22.231
  123.800    0.313    0.337   32.632   22.663
  124.100    0.323    0.375   33.252   23.983
  124.400    0.328    0.398   34.486   25.862
  124.700    0.330    0.359   36.330   26.366
  125.000    0.337    0.342   37.563   25.890
  125.300    0.341    0.341   36.347   23.161
  125.600    0.330    0.347   38.803   16.254
  125.900    0.312    0.395   47.384    6.763
  126.200    0.291    0.439   66.984    4.088
  126.500    0.301    0.463   79.238    3.523
  126.800    0.306    0.423   82.307    3.271
  127.100    0.274    0.386   78.643    3.335
  127.400    0.247    0.379   73.140    3.948
  127.700    0.266    0.370   65.188    5.130
  128.000    0.316    0.349   58.463    7.457
  128.300    0.319    0.346   58.471   10.638
  128.600    0.276    0.351   58.480   14.622
  128.900    0.271    0.370   56.650   15.767
  129.200    0.287    0.385   52.985   16.072
  129.500    0.283    0.374   56.056   16.081
  129.800    0.277    0.361   62.797   15.217
  130.100    0.287    0.366   63.419   14.943
  130.400    0.308    0.376   59.140   14.403
  130.700    0.304    0.372   54.253   14.413
  131.000    0.287    0.374   62.831   14.695
  131.300    0.288    0.376   63.451   14.979
  131.600    0.297    0.363   65.909   14.711
  131.900    0.292    0.353   69.590   13.409
  132.200    0.271    0.361   70.212   11.772
  132.500    0.252    0.382   75.118    8.902
  132.800    0.232    0.387   80.025    6.485
  133.100    0.234    0.372   80.032    5.911
  133.400    0.248    0.365   82.489    6.140
  133.700    0.237    0.370   88.620    6.872
  134.000    0.237    0.365   86.178    8.134
  134.300    0.251    0.349   76.391    9.450
  134.600    0.241    0.360   81.909   10.578
  134.900    0.230    0.398   88.041   10.583
  135.200    0.225    0.403   80.703   10.012
  135.500    0.234    0.395   78.261    9.834
  135.800    0.225    0.383   77.657   10.214
  136.100    0.225    0.366   80.116   11.221
  136.400    0.259    0.354   79.510   13.037
  136.700    0.315    0.265   69.111   15.721
  137.000    0.399    0.203   51.364   22.851
  137.300    0.406    0.209   47.697   30.825
  137.600    0.381    0.260   42.196   31.429
  137.900    0.335    0.298   42.204   27.087
  138.200    0.277    0.315   48.947   19.006
  138.500    0.234    0.323   62.425    9.012
  138.800    0.179    0.343  105.903    6.093
  139.100    0.178    0.395  112.035    4.965
  139.400    0.196    0.411  117.553    4.526
  139.700    0.187    0.422  122.459    4.528
  140.000    0.166    0.410  111.446    4.530
  140.300    0.177    0.416  105.335    4.619
  140.600    0.206    0.424  104.730    4.210
  140.900    0.230    0.426  103.512    3.766
  141.200    0.250    0.460  100.461    3.563
  141.500    0.340    0.452   98.021    3.770
  141.800    0.338    0.400   95.579    4.633
  142.100    0.289    0.356   90.688    5.692
  142.400    0.284    0.335   84.573    7.537
  142.700    0.300    0.333   71.725   10.554
  143.000    0.292    0.346   69.284   13.716
  143.300    0.272    0.341   78.476   13.470
  143.600    0.271    0.342   82.770   11.827
  143.900    0.267    0.373   99.309   10.781
  144.201    0.266    0.395   99.932   10.391
  144.501    0.278    0.405   95.040   10.397
  144.801    0.305    0.369   82.803   11.004
  145.101    0.320    0.352   65.668   12.087
  145.401    0.311    0.359   55.268   14.306
  145.701    0.302    0.369   47.930   16.621
  146.001    0.302    0.359   44.877   19.311
  146.301    0.309    0.354   43.048   20.823
  146.601    0.307    0.358   41.831   21.626
  146.901    0.296    0.354   42.454   22.467
