~VERSION INFORMATION
 VERS.                 2.0:   CWLS LOG ASCII STANDARD -VERSION 2.0
 WRAP.                  NO:   ONE LINE PER DEPTH STEP
~WELL INFORMATION BLOCK
#MNEM.UNIT           DATA                    DESCRIPTION OF MNEMONIC
#---------    -------------------            -------------------------------
# Generated from Intellog Unique Number	CW_79_81/WELL/2453
WELL.         06-24-081-23W4                 : Well_name    - WELL
LOC .         00/06-24-081-23W4/0            : Location     - LOCATION
UWI .         00/06-24-081-23W4/0            : Uwi          - UNIQUE WELL ID
ENTR.         MAX                            : Entered      - ENTERED BY
SRVC.         WESTERN ATLAS                  : Scn          - SERVICE COMPANY
STRT.M        200                            : top_depth    - START DEPTH
STOP.M        452                            : bot_depth    - STOP DEPTH
STEP.M        0.25                           : increment    - STEP LENGTH
 NULL. -999.2500:NULL Value
~CURVE INFORMATION BLOCK
#MNEM UNIT       ERCB CURVE CODE    CURVE DESCRIPTION
#-----------   ------------------   ----------------------------------
DEPT.M        00 001 00 00         : DEPTH        - DEPTH
ILD .OHMM     00 120 00 00         : RESD         - DEEP RESISTIVITY (DIL)
NPHI.V/V      00 330 00 00         : PHIN         - NEUTRON POROSITY (SANDSTONE)
DPHI.V/V      00 890 00 00         : PHID         - DENSITY POROSITY (SANDSTONE)
GR  .API      00 310 00 00         : GR           - GAMMA RAY
CALI.MM       00 280 01 00         : CAL          - CALIPER
~PARAMETER INFORMATION
#MNEM.UNIT           DATA             DESCRIPTION OF MNEMONIC
#---------         -----------     ------------------------------
GL  .M        610                  : gl           - GROUND LEVEL ELEVATION
EREF.M        614.3                : kb           - ELEVATION OF DEPTH REFERENCE
DATM.M        610                  : datum        - DATUM ELEVATION
TDD .M        458.5                : tdd          - TOTAL DEPTH DRILLER
RUN .         ONE                  : Run          - RUN NUMBER
ENG .         BILL                 : Engineer     - RECORDING ENGINEER
WIT .         JIM                  : Witness      - WITNESSED BY
MUD .         GEL                  : Mud_type     - MUD TYPE
MATR.         SANDSTONE            : Logunit      - NEUTRON MATRIX
TMAX.C        28                   : BHT          - MAXIMUM RECORDED TEMPERATURE
BHTD.M        458.5                : BHTDEP       - MAXIMUM RECORDED TEMPERATURE
MATR.         1                    : LOGUNIT      - NEUTRON MATRIX
RMT .C        15                   : MDTP         - TEMPERATURE OF MUD
NEUT.         1                    : NEUTRON      - NEUTRON TYPE
RESI.         0                    : RESIST       - RESISTIVITY TYPE
RMC .OHMM     5.6                  : RMC          - RESISTIVITY OF MUD CAKE
RMF .OHMM     5                    : RMF          - RESISTIVITY OF MUD FILTRATE
SUFT.C        -20                  : SUFT         - SURFACE TEMPERATURE
~A  DEPTH     RESD     PHIN     PHID       GR      CAL
# ...
  236.500    2.990    0.391    0.226  110.663  245.225
  236.750    2.950    0.400    0.228  110.826  245.095
  237.000    2.895    0.405    0.230  110.565  244.666
  237.250    2.875    0.397    0.233  108.563  243.795
  237.500    2.970    0.383    0.237  104.367  243.032
  237.750    3.199    0.405    0.242   97.700  242.307
  238.000    3.521    0.393    0.253   87.439  240.988
  238.250    4.193    0.356    0.259   78.736  238.466
  238.500    5.463    0.312    0.256   72.551  233.540
  238.750    7.184    0.284    0.238   63.655  223.017
  239.000    8.887    0.275    0.233   53.710  216.023
  239.250   10.139    0.284    0.274   52.317  214.892
  239.500   12.665    0.305    0.301   56.493  214.370
  239.750   17.592    0.322    0.318   60.372  214.646
  240.000   26.810    0.328    0.328   60.300  215.416
  240.250   37.240    0.325    0.331   55.292  215.895
  240.500   38.460    0.318    0.331   57.584  215.964
  240.750   40.838    0.316    0.334   59.061  216.045
  241.000   44.539    0.325    0.336   54.609  216.724
  241.250   49.092    0.339    0.336   51.059  217.193
  241.500   54.232    0.349    0.335   51.464  217.154
  241.750   61.471    0.341    0.335   55.752  216.753
  242.000   68.107    0.332    0.335   59.051  216.413
  242.250   73.373    0.342    0.331   56.451  216.087
  242.500   78.228    0.344    0.323   51.339  215.761
  242.750   80.460    0.343    0.317   49.227  215.239
  243.000   79.564    0.348    0.316   52.150  214.715
  243.250   76.402    0.374    0.321   59.373  214.789
  243.500   71.970    0.404    0.327   62.908  214.866
  243.750   64.944    0.421    0.334   62.712  215.346
  244.000   61.025    0.413    0.339   61.615  215.521
  244.250   59.150    0.393    0.341   61.422  215.387
  244.500   58.596    0.372    0.341   62.009  214.854
  244.750   58.691    0.361    0.338   61.036  213.508
  245.000   58.765    0.353    0.332   59.590  212.329
  245.250   59.289    0.363    0.333   59.146  211.597
  245.500   59.825    0.365    0.338   57.810  210.570
  245.750   60.584    0.362    0.343   54.860  209.849
  246.000   61.349    0.361    0.345   51.071  209.528
  246.250   61.727    0.366    0.344   48.827  208.883
  246.500   63.288    0.365    0.343   49.362  207.289
  246.750   64.314    0.361    0.346   51.802  207.355
  247.000   66.082    0.362    0.352   51.909  209.821
  247.250   68.900    0.365    0.357   50.760  215.480
  247.500   72.287    0.371    0.358   49.606  223.935
  247.750   75.345    0.383    0.348   50.335  234.027
  248.000   79.666    0.401    0.348   52.631  236.175
  248.250   84.605    0.386    0.348   49.078  236.655
  248.500   88.880    0.369    0.348   45.344  236.835
  248.750   92.361    0.358    0.348   42.991  236.731
  249.000   94.935    0.358    0.346   41.778  236.819
  249.250   96.536    0.371    0.342   40.129  237.721
  249.500   96.674    0.390    0.337   42.420  236.134
  249.750   96.821    0.378    0.339   45.335  235.002
  250.000   96.968    0.368    0.342   47.537  233.882
  250.250   97.829    0.362    0.345   48.659  232.953
  250.500   99.246    0.361    0.346   48.760  231.921
  250.750  100.590    0.369    0.346   48.137  229.859
  251.000  103.102    0.361    0.347   47.176  229.088
  251.250  104.820    0.358    0.347   46.501  228.355
  251.500  104.773    0.372    0.347   48.342  227.928
  251.750  103.753    0.380    0.346   49.701  227.402
  252.000  102.004    0.375    0.344   49.384  226.381
  252.250   98.016    0.363    0.341   48.303  224.071
  252.500   92.359    0.358    0.338   49.846  222.060
  252.750   89.099    0.365    0.334   52.521  219.339
  253.000   85.036    0.381    0.332   52.145  217.211
  253.250   81.199    0.395    0.334   51.827  216.079
  253.500   78.403    0.401    0.337   53.186  215.745
  253.750   77.621    0.400    0.338   56.657  215.346
  254.000   78.937    0.380    0.338   58.200  215.014
  254.250   85.656    0.353    0.335   56.812  214.695
  254.500   92.999    0.346    0.331   55.230  214.366
  254.750   99.955    0.360    0.325   53.830  213.829
  255.000  103.321    0.386    0.318   52.977  213.093
  255.250   93.760    0.405    0.308   52.983  212.052
  255.500   76.104    0.402    0.299   52.775  210.472
  255.750   64.102    0.380    0.289   52.815  207.344
  256.000   35.799    0.366    0.274   53.579  201.821
  256.250   17.049    0.367    0.264   55.899  194.301
  256.500    9.268    0.379    0.260   61.689  188.280
  256.750    5.630    0.397    0.247   74.465  191.695
  257.000    4.374    0.407    0.227   77.010  198.426
  257.250    4.159    0.399    0.200   79.210  198.507
  257.500    4.182    0.392    0.191   82.485  198.582
  257.750    4.359    0.390    0.197   85.763  198.851
  258.000    4.746    0.390    0.211   87.427  199.316
  258.250    5.853    0.374    0.222   84.225  199.797
  258.500    7.129    0.365    0.228   78.771  199.873
  258.750    8.309    0.356    0.232   75.457  199.555
  259.000    8.773    0.350    0.233   76.279  199.220
  259.250    8.752    0.361    0.230   80.877  199.090
  259.500    8.475    0.381    0.224   88.349  199.168
  259.750    7.951    0.371    0.217   98.763  199.340
  260.000    7.962    0.354    0.219  106.295  199.832
  260.250    8.271    0.350    0.218  109.214  200.697
  260.500    8.686    0.349    0.212  108.359  200.962
  260.750    9.129    0.337    0.201  100.136  201.036
  261.000    9.525    0.316    0.187   89.338  201.114
  261.250    9.901    0.306    0.180   89.899  201.203
  261.500   10.307    0.312    0.173   93.683  201.279
  261.750   11.023    0.316    0.187   92.769  201.338
  262.000   11.480    0.320    0.216   83.947  201.408
  262.250   11.714    0.330    0.228   78.359  201.481
  262.500   11.640    0.345    0.218   80.977  201.454
  262.750   10.849    0.359    0.205   92.260  201.144
  263.000    9.841    0.360    0.207  100.546  201.220
  263.250    7.557    0.349    0.201   94.121  201.286
  263.500    5.715    0.345    0.194   97.755  201.357
  263.750    4.688    0.349    0.188  104.869  201.235
  264.000    4.162    0.366    0.182  110.848  200.911
  264.250    3.864    0.401    0.177  113.306  200.585
  264.500    3.811    0.407    0.173  114.595  200.662
  264.750    3.844    0.399    0.178  116.072  200.343
  265.000    4.115    0.377    0.193  117.911  200.318
  265.250    4.686    0.369    0.215  115.919  200.388
  265.500    5.638    0.377    0.247  105.721  200.456
  265.750    7.258    0.367    0.302   79.772  200.460
  266.000    9.575    0.335    0.319   64.836  200.113
  266.250   14.150    0.333    0.314   57.449  199.794
  266.500   18.534    0.336    0.314   52.768  199.764
  266.750   22.511    0.339    0.316   51.017  199.833
  267.000   26.998    0.339    0.318   51.416  199.907
  267.250   32.911    0.337    0.321   52.332  200.080
  267.500   41.054    0.336    0.323   53.122  200.580
  267.750   42.341    0.330    0.322   53.406  200.638
  268.000   40.383    0.326    0.320   53.872  200.703
  268.250   36.392    0.328    0.319   53.916  200.772
  268.500   31.884    0.336    0.321   53.178  200.847
  268.750   27.352    0.343    0.326   51.505  200.945
  269.000   25.191    0.348    0.328   51.301  201.029
  269.250   24.313    0.353    0.328   52.782  200.681
  269.500   24.398    0.353    0.329   54.443  200.055
  269.750   25.069    0.350    0.331   56.044  199.533
  270.000   26.053    0.348    0.332   57.405  199.208
  270.250   27.322    0.351    0.335   58.361  198.894
  270.500   28.666    0.355    0.337   58.153  198.955
  270.750   29.349    0.355    0.338   56.045  199.043
  271.000   29.726    0.352    0.339   55.551  198.809
  271.250   29.661    0.348    0.339   57.152  198.480
  271.500   28.877    0.342    0.338   59.711  198.156
  271.750   26.741    0.330    0.335   60.531  197.830
  272.000   25.201    0.320    0.334   60.817  197.907
  272.250   23.963    0.315    0.332   63.026  197.189
  272.500   23.173    0.317    0.331   60.910  196.465
  272.750   22.870    0.327    0.331   58.432  196.136
