~VERSION INFORMATION
 VERS.                 2.0:   CWLS LOG ASCII STANDARD -VERSION 2.0
 WRAP.                  NO:   ONE LINE PER DEPTH STEP
~WELL INFORMATION BLOCK
#MNEM.UNIT           DATA                    DESCRIPTION OF MNEMONIC
#---------    -------------------            -------------------------------
# Generated from Intellog Unique Number	CX_WELLS/WELL/2884
WELL.         06-12-088-17W4                 : Well_name    - WELL
LOC .         00/06-11-082-02W4/0            : Location     - LOCATION
UWI .         00/06-11-082-02W400            : Uwi          - UNIQUE WELL ID
ENTR.         T                              : Entered      - ENTERED BY
SRVC.         SCHLUMBERGER                   : Scn          - SERVICE COMPANY
STRT.F        400                            : top_depth    - START DEPTH
STOP.F        1029.92                        : bot_depth    - STOP DEPTH
STEP.F        0.82                           : increment    - STEP LENGTH
 NULL. -999.2500:NULL Value
~CURVE INFORMATION BLOCK
#MNEM UNIT       ERCB CURVE CODE    CURVE DESCRIPTION
#-----------   ------------------   ----------------------------------
DEPT.F        00 001 00 00         : DEPTH        - DEPTH
GR  .API      00 310 00 00         : GR           - GAMMA RAY
NPHI.V/V      00 330 00 00         : PHIN         - NEUTRON POROSITY (SANDSTONE)
DPHI.V/V      00 890 00 00         : PHID         - DENSITY POROSITY (SANDSTONE)
ILD .OHMM     00 120 00 00         : RESD         - DEEP RESISTIVITY (OTHER)
~PARAMETER INFORMATION
#MNEM.UNIT           DATA             DESCRIPTION OF MNEMONIC
#---------         -----------     ------------------------------
GL  .F        1552                 : gl           - GROUND LEVEL ELEVATION
EREF.F        1562                 : kb           - ELEVATION OF DEPTH REFERENCE
DATM.F        1562                 : datum        - DATUM ELEVATION
TDD .F        1295                 : tdd          - TOTAL DEPTH DRILLER
RUN .         ONE                  : Run          - RUN NUMBER
ENG .         BILL                 : Engineer     - RECORDING ENGINEER
WIT .         JIM                  : Witness      - WITNESSED BY
MUD .         GEL                  : Mud_type     - MUD TYPE
MATR.         SANDSTONE            : Logunit      - NEUTRON MATRIX
TMAX.F        71.6                 : BHT          - MAXIMUM RECORDED TEMPERATURE
BHTD.F        1292                 : BHTDEP       - MAXIMUM RECORDED TEMPERATURE
MATR.         1                    : LOGUNIT      - NEUTRON MATRIX
RMT .F        77                   : MDTP         - TEMPERATURE OF MUD
NEUT.         1                    : NEUTRON      - NEUTRON TYPE
RESI.         1.35                 : RESIST       - RESISTIVITY TYPE
RMC .OHMM     1.35                 : RMC          - RESISTIVITY OF MUD CAKE
RMF .OHMM     1.35                 : RMF          - RESISTIVITY OF MUD FILTRATE
SUFT.F        32                   : SUFT         - SURFACE TEMPERATURE
~A  DEPTH       GR     PHIN     PHID     RESD
# ...
  542.717   95.845    0.460    0.235   10.601
  543.537   99.008    0.461    0.232   10.427
  544.357  101.573    0.461    0.229   10.277
  545.177  104.103    0.461    0.222    9.768
  545.997  105.438    0.456    0.216    9.284
  546.818  106.175    0.458    0.211    8.962
  547.638  106.315    0.465    0.211    8.518
  548.458  107.052    0.473    0.214    8.087
  549.278  105.997    0.469    0.215    7.954
  550.098  102.516    0.468    0.218    7.552
  550.919  102.691    0.478    0.219    7.170
  551.739  103.428    0.489    0.221    6.682
  552.559  104.130    0.502    0.224    6.351
  553.379  105.500    0.513    0.218    6.030
  554.199  106.835    0.518    0.213    5.619
  555.020  107.573    0.512    0.207    5.230
  555.840  107.747    0.507    0.212    4.783
  556.660  107.324    0.504    0.218    4.457
  557.480  106.796    0.508    0.214    4.312
  558.301  106.304    0.511    0.203    4.255
  559.121  105.881    0.501    0.196    4.264
  559.941  106.618    0.491    0.195    4.363
  560.761  109.746    0.483    0.196    4.548
  561.581  113.506    0.490    0.201    4.654
  562.402  116.001    0.504    0.209    4.592
  563.222  116.774    0.516    0.211    4.360
  564.042  114.523    0.528    0.216    4.067
  564.862  111.077    0.543    0.220    3.926
  565.682  107.596    0.543    0.217    3.728
  566.503  107.770    0.531    0.209    3.743
  567.323  108.508    0.502    0.201    4.056
  568.143  108.647    0.476    0.190    4.468
  568.963  107.592    0.456    0.183    5.217
  569.783  105.341    0.457    0.184    6.092
  570.604  104.216    0.459    0.193    6.844
  571.424  105.621    0.460    0.199    8.134
  572.244  107.553    0.459    0.199    8.489
  573.064  107.693    0.459    0.193    8.516
  573.885  107.270    0.457    0.186    8.412
  574.705  106.144    0.457    0.178    8.274
  575.525  104.491    0.457    0.172    7.710
  576.345  101.643    0.457    0.167    7.184
  577.165  100.587    0.462    0.164    6.442
  577.986  101.887    0.474    0.171    5.892
  578.806  102.625    0.485    0.178    5.594
  579.626  102.799    0.484    0.191    5.838
  580.446  101.744    0.483    0.207    6.080
  581.266  100.723    0.479    0.219    6.465
  582.087   99.598    0.473    0.215    6.860
  582.907   99.210    0.470    0.211    7.295
  583.727   98.682    0.465    0.208    7.606
  584.547   98.259    0.462    0.207    7.782
  585.367   98.399    0.458    0.207    7.824
  586.188   98.538    0.452    0.205    7.849
  587.008   98.045    0.447    0.204    7.891
  587.828   97.588    0.444    0.206    7.933
  588.648   95.934    0.444    0.213    8.108
  589.469   95.476    0.444    0.224    8.306
  590.289   95.616    0.442    0.233    8.323
  591.109   95.756    0.445    0.237    8.204
  591.929   96.493    0.449    0.222    7.789
  592.749   96.668    0.459    0.204    6.862
  593.570   96.210    0.483    0.210    5.933
  594.390   95.752    0.490    0.219    5.320
  595.210   94.696    0.522    0.230    4.687
  596.030   92.446    0.534    0.232    4.048
  596.850   91.355    0.548    0.242    3.567
  597.671   90.897    0.557    0.243    3.320
  598.491   91.704    0.567    0.241    2.928
  599.311   92.372    0.575    0.240    2.731
  600.131   94.374    0.582    0.233    2.686
  600.951   94.444    0.576    0.220    2.701
  601.772   95.181    0.569    0.208    2.872
  602.592   94.161    0.557    0.198    2.991
  603.412   92.508    0.543    0.189    3.240
  604.232   91.452    0.532    0.184    3.641
  605.052   91.627    0.504    0.181    4.086
  605.873   93.559    0.486    0.185    4.591
  606.693   94.825    0.485    0.191    5.164
  607.513   95.562    0.478    0.194    5.589
  608.333   95.104    0.470    0.192    5.833
  609.154   94.646    0.458    0.191    5.963
  609.974   95.981    0.446    0.198    5.994
  610.794   97.316    0.436    0.213    5.805
  611.614   98.088    0.431    0.207    5.716
  612.434   99.458    0.437    0.191    5.634
  613.255  100.160    0.449    0.193    5.450
  614.075   99.703    0.471    0.201    5.272
  614.895  100.440    0.480    0.209    5.005
  615.715  102.970    0.488    0.209    4.842
  616.535  104.903    0.496    0.205    4.597
  617.356  106.835    0.507    0.200    4.447
  618.176  107.045    0.516    0.198    4.379
  618.996  107.184    0.523    0.198    4.393
  619.816  106.164    0.496    0.198    4.416
  620.636  105.636    0.490    0.195    4.430
  621.457  103.385    0.483    0.195    4.538
  622.277  102.927    0.487    0.195    4.653
  623.097  104.262    0.491    0.193    4.663
  623.917  106.792    0.500    0.189    4.596
  624.738  108.127    0.503    0.187    4.621
  625.558  110.728    0.506    0.185    4.636
  626.378  110.797    0.514    0.181    4.838
  627.198  109.144    0.506    0.180    5.145
  628.018  107.491    0.488    0.174    5.352
  628.839  104.080    0.464    0.160    5.685
  629.659  102.954    0.452    0.151    6.529
  630.479  100.704    0.441    0.144    6.793
  631.299   99.085    0.431    0.142    7.352
  632.119   98.065    0.419    0.141    7.957
  632.940   95.744    0.407    0.135    8.640
  633.760   89.275    0.388    0.124    8.821
  634.580   83.404    0.359    0.105    8.859
  635.400   78.165    0.331    0.083    8.732
  636.220   74.754    0.310    0.058    8.447
  637.041   72.468    0.296    0.053    7.880
  637.861   70.815    0.311    0.109    7.199
  638.681   65.541    0.340    0.173    6.218
  639.501   59.072    0.377    0.208    5.575
  640.322   51.407    0.358    0.227    5.399
  641.142   43.813    0.345    0.236    5.327
  641.962   48.101    0.352    0.242    5.344
  642.782   53.654    0.365    0.244    5.367
  643.602   56.782    0.369    0.240    5.486
  644.423   53.371    0.378    0.231    5.620
  645.243   49.855    0.378    0.228    5.643
  646.063   43.421    0.353    0.227    5.668
  646.883   41.803    0.350    0.224    5.692
  647.703   47.286    0.361    0.223    5.716
  648.524   56.425    0.376    0.220    5.740
  649.344   66.759    0.403    0.215    5.765
  650.164   77.726    0.416    0.217    5.682
  650.984   80.889    0.435    0.221    5.706
  651.804   83.982    0.468    0.224    5.630
  652.625   87.110    0.485    0.229    5.544
  653.445   89.640    0.490    0.228    5.470
  654.265   92.838    0.483    0.226    5.493
  655.085   93.540    0.457    0.227    5.517
  655.906   94.277    0.458    0.228    5.534
  656.726   93.819    0.466    0.230    5.885
  657.546   92.166    0.466    0.226    6.129
  658.366   90.513    0.456    0.224    6.524
  659.186   90.055    0.439    0.217    6.662
  660.007   90.862    0.441    0.212    6.838
  660.827   90.967    0.448    0.210    6.982
  661.647   90.509    0.456    0.203    7.004
  662.467   90.051    0.452    0.189    6.911
  663.287   90.156    0.442    0.168    6.805
  664.108   89.698    0.424    0.153    6.714
  664.928   87.447    0.392    0.158    6.618
  665.748   84.564    0.371    0.160    6.772
  666.568   80.520    0.362    0.156    6.936
  667.388   83.050    0.364    0.155    7.082
  668.209   86.776    0.370    0.154    7.262
  669.029   90.536    0.379    0.146    7.439
  669.849   87.688    0.386    0.148    7.455
  670.669   89.023    0.392    0.159    7.487
  671.490   90.955    0.387    0.169    7.518
  672.310   88.142    0.380    0.178    7.418
  673.130   87.016    0.375    0.179    7.442
  673.950   83.570    0.367    0.177    7.474
  674.770   81.355    0.358    0.176    7.506
  675.591   83.885    0.356    0.173    7.406
  676.411   85.782    0.359    0.172    7.430
  677.231   88.348    0.360    0.170    7.323
  678.051   89.085    0.363    0.176    7.218
  678.871   89.892    0.364    0.183    7.249
  679.692   89.997    0.367    0.185    7.152
  680.512   90.102    0.372    0.182    7.183
  681.332   90.241    0.381    0.176    7.080
  682.152   91.014    0.386    0.171    7.102
  682.972   91.153    0.387    0.169    7.015
  683.793   91.293    0.392    0.169    7.030
  684.613   90.203    0.398    0.170    7.060
