~VERSION INFORMATION
 VERS.                 2.0:   CWLS LOG ASCII STANDARD -VERSION 2.0
 WRAP.                  NO:   ONE LINE PER DEPTH STEP
~WELL INFORMATION BLOCK
#MNEM.UNIT           DATA                    DESCRIPTION OF MNEMONIC
#---------    -------------------            -------------------------------
# Generated from Intellog Unique Number	CS_71_72/WELL/644
WELL.         AMOCO AEC IPIATIK              : Well_name    - WELL
LOC .         00/05-05-072-04W4/0            : Location     - LOCATION
UWI .         00/05-05-072-04W4/0            : Uwi          - UNIQUE WELL ID
ENTR.         SP                             : Entered      - ENTERED BY
SRVC.         SCHLUMBERGER                   : Scn          - SERVICE COMPANY
STRT.M        295                            : top_depth    - START DEPTH
STOP.M        500                            : bot_depth    - STOP DEPTH
STEP.M        0.25                           : increment    - STEP LENGTH
 NULL. -999.2500:NULL Value
~CURVE INFORMATION BLOCK
#MNEM UNIT       ERCB CURVE CODE    CURVE DESCRIPTION
#-----------   ------------------   ----------------------------------
DEPT.M        00 001 00 00         : DEPTH        - DEPTH
DPHI.V/V      00 890 00 00         : PHID         - DENSITY POROSITY (LIMESTONE)
NPHI.V/V      00 330 00 00         : PHIN         - NEUTRON POROSITY (LIMESTONE)
GR  .API      00 310 00 00         : GR           - GAMMA RAY
ILD .OHMM     00 120 00 00         : RESD         - DEEP RESISTIVITY (DIL)
~PARAMETER INFORMATION
#MNEM.UNIT           DATA             DESCRIPTION OF MNEMONIC
#---------         -----------     ------------------------------
GL  .M        673.5                : gl           - GROUND LEVEL ELEVATION
EREF.M        677.76               : kb           - ELEVATION OF DEPTH REFERENCE
DATM.M        673.5                : datum        - DATUM ELEVATION
TDD .M        519                  : tdd          - TOTAL DEPTH DRILLER
RUN .         ONE                  : Run          - RUN NUMBER
ENG .         BILL                 : Engineer     - RECORDING ENGINEER
WIT .         JIM                  : Witness      - WITNESSED BY
MUD .         GEL                  : Mud_type     - MUD TYPE
MATR.         LIMESTONE            : Logunit      - NEUTRON MATRIX
TMAX.C        19.5                 : BHT          - MAXIMUM RECORDED TEMPERATURE
BHTD.M        549                  : BHTDEP       - MAXIMUM RECORDED TEMPERATURE
MATR.         1                    : LOGUNIT      - NEUTRON MATRIX
RMT .C        25                   : MDTP         - TEMPERATURE OF MUD
NEUT.         1                    : NEUTRON      - NEUTRON TYPE
RESI.         0                    : RESIST       - RESISTIVITY TYPE
RMC .OHMM     0.25                 : RMC          - RESISTIVITY OF MUD CAKE
RMF .OHMM     0.25                 : RMF          - RESISTIVITY OF MUD FILTRATE
SUFT.C        15                   : SUFT         - SURFACE TEMPERATURE
~A  DEPTH     PHID     PHIN       GR     RESD
# ...
  469.000    0.231    0.435   62.549   21.759
  469.250    0.240    0.447   63.775   22.993
  469.500    0.237    0.430   64.994   24.751
  469.750    0.235    0.424   64.401   24.322
  470.000    0.242    0.446   59.574   21.425
  470.250    0.258    0.474   54.144   21.053
  470.500    0.281    0.489   49.920   22.664
  470.750    0.300    0.458   44.491   27.214
  471.000    0.312    0.436   38.456   34.515
  471.250    0.308    0.419   33.025   44.584
  471.500    0.288    0.398   30.616   54.524
  471.750    0.295    0.400   30.025   61.979
  472.000    0.305    0.421   30.041   66.716
  472.250    0.309    0.404   30.654   64.372
  472.500    0.296    0.381   31.272   56.707
  472.750    0.288    0.371   36.125   47.297
  473.000    0.297    0.382   43.999   40.902
  473.250    0.269    0.381   52.478   34.739
  473.500    0.253    0.377   59.147   31.162
  473.750    0.247    0.399   58.552   31.189
  474.000    0.261    0.425   51.914   32.970
  474.250    0.269    0.411   50.112   36.807
  474.500    0.268    0.408   48.310   45.007
  474.750    0.266    0.419   41.669   58.122
  475.000    0.273    0.425   35.633   82.239
  475.250    0.291    0.397   31.410  104.319
  475.500    0.308    0.392   30.213  125.273
  475.750    0.310    0.390   32.647  137.309
  476.000    0.303    0.390   34.471  130.110
  476.250    0.297    0.400   38.116  112.541
  476.500    0.297    0.408   40.544   93.847
  476.750    0.288    0.412   45.402   68.891
  477.000    0.276    0.430   47.834   51.507
  477.250    0.270    0.448   49.657   44.548
  477.500    0.273    0.449   50.880   37.841
  477.750    0.278    0.443   51.497   33.946
  478.000    0.276    0.438   52.717   31.010
  478.250    0.276    0.443   56.359   27.820
  478.500    0.286    0.466   59.399   25.882
  478.750    0.288    0.462   58.804   24.520
  479.000    0.286    0.456   57.002   23.232
  479.250    0.300    0.454   54.597   26.898
  479.500    0.306    0.462   52.190   37.373
  479.750    0.299    0.461   44.338   55.843
  480.000    0.288    0.444   35.880  111.720
  480.250    0.284    0.422   31.663  149.676
  480.500    0.304    0.408   29.861  170.148
  480.750    0.310    0.398   29.265  183.155
  481.000    0.316    0.405   29.287  183.300
  481.250    0.306    0.412   29.297  176.842
  481.500    0.305    0.420   29.911  164.634
  481.750    0.308    0.410   31.132  161.749
  482.000    0.312    0.401   30.537  158.907
  482.250    0.311    0.404   28.738  153.305
  482.500    0.310    0.397   28.748  145.286
  482.750    0.314    0.389   28.768  137.623
  483.000    0.310    0.392   29.984  125.758
  483.250    0.305    0.398   31.814  119.116
  483.500    0.300    0.389   31.825  108.856
  483.750    0.299    0.387   31.230  103.158
  484.000    0.296    0.386   31.244   97.726
  484.250    0.293    0.387   33.073   94.289
  484.500    0.306    0.396   32.480   90.955
  484.750    0.312    0.405   31.282   86.185
  485.000    0.320    0.408   30.693   83.151
  485.250    0.307    0.404   30.702   77.370
  485.500    0.301    0.396   31.329   70.690
  485.750    0.295    0.393   31.338   62.276
  486.000    0.288    0.393   31.346   58.989
  486.250    0.278    0.405   31.356   51.964
  486.500    0.275    0.401   31.977   46.621
  486.750    0.277    0.397   32.590   43.367
  487.000    0.280    0.397   32.605   39.622
  487.250    0.291    0.413   32.615   36.202
  487.500    0.299    0.418   32.027   34.922
  487.750    0.296    0.407   30.834   30.771
  488.000    0.298    0.397   30.239   29.147
  488.250    0.315    0.414   29.645   27.116
  488.500    0.314    0.401   29.051   23.895
  488.750    0.307    0.394   29.066   22.636
  489.000    0.301    0.393   30.288   21.446
  489.250    0.309    0.387   30.901   19.600
  489.500    0.310    0.375   31.527   18.907
  489.750    0.298    0.369   32.142   18.575
  490.000    0.296    0.396   31.547   17.603
  490.250    0.290    0.395   31.555   16.982
  490.500    0.297    0.378   33.382   15.235
  490.750    0.304    0.368   40.658   13.665
  491.000    0.280    0.356   44.295   11.194
  491.250    0.265    0.365   55.194   10.223
  491.500    0.244    0.385   66.699    8.683
  491.750    0.211    0.402   75.182    7.789
  492.000    0.183    0.406   78.216    7.116
  492.250    0.201    0.405   77.624    6.992
  492.500    0.208    0.408   84.294    7.128
  492.750    0.217    0.399   88.535    7.132
  493.000    0.196    0.402   92.782    7.403
  493.250    0.182    0.409   94.609    7.684
  493.500    0.162    0.409   85.549    7.688
  493.750    0.074    0.369   69.835    9.405
  494.000    0.051    0.283   59.565   10.307
  494.250    0.016    0.228   48.087   12.837
  494.500   -0.001    0.196   42.657   15.986
  494.750   -0.001    0.183   39.646   23.038
  495.000   -0.002    0.176   37.844   31.424
  495.250   -0.003    0.182   39.069   38.425
  495.500   -0.004    0.186   39.686   40.615
  495.750   -0.006    0.189   40.302   39.917
  496.000   -0.007    0.194   40.916   38.510
  496.250   -0.008    0.196   41.534   36.499
  496.500   -0.008    0.201   41.546   35.861
  496.750   -0.006    0.209   41.559   33.987
  497.000    0.009    0.209   43.992   33.401
  497.250    0.005    0.204   43.401   34.655
  497.500   -0.003    0.202   42.202   34.047
  497.750    0.010    0.199   42.213   34.078
  498.000   -0.001    0.199   43.436   33.482
  498.250   -0.007    0.205   45.265   34.121
  498.500   -0.003    0.208   47.703   34.146
  498.750   -0.003    0.211   47.707   34.812
  499.000    0.003    0.211   46.513   34.825
  499.250    0.000    0.211   47.128   35.497
  499.500    0.004    0.210   48.957   35.531
  499.750   -0.004    0.210   49.573   36.207
  500.000   -0.006    0.208   49.586   36.232
