~VERSION INFORMATION
 VERS.                 2.0:   CWLS LOG ASCII STANDARD -VERSION 2.0
 WRAP.                  NO:   ONE LINE PER DEPTH STEP
~WELL INFORMATION BLOCK
#MNEM.UNIT           DATA                    DESCRIPTION OF MNEMONIC
#---------    -------------------            -------------------------------
# Generated from Intellog Unique Number	CS_67_68/WELL/774
WELL.         MERLAND EXPLORATION            : Well_name    - WELL
LOC .         00/07-20-068-10W4/0            : Location     - LOCATION
UWI .         00/07-20-068-10W4/0            : Uwi          - UNIQUE WELL ID
ENTR.         SP                             : Entered      - ENTERED BY
SRVC.         SCHLUMBERGER                   : Scn          - SERVICE COMPANY
STRT.M        375                            : top_depth    - START DEPTH
STOP.M        615                            : bot_depth    - STOP DEPTH
STEP.M        0.25                           : increment    - STEP LENGTH
 NULL. -999.2500:NULL Value
~CURVE INFORMATION BLOCK
#MNEM UNIT       ERCB CURVE CODE    CURVE DESCRIPTION
#-----------   ------------------   ----------------------------------
DEPT.M        00 001 00 00         : DEPTH        - DEPTH
ILD .OHMM     00 120 00 00         : RESD         - DEEP RESISTIVITY (DIL)
DPHI.V/V      00 890 00 00         : PHID         - DENSITY POROSITY (LIMESTONE)
NPHI.V/V      00 330 00 00         : PHIN         - NEUTRON POROSITY (LIMESTONE)
GR  .API      00 310 00 00         : GR           - GAMMA RAY
~PARAMETER INFORMATION
#MNEM.UNIT           DATA             DESCRIPTION OF MNEMONIC
#---------         -----------     ------------------------------
GL  .M        690.3                : gl           - GROUND LEVEL ELEVATION
EREF.M        693.05               : kb           - ELEVATION OF DEPTH REFERENCE
DATM.M        690.3                : datum        - DATUM ELEVATION
TDD .M        616                  : tdd          - TOTAL DEPTH DRILLER
RUN .         ONE                  : Run          - RUN NUMBER
ENG .         BILL                 : Engineer     - RECORDING ENGINEER
WIT .         JIM                  : Witness      - WITNESSED BY
MUD .         GEL                  : Mud_type     - MUD TYPE
MATR.         LIMESTONE            : Logunit      - NEUTRON MATRIX
TMAX.C        26                   : BHT          - MAXIMUM RECORDED TEMPERATURE
BHTD.M        616                  : BHTDEP       - MAXIMUM RECORDED TEMPERATURE
MATR.         1                    : LOGUNIT      - NEUTRON MATRIX
RMT .C        25                   : MDTP         - TEMPERATURE OF MUD
NEUT.         1                    : NEUTRON      - NEUTRON TYPE
RESI.         0                    : RESIST       - RESISTIVITY TYPE
RMC .OHMM     0.25                 : RMC          - RESISTIVITY OF MUD CAKE
RMF .OHMM     0.25                 : RMF          - RESISTIVITY OF MUD FILTRATE
SUFT.C        15                   : SUFT         - SURFACE TEMPERATURE
~A  DEPTH     RESD     PHID     PHIN       GR
# ...
  549.000    5.878    0.128    0.393   84.290
  549.250    6.411    0.129    0.364   88.742
  549.500    7.216    0.175    0.388   81.138
  549.750    8.183    0.134    0.375   70.674
  550.000    9.126    0.024    0.327   62.583
  550.250    8.989    0.026    0.287   58.085
  550.500    8.012    0.124    0.247   61.928
  550.750    7.206    0.161    0.286   65.099
  551.000    6.815    0.179    0.310   68.820
  551.250    6.469    0.189    0.338   70.957
  551.500    6.267    0.177    0.357   73.217
  551.750    6.004    0.166    0.347   76.633
  552.000    5.752    0.160    0.341   79.622
  552.250    5.490    0.167    0.336   82.917
  552.500    5.087    0.175    0.342   85.785
  552.750    4.740    0.184    0.363   86.643
  553.000    4.450    0.193    0.370   89.389
  553.250    3.980    0.219    0.365   94.328
  553.500    3.381    0.204    0.368   99.022
  553.750    2.882    0.191    0.389   93.002
  554.000    2.661    0.234    0.409   73.832
  554.250    2.535    0.256    0.388   57.766
  554.500    2.525    0.277    0.356   49.310
  554.750    2.576    0.282    0.329   54.858
  555.000    2.810    0.271    0.328   66.431
  555.250    3.105    0.263    0.343   77.700
  555.500    3.533    0.257    0.364   87.387
  555.750    3.826    0.261    0.387   97.621
  556.000    4.058    0.253    0.392  103.899
  556.250    4.210    0.252    0.391   99.826
  556.500    4.272    0.244    0.398  105.860
  556.750    4.193    0.227    0.411  112.869
  557.000    4.092    0.206    0.434  116.710
  557.250    4.076    0.226    0.456  111.785
  557.500    4.244    0.240    0.454   95.050
  557.750    4.469    0.234    0.432   82.881
  558.000    4.680    0.210    0.388   75.460
  558.250    4.973    0.163    0.361   74.371
  558.500    5.169    0.117    0.342   74.744
  558.750    5.304    0.087    0.325   78.464
  559.000    5.081    0.097    0.339   84.010
  559.250    4.708    0.131    0.366   91.749
  559.500    4.452    0.170    0.386   96.808
  559.750    4.289    0.200    0.386   89.875
  560.000    4.202    0.221    0.384   85.742
  560.250    4.139    0.234    0.382   84.166
  560.500    4.138    0.238    0.384   83.990
  560.750    4.238    0.229    0.388   81.865
  561.000    4.429    0.239    0.367   81.750
  561.250    4.647    0.221    0.356   84.924
  561.500    4.884    0.177    0.359   87.913
  561.750    5.171    0.170    0.347   87.736
  562.000    5.395    0.182    0.344   87.135
  562.250    5.454    0.191    0.363   90.124
  562.500    5.422    0.189    0.354   89.035
  562.750    5.253    0.174    0.337   85.633
  563.000    4.949    0.158    0.325   90.145
  563.250    4.698    0.164    0.325   93.499
  563.500    4.418    0.169    0.331   93.202
  563.750    4.026    0.180    0.336   87.425
  564.000    3.793    0.205    0.340   83.109
  564.250    3.547    0.221    0.348   81.472
  564.500    3.208    0.219    0.359   84.159
  564.750    3.149    0.209    0.358   79.355
  565.000    3.051    0.211    0.352   69.134
  565.250    2.961    0.227    0.347   62.139
  565.500    2.900    0.240    0.343   57.154
  565.750    2.884    0.252    0.350   56.491
  566.000    2.959    0.258    0.357   61.794
  566.250    3.245    0.257    0.356   70.628
  566.500    3.474    0.250    0.349   82.141
  566.750    3.782    0.225    0.343   93.838
  567.000    4.042    0.184    0.339  102.184
  567.250    4.248    0.177    0.358  111.201
  567.500    4.400    0.184    0.388  118.574
  567.750    4.464    0.102    0.419  123.512
  568.000    4.422    0.079    0.443  127.719
  568.250    4.388    0.073    0.460  131.927
  568.500    4.362    0.123    0.478  134.003
  568.750    4.354    0.145    0.494  127.557
  569.000    4.409    0.114    0.507  124.945
  569.250    4.625    0.070    0.483  121.421
  569.500    4.763    0.128    0.455  110.226
  569.750    4.951    0.144    0.437  111.329
  570.000    5.080    0.137    0.391  118.884
  570.250    5.222    0.144    0.374  110.977
  570.500    5.220    0.158    0.365  106.966
  570.750    5.076    0.172    0.352  103.442
  571.000    5.065    0.191    0.346  100.221
  571.250    5.083    0.180    0.347   98.462
  571.500    5.129    0.160    0.346   99.078
  571.750    5.204    0.161    0.345   99.937
  572.000    5.310    0.184    0.347  100.735
  572.250    5.398    0.182    0.356   98.551
  572.500    5.457    0.160    0.351   97.948
  572.750    5.516    0.166    0.343   98.868
  573.000    5.546    0.172    0.338  100.701
  573.250    5.524    0.159    0.341  102.961
  573.500    5.401    0.146    0.348  104.733
  573.750    5.117    0.176    0.354  106.383
  574.000    4.830    0.169    0.364  107.607
  574.250    4.559    0.159    0.383  108.771
  574.500    4.248    0.159    0.384   98.732
  574.750    3.871    0.181    0.352   85.467
  575.000    3.601    0.181    0.328   76.159
  575.250    3.281    0.204    0.334   68.800
  575.500    3.232    0.226    0.348   62.414
  575.750    3.183    0.230    0.363   55.724
  576.000    3.142    0.216    0.355   50.068
  576.250    3.123    0.222    0.340   46.301
  576.500    3.319    0.245    0.329   44.177
  576.750    3.528    0.252    0.321   56.542
  577.000    3.687    0.226    0.316   69.698
  577.250    3.840    0.195    0.315   74.332
  577.500    3.889    0.187    0.322   72.817
  577.750    3.888    0.170    0.331   68.381
  578.000    3.732    0.151    0.324   66.438
  578.250    3.542    0.160    0.303   64.862
  578.500    3.331    0.160    0.282   64.625
  578.750    3.104    0.215    0.317   68.406
  579.000    2.963    0.225    0.338   70.422
  579.250    2.940    0.228    0.350   69.942
  579.500    2.983    0.208    0.345   69.461
  579.750    3.066    0.197    0.339   70.138
  580.000    3.037    0.201    0.344   72.153
  580.250    3.053    0.228    0.340   73.986
  580.500    3.070    0.228    0.336   74.967
  580.750    3.138    0.220    0.332   75.644
  581.000    3.202    0.226    0.340   76.564
  581.250    3.309    0.214    0.353   78.215
  581.500    3.498    0.210    0.353   79.987
  581.750    3.662    0.207    0.349   80.662
  582.000    3.772    0.223    0.344   81.583
  582.250    3.863    0.214    0.348   90.112
  582.500    3.905    0.154    0.357   96.329
  582.750    3.904    0.136    0.364   99.927
  583.000    3.845    0.153    0.361  100.299
  583.250    3.718    0.173    0.342   90.321
  583.500    3.497    0.194    0.347   80.405
  583.750    3.313    0.208    0.348   74.202
  584.000    3.312    0.213    0.331   72.139
  584.250    3.424    0.206    0.320   86.635
  584.500    3.545    0.188    0.347  100.156
  584.750    3.604    0.175    0.371  106.373
  585.000    3.531    0.168    0.384  102.849
  585.250    3.241    0.167    0.392   95.367
  585.500    2.998    0.172    0.398   85.755
  585.750    2.722    0.199    0.407   76.691
  586.000    2.593    0.227    0.390   66.226
  586.250    2.434    0.249    0.366   55.822
  586.500    2.285    0.224    0.360   51.263
  586.750    2.153    0.271    0.360   46.825
  587.000    2.028    0.278    0.370   45.919
  587.250    1.915    0.303    0.382   42.334
  587.500    1.834    0.309    0.371   38.931
  587.750    1.761    0.298    0.361   38.816
  588.000    1.712    0.274    0.376   40.406
  588.250    1.689    0.286    0.389   37.795
  588.500    1.679    0.299    0.379   36.706
  588.750    1.692    0.309    0.381   36.712
  589.000    1.749    0.290    0.372   37.633
  589.250    1.883    0.288    0.365   38.552
  589.500    2.191    0.289    0.347   41.968
  589.750    2.578    0.271    0.321   53.847
  590.000    3.029    0.233    0.309   73.273
  590.250    3.557    0.192    0.313   91.544
  590.500    4.336    0.158    0.333  104.640
  590.750    5.037    0.128    0.341  108.117
  591.000    5.373    0.145    0.348  107.637
  591.250    5.575    0.150    0.354  102.834
  591.500    5.646    0.147    0.354   96.630
  591.750    5.665    0.156    0.351   98.829
  592.000    5.622    0.140    0.343  107.480
  592.250    5.610    0.137    0.337  108.157
