~VERSION INFORMATION
 VERS.                 2.0:   CWLS LOG ASCII STANDARD -VERSION 2.0
 WRAP.                  NO:   ONE LINE PER DEPTH STEP
~WELL INFORMATION BLOCK
#MNEM.UNIT           DATA                    DESCRIPTION OF MNEMONIC
#---------    -------------------            -------------------------------
# Generated from Intellog Unique Number	CC_80_83/WELL/1167
NULL.         -999.25                        : NULL_VALUE
WELL.         CHEVRON CAN OXY ALGAR          : Well_name    - WELL
LOC .         06-34-082-16W4                 : Location     - LOCATION          
UWI .         00/06-34-082-16W400            : Uwi          - UNIQUE WELL ID    
ENTR.         DW                             : Entered      - ENTERED BY        
SRVC.         SCHLUMBERGER                   : Scn          - SERVICE COMPANY   
DATE.         21 MAR 73                      : Date         - LOG DATE
STRT.M        91.44                          : top_depth    - START DEPTH       
STOP.M        265.174                        : bot_depth    - STOP DEPTH        
STEP.M        0.3048                         : increment    - STEP LENGTH       
~CURVE INFORMATION BLOCK
#MNEM UNIT       ERCB CURVE CODE    CURVE DESCRIPTION
#-----------   ------------------   ----------------------------------
DEPT.M        00 001 00 00         : DEPTH        - DEPTH                       
DPHI.V/V      00 890 00 00         : PHID         - DENSITY POROSITY (LIMESTONE)
NPHI.V/V      00 330 00 00         : PHIN         - NEUTRON POROSITY (LIMESTONE)
GR  .API      00 310 00 00         : GR           - GAMMA RAY                   
ILD .OHMM     00 120 00 00         : RESD         - DEEP RESISTIVITY (DIL)      
~PARAMETER INFORMATION       
#MNEM.UNIT           DATA             DESCRIPTION OF MNEMONIC
#---------         -----------     ------------------------------
GL  .M        526.694              : gl           - GROUND LEVEL ELEVATION      
EREF.M        530.352              : kb           - ELEVATION OF DEPTH REFERENCE
DATM.M        530.352              : datum        - DATUM ELEVATION             
TDD .M        266.7                : tdd          - TOTAL DEPTH DRILLER         
RUN .         ONE                  : Run          - RUN NUMBER                  
ENG .         BILL                 : Engineer     - RECORDING ENGINEER          
WIT .         JIM                  : Witness      - WITNESSED BY                
MUD .         GEL                  : Mud_type     - MUD TYPE                    
MATR.         LIMESTONE            : Logunit      - NEUTRON MATRIX              
TMAX.C        27.7778              : BHT          - MAXIMUM RECORDED TEMPERATURE
BHTD.M        265.176              : BHTDEP       - MAXIMUM RECORDED TEMPERATURE
MATR.         1                    : LOGUNIT      - NEUTRON MATRIX              
RMT .C        25                   : MDTP         - TEMPERATURE OF MUD          
NEUT.         1                    : NEUTRON      - NEUTRON TYPE                
RESI.         0                    : RESIST       - RESISTIVITY TYPE            
RMC .OHMM     0.25                 : RMC          - RESISTIVITY OF MUD CAKE     
RMF .OHMM     0.25                 : RMF          - RESISTIVITY OF MUD FILTRATE 
SUFT.C        15                   : SUFT         - SURFACE TEMPERATURE         
~A  DEPTH     PHID     PHIN       GR     RESD
# ...
  144.475    0.360    0.513   53.370   16.907
  144.780    0.359    0.534   55.163   16.299
  145.085    0.356    0.529   53.969   16.300
  145.390    0.351    0.489   48.592   16.302
  145.694    0.353    0.465   53.972   16.606
  145.999    0.351    0.469   56.363   16.915
  146.304    0.360    0.496   56.364   16.608
  146.609    0.357    0.478   59.353   16.610
  146.913    0.361    0.461   61.148   16.613
  147.218    0.333    0.485   61.746   16.614
  147.523    0.359    0.545   61.747   16.313
  147.828    0.338    0.544   60.553   16.314
  148.133    0.339    0.498   57.566   16.018
  148.437    0.332    0.458   54.578   16.021
  148.742    0.327    0.489   53.982   16.021
  149.047    0.344    0.532   58.764   15.445
  149.352    0.339    0.521   61.155   14.890
  149.657    0.326    0.549   61.157   15.167
  149.961    0.301    0.552   60.560   16.936
  150.266    0.163    0.366   59.964   17.572
  150.571    0.055    0.239   58.769   16.939
  150.876    0.133    0.399   68.930   12.860
  151.181    0.191    0.506   80.883   10.129
  151.485    0.196    0.509   95.825    7.550
  151.790    0.201    0.553   98.216    6.283
  152.095    0.214    0.577  103.596    5.628
  152.400    0.229    0.596  104.195    5.230
  152.705    0.213    0.605  101.806    5.042
  153.009    0.244    0.599   98.819    5.042
  153.314    0.241    0.587   95.234    5.136
  153.619    0.224    0.599   93.442    5.232
  153.924    0.221    0.525   94.040    5.329
  154.229    0.262    0.540   95.835    5.529
  154.533    0.219    0.576  100.616    5.530
  154.838    0.225    0.526  106.594    5.430
  155.143    0.203    0.565  105.997    5.332
  155.448    0.188    0.605  107.194    5.235
  155.753    0.185    0.594  107.792    5.140
  156.057    0.232    0.598  108.391    5.047
  156.362    0.209    0.601  106.599    4.956
  156.667    0.214    0.608  100.026    4.866
  156.972    0.234    0.614   94.051    4.778
  157.276    0.238    0.608   94.052    4.778
  157.581    0.220    0.611  100.030    4.957
  157.886    0.216    0.607  102.421    5.050
  158.191    0.209    0.590  101.824    5.240
  158.496    0.189    0.509   80.311    5.337
  158.800    0.109    0.417   88.081    5.960
  159.105    0.275    0.545  102.425    6.655
  159.410    0.300    0.564  113.781    7.569
  159.715    0.301    0.490  123.344    8.768
  160.020    0.275    0.515  140.676   10.537
  160.324    0.253    0.509  129.322   12.664
  160.629    0.196    0.532   84.501   15.789
  160.934    0.078    0.316   66.573   17.310
  161.239    0.173    0.469   65.977   16.687
  161.544    0.294    0.512   72.552   16.086
  161.848    0.345    0.551   74.346   14.146
  162.153    0.311    0.587   71.956   12.671
  162.458    0.293    0.567   64.188   11.560
  162.763    0.276    0.550   61.799   11.351
  163.068    0.288    0.562   62.397   11.562
  163.372    0.325    0.581   70.765   12.445
  163.677    0.325    0.543   71.364   12.446
  163.982    0.317    0.531   68.377   11.566
  164.287    0.311    0.529   64.195   10.747
  164.592    0.294    0.497   63.001   10.748
  164.896    0.259    0.428   62.404   12.451
  165.201    0.013    0.225   58.819   16.404
  165.506    0.000    0.160   43.282   22.419
  165.811    0.017    0.141   41.490   41.874
  166.116    0.105    0.147   42.687   45.908
  166.420    0.133    0.192   47.468   30.089
  166.725    0.182    0.284   57.031   22.843
  167.030    0.293    0.479   65.399   17.343
  167.335    0.323    0.508   68.388   14.433
  167.639    0.320    0.527   67.792   11.579
  167.944    0.327    0.543   68.391    9.997
  168.249    0.331    0.558   64.209    9.998
  168.554    0.339    0.583   63.611   10.184
  168.859    0.332    0.441   67.796   10.962
  169.163    0.306    0.504   67.199   11.374
  169.468    0.295    0.534   71.384   11.375
  169.773    0.305    0.556   74.971   10.570
  170.078    0.296    0.507   77.960   10.004
  170.383    0.293    0.515   83.339    9.127
  170.687    0.273    0.498   88.121    8.481
  170.992    0.267    0.483   89.318    8.027
  171.297    0.277    0.537   88.721    7.738
  171.602    0.281    0.596   88.124    7.739
  171.907    0.267    0.502   87.528    7.883
  172.211    0.256    0.503   86.334    7.884
  172.516    0.257    0.539   86.335    7.600
  172.821    0.273    0.574   84.543    7.462
  173.126    0.252    0.590   82.153    7.063
  173.431    0.284    0.531   80.959    7.063
  173.735    0.274    0.494   80.363    7.464
  174.040    0.250    0.480   83.949    7.329
  174.345    0.241    0.475   81.560    7.066
  174.650    0.262    0.467   81.561    6.566
  174.955    0.280    0.518   83.355    6.447
  175.259    0.305    0.501   82.758    6.567
  175.564    0.331    0.494   77.381    6.813
  175.869    0.355    0.540   74.394    7.334
  176.174    0.373    0.519   66.626    7.894
  176.479    0.369    0.532   61.248    8.342
  176.783    0.354    0.532   58.859    9.315
  177.088    0.341    0.525   57.664    9.664
  177.393    0.329    0.525   59.459   10.402
  177.698    0.330    0.500   61.252   10.992
  178.003    0.330    0.491   61.254   11.617
  178.307    0.300    0.534   60.657   11.834
  178.612    0.345    0.598   59.462   11.200
  178.917    0.360    0.528   58.866   10.218
  179.222    0.344    0.528   61.258    9.322
  179.526    0.365    0.515   64.246    8.662
  179.831    0.361    0.510   61.857    8.824
  180.136    0.288    0.445   60.663    9.155
  180.441    0.215    0.387   61.261    9.854
  180.746    0.239    0.392   59.470   10.606
  181.050    0.317    0.535   59.471   11.208
  181.355    0.336    0.574   61.862   11.005
  181.660    0.331    0.547   62.461    9.857
  181.965    0.343    0.533   64.255    8.511
  182.270    0.343    0.552   66.646    8.056
  182.574    0.342    0.563   65.452    8.056
  182.879    0.329    0.606   64.856    8.057
  183.184    0.325    0.580   65.454    8.515
  183.489    0.349    0.589   68.444    8.673
  183.794    0.351    0.575   70.835    9.165
  184.098    0.349    0.535   71.434    9.336
  184.403    0.357    0.529   73.825    9.337
  184.708    0.356    0.581   76.217    8.837
  185.013    0.341    0.558   76.815    8.519
  185.318    0.304    0.592   78.012    8.063
  185.622    0.326    0.574   78.013    7.917
  185.927    0.310    0.545   77.416    7.774
  186.232    0.294    0.574   77.417    7.774
  186.537    0.289    0.561   79.809    7.358
  186.842    0.298    0.503   82.200    7.094
  187.146    0.286    0.575   89.970    6.592
  187.451    0.276    0.582   90.569    6.472
  187.756    0.264    0.584   88.180    5.797
  188.061    0.269    0.599   89.376    5.487
  188.366    0.264    0.601   94.158    5.487
  188.670    0.271    0.574   92.964    5.388
  188.975    0.265    0.541   85.793    5.488
  189.280    0.305    0.547   83.404    5.694
  189.585    0.319    0.537   79.819    6.477
  189.889    0.326    0.506   77.430    7.366
  190.194    0.295    0.531   75.040    8.533
  190.499    0.178    0.484   69.065    9.705
  190.804    0.116    0.304   64.285   11.038
  191.109    0.148    0.277   63.091   22.189
  191.413    0.215    0.440   67.275   21.391
  191.718    0.298    0.507   74.448   16.541
  192.023    0.329    0.526   75.644   12.329
  192.328    0.308    0.538   77.438   10.261
  192.633    0.283    0.540   78.037    8.082
  192.937    0.237    0.509   82.819    7.649
  193.242    0.177    0.392   81.027    8.699
  193.547    0.173    0.335   69.673   13.773
  193.852    0.294    0.515   76.248   15.100
  194.157    0.278    0.564   78.640   14.826
  194.461    0.280    0.532   79.836   13.280
  194.766    0.267    0.525   79.837   11.466
  195.071    0.288    0.556   79.240    9.368
  195.376    0.284    0.497   79.839    8.391
  195.681    0.282    0.495   82.828    7.942
  195.985    0.271    0.549   85.817    7.943
  196.290    0.264    0.535   88.806    7.944
  196.595    0.262    0.514   87.612    8.550
  196.900    0.287    0.547   80.442    9.203
  197.205    0.306    0.559   76.259    9.906
