~VERSION INFORMATION
 VERS.                 2.0:   CWLS LOG ASCII STANDARD -VERSION 2.0
 WRAP.                  NO:   ONE LINE PER DEPTH STEP
~WELL INFORMATION BLOCK
#MNEM.UNIT           DATA                    DESCRIPTION OF MNEMONIC
#---------    -------------------            -------------------------------
# Generated from Intellog Unique Number	CS_71_72/WELL/806
WELL.         MAYNARD ET AL LOGAN            : Well_name    - WELL
LOC .         00/07-09-072-13W4/0            : Location     - LOCATION
UWI .         00/07-09-072-13W4/0            : Uwi          - UNIQUE WELL ID
ENTR.         SP                             : Entered      - ENTERED BY
SRVC.         SCHLUMBERGER                   : Scn          - SERVICE COMPANY
STRT.M        300                            : top_depth    - START DEPTH
STOP.M        535                            : bot_depth    - STOP DEPTH
STEP.M        0.25                           : increment    - STEP LENGTH
 NULL. -999.2500:NULL Value
~CURVE INFORMATION BLOCK
#MNEM UNIT       ERCB CURVE CODE    CURVE DESCRIPTION
#-----------   ------------------   ----------------------------------
DEPT.M        00 001 00 00         : DEPTH        - DEPTH
ILD .OHMM     00 120 00 00         : RESD         - DEEP RESISTIVITY (DIL)
DPHI.V/V      00 890 00 00         : PHID         - DENSITY POROSITY (LIMESTONE)
NPHI.V/V      00 330 00 00         : PHIN         - NEUTRON POROSITY (LIMESTONE)
GR  .API      00 310 00 00         : GR           - GAMMA RAY
~PARAMETER INFORMATION
#MNEM.UNIT           DATA             DESCRIPTION OF MNEMONIC
#---------         -----------     ------------------------------
GL  .M        632.57               : gl           - GROUND LEVEL ELEVATION
EREF.M        636.97               : kb           - ELEVATION OF DEPTH REFERENCE
DATM.M        632.57               : datum        - DATUM ELEVATION
TDD .M        545                  : tdd          - TOTAL DEPTH DRILLER
RUN .         ONE                  : Run          - RUN NUMBER
ENG .         BILL                 : Engineer     - RECORDING ENGINEER
WIT .         JIM                  : Witness      - WITNESSED BY
MUD .         GEL                  : Mud_type     - MUD TYPE
MATR.         LIMESTONE            : Logunit      - NEUTRON MATRIX
TMAX.C        23                   : BHT          - MAXIMUM RECORDED TEMPERATURE
BHTD.M        5456                 : BHTDEP       - MAXIMUM RECORDED TEMPERATURE
MATR.         1                    : LOGUNIT      - NEUTRON MATRIX
RMT .C        25                   : MDTP         - TEMPERATURE OF MUD
NEUT.         1                    : NEUTRON      - NEUTRON TYPE
RESI.         0                    : RESIST       - RESISTIVITY TYPE
RMC .OHMM     0.25                 : RMC          - RESISTIVITY OF MUD CAKE
RMF .OHMM     0.25                 : RMF          - RESISTIVITY OF MUD FILTRATE
SUFT.C        15                   : SUFT         - SURFACE TEMPERATURE
~A  DEPTH     RESD     PHID     PHIN       GR
# ...
  343.500    7.521    0.258    0.427  105.810
  343.750    7.843    0.242    0.412  102.193
  344.000    8.325    0.232    0.398   95.565
  344.250    8.888    0.243    0.401   90.745
  344.500    9.048    0.252    0.406   93.700
  344.750    9.128    0.260    0.402   94.875
  345.000    8.723    0.262    0.399   96.052
  345.250    8.238    0.256    0.406   97.830
  345.500    7.753    0.254    0.416   99.606
  345.750    7.107    0.262    0.416  100.786
  346.000    6.702    0.271    0.409  103.151
  346.250    6.379    0.284    0.408  101.923
  346.500    6.136    0.293    0.420  100.100
  346.750    5.892    0.296    0.431  104.275
  347.000    5.810    0.282    0.448  106.053
  347.250    5.970    0.278    0.418  105.426
  347.500    6.210    0.281    0.389  105.998
  347.750    6.290    0.288    0.384  105.375
  348.000    6.531    0.290    0.383  105.941
  348.250    6.610    0.279    0.385  107.116
  348.500    6.609    0.277    0.395  107.093
  348.750    6.607    0.277    0.402  105.867
  349.000    6.526    0.271    0.411  102.245
  349.250    6.525    0.282    0.417   93.213
  349.500    6.603    0.296    0.421   88.391
  349.750    6.603    0.316    0.432   83.569
  350.000    6.843    0.333    0.445   82.937
  350.250    7.165    0.339    0.458   85.914
  350.500    7.566    0.332    0.453   88.290
  350.750    7.969    0.327    0.446   91.261
  351.000    8.612    0.323    0.433   86.439
  351.250    9.176    0.328    0.423   78.604
  351.500   10.384    0.320    0.410   75.584
  351.750   11.028    0.311    0.401   71.963
  352.000   11.430    0.292    0.390   68.935
  352.250   11.348    0.284    0.384   67.707
  352.500   10.863    0.276    0.390   71.272
  352.750    9.813    0.279    0.401   76.043
  353.000    8.602    0.287    0.413   79.628
  353.250    7.795    0.293    0.427   89.194
  353.500    7.148    0.289    0.442   92.177
  353.750    6.744    0.279    0.452   93.342
  354.000    6.420    0.266    0.457   93.918
  354.250    6.419    0.262    0.459   94.495
  354.500    6.578    0.262    0.460   95.663
  354.750    6.739    0.266    0.449   96.837
  355.000    6.899    0.272    0.437   96.214
  355.250    7.381    0.266    0.421   93.784
  355.500    7.541    0.273    0.409   92.565
  355.750    7.621    0.287    0.404   90.740
  356.000    7.620    0.302    0.415   87.091
  356.250    7.457    0.309    0.427   86.475
  356.500    7.133    0.317    0.434   87.657
  356.750    6.971    0.311    0.426   91.217
  357.000    6.727    0.299    0.422   93.001
  357.250    6.726    0.287    0.414   95.373
  357.500    6.725    0.285    0.408   95.352
  357.750    7.046    0.288    0.405   94.121
  358.000    7.529    0.291    0.403   90.500
  358.250    8.092    0.291    0.398   87.474
  358.500    8.574    0.281    0.394   85.649
  358.750    8.896    0.273    0.392   84.421
  359.000    8.975    0.272    0.402   85.603
  359.250    9.055    0.284    0.409   86.766
  359.500    8.892    0.289    0.418   86.745
  359.750    8.891    0.281    0.423   86.715
  360.000    8.970    0.272    0.428   85.497
  360.250    9.211    0.277    0.413   83.671
  360.500    9.290    0.280    0.408   87.232
  360.750    9.611    0.282    0.395   89.615
  361.000    9.690    0.279    0.390   94.375
  361.250    9.770    0.267    0.382   96.157
  361.500    9.849    0.258    0.376   97.336
  361.750    9.848    0.255    0.378   95.507
  362.000    9.846    0.252    0.383   93.085
  362.250    9.845    0.252    0.385   90.657
  362.500    9.764    0.251    0.391   88.835
  362.750    9.762    0.252    0.398   85.193
  363.000    9.842    0.263    0.394   84.578
  363.250    9.921    0.280    0.392   82.152
  363.500   10.001    0.293    0.382   81.531
  363.750    9.999    0.298    0.378   80.905
  364.000    9.918    0.297    0.374   83.874
  364.250    9.594    0.286    0.371   86.851
  364.500    9.270    0.274    0.381   89.224
  364.750    8.624    0.252    0.390   90.396
  365.000    7.735    0.245    0.392   89.164
  365.250    7.088    0.261    0.395   87.947
  365.500    6.846    0.286    0.396   83.709
  365.750    6.683    0.298    0.397   82.492
  366.000    6.924    0.302    0.403   80.663
  366.250    7.567    0.296    0.422   79.436
  366.500    7.969    0.289    0.433   79.418
  366.750    8.371    0.283    0.436   79.386
  367.000    8.854    0.272    0.437   78.158
  367.250    8.934    0.269    0.429   75.731
  367.500    8.932    0.294    0.424   72.102
  367.750    8.850    0.308    0.416   69.687
  368.000    8.607    0.324    0.408   66.665
  368.250    8.606    0.340    0.402   65.422
  368.500    8.443    0.352    0.396   64.794
  368.750    8.361    0.351    0.394   64.170
  369.000    8.360    0.350    0.399   64.750
  369.250    8.278    0.353    0.408   65.330
  369.500    8.277    0.355    0.414   65.908
  369.750    8.195    0.351    0.418   68.277
  370.000    8.112    0.346    0.421   70.046
  370.250    8.031    0.345    0.426   71.820
  370.500    7.869    0.338    0.430   76.591
  370.750    7.787    0.310    0.435   83.756
  371.000    7.785    0.295    0.433   86.140
  371.250    7.945    0.280    0.427   90.914
  371.500    8.106    0.269    0.420   94.480
  371.750    8.265    0.263    0.413   97.456
  372.000    8.425    0.262    0.410  100.430
  372.250    8.424    0.262    0.406  102.207
  372.500    8.423    0.280    0.401  100.382
  372.750    8.421    0.305    0.401   93.158
  373.000    8.340    0.313    0.406   81.732
  373.250    8.258    0.318    0.410   70.909
  373.500    8.015    0.323    0.409   63.687
  373.750    7.691    0.321    0.409   63.651
  374.000    7.286    0.301    0.409   66.030
  374.250    6.882    0.287    0.409   70.793
  374.500    6.639    0.282    0.415   73.772
  374.750    6.476    0.282    0.419   76.748
  375.000    6.313    0.283    0.422   79.727
  375.250    6.313    0.303    0.423   74.302
  375.500    6.714    0.314    0.427   67.073
  375.750    6.874    0.329    0.430   61.045
  376.000    7.115    0.334    0.425   58.026
  376.250    7.356    0.342    0.416   54.997
  376.500    7.596    0.348    0.413   53.156
  376.750    7.757    0.355    0.409   52.536
  377.000    7.675    0.356    0.405   51.913
  377.250    7.512    0.355    0.402   52.493
  377.500    7.430    0.347    0.400   54.261
  377.750    7.348    0.342    0.399   54.840
  378.000    7.266    0.335    0.401   56.620
  378.250    7.184    0.341    0.406   59.581
  378.500    7.102    0.343    0.413   61.365
  378.750    7.101    0.347    0.416   63.724
  379.000    7.019    0.353    0.415   64.312
  379.250    6.937    0.360    0.410   62.488
  379.500    6.856    0.362    0.409   65.461
  379.750    6.774    0.356    0.414   69.634
  380.000    6.692    0.341    0.434   73.794
  380.250    6.691    0.335    0.434   74.977
  380.500    6.689    0.327    0.429   76.140
  380.750    6.607    0.323    0.421   75.527
  381.000    6.686    0.321    0.414   69.497
  381.250    6.685    0.316    0.409   71.859
  381.500    6.845    0.311    0.410   72.439
  381.750    6.925    0.308    0.407   73.020
  382.000    7.165    0.322    0.403   69.398
  382.250    7.326    0.340    0.403   64.567
  382.500    7.808    0.348    0.404   61.548
  382.750    7.968    0.361    0.402   57.915
  383.000    8.289    0.373    0.399   54.884
  383.250    8.449    0.370    0.399   53.668
  383.500    8.448    0.361    0.399   52.445
  383.750    8.446    0.354    0.401   50.608
  384.000    8.526    0.353    0.400   49.391
  384.250    8.444    0.353    0.396   47.566
  384.500    8.443    0.354    0.395   46.337
  384.750    8.361    0.359    0.393   47.493
  385.000    8.360    0.364    0.392   47.472
  385.250    8.358    0.363    0.389   47.452
  385.500    8.277    0.362    0.389   47.432
  385.750    8.275    0.362    0.388   46.807
  386.000    8.274    0.376    0.385   46.785
  386.250    8.273    0.385    0.385   46.138
  386.500    8.271    0.385    0.385   45.513
  386.750    8.189    0.382    0.396   44.891
