~VERSION INFORMATION
 VERS.                 2.0:   CWLS LOG ASCII STANDARD -VERSION 2.0
 WRAP.                  NO:   ONE LINE PER DEPTH STEP
~WELL INFORMATION BLOCK
#MNEM.UNIT           DATA                    DESCRIPTION OF MNEMONIC
#---------    -------------------            -------------------------------
# Generated from Intellog Unique Number	CW_73_75/WELL/2732
WELL.         SUNDANCE MCMORGAN  MARTENH 07- : Well_name    - WELL
LOC .         00/07-28-073-24W4/0            : Location     - LOCATION
UWI .         00/07-28-073-24W4/0            : Uwi          - UNIQUE WELL ID
ENTR.         JAYE                           : Entered      - ENTERED BY
SRVC.         SCHLUMBERGER                   : Scn          - SERVICE COMPANY
DATE.         19 MAR 73                      : Date         - LOG DATE
STRT.M        396.24                         : top_depth    - START DEPTH
STOP.M        624.74                         : bot_depth    - STOP DEPTH
STEP.M        0.25                           : increment    - STEP LENGTH
 NULL. -999.2500:NULL Value
~CURVE INFORMATION BLOCK
#MNEM UNIT       ERCB CURVE CODE    CURVE DESCRIPTION
#-----------   ------------------   ----------------------------------
DEPT.M        00 001 00 00         : DEPTH        - DEPTH
ILD .OHMM     00 120 00 00         : RESD         - DEEP RESISTIVITY (DIL)
NPHI.V/V      00 330 00 00         : PHIN         - NEUTRON POROSITY (SANDSTONE)
DPHI.V/V      00 890 00 00         : PHID         - DENSITY POROSITY (SANDSTONE)
GR  .API      00 310 00 00         : GR           - GAMMA RAY
CALI.MM       00 280 01 00         : CAL          - CALIPER
~PARAMETER INFORMATION
#MNEM.UNIT           DATA             DESCRIPTION OF MNEMONIC
#---------         -----------     ------------------------------
GL  .M        654.558              : gl           - GROUND LEVEL ELEVATION
EREF.M        656.844              : kb           - ELEVATION OF DEPTH REFERENCE
DATM.M        654.558              : datum        - DATUM ELEVATION
TDD .M        630.936              : tdd          - TOTAL DEPTH DRILLER
RUN .         ONE                  : Run          - RUN NUMBER
ENG .         MCLEVIN              : Engineer     - RECORDING ENGINEER
WIT .         LOWTHER              : Witness      - WITNESSED BY
BASE.         RD                   : Branch       - HOME BASE OF LOGGING UNIT
MUD .         GEL                  : Mud_type     - MUD TYPE
MATR.         SANDSTONE            : Logunit      - NEUTRON MATRIX
TMAX.C        28.8889              : BHT          - MAXIMUM RECORDED TEMPERATURE
BHTD.M        631.85               : BHTDEP       - MAXIMUM RECORDED TEMPERATURE
RMT .C        21.1111              : MDTP         - TEMPERATURE OF MUD
MUDD.KG/M     1104                 : MWT          - MUD DENSITY
NEUT.         1                    : NEUTRON      - NEUTRON TYPE
RESI.         0                    : RESIST       - RESISTIVITY TYPE
RM  .OHMM     3.04                 : RM           - RESISTIVITY OF MUD
RMC .OHMM     0                    : RMC          - RESISTIVITY OF MUD CAKE
RMF .OHMM     0                    : RMF          - RESISTIVITY OF MUD FILTRATE
SUFT.C        -17.7778             : SUFT         - SURFACE TEMPERATURE
~A  DEPTH     RESD     PHIN     PHID       GR      CAL
# ...
  578.740    6.124    0.351    0.031   99.123  166.397
  578.990    5.304    0.349    0.054   97.659  170.134
  579.240    4.593    0.380    0.079   98.459  173.251
  579.490    3.482    0.408    0.089  102.134  174.190
  579.740    2.630    0.460    0.077  105.810  166.326
  579.990    2.418    0.575    0.130  108.690  167.473
  580.240    2.362    0.606    0.099  108.817  171.833
  580.490    2.454    0.579    0.076  107.415  173.187
  580.740    2.608    0.554    0.086  107.175  171.539
  580.990    2.910    0.552    0.105  109.199  170.407
  581.240    3.271    0.539    0.117  110.917  170.104
  581.490    3.712    0.543    0.099  107.863  170.010
  581.740    4.316    0.503    0.079  104.992  169.810
  581.990    4.870    0.406    0.046  102.122  168.368
  582.240    5.196    0.387    0.048  101.760  145.276
  582.490    5.258    0.383    0.054  103.723  142.902
  582.740    5.331    0.392    0.041  106.419  150.990
  582.990    5.345    0.402    0.055  107.770  158.147
  583.240    5.339    0.401    0.068  106.980  163.541
  583.490    5.273    0.394    0.074  105.516  168.108
  583.740    5.189    0.387    0.059  103.624  169.876
  583.990    5.153    0.379    0.055   99.469  170.920
  584.240    5.119    0.365    0.048   92.501  170.307
  584.490    5.084    0.378    0.033   91.282  165.758
  584.740    5.030    0.402    0.064   93.489  157.996
  584.990    4.830    0.426    0.042   89.334  157.384
  585.240    4.543    0.435    0.037   81.692  158.117
  585.490    4.040    0.424    0.063   75.029  159.057
  585.740    3.532    0.397    0.081   68.916  160.101
  585.990    3.111    0.377    0.106   57.726  161.664
  586.240    2.856    0.361    0.140   47.209  162.086
  586.490    2.727    0.370    0.170   33.877  162.613
  586.740    2.770    0.379    0.201   33.699  163.969
  586.990    2.856    0.373    0.198   34.132  164.700
  587.240    2.996    0.357    0.188   33.403  165.228
  587.490    3.124    0.345    0.179   32.062  164.926
  587.740    3.314    0.325    0.169   31.883  164.623
  587.990    3.430    0.278    0.153   32.072  164.008
  588.240    3.478    0.249    0.143   31.771  163.294
  588.490    3.474    0.271    0.133   31.470  162.990
  588.740    3.516    0.313    0.157   32.699  162.585
  588.990    3.552    0.337    0.195   33.437  162.695
  589.240    3.615    0.350    0.189   34.115  163.016
  589.490    3.645    0.353    0.190   34.365  163.023
  589.740    3.641    0.345    0.196   34.737  162.823
  589.990    3.595    0.337    0.196   34.925  156.409
  590.240    3.551    0.349    0.195   35.236  151.548
  590.490    3.501    0.361    0.171   35.240  149.692
  590.740    3.439    0.362    0.178   34.940  148.665
  590.990    3.396    0.361    0.188   34.944  147.534
  591.240    3.379    0.361    0.191   35.989  146.507
  591.490    3.362    0.366    0.191   37.523  145.478
  591.740    3.340    0.371    0.189   38.385  145.072
  591.990    3.317    0.368    0.201   39.062  146.323
  592.240    3.276    0.372    0.197   38.028  148.507
  592.490    3.261    0.383    0.199   38.889  152.038
  592.740    3.275    0.396    0.203   40.607  156.293
  592.990    3.283    0.398    0.221   41.897  146.771
  593.240    3.292    0.394    0.207   42.146  148.022
  593.490    3.301    0.385    0.202   42.150  150.621
  593.740    3.315    0.373    0.189   43.501  154.565
  593.990    3.362    0.372    0.185   45.158  158.613
  594.240    3.396    0.386    0.193   45.285  157.794
  594.490    3.456    0.399    0.197   46.086  151.275
  594.740    3.584    0.397    0.203   47.803  147.037
  594.990    3.724    0.390    0.186   49.521  148.702
  595.240    3.957    0.364    0.166   50.872  152.336
  595.490    4.104    0.358    0.158   52.651  156.488
  595.740    4.224    0.361    0.144   54.613  153.596
  595.990    4.331    0.360    0.152   55.964  146.974
  596.240    4.450    0.358    0.160   54.562  145.636
  596.490    4.512    0.358    0.166   54.505  145.956
  596.740    4.601    0.360    0.164   56.040  146.689
  596.990    4.656    0.363    0.147   57.880  147.836
  597.240    4.721    0.358    0.128   59.659  150.019
  597.490    4.868    0.348    0.110   60.887  152.825
  597.740    5.049    0.344    0.115   61.871  155.215
  597.990    5.245    0.342    0.130   62.181  157.607
  598.240    5.626    0.336    0.106   62.982  159.375
  598.490    6.196    0.333    0.119   64.088  160.627
  598.740    6.810    0.327    0.103   65.316  161.878
  598.990    7.875    0.330    0.073   65.444  158.882
  599.240    9.348    0.305    0.049   64.042  155.990
  599.490   11.265    0.289    0.034   61.905  157.035
  599.740   12.927    0.269    0.022   61.360  158.389
  599.990   11.911    0.278    0.013   61.914  160.262
  600.240   10.690    0.292    0.031   64.244  161.617
  600.490    9.276    0.326    0.048   67.675  162.246
  600.740    8.357    0.343    0.066   70.433  161.944
  600.990    7.715    0.347    0.094   73.068  161.539
  601.240    7.409    0.343    0.109   74.664  160.925
  601.490    7.263    0.343    0.091   75.464  160.415
  601.740    7.213    0.350    0.085   75.224  160.423
  601.990    7.233    0.345    0.092   75.718  160.742
  602.240    7.292    0.347    0.103   77.191  161.580
  602.490    7.351    0.342    0.096   80.071  162.624
  602.740    7.483    0.333    0.076   83.135  165.118
  602.990    7.630    0.337    0.065   84.547  169.685
  603.240    7.751    0.339    0.074   86.448  172.801
  603.490    7.889    0.333    0.070   88.227  168.665
  603.740    7.999    0.334    0.076   89.516  167.535
  603.990    8.156    0.332    0.077   90.806  167.957
  604.240    8.224    0.342    0.058   92.952  168.691
  604.490    8.323    0.336    0.047   96.016  169.321
  604.740    8.422    0.338    0.063   97.366  169.846
  604.990    8.477    0.341    0.075   97.861  170.372
  605.240    8.482    0.341    0.055   97.683  170.796
  605.490    8.504    0.332    0.067   96.524  171.010
  605.740    8.527    0.331    0.087   93.716  171.121
  605.990    8.645    0.338    0.116   93.414  171.545
  606.240    8.782    0.357    0.134   96.050  171.657
  606.490    9.005    0.384    0.154   97.584  171.768
  606.740    9.462    0.446    0.190   92.817  171.879
  606.990    9.018    0.532    0.265   79.975  171.785
  607.240    8.248    0.575    0.429   64.993  171.275
  607.490    7.657    0.549    0.475   64.386  170.973
  607.740    6.795    0.488    0.263   75.402  171.188
  607.990    6.562    0.414    0.126   98.103  172.647
  608.240    6.779    0.383    0.097  102.941  171.411
  608.490    7.164    0.381    0.092   96.950  160.232
  608.740    7.499    0.399    0.073   91.144  150.606
  608.990    7.895    0.420    0.080   86.988  152.687
  609.240    8.202    0.443    0.102   85.464  153.006
  609.490    8.522    0.486    0.140   90.241  152.703
  609.740    8.821    0.537    0.204   99.544  153.022
  609.990    9.165    0.596    0.240  104.626  153.860
  610.240    9.576    0.613    0.266   92.457  155.421
  610.490   10.137    0.621    0.329   74.783  155.947
  610.740   10.712    0.627    0.503   63.225  145.389
  610.990   11.174    0.632    0.494   55.155  140.737
  611.240   11.456    0.637    0.427   67.273  140.642
  611.490   11.617    0.639    0.430   75.781  142.412
  611.740   11.646    0.640    0.449   60.370  144.801
  611.990   11.633    0.641    0.477   49.975  152.371
  612.240   11.361    0.642    0.507   41.599  160.149
  612.490   10.909    0.642    0.599   31.387  160.778
  612.740   10.359    0.643    0.617   23.440  159.440
  612.990    9.964    0.646    0.622   20.509  159.034
  613.240    9.768    0.647    0.623   21.002  157.903
  613.490    9.648    0.646    0.622   29.695  156.254
  613.740    9.636    0.645    0.622   37.958  156.158
  613.990    9.590    0.644    0.621   52.155  156.685
  614.240    9.597    0.640    0.620   75.039  158.040
  614.490    9.693    0.636    0.615   91.990  157.633
  614.740   10.016    0.630    0.456  107.655  156.088
  614.990   10.328    0.604    0.408  129.072  153.403
