~VERSION INFORMATION
 VERS.                 2.0:   CWLS LOG ASCII STANDARD -VERSION 2.0
 WRAP.                  NO:   ONE LINE PER DEPTH STEP
~WELL INFORMATION BLOCK
#MNEM.UNIT           DATA                    DESCRIPTION OF MNEMONIC
#---------    -------------------            -------------------------------
# Generated from Intellog Unique Number	CW_79_81/WELL/59
NULL.         -999.25                        : NULL_VALUE
WELL.         NUMAC BANNER WABASCA           : Well_name    - WELL              
LOC .         06-02-079-23W4                 : Location     - LOCATION          
UWI .         00/06-02-079-23W4/0            : Uwi          - UNIQUE WELL ID    
ENTR.         JJ                             : Entered      - ENTERED BY        
SRVC.         SCHLUMBERGER                   : Scn          - SERVICE COMPANY   
DATE.         7 FEB 69                       : Date         - LOG DATE          
STRT.M        345.643                        : top_depth    - START DEPTH       
STOP.M        473.643                        : bot_depth    - STOP DEPTH        
STEP.M        0.25                           : increment    - STEP LENGTH       
~CURVE INFORMATION BLOCK
#MNEM UNIT       ERCB CURVE CODE    CURVE DESCRIPTION
#-----------   ------------------   ----------------------------------
DEPT.M        00 001 00 00         : DEPTH        - DEPTH                       
GR  .API      00 310 00 00         : GR           - GAMMA RAY                   
CALI.MM       00 280 01 00         : CAL          - CALIPER                     
ILD .OHMM     00 120 00 00         : RESD         - DEEP RESISTIVITY (DIL)      
DELT.US/F     00 520 00 00         : DELT         - SONIC TRAVEL TIME           
~PARAMETER INFORMATION       
#MNEM.UNIT           DATA             DESCRIPTION OF MNEMONIC
#---------         -----------     ------------------------------
GL  .M        568.452              : gl           - GROUND LEVEL ELEVATION      
EREF.M        571.805              : kb           - ELEVATION OF DEPTH REFERENCE
DATM.M        571.805              : datum        - DATUM ELEVATION             
TDD .M        475.793              : tdd          - TOTAL DEPTH DRILLER         
RUN .         ONE                  : Run          - RUN NUMBER                  
ENG .         CHADDOCK             : Engineer     - RECORDING ENGINEER          
WIT .         MACINTOSH            : Witness      - WITNESSED BY                
BASE.         EDMONTON             : Branch       - HOME BASE OF LOGGING UNIT   
MUD .         GEL                  : Mud_type     - MUD TYPE                    
MATR.         SANDSTONE            : Logunit      - NEUTRON MATRIX              
TMAX.C        26.1111              : BHT          - MAXIMUM RECORDED TEMPERATURE
BHTD.M        476.098              : BHTDEP       - MAXIMUM RECORDED TEMPERATURE
RMT .C        26.1111              : MDTP         - TEMPERATURE OF MUD          
MUDD.KG/M     1068                 : MWT          - MUD DENSITY                 
NEUT.         1                    : NEUTRON      - NEUTRON TYPE                
RESI.         0                    : RESIST       - RESISTIVITY TYPE            
RM  .OHMM     4.64                 : RM           - RESISTIVITY OF MUD          
RMC .OHMM     3.92                 : RMC          - RESISTIVITY OF MUD CAKE     
RMF .OHMM     2.32                 : RMF          - RESISTIVITY OF MUD FILTRATE 
SUFT.C        5                    : SUFT         - SURFACE TEMPERATURE         
~A  DEPTH       GR      CAL     RESD     DELT
# ...
  432.643   73.550  225.744   16.086  376.497
  432.893   60.026  223.724   21.180  360.081
  433.143   50.854  216.498   48.461  354.587
  433.393   43.430  211.396   50.132  359.882
  433.643   40.954  218.724   80.463  351.706
  433.893   44.184  219.040  100.813  342.615
  434.143   47.156  217.870   90.664  341.437
  434.393   50.632  217.761   79.707  349.348
  434.643   52.611  219.351   70.357  354.121
  434.893   53.381  219.350   62.211  354.642
  435.143   53.858  219.879   54.867  350.717
  435.393   54.334  219.451   49.507  345.942
  435.643   55.412  219.131   47.836  344.567
  435.893   56.487  219.447   47.644  343.781
  436.143   57.462  219.232   48.130  331.943
  436.393   57.638  219.230   47.916  311.016
  436.643   57.566  219.759   45.966  300.290
  436.893   58.686  219.969   41.959  312.583
  437.143   60.613  220.816   39.629  333.834
  437.393   60.488  220.814   37.559  336.906
  437.643   59.065  220.706   35.689  338.540
  437.893   60.289  220.491   34.177  337.884
  438.143   59.414  220.488   32.967  336.118
  438.393   57.993  220.062   32.054  328.203
  438.643   58.415  220.059   30.503  319.570
  438.893   61.391  219.526   28.054  312.571
  439.143   64.168  220.055   24.945  310.870
  439.393   67.744  221.858   20.819  314.007
  439.643   71.369  223.662   19.467  322.049
  439.893   72.895  223.766   18.296  328.914
  440.143   70.720  220.364   16.944  328.520
  440.393   66.547  219.725   15.115  324.268
  440.643   66.823  221.741   13.404  314.916
  440.893   70.246  223.757   11.953  307.002
  441.143   74.721  223.011   10.621  339.632
  441.393   78.898  220.034    9.550  372.328
  441.643   76.923  220.138    8.538  375.858
  441.893   72.555  220.986    7.806  365.589
  442.143   70.127  222.789    7.373  360.422
  442.393   67.952  223.637    7.381  355.777
  442.643   71.479  220.342    7.826  369.116
  442.893   76.500  220.339    8.792  375.393
  443.143   82.628  222.249    9.058  381.931
  443.393   81.702  223.415    9.084  392.066
  443.643   72.431  221.289    9.171  392.130
  443.893   71.605  222.030    8.759  385.719
  444.143   74.280  222.346    8.228  397.293
  444.393   78.110  222.556    7.755  411.547
  444.643   80.879  221.917    7.381  429.072
  444.893   83.507  221.383    7.149  435.414
  445.143   84.932  220.743    6.996  431.881
  445.393   86.057  220.316    6.704  422.855
  445.643   88.783  220.633    6.610  420.042
  445.893   93.413  220.949    6.617  426.907
  446.143   93.985  220.735    6.564  432.595
  446.393   92.208  220.732    6.650  426.054
  446.643   86.787  220.730    7.216  408.527
  446.893   80.761  220.728    7.623  391.719
  447.143   77.688  220.937    7.848  377.723
  447.393   80.311  221.785    7.876  366.801
  447.643   85.638  222.633    8.102  375.039
  447.893   92.615  223.587    9.326  386.351
  448.143   90.940  225.178   12.868  391.908
  448.393   80.666  224.963   17.827  397.857
  448.643   62.294  221.774   28.239  389.813
  448.893   55.070  221.665   41.845  381.245
  449.143   49.298  221.344   45.526  375.358
  449.393   45.119  221.342   48.988  369.732
  449.643   41.298  221.871   50.752  364.041
  449.893   40.820  222.293   54.578  356.258
  450.143   39.247  223.672   60.019  351.156
  450.393   39.827  223.776   62.662  345.989
  450.643   42.849  221.331   63.703  356.385
  450.893   43.874  220.266   58.349  361.092
  451.143   47.048  223.132   48.803  360.437
  451.393   54.175  223.980   38.884  362.789
  451.643   60.199  224.296   32.022  367.627
  451.893   67.374  224.825   26.019  368.541
  452.143   72.801  222.911   22.812  360.169
  452.393   77.826  222.058   20.285  355.525
  452.643   82.299  223.756   19.176  351.404
  452.893   75.976  223.966   20.523  344.994
  453.143   65.501  221.839   23.689  355.717
  453.393   53.778  220.880   28.353  353.165
  453.643   41.906  220.666   39.229  338.450
  453.893   34.733  221.725   47.530  234.014
  454.143   36.411  222.148   44.203  201.577
  454.393   43.381  222.677   38.619  188.170
  454.643   57.456  222.675   33.374  202.228
  454.893   68.831  223.204   21.738  243.621
  455.143   75.507  225.539   16.235  316.207
  455.393   79.535  222.456   14.147  332.293
  455.643   83.059  221.816   12.977  329.218
  455.893   86.434  222.876   12.488  336.279
  456.143   93.409  223.724   12.297  348.441
  456.393   97.183  224.465   12.428  360.603
  456.643   83.061  224.356   12.576  345.234
  456.893   75.437  223.504   12.966  330.977
  457.143   75.665  222.865   13.174  330.779
  457.393   79.737  223.075   12.126  341.241
  457.643   81.614  225.410   11.015  345.294
  457.893   84.939  224.770   10.007  351.963
  458.143   77.017  221.156    9.738  360.593
  458.393   69.690  222.853   10.106  364.581
  458.643   59.217  221.576   11.434  372.231
  458.893   55.844  216.687   12.922  393.090
  459.143   59.868  215.623   14.129  389.557
  459.393   65.994  218.276   15.498  372.553
  459.643   70.170  222.523   15.387  364.639
  459.893   74.246  222.627   14.537  363.134
  460.143   77.670  217.844   13.149  360.713
  460.393   76.797  217.311   12.280  356.853
  460.643   76.272  219.008   12.009  351.686
  460.893   76.746  220.387   11.840  352.142
  461.143   75.175  216.454   11.929  364.762
  461.393   69.651  221.870   12.057  365.414
  461.643   65.974  217.512   12.088  359.200
  461.893   73.651  215.279   11.917  359.853
  462.143   80.630  215.595   11.209  357.955
  462.393   87.101  216.018   10.618  350.106
  462.643   95.275  217.078   10.149  342.257
  462.893   95.100  218.032   10.018  331.139
  463.143   85.178  219.835   10.187  325.056
  463.393   80.607  221.426   10.516  336.237
  463.643   79.531  222.805   10.986  343.102
  463.893   77.308  223.547   11.434  342.120
  464.143   75.229  223.120   11.923  340.091
  464.393   79.559  223.117   11.813  339.959
  464.643   82.981  225.133   10.924  341.069
  464.893   85.806  226.618    9.855  343.422
  465.143   85.883  223.748    9.144  343.747
  465.393   78.957  226.614    8.296  347.735
  465.643   77.785  222.469    7.726  356.431
  465.893   79.659  222.147    7.217  354.141
  466.143   79.035  222.039    7.007  346.358
  466.393   76.011  222.037    7.115  338.117
  466.643   68.786  221.822    7.643  335.107
  466.893   54.364  221.076    8.372  336.479
  467.143   39.689  218.630    9.141  352.368
  467.393   29.020  217.141    9.709  362.045
  467.643   32.741  217.139   10.158  369.433
  467.893   34.617  217.986   10.307  363.154
  468.143   25.693  218.196    9.819  354.455
  468.393   29.123  218.938    9.128  346.280
  468.643   31.646  220.104    7.982  352.752
  468.893   24.272  220.845    7.449  350.724
  469.143   16.198  221.268    6.721  353.992
  469.393    9.023  220.734    6.251  355.625
  469.643   14.149  220.307    5.821  352.223
  469.893   19.027  219.986    5.311  351.110
  470.143   23.554  220.090    4.901  360.984
  470.393   28.778  219.875    4.769  366.214
  470.643   32.549  220.085    4.919  347.444
  470.893   37.325  221.039    5.370  343.127
  471.143   41.449  221.675    5.938  340.313
  471.393   46.628  222.735    6.606  338.154
  471.643   42.651  224.326    8.353  327.559
  471.893   34.777  225.386   11.998  308.004
  472.143   35.652  225.808   13.886  268.570
  472.393   38.779  225.381   15.253  238.945
  472.643   40.806  220.811   17.281  231.619
  472.893   36.330  217.409   17.931  266.931
  473.143   28.556  219.000   17.859  258.690
  473.393   24.133  220.485   18.408  250.972
  473.643   20.907  218.783   19.397  245.870
