~VERSION INFORMATION
 VERS.                 2.0:   CWLS LOG ASCII STANDARD -VERSION 2.0
 WRAP.                  NO:   ONE LINE PER DEPTH STEP
~WELL INFORMATION BLOCK
#MNEM.UNIT           DATA                    DESCRIPTION OF MNEMONIC
#---------    -------------------            -------------------------------
# Generated from Intellog Unique Number	CS_73_76/WELL/623
WELL.         PEX PHILLIPS AEC WIAU          : Well_name    - WELL
LOC .         00/06-10-073-07W4/0            : Location     - LOCATION
UWI .         00/06-10-073-07W4/0            : Uwi          - UNIQUE WELL ID
ENTR.         SP                             : Entered      - ENTERED BY
SRVC.         SCHLUMBERGER                   : Scn          - SERVICE COMPANY
STRT.M        350                            : top_depth    - START DEPTH
STOP.M        575                            : bot_depth    - STOP DEPTH
STEP.M        0.25                           : increment    - STEP LENGTH
 NULL. -999.2500:NULL Value
~CURVE INFORMATION BLOCK
#MNEM UNIT       ERCB CURVE CODE    CURVE DESCRIPTION
#-----------   ------------------   ----------------------------------
DEPT.M        00 001 00 00         : DEPTH        - DEPTH
ILD .OHMM     00 120 00 00         : RESD         - DEEP RESISTIVITY (DIL)
DPHI.V/V      00 890 00 00         : PHID         - DENSITY POROSITY (LIMESTONE)
NPHI.V/V      00 330 00 00         : PHIN         - NEUTRON POROSITY (LIMESTONE)
GR  .API      00 310 00 00         : GR           - GAMMA RAY
~PARAMETER INFORMATION
#MNEM.UNIT           DATA             DESCRIPTION OF MNEMONIC
#---------         -----------     ------------------------------
GL  .M        728.6                : gl           - GROUND LEVEL ELEVATION
EREF.M        733                  : kb           - ELEVATION OF DEPTH REFERENCE
DATM.M        728.6                : datum        - DATUM ELEVATION
TDD .M        581                  : tdd          - TOTAL DEPTH DRILLER
RUN .         ONE                  : Run          - RUN NUMBER
ENG .         BILL                 : Engineer     - RECORDING ENGINEER
WIT .         JIM                  : Witness      - WITNESSED BY
MUD .         GEL                  : Mud_type     - MUD TYPE
MATR.         LIMESTONE            : Logunit      - NEUTRON MATRIX
TMAX.C        14                   : BHT          - MAXIMUM RECORDED TEMPERATURE
BHTD.M        581                  : BHTDEP       - MAXIMUM RECORDED TEMPERATURE
MATR.         1                    : LOGUNIT      - NEUTRON MATRIX
RMT .C        25                   : MDTP         - TEMPERATURE OF MUD
NEUT.         1                    : NEUTRON      - NEUTRON TYPE
RESI.         0                    : RESIST       - RESISTIVITY TYPE
RMC .OHMM     0.25                 : RMC          - RESISTIVITY OF MUD CAKE
RMF .OHMM     0.25                 : RMF          - RESISTIVITY OF MUD FILTRATE
SUFT.C        15                   : SUFT         - SURFACE TEMPERATURE
~A  DEPTH     RESD     PHID     PHIN       GR
# ...
  437.000    9.453    0.391    0.521   45.956
  437.250    9.452    0.383    0.505   46.569
  437.500    9.450    0.382    0.518   45.986
  437.750    9.449    0.406    0.524   46.002
  438.000    9.447    0.419    0.496   45.415
  438.250    9.273    0.364    0.469   45.442
  438.500    9.101    0.355    0.458   46.057
  438.750    9.100    0.351    0.459   47.889
  439.000    8.932    0.344    0.456   48.506
  439.250    8.767    0.348    0.456   48.517
  439.500    8.765    0.367    0.471   49.748
  439.750    8.603    0.350    0.485   50.365
  440.000    8.602    0.337    0.470   50.985
  440.250    8.443    0.355    0.473   50.999
  440.500    8.287    0.354    0.477   50.415
  440.750    8.134    0.342    0.476   50.435
  441.000    7.836    0.339    0.469   51.051
  441.250    7.692    0.339    0.459   52.282
  441.500    7.550    0.343    0.475   52.895
  441.750    7.274    0.346    0.473   54.116
  442.000    7.009    0.349    0.469   54.134
  442.250    6.507    0.356    0.469   52.947
  442.500    6.387    0.362    0.457   52.362
  442.750    5.930    0.351    0.450   52.381
  443.000    5.714    0.343    0.451   53.602
  443.250    5.505    0.332    0.462   55.434
  443.500    5.403    0.326    0.485   57.260
  443.750    5.303    0.320    0.488   57.272
  444.000    5.205    0.332    0.498   56.685
  444.250    5.109    0.332    0.506   57.304
  444.500    5.109    0.333    0.485   59.131
  444.750    5.014    0.339    0.479   60.960
  445.000    5.107    0.341    0.485   62.181
  445.250    5.106    0.339    0.526   60.991
  445.500    5.201    0.333    0.540   58.000
  445.750    5.396    0.328    0.562   53.805
  446.000    5.497    0.328    0.509   52.613
  446.250    5.598    0.342    0.490   52.629
  446.500    5.702    0.352    0.507   56.260
  446.750    5.808    0.340    0.516   59.290
  447.000    5.807    0.336    0.533   57.501
  447.250    5.700    0.345    0.533   55.110
  447.500    5.699    0.351    0.512   56.331
  447.750    5.805    0.349    0.507   59.970
  448.000    5.912    0.354    0.518   60.585
  448.250    6.134    0.354    0.484   61.207
  448.500    6.365    0.342    0.464   59.418
  448.750    6.364    0.329    0.482   58.228
  449.000    6.363    0.327    0.500   57.043
  449.250    6.362    0.333    0.496   55.857
  449.500    6.245    0.336    0.479   55.272
  449.750    6.129    0.342    0.470   56.498
  450.000    6.128    0.345    0.488   57.714
  450.250    6.242    0.347    0.500   60.148
  450.500    6.476    0.350    0.507   60.168
  450.750    6.597    0.348    0.509   59.580
  451.000    6.596    0.340    0.520   57.188
  451.250    6.474    0.338    0.549   55.997
  451.500    6.123    0.349    0.533   56.619
  451.750    5.791    0.355    0.510   59.046
  452.000    5.181    0.340    0.497   63.885
  452.250    4.467    0.333    0.507   69.932
  452.500    4.072    0.329    0.517   74.766
  452.750    3.643    0.316    0.531   78.396
  453.000    3.711    0.288    0.540   80.220
  453.250    3.850    0.276    0.561   79.034
  453.500    4.069    0.274    0.551   77.844
  453.750    4.145    0.273    0.545   76.656
  454.000    4.222    0.269    0.554   77.279
  454.250    4.144    0.287    0.573   81.519
  454.500    3.919    0.280    0.587   83.943
  454.750    3.776    0.269    0.599   86.370
  455.000    3.571    0.262    0.607   87.589
  455.250    3.378    0.258    0.618   85.200
  455.500    3.195    0.276    0.624   84.618
  455.750    3.440    0.265    0.634   85.837
  456.000    4.217    0.270    0.628   87.064
  456.250    5.464    0.270    0.590   84.668
  456.500    6.220    0.264    0.530   78.060
  456.750    7.212    0.250    0.490   75.072
  457.000    7.623    0.252    0.467   73.883
  457.250    8.207    0.271    0.459   73.296
  457.500    8.359    0.262    0.464   72.712
  457.750    8.515    0.258    0.473   72.727
  458.000    8.513    0.256    0.474   72.740
  458.250    8.671    0.259    0.473   72.768
  458.500    8.670    0.263    0.473   72.777
  458.750    8.510    0.247    0.473   72.194
  459.000    8.509    0.241    0.475   72.212
  459.250    8.351    0.250    0.475   72.233
  459.500    8.047    0.262    0.480   71.040
  459.750    7.753    0.251    0.492   68.649
  460.000    7.332    0.272    0.493   68.666
  460.250    7.197    0.269    0.490   71.098
  460.500    7.196    0.252    0.491   73.525
  460.750    7.466    0.244    0.508   74.141
  461.000    7.605    0.245    0.511   74.163
  461.250    7.891    0.245    0.499   73.586
  461.500    8.037    0.267    0.502   72.995
  461.750    7.889    0.247    0.516   74.217
  462.000    7.600    0.239    0.521   76.646
  462.250    7.460    0.269    0.523   77.864
  462.500    7.322    0.259    0.526   79.086
  462.750    6.925    0.250    0.505   77.899
  463.000    6.797    0.233    0.498   76.110
  463.250    6.429    0.215    0.483   75.526
  463.500    5.969    0.206    0.498   76.747
  463.750    5.243    0.219    0.527   79.183
  464.000    4.779    0.235    0.552   80.403
  464.250    4.120    0.253    0.548   81.020
  464.500    3.552    0.278    0.552   81.637
  464.750    3.237    0.267    0.557   81.661
  465.000    3.177    0.294    0.560   79.868
  465.250    3.236    0.299    0.549   79.282
  465.500    3.358    0.296    0.541   81.110
  465.750    3.549    0.282    0.544   82.332
  466.000    3.683    0.267    0.549   82.351
  466.250    3.821    0.256    0.554   81.765
  466.500    3.965    0.271    0.558   84.194
  466.750    4.269    0.260    0.567   86.018
  467.000    4.596    0.268    0.582   83.622
  467.250    4.769    0.291    0.598   77.618
  467.500    4.858    0.283    0.583   75.229
  467.750    5.135    0.280    0.551   74.040
  468.000    5.328    0.272    0.527   73.454
  468.250    5.427    0.254    0.537   72.868
  468.500    5.631    0.296    0.542   71.681
  468.750    5.735    0.298    0.531   69.288
  469.000    6.061    0.315    0.520   66.295
  469.250    6.289    0.314    0.529   65.112
  469.500    6.526    0.302    0.522   65.734
  469.750    6.897    0.296    0.515   66.951
  470.000    7.025    0.284    0.505   68.780
  470.250    7.025    0.270    0.500   70.001
  470.500    7.155    0.277    0.496   70.016
  470.750    7.287    0.271    0.522   67.028
  471.000    7.286    0.262    0.528   65.232
  471.250    7.152    0.263    0.518   63.450
  471.500    7.151    0.289    0.492   62.261
  471.750    7.149    0.315    0.482   59.263
  472.000    7.282    0.325    0.476   58.678
  472.250    7.417    0.328    0.477   59.297
  472.500    7.555    0.333    0.478   61.128
  472.750    7.695    0.336    0.500   62.952
  473.000    7.838    0.345    0.519   64.170
  473.250    7.837    0.354    0.530   67.208
  473.500    7.692    0.353    0.510   68.423
  473.750    7.411    0.318    0.493   68.438
  474.000    7.410    0.260    0.484   66.649
  474.250    7.409    0.243    0.478   62.453
  474.500    7.408    0.283    0.477   58.852
  474.750    7.407    0.309    0.476   57.068
  475.000    7.270    0.307    0.473   57.084
  475.250    7.269    0.303    0.473   57.103
  475.500    7.403    0.314    0.474   57.119
  475.750    7.541    0.303    0.483   53.519
  476.000    7.681    0.296    0.491   54.143
  476.250    7.823    0.301    0.496   58.382
  476.500    7.822    0.315    0.503   61.411
  476.750    7.678    0.330    0.507   63.234
  477.000    7.262    0.313    0.525   65.055
  477.250    6.742    0.307    0.539   68.087
  477.500    6.496    0.290    0.557   70.517
  477.750    6.376    0.279    0.536   71.735
  478.000    6.494    0.272    0.511   73.561
  478.250    6.615    0.261    0.502   69.971
  478.500    6.737    0.246    0.508   68.776
  478.750    6.612    0.258    0.520   69.398
  479.000    6.371    0.270    0.479   71.222
  479.250    6.254    0.280    0.473   73.047
  479.500    6.138    0.276    0.493   73.064
  479.750    6.137    0.275    0.499   72.482
  480.000    5.804    0.245    0.504   73.112
  480.250    5.593    0.265    0.493   73.724
