~VERSION INFORMATION
 VERS.                 2.0:   CWLS LOG ASCII STANDARD -VERSION 2.0
 WRAP.                  NO:   ONE LINE PER DEPTH STEP
~WELL INFORMATION BLOCK
#MNEM.UNIT           DATA                    DESCRIPTION OF MNEMONIC
#---------    -------------------            -------------------------------
# Generated from Intellog Unique Number	CS_73_76/WELL/2241
WELL.         MAYNARD ENERGY INCORPORATE     : Well_name    - WELL
LOC .         00/07-21-076-09W4/0            : Location     - LOCATION
UWI .         00/07-21-076-09W4/0            : Uwi          - UNIQUE WELL ID
ENTR.         SP                             : Entered      - ENTERED BY
SRVC.         SCHLUMBERGER                   : Scn          - SERVICE COMPANY
STRT.M        290                            : top_depth    - START DEPTH
STOP.M        500                            : bot_depth    - STOP DEPTH
STEP.M        0.25                           : increment    - STEP LENGTH
 NULL. -999.2500:NULL Value
~CURVE INFORMATION BLOCK
#MNEM UNIT       ERCB CURVE CODE    CURVE DESCRIPTION
#-----------   ------------------   ----------------------------------
DEPT.M        00 001 00 00         : DEPTH        - DEPTH
ILD .OHMM     00 120 00 00         : RESD         - DEEP RESISTIVITY (DIL)
DPHI.V/V      00 890 00 00         : PHID         - DENSITY POROSITY (LIMESTONE)
NPHI.V/V      00 330 00 00         : PHIN         - NEUTRON POROSITY (LIMESTONE)
GR  .API      00 310 00 00         : GR           - GAMMA RAY
~PARAMETER INFORMATION
#MNEM.UNIT           DATA             DESCRIPTION OF MNEMONIC
#---------         -----------     ------------------------------
GL  .M        683.33               : gl           - GROUND LEVEL ELEVATION
EREF.M        686.74               : kb           - ELEVATION OF DEPTH REFERENCE
DATM.M        683.33               : datum        - DATUM ELEVATION
TDD .M        508                  : tdd          - TOTAL DEPTH DRILLER
RUN .         ONE                  : Run          - RUN NUMBER
ENG .         BILL                 : Engineer     - RECORDING ENGINEER
WIT .         JIM                  : Witness      - WITNESSED BY
MUD .         GEL                  : Mud_type     - MUD TYPE
MATR.         LIMESTONE            : Logunit      - NEUTRON MATRIX
TMAX.C        20                   : BHT          - MAXIMUM RECORDED TEMPERATURE
BHTD.M        508                  : BHTDEP       - MAXIMUM RECORDED TEMPERATURE
MATR.         1                    : LOGUNIT      - NEUTRON MATRIX
RMT .C        25                   : MDTP         - TEMPERATURE OF MUD
NEUT.         1                    : NEUTRON      - NEUTRON TYPE
RESI.         0                    : RESIST       - RESISTIVITY TYPE
RMC .OHMM     0.25                 : RMC          - RESISTIVITY OF MUD CAKE
RMF .OHMM     0.25                 : RMF          - RESISTIVITY OF MUD FILTRATE
SUFT.C        15                   : SUFT         - SURFACE TEMPERATURE
~A  DEPTH     RESD     PHID     PHIN       GR
# ...
  464.000   20.325    0.252    0.347   77.400
  464.250   20.325    0.289    0.353   74.359
  464.500   22.764    0.297    0.356   73.147
  464.750   23.577    0.278    0.355   72.547
  465.000   25.203    0.242    0.353   73.775
  465.250   30.081    0.208    0.353   74.394
  465.500   34.146    0.228    0.360   73.181
  465.750   43.902    0.260    0.367   75.631
  466.000   47.968    0.317    0.373   76.859
  466.250   46.342    0.339    0.377   76.259
  466.500   42.276    0.342    0.378   76.269
  466.750   38.211    0.324    0.378   76.884
  467.000   32.520    0.303    0.379   76.897
  467.250   26.829    0.282    0.381   77.511
  467.500   23.577    0.272    0.382   78.741
  467.750   20.253    0.256    0.382   81.799
  468.000   19.022    0.251    0.383   84.856
  468.250   14.595    0.241    0.383   88.523
  468.500   12.873    0.229    0.383   92.191
  468.750   11.069    0.216    0.378   94.028
  469.000   10.495    0.206    0.374   94.646
  469.250   10.412    0.205    0.373   91.606
  469.500   10.330    0.196    0.373   89.174
  469.750   10.165    0.208    0.372   89.798
  470.000    9.919    0.221    0.369   91.633
  470.250    9.344    0.229    0.367   95.909
  470.500    9.180    0.221    0.366  102.624
  470.750    8.523    0.211    0.367  108.123
  471.000    8.113    0.199    0.370  109.959
  471.250    7.784    0.194    0.383  110.578
  471.500    7.701    0.192    0.390  111.197
  471.750    7.701    0.202    0.392  113.034
  472.000    7.864    0.200    0.391  108.778
  472.250    8.191    0.194    0.387  107.563
  472.500    8.682    0.187    0.379  102.695
  472.750    8.928    0.176    0.374   99.045
  473.000    9.173    0.170    0.364   98.442
  473.250    9.500    0.164    0.361  102.110
  473.500    9.499    0.162    0.357  105.778
  473.750    9.498    0.159    0.356  106.398
  474.000    9.498    0.152    0.354  103.970
  474.250    9.415    0.143    0.353  102.757
  474.500    9.250    0.137    0.352   99.107
  474.750    9.168    0.143    0.351   94.237
  475.000    9.249    0.195    0.348   88.756
  475.250    9.412    0.193    0.347   86.327
  475.500    9.575    0.182    0.346   88.164
  475.750    9.657    0.162    0.348   91.835
  476.000    9.656    0.153    0.349   93.672
  476.250    9.656    0.152    0.355   94.898
  476.500    9.655    0.153    0.364   97.349
  476.750    9.818    0.153    0.371   99.795
  477.000   10.145    0.152    0.374  104.070
  477.250   10.309    0.154    0.358  107.128
  477.500   10.800    0.164    0.350  101.039
  477.750   11.373    0.181    0.347   90.073
  478.000   12.274    0.216    0.350   82.156
  478.250   13.585    0.242    0.371   76.674
  478.500   21.137    0.274    0.380   63.879
  478.750   30.064    0.278    0.380   60.231
  479.000   34.930    0.277    0.375   57.191
  479.250   42.231    0.269    0.371   54.153
  479.500   45.472    0.266    0.375   53.548
  479.750   47.896    0.269    0.383   52.949
  480.000   46.255    0.277    0.386   51.737
  480.250   42.176    0.299    0.381   51.135
  480.500   38.097    0.298    0.378   50.535
  480.750   34.832    0.287    0.377   54.813
  481.000   33.195    0.275    0.383   57.260
  481.250   31.556    0.270    0.387   59.100
  481.500   32.352    0.250    0.384   59.715
  481.750   33.965    0.247    0.383   56.068
  482.000   34.764    0.259    0.388   54.856
  482.250   34.751    0.296    0.392   54.253
  482.500   34.735    0.282    0.382   55.482
  482.750   33.093    0.254    0.376   60.980
  483.000   30.643    0.242    0.371   65.256
  483.250   27.380    0.218    0.367   68.312
  483.500   26.554    0.204    0.365   69.541
  483.750   31.413    0.183    0.363   67.110
  484.000   37.094    0.232    0.362   56.143
  484.250   54.153    0.284    0.361   47.617
  484.500   70.400    0.295    0.358   42.747
  484.750   93.151    0.301    0.357   38.488
  485.000  119.152    0.316    0.356   36.056
  485.250  131.332    0.334    0.356   33.626
  485.500  137.821    0.334    0.355   31.811
  485.750  142.685    0.319    0.354   31.814
  486.000  145.112    0.301    0.352   33.653
  486.250  145.912    0.291    0.355   36.103
  486.500  142.643    0.286    0.356   37.329
  486.750  136.942    0.286    0.357   37.948
  487.000  131.235    0.291    0.357   37.957
  487.250  132.847    0.292    0.356   37.357
  487.500  137.710    0.294    0.353   36.144
  487.750  143.392    0.296    0.348   33.713
  488.000  157.198    0.316    0.345   31.283
  488.250  174.258    0.323    0.344   28.855
  488.500  214.080    0.341    0.341   28.253
  488.750  221.383    0.346    0.339   27.651
  489.000  208.360    0.340    0.341   27.662
  489.250  193.714    0.336    0.344   27.668
  489.500  175.814    0.320    0.345   28.900
  489.750  170.924    0.320    0.345   29.514
  490.000  183.918    0.322    0.345   30.744
  490.250  229.431    0.317    0.342   31.363
  490.500  256.245    0.310    0.341   31.373
  490.750  272.491    0.313    0.340   30.771
  491.000  287.925    0.318    0.338   30.170
  491.250  300.105    0.319    0.340   30.790
  491.500  282.206    0.320    0.342   30.795
  491.750  152.929    0.320    0.345   32.026
  492.000  116.331    0.312    0.348   33.863
  492.250   84.611    0.252    0.354   37.529
  492.500   47.200    0.213    0.355   45.466
  492.750   31.739    0.118    0.340   51.570
  493.000   25.222    0.083    0.325   54.627
  493.250   17.888    0.001    0.307   58.296
  493.500   17.477    0.000    0.271   60.133
  493.750   17.395    0.000    0.265   60.145
  494.000   17.394    0.002    0.264   60.152
  494.250   17.066    0.010    0.263   60.158
  494.500   16.327    0.022    0.266   61.391
  494.750   15.998    0.025    0.267   62.616
  495.000   15.998    0.010    0.274   63.233
  495.250   15.997    0.000    0.276   64.464
  495.500   16.078    0.000    0.278   65.080
  495.750   16.160    0.000    0.277   65.703
  496.000   16.159    0.000    0.277   65.709
  496.250   16.158    0.000    0.276   65.718
  496.500   16.321    0.000    0.275   65.726
  496.750   16.485    0.000    0.273   65.736
  497.000   16.648    0.000    0.273   65.132
  497.250   16.811    0.011    0.273   65.143
  497.500   16.811    0.029    0.275   65.760
  497.750   16.728    0.016    0.281   65.768
  498.000   16.564    0.001    0.289   66.996
  498.250   16.399    0.000    0.287   69.447
  498.500   16.234    0.011    0.282   70.675
  498.750   15.987    0.045    0.272   71.293
  499.000   15.741    0.049    0.270   71.299
  499.250   15.658    0.039    0.272   70.700
  499.500   15.576    0.020    0.278   73.756
  499.750   15.657    0.001    0.284   96.936
  500.000   15.738    0.021    0.285  109.748
