~VERSION INFORMATION
 VERS.                 2.0:   CWLS LOG ASCII STANDARD -VERSION 2.0
 WRAP.                  NO:   ONE LINE PER DEPTH STEP
~WELL INFORMATION BLOCK
#MNEM.UNIT           DATA                    DESCRIPTION OF MNEMONIC
#---------    -------------------            -------------------------------
# Generated from Intellog Unique Number	CS_73_76/WELL/2107
WELL.         W.W. BECKER OIL & GAS LTD      : Well_name    - WELL
LOC .         00/07-12-075-13W4/0            : Location     - LOCATION
UWI .         00/07-12-075-13W4/0            : Uwi          - UNIQUE WELL ID
ENTR.         SP                             : Entered      - ENTERED BY
SRVC.         SCHLUMBERGER                   : Scn          - SERVICE COMPANY
STRT.M        313.944                        : top_depth    - START DEPTH
STOP.M        530.194                        : bot_depth    - STOP DEPTH
STEP.M        0.25                           : increment    - STEP LENGTH
 NULL. -999.2500:NULL Value
~CURVE INFORMATION BLOCK
#MNEM UNIT       ERCB CURVE CODE    CURVE DESCRIPTION
#-----------   ------------------   ----------------------------------
DEPT.M        00 001 00 00         : DEPTH        - DEPTH
GR  .API      00 310 00 00         : GR           - GAMMA RAY
DPHI.V/V      00 890 00 00         : PHID         - DENSITY POROSITY (SANDSTONE)
NPHI.V/V      00 330 00 00         : PHIN         - NEUTRON POROSITY (SANDSTONE)
ILD .OHMM     00 120 00 00         : RESD         - DEEP RESISTIVITY (DIL)
~PARAMETER INFORMATION
#MNEM.UNIT           DATA             DESCRIPTION OF MNEMONIC
#---------         -----------     ------------------------------
GL  .M        682.021              : gl           - GROUND LEVEL ELEVATION
EREF.M        685.19               : kb           - ELEVATION OF DEPTH REFERENCE
DATM.M        682.021              : datum        - DATUM ELEVATION
TDD .M        533.4                : tdd          - TOTAL DEPTH DRILLER
RUN .         ONE                  : Run          - RUN NUMBER
ENG .         BILL                 : Engineer     - RECORDING ENGINEER
WIT .         JIM                  : Witness      - WITNESSED BY
MUD .         GEL                  : Mud_type     - MUD TYPE
MATR.         SANDSTONE            : Logunit      - NEUTRON MATRIX
TMAX.C        18.8889              : BHT          - MAXIMUM RECORDED TEMPERATURE
BHTD.M        554.126              : BHTDEP       - MAXIMUM RECORDED TEMPERATURE
MATR.         1                    : LOGUNIT      - NEUTRON MATRIX
RMT .C        25                   : MDTP         - TEMPERATURE OF MUD
NEUT.         1                    : NEUTRON      - NEUTRON TYPE
RESI.         0                    : RESIST       - RESISTIVITY TYPE
RMC .OHMM     0.25                 : RMC          - RESISTIVITY OF MUD CAKE
RMF .OHMM     0.25                 : RMF          - RESISTIVITY OF MUD FILTRATE
SUFT.C        15                   : SUFT         - SURFACE TEMPERATURE
~A  DEPTH       GR     PHID     PHIN     RESD
# ...
  357.444   55.686    0.278    0.487    9.059
  357.694   56.685    0.266    0.483    8.411
  357.944   58.235    0.238    0.489    7.959
  358.194   59.901    0.219    0.489    7.204
  358.444   61.482    0.208    0.486    6.759
  358.694   62.480    0.207    0.500    6.363
  358.944   63.523    0.211    0.506    5.981
  359.194   63.958    0.220    0.504    5.721
  359.444   64.009    0.228    0.495    5.712
  359.694   63.222    0.212    0.495    5.850
  359.944   62.325    0.222    0.495    6.126
  360.194   59.398    0.236    0.500    6.506
  360.444   57.126    0.246    0.513    7.075
  360.694   54.557    0.263    0.509    7.499
  360.944   52.740    0.275    0.498    8.150
  361.194   52.475    0.288    0.487    8.836
  361.444   52.397    0.294    0.478    9.452
  361.694   52.989    0.292    0.471   10.008
  361.944   51.964    0.329    0.488   10.421
  362.194   48.371    0.362    0.483   11.186
  362.444   44.730    0.401    0.480   11.768
  362.694   41.883    0.453    0.506   12.090
  362.944   40.493    0.484    0.568   12.626
  363.194   43.068    0.488    0.620   12.873
  363.444   45.117    0.317    0.621   12.855
  363.694   46.671    0.283    0.510   12.864
  363.944   45.142    0.276    0.453   12.871
  364.194   42.565    0.280    0.441   12.877
  364.444   40.736    0.291    0.432   12.901
  364.694   40.431    0.300    0.430   12.651
  364.944   41.084    0.310    0.440   12.526
  365.194   40.977    0.318    0.445   12.140
  365.444   39.326    0.313    0.449   11.762
  365.694   38.270    0.306    0.448   11.623
  365.944   38.062    0.313    0.446   11.819
  366.194   38.004    0.324    0.455   12.180
  366.444   38.744    0.328    0.462   12.561
  366.694   38.729    0.321    0.453   12.946
  366.944   39.319    0.335    0.442   12.938
  367.194   39.306    0.330    0.448   12.946
  367.444   39.309    0.322    0.442   12.953
  367.694   38.863    0.330    0.440   12.933
  367.944   38.541    0.332    0.448   13.239
  368.194   38.122    0.323    0.455   13.209
  368.444   37.521    0.330    0.454   13.490
  368.694   36.842    0.336    0.444   13.478
  368.944   36.962    0.326    0.435   13.478
  369.194   36.262    0.319    0.432   13.359
  369.444   36.323    0.333    0.430   13.259
  369.694   36.352    0.345    0.428   13.038
  369.944   36.606    0.330    0.426   12.915
  370.194   36.953    0.322    0.433   12.784
  370.444   36.968    0.336    0.438   12.601
  370.694   36.975    0.343    0.445   12.559
  370.944   36.983    0.342    0.457   12.556
  371.194   37.002    0.332    0.464   12.407
  371.444   37.112    0.325    0.451   12.342
  371.694   38.197    0.316    0.434   12.341
  371.944   38.219    0.323    0.426   12.341
  372.194   38.246    0.330    0.420   12.314
  372.444   38.165    0.328    0.424   12.122
  372.694   39.834    0.337    0.430   12.134
  372.944   40.761    0.343    0.440   12.140
  373.194   41.827    0.334    0.447   12.145
  373.444   42.128    0.324    0.439   12.151
  373.694   43.203    0.334    0.433   12.155
  373.944   45.476    0.341    0.438   12.310
  374.194   46.428    0.342    0.446   12.725
  374.444   46.814    0.336    0.453   12.872
  374.694   45.432    0.336    0.453   13.278
  374.944   44.126    0.336    0.448   13.692
  375.194   42.630    0.325    0.458   14.123
  375.444   41.586    0.320    0.460   14.571
  375.694   41.300    0.314    0.451   15.030
  375.944   40.817    0.316    0.446   15.497
  376.194   40.333    0.315    0.456   15.856
  376.444   41.455    0.319    0.451   16.179
  376.694   42.463    0.322    0.462   16.198
  376.944   43.457    0.310    0.469   15.850
  377.194   44.466    0.298    0.458   15.888
  377.444   44.455    0.289    0.458   15.897
  377.694   44.439    0.287    0.469   15.902
  377.944   45.063    0.286    0.477   15.912
  378.194   45.038    0.295    0.479   16.095
  378.444   45.887    0.281    0.467   16.216
  378.694   46.311    0.272    0.465   16.240
  378.944   47.308    0.286    0.469   16.393
  379.194   47.535    0.290    0.471   16.548
  379.444   48.090    0.288    0.459   16.561
  379.694   48.611    0.283    0.450   16.568
  379.944   50.039    0.298    0.445   16.575
  380.194   48.789    0.293    0.450   16.583
  380.444   46.600    0.299    0.466   16.590
  380.694   44.596    0.305    0.485   16.598
  380.944   42.943    0.303    0.496   16.608
  381.194   41.964    0.309    0.492   16.630
  381.444   41.579    0.299    0.483   16.336
  381.694   40.897    0.309    0.473   16.328
  381.944   40.964    0.316    0.470   16.328
  382.194   40.961    0.312    0.465   16.336
  382.444   40.706    0.304    0.459   16.342
  382.694   40.390    0.317    0.459   16.350
  382.944   40.392    0.324    0.471   16.366
  383.194   40.445    0.313    0.480   16.476
  383.444   39.791    0.306    0.489   16.679
  383.694   39.749    0.304    0.496   16.682
  383.944   40.464    0.305    0.495   16.614
  384.194   40.968    0.314    0.482   16.389
  384.444   42.579    0.301    0.477   16.212
  384.694   44.163    0.291    0.482   16.068
  384.944   44.627    0.301    0.473   15.561
  385.194   44.675    0.306    0.468   15.126
  385.444   44.648    0.305    0.462   14.362
  385.694   44.076    0.303    0.486   13.955
  385.944   43.902    0.302    0.497   13.520
  386.194   42.860    0.302    0.489   13.402
  386.444   40.730    0.315    0.472   13.402
  386.694   40.335    0.321    0.459   13.391
  386.944   39.902    0.317    0.460   13.668
  387.194   39.861    0.329    0.471   13.841
  387.444   40.733    0.319    0.487   13.951
  387.694   41.143    0.319    0.480   13.701
  387.944   40.862    0.326    0.461   13.473
  388.194   39.812    0.328    0.458   12.683
  388.444   39.324    0.319    0.452   11.729
  388.694   39.284    0.322    0.444   10.905
  388.944   39.988    0.320    0.435    9.914
  389.194   40.451    0.323    0.431    8.870
  389.444   40.722    0.323    0.434    8.323
  389.694   42.466    0.297    0.444    7.993
  389.944   43.630    0.291    0.449    8.191
  390.194   44.199    0.296    0.458    8.767
  390.444   43.058    0.267    0.452    9.616
  390.694   42.696    0.243    0.440   11.085
  390.944   42.475    0.224    0.369   12.887
  391.194   42.454    0.232    0.361   15.003
  391.444   42.150    0.293    0.389   17.180
  391.694   41.835    0.306    0.432   18.736
  391.944   40.384    0.289    0.458   19.989
  392.194   37.892    0.214    0.423   20.490
  392.444   37.040    0.155    0.385   20.028
  392.694   38.096    0.204    0.227   19.426
  392.944   38.964    0.258    0.314   18.762
  393.194   38.275    0.317    0.382   17.624
  393.444   37.271    0.248    0.406   16.625
  393.694   37.364    0.214    0.322   14.787
  393.944   38.842    0.161    0.285   13.169
  394.194   40.811    0.228    0.345   11.551
  394.444   42.731    0.279    0.396   10.100
  394.694   43.647    0.324    0.439    9.104
  394.944   45.621    0.319    0.460    8.294
  395.194   47.639    0.315    0.467    7.734
  395.444   50.307    0.296    0.464    7.146
  395.694   51.802    0.217    0.451    6.734
  395.944   53.554    0.215    0.444    6.341
  396.194   55.058    0.215    0.467    6.280
  396.444   55.349    0.222    0.474    6.117
  396.694   55.390    0.229    0.483    6.010
  396.944   55.715    0.238    0.488    5.941
  397.194   56.731    0.242    0.500    5.886
  397.444   58.323    0.235    0.506    5.697
  397.694   59.387    0.224    0.504    5.471
  397.944   60.484    0.234    0.493    5.244
  398.194   61.497    0.229    0.508    4.919
  398.444   62.136    0.215    0.518    4.603
  398.694   62.767    0.232    0.510    4.281
  398.944   62.787    0.216    0.501    3.811
  399.194   61.938    0.213    0.496    3.478
  399.444   60.943    0.214    0.510    3.139
  399.694   60.781    0.222    0.521    2.810
  399.944   60.257    0.224    0.535    2.584
  400.194   59.184    0.213    0.551    2.559
  400.444   58.492    0.210    0.538    2.606
  400.694   58.525    0.209    0.522    2.734
