~VERSION INFORMATION
 VERS.                 2.0:   CWLS LOG ASCII STANDARD -VERSION 2.0
 WRAP.                  NO:   ONE LINE PER DEPTH STEP
~WELL INFORMATION BLOCK
#MNEM.UNIT           DATA                    DESCRIPTION OF MNEMONIC
#---------    -------------------            -------------------------------
# Generated from Intellog Unique Number	CX_WELLS/WELL/2588
NULL.         -999.25                        : NULL_VALUE
WELL.         SIEBENS PONY                   : Well_name    - WELL              
LOC .         06-08-080-09W4                 : Location     - LOCATION          
UWI .         00/06-08-080-09W400            : Uwi          - UNIQUE WELL ID    
ENTR.         T                              : Entered      - ENTERED BY        
SRVC.         SCHLUMBERGER                   : Scn          - SERVICE COMPANY   
STRT.F        800                            : top_depth    - START DEPTH       
STOP.F        1620.21                        : bot_depth    - STOP DEPTH        
STEP.F        0.82                           : increment    - STEP LENGTH       
~CURVE INFORMATION BLOCK
#MNEM UNIT       ERCB CURVE CODE    CURVE DESCRIPTION
#-----------   ------------------   ----------------------------------
DEPT.F        00 001 00 00         : DEPTH        - DEPTH                       
GR  .API      00 310 00 00         : GR           - GAMMA RAY                   
NPHI.V/V      00 330 00 00         : PHIN         - NEUTRON POROSITY (SANDSTONE)
DPHI.V/V      00 890 00 00         : PHID         - DENSITY POROSITY (SANDSTONE)
ILD .OHMM     00 120 00 00         : RESD         - DEEP RESISTIVITY (DIL)      
~PARAMETER INFORMATION       
#MNEM.UNIT           DATA             DESCRIPTION OF MNEMONIC
#---------         -----------     ------------------------------
GL  .F        2298                 : gl           - GROUND LEVEL ELEVATION      
EREF.F        2310                 : kb           - ELEVATION OF DEPTH REFERENCE
DATM.F        2310                 : datum        - DATUM ELEVATION             
TDD .F        1654                 : tdd          - TOTAL DEPTH DRILLER         
RUN .         ONE                  : Run          - RUN NUMBER                  
ENG .         BILL                 : Engineer     - RECORDING ENGINEER          
WIT .         JIM                  : Witness      - WITNESSED BY                
MUD .         GEL                  : Mud_type     - MUD TYPE                    
MATR.         SANDSTONE            : Logunit      - NEUTRON MATRIX              
TMAX.F        73                   : BHT          - MAXIMUM RECORDED TEMPERATURE
BHTD.F        1653                 : BHTDEP       - MAXIMUM RECORDED TEMPERATURE
MATR.         1                    : LOGUNIT      - NEUTRON MATRIX              
RMT .F        68                   : MDTP         - TEMPERATURE OF MUD          
NEUT.         1                    : NEUTRON      - NEUTRON TYPE                
RESI.         4.78                 : RESIST       - RESISTIVITY TYPE            
RMC .OHMM     4.8                  : RMC          - RESISTIVITY OF MUD CAKE     
RMF .OHMM     4.8                  : RMF          - RESISTIVITY OF MUD FILTRATE 
SUFT.F        37.4                 : SUFT         - SURFACE TEMPERATURE         
~A  DEPTH       GR     PHIN     PHID     RESD
# ...
  942.717   81.581    0.472    0.273    2.593
  943.537   79.821    0.476    0.270    2.466
  944.357   79.859    0.478    0.271    2.386
  945.177   79.923    0.462    0.284    2.268
  945.997   79.948    0.463    0.286    2.121
  946.818   79.999    0.470    0.287    2.014
  947.638   80.050    0.485    0.293    1.882
  948.458   79.497    0.491    0.301    1.790
  949.278   80.126    0.485    0.308    1.732
  950.098   84.400    0.475    0.280    1.620
  950.919   89.278    0.469    0.265    1.566
  951.739   92.936    0.463    0.254    1.517
  952.559   98.416    0.465    0.245    1.496
  953.379  105.104    0.482    0.235    1.499
  954.199  103.345    0.504    0.243    1.505
  955.020   99.172    0.515    0.248    1.509
  955.840   96.797    0.508    0.259    1.542
  956.660   94.434    0.498    0.259    1.548
  957.480   90.262    0.490    0.251    1.556
  958.301   89.081    0.482    0.243    1.559
  959.121   89.747    0.479    0.238    1.536
  959.941   90.376    0.487    0.240    1.516
  960.761   92.853    0.493    0.243    1.521
  961.581   94.714    0.493    0.241    1.552
  962.402   95.342    0.489    0.241    1.646
  963.222   92.980    0.479    0.245    1.711
  964.042   90.605    0.470    0.249    1.845
  964.862   87.651    0.459    0.252    1.957
  965.682   86.470    0.447    0.255    1.996
  966.503   85.930    0.446    0.259    2.006
  967.323   85.956    0.448    0.262    1.976
  968.143   85.403    0.439    0.261    1.982
  968.963   83.644    0.438    0.255    1.989
  969.783   80.666    0.487    0.250    2.033
  970.604   78.290    0.503    0.256    2.154
  971.424   75.325    0.534    0.282    2.323
  972.244   69.945    0.576    0.292    2.456
  973.064   65.157    0.577    0.313    2.697
  973.885   56.145    0.571    0.334    2.962
  974.705   50.766    0.506    0.336    3.197
  975.525   49.007    0.464    0.305    3.769
  976.345   47.851    0.432    0.289    4.872
  977.165   47.889    0.431    0.290    5.060
  977.986   47.940    0.420    0.290    5.172
  978.806   47.965    0.414    0.281    5.105
  979.626   48.619    0.417    0.267    5.024
  980.446   48.683    0.415    0.264    4.784
  981.266   48.708    0.408    0.272    4.629
  982.087   48.156    0.410    0.277    4.479
  982.907   47.603    0.412    0.304    4.256
  983.727   47.038    0.418    0.306    4.193
  984.547   45.895    0.424    0.308    4.134
  985.367   45.329    0.417    0.306    4.081
  986.188   45.380    0.406    0.305    4.167
  987.008   46.009    0.410    0.302    4.259
  987.828   47.279    0.414    0.303    4.348
  988.648   47.304    0.420    0.304    4.440
  989.469   48.562    0.426    0.306    4.629
  990.289   49.216    0.429    0.305    4.726
  991.109   49.254    0.418    0.305    4.740
  991.929   49.305    0.418    0.311    4.759
  992.749   49.356    0.423    0.324    4.683
  993.570   49.394    0.425    0.323    4.540
  994.390   49.444    0.424    0.316    4.558
  995.210   49.495    0.422    0.317    4.654
  996.030   49.546    0.420    0.323    4.677
  996.850   49.584    0.419    0.325    4.690
  997.671   49.635    0.423    0.327    4.704
  998.491   50.264    0.430    0.333    4.727
  999.311   50.327    0.432    0.336    4.741
 1000.130   50.981    0.421    0.337    4.754
 1000.950   51.007    0.421    0.335    4.768
 1001.770   51.661    0.422    0.334    4.869
 1002.590   52.944    0.424    0.329    4.986
 1003.410   53.572    0.426    0.326    4.995
 1004.230   53.611    0.431    0.322    5.015
 1005.050   54.868    0.436    0.318    5.034
 1005.870   56.125    0.426    0.317    4.955
 1006.690   56.767    0.419    0.319    4.799
 1007.510   58.024    0.438    0.322    4.648
 1008.330   58.075    0.451    0.320    4.666
 1009.150   55.700    0.449    0.319    4.592
 1009.970   53.941    0.439    0.319    4.610
 1010.790   53.363    0.429    0.322    4.632
 1011.610   52.810    0.413    0.328    4.641
 1012.430   53.464    0.414    0.333    4.659
 1013.250   54.709    0.420    0.337    4.673
 1014.070   56.583    0.426    0.341    4.700
 1014.900   57.211    0.436    0.339    4.709
 1015.720   57.262    0.454    0.325    4.723
 1016.540   55.516    0.457    0.322    4.741
 1017.360   54.950    0.455    0.320    4.769
 1018.180   54.398    0.450    0.324    4.778
 1019.000   54.436    0.443    0.327    4.792
 1019.820   54.487    0.433    0.333    4.811
 1020.640   55.128    0.436    0.334    4.825
 1021.460   55.782    0.440    0.332    4.848
 1022.280   56.424    0.447    0.327    4.863
 1023.100   56.474    0.449    0.323    4.714
 1023.920   55.935    0.444    0.322    4.639
 1024.740   55.357    0.434    0.318    4.570
 1025.560   55.395    0.428    0.317    4.583
 1026.380   55.471    0.427    0.319    4.443
 1027.200   55.496    0.425    0.322    4.373
 1028.020   55.534    0.422    0.322    4.316
 1028.840   55.585    0.417    0.323    4.333
 1029.660   56.843    0.414    0.323    4.341
 1030.480   58.113    0.420    0.323    4.281
 1031.300   58.138    0.437    0.330    4.217
 1032.120   58.780    0.443    0.334    4.012
 1032.940   56.404    0.446    0.339    3.885
 1033.760   54.055    0.446    0.308    3.828
 1034.580   53.489    0.439    0.284    3.912
 1035.400   52.346    0.422    0.258    4.144
 1036.220   51.178    0.370    0.250    4.465
 1037.040   50.600    0.339    0.241    4.903
 1037.860   50.651    0.302    0.223    5.294
 1038.680   53.102    0.304    0.083    5.514
 1039.500   55.566    0.319    0.107    5.330
 1040.320   58.030    0.370    0.151    5.065
 1041.140   60.481    0.457    0.199    4.728
 1041.960   64.152    0.473    0.318    4.418
 1042.780   67.823    0.479    0.321    4.203
 1043.600   70.891    0.476    0.319    3.995
 1044.420   72.135    0.453    0.287    3.865
 1045.240   74.599    0.461    0.279    3.808
 1046.060   75.857    0.482    0.257    3.688
 1046.880   76.498    0.482    0.255    3.633
 1047.700   75.946    0.470    0.241    3.586
 1048.520   75.996    0.443    0.221    3.529
 1049.340   78.448    0.460    0.223    3.483
 1050.160   83.325    0.466    0.243    3.500
 1050.980   88.793    0.469    0.241    3.507
 1051.800   96.687    0.479    0.231    3.517
 1052.620  108.805    0.508    0.238    3.659
 1053.440  125.145    0.528    0.249    3.736
 1054.270  134.246    0.517    0.251    4.034
 1055.090  110.151    0.500    0.261    4.425
 1055.910   95.106    0.476    0.284    5.128
 1056.730   77.647    0.457    0.233    6.049
 1057.550   65.619    0.431    0.198    7.397
 1058.370   60.240    0.200    0.115    9.227
 1059.190   57.865    0.228    0.076    8.761
 1060.010   59.725    0.255    0.068    7.890
 1060.830   67.016    0.329    0.146    6.862
 1061.650   75.514    0.441    0.177    6.292
 1062.470   77.978    0.426    0.125    5.577
 1063.290   78.016    0.360    0.118    5.488
 1064.110   78.079    0.345    0.109    5.123
 1064.930   78.105    0.372    0.147    4.874
 1065.750   77.565    0.405    0.179    4.801
 1066.570   77.603    0.481    0.227    4.654
 1067.390   77.666    0.476    0.298    4.581
 1068.210   78.308    0.471    0.303    4.436
 1069.030   78.333    0.475    0.301    4.375
 1069.850   78.384    0.473    0.301    4.314
 1070.670   76.638    0.468    0.302    4.322
 1071.490   75.456    0.476    0.302    4.266
 1072.310   71.874    0.488    0.305    4.198
 1073.130   65.289    0.486    0.309    4.219
 1073.950   58.690    0.484    0.330    4.156
 1074.770   56.918    0.478    0.339    4.102
 1075.590   56.969    0.443    0.342    4.110
 1076.410   58.226    0.444    0.343    4.130
 1077.230   60.087    0.450    0.344    4.064
 1078.050   61.345    0.453    0.345    4.080
 1078.870   61.370    0.459    0.346    4.092
 1079.690   60.818    0.469    0.346    4.108
 1080.510   59.674    0.479    0.343    4.128
 1081.330   59.096    0.477    0.340    4.062
 1082.150   59.763    0.472    0.341    4.082
 1082.970   59.801    0.474    0.342    4.094
 1083.790   60.443    0.477    0.344    4.110
 1084.610   61.109    0.479    0.347    4.122
