~VERSION INFORMATION
 VERS.                 2.0:   CWLS LOG ASCII STANDARD -VERSION 2.0
 WRAP.                  NO:   ONE LINE PER DEPTH STEP
~WELL INFORMATION BLOCK
#MNEM.UNIT           DATA                    DESCRIPTION OF MNEMONIC
#---------    -------------------            -------------------------------
# Generated from Intellog Unique Number	CN_94_101/WELL/3278
WELL.         CDC OIL & GAS LTD.             : Well_name    - WELL
LOC .         00/03-14-095-07W4/0            : Location     - LOCATION
UWI .         00/03-14-095-07W400            : Uwi          - UNIQUE WELL ID
ENTR.         JOETTE                         : Entered      - ENTERED BY
SRVC.         SCHLUMBERGER                   : Scn          - SERVICE COMPANY
DATE.         07/22/92                       : Date         - LOG DATE
STRT.M        50                             : top_depth    - START DEPTH
STOP.M        286                            : bot_depth    - STOP DEPTH
STEP.M        0.25                           : increment    - STEP LENGTH
 NULL. -999.2500:NULL Value
~CURVE INFORMATION BLOCK
#MNEM UNIT       ERCB CURVE CODE    CURVE DESCRIPTION
#-----------   ------------------   ----------------------------------
DEPT.M        00 001 00 00         : DEPTH        - DEPTH
GR  .API      00 310 00 00         : GR           - GAMMA RAY
ILD .OHMM     00 120 00 00         : RESD         - DEEP RESISTIVITY (DIL)
NPHI.V/V      00 330 00 00         : PHIN         - NEUTRON POROSITY (SANDSTONE)
DPHI.V/V      00 890 00 00         : PHID         - DENSITY POROSITY (SANDSTONE)
~PARAMETER INFORMATION
#MNEM.UNIT           DATA             DESCRIPTION OF MNEMONIC
#---------         -----------     ------------------------------
GL  .M        505.28               : gl           - GROUND LEVEL ELEVATION
EREF.M        506.66               : kb           - ELEVATION OF DEPTH REFERENCE
DATM.M        506.66               : datum        - DATUM ELEVATION
TDD .M        404                  : tdd          - TOTAL DEPTH DRILLER
RUN .         ONE                  : Run          - RUN NUMBER
ENG .         JO                   : Engineer     - RECORDING ENGINEER
WIT .         TIM                  : Witness      - WITNESSED BY
MUD .         GEL                  : Mud_type     - MUD TYPE
MATR.         SANDSTONE            : Logunit      - NEUTRON MATRIX
TMAX.C        21                   : BHT          - MAXIMUM RECORDED TEMPERATURE
BHTD.M        404                  : BHTDEP       - MAXIMUM RECORDED TEMPERATURE
RMT .C        15                   : MDTP         - TEMPERATURE OF MUD
MUDD.KG/M     1030                 : MWT          - MUD DENSITY
NEUT.         1                    : NEUTRON      - NEUTRON TYPE
RESI.         0                    : RESIST       - RESISTIVITY TYPE
RM  .OHMM     0.33                 : RM           - RESISTIVITY OF MUD
RMC .OHMM     0.58                 : RMC          - RESISTIVITY OF MUD CAKE
RMF .OHMM     0.32                 : RMF          - RESISTIVITY OF MUD FILTRATE
SUFT.C        4                    : SUFT         - SURFACE TEMPERATURE
~A  DEPTH       GR     RESD     PHIN     PHID
# ...
   93.500   45.952    7.824    0.326    0.167
   93.750   44.148    8.373    0.315    0.170
   94.000   41.758    8.367    0.303    0.167
   94.250   41.735    8.212    0.302    0.154
   94.500   42.305    8.209    0.306    0.150
   94.750   42.875    8.203    0.315    0.149
   95.000   42.267    8.053    0.327    0.149
   95.250   41.652    8.045    0.337    0.179
   95.500   41.636    7.898    0.355    0.190
   95.750   41.021    7.758    0.362    0.215
   96.000   40.999    7.618    0.467    0.227
   96.250   43.346    7.353    0.476    0.240
   96.500   47.468    6.854    0.480    0.273
   96.750   52.770    6.619    0.484    0.321
   97.000   54.524    6.172    0.486    0.319
   97.250   55.099    5.654    0.489    0.315
   97.500   58.032    5.459    0.489    0.307
   97.750   59.205    5.089    0.488    0.271
   98.000   61.551    4.664    0.488    0.256
   98.250   63.306    4.349    0.491    0.251
   98.500   63.278    4.126    0.495    0.243
   98.750   63.250    4.194    0.500    0.249
   99.000   62.647    4.191    0.501    0.251
   99.250   63.212    4.185    0.499    0.256
   99.500   64.966    4.181    0.497    0.260
   99.750   65.541    4.107    0.497    0.262
  100.000   66.703    4.032    0.496    0.263
  100.250   66.681    3.961    0.497    0.263
  100.500   66.659    3.956    0.497    0.262
  100.750   67.229    3.951    0.497    0.259
  101.000   68.397    3.882    0.496    0.258
  101.250   70.145    3.809    0.496    0.257
  101.500   70.715    3.741    0.498    0.255
  101.750   71.279    3.739    0.498    0.251
  102.000   71.855    3.672    0.501    0.247
  102.250   71.833    3.604    0.503    0.239
  102.500   71.816    3.602    0.505    0.235
  102.750   71.794    3.597    0.506    0.238
  103.000   71.772    3.596    0.507    0.240
  103.250   72.336    3.591    0.511    0.241
  103.500   72.906    3.588    0.516    0.241
  103.750   73.487    3.524    0.521    0.244
  104.000   74.057    3.460    0.524    0.249
  104.250   74.622    3.397    0.521    0.253
  104.500   74.594    3.395    0.518    0.247
  104.750   75.175    3.392    0.515    0.245
  105.000   75.739    3.387    0.515    0.248
  105.250   76.315    3.385    0.515    0.248
  105.500   76.885    3.442    0.515    0.246
  105.750   76.863    3.439    0.515    0.244
  106.000   76.840    3.435    0.514    0.242
  106.250   76.818    3.741    0.512    0.242
  106.500   76.790    3.429    0.504    0.242
  106.750   76.176    3.309    0.502    0.246
  107.000   75.573    3.306    0.512    0.250
  107.250   73.775    3.302    0.528    0.251
  107.500   71.976    3.300    0.538    0.251
  107.750   71.954    3.472    0.537    0.256
  108.000   73.702    3.590    0.533    0.263
  108.250   73.083    3.526    0.532    0.276
  108.500   71.882    3.343    0.531    0.301
  108.750   71.262    3.228    0.530    0.309
  109.000   71.251    3.224    0.529    0.265
  109.250   71.821    3.221    0.525    0.256
  109.500   70.614    3.219    0.524    0.260
  109.750   68.213    3.216    0.524    0.265
  110.000   67.017    3.051    0.530    0.279
  110.250   64.627    2.796    0.543    0.280
  110.500   62.828    2.607    0.555    0.279
  110.750   62.214    2.560    0.564    0.279
  111.000   62.186    2.557    0.570    0.279
  111.250   62.175    2.554    0.570    0.279
  111.500   62.745    2.553    0.560    0.274
  111.750   63.315    2.594    0.548    0.268
  112.000   63.293    2.593    0.537    0.263
  112.250   62.667    2.681    0.527    0.257
  112.500   62.064    2.920    0.523    0.255
  112.750   60.852    3.073    0.518    0.262
  113.000   60.238    3.289    0.520    0.263
  113.250   60.216    3.582    0.527    0.272
  113.500   61.378    3.769    0.530    0.273
  113.750   61.942    3.454    0.537    0.269
  114.000   63.110    3.220    0.537    0.250
  114.250   61.317    3.163    0.530    0.251
  114.500   57.150    3.385    0.519    0.258
  114.750   51.799    3.815    0.508    0.264
  115.000   48.218    4.228    0.500    0.268
  115.250   47.615    4.849    0.489    0.266
  115.500   46.408    5.658    0.481    0.267
  115.750   48.152    5.853    0.488    0.265
  116.000   50.509    5.364    0.496    0.254
  116.250   53.436    4.914    0.506    0.242
  116.500   54.017    5.084    0.509    0.241
  116.750   55.174    5.829    0.503    0.242
  117.000   55.744    5.824    0.495    0.237
  117.250   55.130    4.897    0.485    0.240
  117.500   54.515    3.978    0.477    0.246
  117.750   53.314    3.121    0.481    0.252
  118.000   52.700    2.763    0.490    0.250
  118.250   52.667    3.396    0.499    0.230
  118.500   52.650    4.102    0.502    0.224
  118.750   53.818    4.315    0.505    0.221
  119.000   54.980    4.166    0.510    0.224
  119.250   54.952    3.882    0.514    0.230
  119.500   54.941    3.814    0.522    0.238
  119.750   53.735    3.810    0.530    0.242
  120.000   53.115    3.807    0.519    0.247
  120.250   53.098    3.550    0.474    0.252
  120.500   54.260    3.309    0.479    0.253
  120.750   55.422    3.139    0.486    0.254
  121.000   55.400    3.601    0.497    0.255
  121.250   55.378    4.201    0.504    0.260
  121.500   55.350    3.918    0.512    0.262
  121.750   54.747    3.468    0.511    0.264
  122.000   54.725    3.235    0.492    0.266
  122.250   55.887    3.016    0.475    0.264
  122.500   57.636    3.013    0.474    0.261
  122.750   58.206    3.577    0.474    0.260
  123.000   57.586    3.113    0.474    0.260
  123.250   56.977    2.663    0.474    0.260
  123.500   56.960    2.358    0.474    0.261
  123.750   56.933    2.613    0.474    0.262
  124.000   57.503    2.795    0.475    0.265
  124.250   58.073    2.891    0.478    0.266
  124.500   57.458    3.204    0.482    0.269
  124.750   55.068    3.551    0.484    0.272
  125.000   53.861    4.440    0.487    0.276
  125.250   52.660    4.436    0.490    0.280
  125.500   52.638    4.208    0.494    0.285
  125.750   53.214    4.130    0.499    0.294
  126.000   55.560    4.128    0.504    0.305
  126.250   57.314    3.023    0.515    0.301
  126.500   57.292    2.499    0.525    0.285
  126.750   57.264    2.174    0.534    0.272
  127.000   57.248    1.828    0.532    0.268
  127.250   57.812    1.794    0.501    0.261
  127.500   58.382    1.955    0.483    0.256
  127.750   58.365    2.242    0.484    0.247
  128.000   58.343    2.662    0.486    0.239
  128.250   58.321    3.105    0.476    0.245
  128.500   58.886    3.267    0.464    0.247
  128.750   58.874    3.378    0.455    0.236
  129.000   60.623    3.495    0.447    0.223
  129.250   61.193    4.077    0.447    0.219
  129.500   60.579    4.442    0.454    0.220
  129.750   59.959    5.094    0.461    0.222
  130.000   59.948    5.177    0.466    0.220
  130.250   59.920    4.910    0.467    0.221
  130.500   60.484    4.741    0.464    0.219
  130.750   60.473    4.344    0.463    0.221
  131.000   60.451    4.266    0.463    0.223
  131.250   59.831    4.411    0.465    0.228
  131.500   59.223    4.562    0.467    0.232
  131.750   56.234    4.800    0.473    0.237
  132.000   55.033    4.964    0.475    0.244
  132.250   53.833    5.046    0.471    0.256
  132.500   51.436    5.041    0.466    0.262
  132.750   49.046    5.212    0.458    0.271
  133.000   47.247    5.580    0.448    0.266
  133.250   46.639    6.400    0.435    0.265
  133.500   44.840    7.342    0.409    0.262
  133.750   43.041    8.867    0.376    0.210
  134.000   43.019   10.344    0.358    0.143
  134.250   45.952   10.160    0.386    0.178
  134.500   48.896    9.312    0.422    0.208
  134.750   50.645    8.104    0.430    0.229
  135.000   51.209    7.175    0.435    0.258
  135.250   51.790    6.464    0.445    0.256
  135.500   51.768    6.027    0.451    0.251
  135.750   52.338    5.918    0.456    0.249
  136.000   52.908    6.014    0.457    0.243
  136.250   51.702    6.009    0.451    0.237
  136.500   49.311    6.003    0.444    0.243
  136.750   46.322    6.208    0.430    0.247
