~VERSION INFORMATION
 VERS.                 2.0:   CWLS LOG ASCII STANDARD -VERSION 2.0
 WRAP.                  NO:   ONE LINE PER DEPTH STEP
~WELL INFORMATION BLOCK
#MNEM.UNIT           DATA                    DESCRIPTION OF MNEMONIC
#---------    -------------------            -------------------------------
# Generated from Intellog Unique Number	CW_76_78/WELL/2573
WELL.         SCURRY ET AL MCMULLEN          : Well_name    - WELL
LOC .         00/07-11-078-02W5/0            : Location     - LOCATION
UWI .         00/07-11-078-02W5/0            : Uwi          - UNIQUE WELL ID
ENTR.         MAX                            : Entered      - ENTERED BY
SRVC.         SCHLUMBERGER                   : Scn          - SERVICE COMPANY
STRT.M        332.232                        : top_depth    - START DEPTH
STOP.M        582.232                        : bot_depth    - STOP DEPTH
STEP.M        0.25                           : increment    - STEP LENGTH
 NULL. -999.2500:NULL Value
~CURVE INFORMATION BLOCK
#MNEM UNIT       ERCB CURVE CODE    CURVE DESCRIPTION
#-----------   ------------------   ----------------------------------
DEPT.M        00 001 00 00         : DEPTH        - DEPTH
ILD .OHMM     00 120 00 00         : RESD         - DEEP RESISTIVITY (DIL)
NPHI.V/V      00 330 00 00         : PHIN         - NEUTRON POROSITY (SANDSTONE)
DPHI.V/V      00 890 00 00         : PHID         - DENSITY POROSITY (SANDSTONE)
CALI.MM       00 280 01 00         : CAL          - CALIPER
GR  .API      00 310 00 00         : GR           - GAMMA RAY
~PARAMETER INFORMATION
#MNEM.UNIT           DATA             DESCRIPTION OF MNEMONIC
#---------         -----------     ------------------------------
GL  .M        630.601              : gl           - GROUND LEVEL ELEVATION
EREF.M        634.289              : kb           - ELEVATION OF DEPTH REFERENCE
DATM.M        630.601              : datum        - DATUM ELEVATION
TDD .M        556.26               : tdd          - TOTAL DEPTH DRILLER
RUN .         ONE                  : Run          - RUN NUMBER
ENG .         BILL                 : Engineer     - RECORDING ENGINEER
WIT .         JIM                  : Witness      - WITNESSED BY
MUD .         GEL                  : Mud_type     - MUD TYPE
MATR.         SANDSTONE            : Logunit      - NEUTRON MATRIX
TMAX.C        31.1111              : BHT          - MAXIMUM RECORDED TEMPERATURE
BHTD.M        556.26               : BHTDEP       - MAXIMUM RECORDED TEMPERATURE
RMT .C        15.5556              : MDTP         - TEMPERATURE OF MUD
MUDD.KG/M     9700                 : MWT          - MUD DENSITY
NEUT.         1                    : NEUTRON      - NEUTRON TYPE
RESI.         0                    : RESIST       - RESISTIVITY TYPE
RM  .OHMM     3.75                 : RM           - RESISTIVITY OF MUD
RMC .OHMM     5.24                 : RMC          - RESISTIVITY OF MUD CAKE
RMF .OHMM     5.21                 : RMF          - RESISTIVITY OF MUD FILTRATE
SUFT.C        -12.2222             : SUFT         - SURFACE TEMPERATURE
~A  DEPTH     RESD     PHIN     PHID      CAL       GR
# ...
  514.732    3.598    0.409    0.165  233.705   86.968
  514.982    3.680    0.403    0.150  234.723   90.820
  515.232    3.840    0.397    0.192  234.736   93.489
  515.482    4.547    0.393    0.196  234.748   93.499
  515.732    4.745    0.394    0.170  234.259   92.620
  515.982    5.766    0.383    0.157  232.771   90.852
  516.232    7.532    0.374    0.155  231.283   88.789
  516.482    8.592    0.370    0.158  229.794   84.658
  516.732   13.412    0.351    0.155  228.805   79.934
  516.982   16.940    0.332    0.145  227.820   73.436
  517.232   18.587    0.294    0.111  227.330   68.120
  517.482   18.708    0.251    0.067  226.842   64.877
  517.732   15.656    0.269    0.032  226.365   65.179
  517.982   13.270    0.283    0.082  226.369   67.257
  518.232   11.040    0.324    0.098  226.381   73.771
  518.482    8.223    0.340    0.106  227.397   77.918
  518.732    7.286    0.362    0.155  227.912   81.772
  518.982    6.545    0.361    0.155  227.912   83.258
  519.232    6.235    0.359    0.156  228.943   85.040
  519.482    6.199    0.364    0.162  229.453   87.413
  519.732    6.202    0.383    0.160  229.466   88.604
  519.982    6.244    0.438    0.148  229.480   89.203
  520.232    6.285    0.449    0.135  229.491   90.393
  520.482    6.249    0.403    0.130  229.504   92.770
  520.732    6.017    0.362    0.143  229.518   94.254
  520.982    5.707    0.356    0.150  229.034   96.627
  521.232    5.318    0.348    0.144  229.043  100.185
  521.482    4.616    0.358    0.150  229.056  102.853
  521.732    3.874    0.375    0.152  229.074  104.634
  521.982    3.525    0.387    0.148  229.074  107.304
  522.232    3.489    0.417    0.144  229.101  109.382
  522.482    3.727    0.404    0.135  229.112  101.406
  522.732    4.082    0.381    0.130  229.126   94.020
  522.982    4.516    0.362    0.120  229.637   88.705
  523.232    4.792    0.371    0.147  229.659   86.939
  523.482    4.991    0.378    0.161  229.665   86.651
  523.732    5.112    0.385    0.171  229.677   86.365
  523.982    5.193    0.392    0.171  229.693   86.374
  524.232    5.156    0.393    0.147  229.704   86.675
  524.482    5.055    0.389    0.124  229.720   87.274
  524.732    4.814    0.382    0.106  229.729   89.648
  524.982    4.614    0.409    0.130  229.744   91.727
  525.232    4.373    0.423    0.145  229.257   91.143
  525.482    4.209    0.422    0.159  228.770   88.785
  525.732    4.204    0.408    0.169  228.282   81.399
  525.982    4.317    0.394    0.191  227.296   61.595
  526.232    4.860    0.389    0.219  226.307   54.800
  526.482    5.913    0.383    0.250  225.319   47.415
  526.732    7.005    0.361    0.282  224.328   35.595
  526.982    7.470    0.353    0.296  223.840   31.167
  527.232    8.718    0.353    0.304  223.354   28.218
  527.482   10.751    0.360    0.307  223.370   28.218
  527.732   12.156    0.367    0.306  223.380   27.054
  527.982   14.815    0.363    0.305  223.380   27.651
  528.232   19.748    0.355    0.308  223.908   28.840
  528.482   22.408    0.355    0.309  223.924   30.328
  528.732   27.693    0.365    0.301  223.933   30.335
  528.982   29.099    0.371    0.294  224.450   30.047
  529.232   29.563    0.369    0.293  224.450   29.170
  529.482   29.558    0.363    0.292  224.482   28.880
  529.732   29.355    0.363    0.288  224.488   29.480
  529.982   28.998    0.368    0.287  224.501   30.967
  530.232   28.483    0.378    0.297  224.501   32.452
  530.482   28.125    0.378    0.299  225.029   34.233
  530.732   27.336    0.376    0.296  225.542   34.833
  530.982   26.664    0.381    0.293  225.542   35.728
  531.232   26.424    0.386    0.280  226.070   37.214
  531.482   26.888    0.392    0.291  226.587   37.815
  531.732   27.823    0.403    0.294  226.587   37.526
  531.982   28.680    0.433    0.293  226.609   36.942
  532.232   29.263    0.445    0.294  226.625   36.358
  532.482   29.258    0.432    0.296  226.640   35.775
  532.732   28.507    0.418    0.295  226.651   34.304
  532.982   27.130    0.396    0.285  226.651   31.946
  533.232   23.794    0.382    0.282  226.182   30.771
  533.482   20.104    0.367    0.285  226.189   29.597
  533.732   15.200    0.383    0.277  226.203   28.423
  533.982   12.295    0.393    0.279  226.225   28.135
  534.232    9.350    0.394    0.275  226.230   28.143
  534.482    7.503    0.394    0.267  226.230   28.446
  534.732    6.282    0.392    0.271  225.757   28.453
  534.982    5.610    0.372    0.273  225.771   28.461
  535.232    5.292    0.367    0.291  225.293   29.060
  535.482    5.559    0.367    0.292  225.296   31.434
  535.732    5.829    0.358    0.279  224.808   34.401
  535.982    5.941    0.354    0.286  224.808   34.703
  536.232    5.662    0.381    0.286  224.835   35.006
  536.482    5.146    0.407    0.285  224.846   35.309
  536.732    4.987    0.395    0.284  224.861   35.317
  536.982    4.520    0.387    0.289  224.883   33.847
  537.232    4.170    0.387    0.284  224.886   32.671
  537.482    3.977    0.382    0.288  224.899   31.792
  537.732    3.784    0.379    0.296  224.899   31.504
  537.982    3.630    0.378    0.297  224.931   30.920
  538.232    3.516    0.372    0.298  224.941   30.634
  538.482    3.441    0.378    0.293  224.953   30.937
  538.732    3.406    0.390    0.269  225.470   31.239
  538.982    3.329    0.383    0.278  225.470   31.248
  539.232    3.292    0.382    0.285  225.497   31.552
  539.482    3.256    0.379    0.283  225.508   32.742
  539.732    3.220    0.371    0.280  226.023   33.342
  539.982    3.223    0.370    0.269  226.023   33.350
  540.232    3.187    0.366    0.279  226.046   35.427
  540.482    3.072    0.383    0.278  226.046   38.687
  540.732    2.957    0.390    0.272  226.582   41.061
  540.982    2.686    0.399    0.258  227.087   41.365
  541.232    2.298    0.407    0.250  227.105   39.597
  541.482    1.909    0.395    0.258  227.114   35.467
  541.732    1.794    0.380    0.274  227.129   33.109
  541.982    1.794    0.366    0.274  227.142   32.524
  542.232    1.721    0.359    0.283  227.657   33.715
  542.482    1.607    0.375    0.274  227.669   36.387
  542.732    1.572    0.383    0.269  228.183   36.688
  542.982    1.534    0.385    0.271  228.698   36.399
  543.232    1.537    0.390    0.265  228.711   36.706
  543.482    1.540    0.382    0.271  229.228   37.303
  543.732    1.543    0.384    0.279  229.237   38.790
  543.982    1.624    0.384    0.276  229.253   40.867
  544.232    1.744    0.368    0.255  229.263   43.833
  544.482    1.943    0.354    0.233  229.277   46.206
  544.732    2.298    0.352    0.219  229.290   47.988
  544.982    2.614    0.314    0.203  229.303   47.108
  545.232    3.087    0.287    0.166  229.316   50.073
  545.482    3.638    0.256    0.129  229.330   59.250
  545.732    3.876    0.288    0.090  229.346   61.622
  545.982    3.762    0.347    0.123  229.359   65.474
  546.232    3.530    0.363    0.149  229.373   68.440
  546.482    3.023    0.370    0.167  229.373   69.925
  546.732    2.752    0.376    0.190  229.399   69.932
  546.982    2.559    0.378    0.196  229.411   69.350
  547.232    2.525    0.382    0.208  229.426   69.654
  547.482    2.487    0.390    0.209  229.426   70.253
  547.732    2.489    0.396    0.213  229.448   71.443
  547.982    2.489    0.389    0.211  229.965   73.226
  548.232    2.535    0.386    0.199  230.979   74.711
  548.482    2.537    0.366    0.196  230.992   77.678
  548.732    2.658    0.358    0.182  231.507   80.642
  548.982    2.817    0.360    0.175  232.021   80.944
  549.232    3.015    0.357    0.156  232.532   80.066
  549.482    3.175    0.345    0.109  233.548   80.370
  549.732    3.217    0.327    0.100  234.563   82.152
  549.982    3.063    0.357    0.086  237.581   85.116
  550.232    2.832    0.402    0.075  244.604   88.082
  550.482    2.678    0.440    0.119  242.115   91.047
  550.732    2.485    0.445    0.139  239.623   90.168
  550.982    2.292    0.417    0.113  243.144   88.993
