~VERSION INFORMATION
 VERS.                 2.0:   CWLS LOG ASCII STANDARD -VERSION 2.0
 WRAP.                  NO:   ONE LINE PER DEPTH STEP
~WELL INFORMATION BLOCK
#MNEM.UNIT           DATA                    DESCRIPTION OF MNEMONIC
#---------    -------------------            -------------------------------
# Generated from Intellog Unique Number	CS_67_68/WELL/786
WELL.         DOME PETROLEUM LIMITED         : Well_name    - WELL
LOC .         00/09-05-068-03W4/0            : Location     - LOCATION
UWI .         00/09-05-068-03W4/0            : Uwi          - UNIQUE WELL ID
ENTR.         SP                             : Entered      - ENTERED BY
SRVC.         SCHLUMBERGER                   : Scn          - SERVICE COMPANY
STRT.M        345                            : top_depth    - START DEPTH
STOP.M        577                            : bot_depth    - STOP DEPTH
STEP.M        0.25                           : increment    - STEP LENGTH
 NULL. -999.2500:NULL Value
~CURVE INFORMATION BLOCK
#MNEM UNIT       ERCB CURVE CODE    CURVE DESCRIPTION
#-----------   ------------------   ----------------------------------
DEPT.M        00 001 00 00         : DEPTH        - DEPTH
ILD .OHMM     00 120 00 00         : RESD         - DEEP RESISTIVITY (DIL)
DPHI.V/V      00 890 00 00         : PHID         - DENSITY POROSITY (LIMESTONE)
NPHI.V/V      00 330 00 00         : PHIN         - NEUTRON POROSITY (LIMESTONE)
GR  .API      00 310 00 00         : GR           - GAMMA RAY
~PARAMETER INFORMATION
#MNEM.UNIT           DATA             DESCRIPTION OF MNEMONIC
#---------         -----------     ------------------------------
GL  .M        705.08               : gl           - GROUND LEVEL ELEVATION
EREF.M        709                  : kb           - ELEVATION OF DEPTH REFERENCE
DATM.M        705.08               : datum        - DATUM ELEVATION
TDD .M        583                  : tdd          - TOTAL DEPTH DRILLER
RUN .         ONE                  : Run          - RUN NUMBER
ENG .         BILL                 : Engineer     - RECORDING ENGINEER
WIT .         JIM                  : Witness      - WITNESSED BY
MUD .         GEL                  : Mud_type     - MUD TYPE
MATR.         LIMESTONE            : Logunit      - NEUTRON MATRIX
TMAX.C        23.3                 : BHT          - MAXIMUM RECORDED TEMPERATURE
BHTD.M        583                  : BHTDEP       - MAXIMUM RECORDED TEMPERATURE
MATR.         1                    : LOGUNIT      - NEUTRON MATRIX
RMT .C        25                   : MDTP         - TEMPERATURE OF MUD
NEUT.         1                    : NEUTRON      - NEUTRON TYPE
RESI.         0                    : RESIST       - RESISTIVITY TYPE
RMC .OHMM     0.25                 : RMC          - RESISTIVITY OF MUD CAKE
RMF .OHMM     0.25                 : RMF          - RESISTIVITY OF MUD FILTRATE
SUFT.C        15                   : SUFT         - SURFACE TEMPERATURE
~A  DEPTH     RESD     PHID     PHIN       GR
# ...
  519.000    9.973    0.113    0.307   84.030
  519.250    8.992    0.157    0.331   79.106
  519.500    8.259    0.243    0.345   64.518
  519.750    7.756    0.272    0.353   51.328
  520.000    7.586    0.297    0.366   48.470
  520.250    7.476    0.312    0.382   55.033
  520.500    7.394    0.305    0.378   58.010
  520.750    7.354    0.299    0.367   61.473
  521.000    7.410    0.293    0.356   67.063
  521.250    7.493    0.285    0.347   72.532
  521.500    7.522    0.283    0.363   76.117
  521.750    7.551    0.293    0.383   79.580
  522.000    7.622    0.295    0.395   82.739
  522.250    7.737    0.282    0.401   84.014
  522.500    7.897    0.270    0.411   82.980
  522.750    8.076    0.261    0.413   81.034
  523.000    8.092    0.249    0.388   78.784
  523.250    8.018    0.242    0.376   73.617
  523.500    7.814    0.256    0.392   66.869
  523.750    7.461    0.270    0.383   62.978
  524.000    7.046    0.281    0.386   60.181
  524.250    6.982    0.288    0.397   63.462
  524.500    7.087    0.283    0.369   76.771
  524.750    7.181    0.260    0.363   85.036
  525.000    7.168    0.237    0.373   66.072
  525.250    7.090    0.272    0.379   54.280
  525.500    6.833    0.305    0.391   37.686
  525.750    6.598    0.336    0.390   20.728
  526.000    6.490    0.380    0.382   15.196
  526.250    6.478    0.382    0.408   15.924
  526.500    6.491    0.386    0.428   16.956
  526.750    6.480    0.391    0.442   17.502
  527.000    6.481    0.380    0.398   18.169
  527.250    6.482    0.343    0.361   18.958
  527.500    6.495    0.331    0.351   19.261
  527.750    6.495    0.325    0.346   19.746
  528.000    6.496    0.320    0.341   21.812
  528.250    6.509    0.314    0.338   24.059
  528.500    6.462    0.320    0.351   24.301
  528.750    6.451    0.327    0.360   22.720
  529.000    6.428    0.334    0.354   28.432
  529.250    6.417    0.338    0.360   37.365
  529.500    6.429    0.336    0.370   37.971
  529.750    6.454    0.329    0.367   32.439
  530.000    6.443    0.323    0.361   36.510
  530.250    6.432    0.322    0.356   49.030
  530.500    6.433    0.327    0.352   59.117
  530.750    6.433    0.329    0.360   68.962
  531.000    6.458    0.324    0.355   83.426
  531.250    6.495    0.319    0.356   94.669
  531.500    6.568    0.321    0.366  102.812
  531.750    6.679    0.321    0.373  102.811
  532.000    6.894    0.303    0.371   88.649
  532.250    7.011    0.278    0.362   65.309
  532.500    7.064    0.262    0.352   61.357
  532.750    7.000    0.265    0.350   58.013
  533.000    6.821    0.281    0.351   55.763
  533.250    6.611    0.295    0.347   62.083
  533.500    6.466    0.309    0.340   70.955
  533.750    6.360    0.316    0.354   79.341
  534.000    6.349    0.308    0.366   86.147
  534.250    6.362    0.296    0.364   89.793
  534.500    6.398    0.290    0.361   88.758
  534.750    6.435    0.299    0.360   86.691
  535.000    6.459    0.306    0.362   83.529
  535.250    6.448    0.294    0.376  103.342
  535.500    6.413    0.252    0.381  117.806
  535.750    6.438    0.197    0.383  115.191
  536.000    6.499    0.185    0.403  110.814
  536.250    6.621    0.193    0.432  104.552
  536.500    6.872    0.198    0.429   99.568
  536.750    7.001    0.206    0.417   96.102
  537.000    7.146    0.212    0.404   95.918
  537.250    7.227    0.213    0.386   95.674
  537.500    7.241    0.222    0.387   93.303
  537.750    7.242    0.226    0.378   89.959
  538.000    7.243    0.219    0.369   90.079
  538.250    7.257    0.213    0.366   91.415
  538.500    7.272    0.220    0.379   94.513
  538.750    7.232    0.235    0.387   97.551
  539.000    7.193    0.253    0.377  100.650
  539.250    7.154    0.210    0.370  105.693
  539.500    7.155    0.230    0.374  113.472
  539.750    7.196    0.248    0.364  148.661
  540.000    7.277    0.237    0.355  147.748
  540.250    7.360    0.226    0.355  141.426
  540.500    7.388    0.250    0.362  118.512
  540.750    7.375    0.263    0.362   74.203
  541.000    7.349    0.276    0.365   78.335
  541.250    7.336    0.281    0.362   87.450
  541.500    7.337    0.246    0.358   95.229
  541.750    7.324    0.227    0.356  100.637
  542.000    7.285    0.230    0.356  106.835
  542.250    7.259    0.236    0.362  107.746
  542.500    7.246    0.258    0.363   87.566
  542.750    7.234    0.269    0.359   87.322
  543.000    7.195    0.253    0.354   93.520
  543.250    7.169    0.249    0.350   92.364
  543.500    7.156    0.264    0.360   83.429
  543.750    7.131    0.277    0.356   91.875
  544.000    7.079    0.272    0.352   97.466
  544.250    7.041    0.262    0.364   95.216
  544.500    6.964    0.252    0.379   77.346
  544.750    6.875    0.257    0.410   62.211
  545.000    6.651    0.288    0.424   52.303
  545.250    6.374    0.316    0.397   50.053
  545.500    6.200    0.338    0.375   59.837
  545.750    6.088    0.330    0.358   67.616
  546.000    6.055    0.285    0.359   74.543
  546.250    6.011    0.281    0.380   62.386
  546.500    5.967    0.299    0.396   47.069
  546.750    5.891    0.314    0.403   40.990
  547.000    5.827    0.320    0.395   39.166
  547.250    5.721    0.318    0.386   38.557
  547.500    5.606    0.332    0.379   39.285
  547.750    5.555    0.344    0.387   48.400
  548.000    5.649    0.354    0.383   54.173
  548.250    5.745    0.337    0.375   60.432
  548.500    5.842    0.309    0.372   66.934
  548.750    5.875    0.276    0.386   63.165
  549.000    5.887    0.277    0.390   42.195
  549.250    5.812    0.293    0.379   35.873
  549.500    5.685    0.322    0.371   41.585
  549.750    5.469    0.326    0.368   47.662
  550.000    5.369    0.324    0.372   45.959
  550.250    5.281    0.327    0.369   41.642
  550.500    5.224    0.327    0.364   40.972
  550.750    5.195    0.324    0.358   39.452
  551.000    5.158    0.325    0.364   37.688
  551.250    5.149    0.333    0.374   39.389
  551.500    5.140    0.334    0.381   41.393
  551.750    5.121    0.328    0.380   43.094
  552.000    5.094    0.329    0.377   37.866
  552.250    5.066    0.335    0.381   32.456
  552.500    5.057    0.339    0.384   31.299
  552.750    5.039    0.345    0.381   35.735
  553.000    5.031    0.344    0.378   38.530
  553.250    5.004    0.341    0.374   34.700
  553.500    4.995    0.343    0.371   32.511
  553.750    5.005    0.340    0.377   35.548
  554.000    5.006    0.333    0.376   35.729
  554.250    5.006    0.328    0.370   28.009
  554.500    4.997    0.338    0.366   22.173
  554.750    4.998    0.345    0.373   19.559
  555.000    4.971    0.352    0.379   19.132
  555.250    4.935    0.351    0.375   19.678
  555.500    4.917    0.350    0.374   20.771
  555.750    4.873    0.354    0.376   22.411
  556.000    4.855    0.355    0.381   24.355
  556.250    4.847    0.352    0.371   33.531
  556.500    4.839    0.355    0.362   43.376
  556.750    4.839    0.357    0.358   51.458
  557.000    4.885    0.352    0.365   63.673
  557.250    4.958    0.343    0.374   56.561
  557.500    5.061    0.334    0.378   46.775
  557.750    5.128    0.330    0.377   44.342
  558.000    5.176    0.338    0.379   43.369
  558.250    5.186    0.345    0.386   42.638
  558.500    5.139    0.348    0.386   42.576
  558.750    5.064    0.347    0.391   41.299
  559.000    4.981    0.348    0.401   35.463
  559.250    4.963    0.351    0.410   29.566
  559.500    4.928    0.357    0.413   23.791
  559.750    4.910    0.366    0.406   22.817
  560.000    4.892    0.365    0.398   24.032
  560.250    4.884    0.356    0.393   24.395
  560.500    4.849    0.358    0.388   25.792
  560.750    4.840    0.359    0.382   26.885
  561.000    4.805    0.360    0.386   25.607
  561.250    4.788    0.359    0.386   21.413
  561.500    4.788    0.356    0.380   18.676
  561.750    4.798    0.355    0.380   18.371
  562.000    4.719    0.360    0.388   20.680
  562.250    4.808    0.351    0.387   22.441
