~VERSION INFORMATION
 VERS.                 2.0:   CWLS LOG ASCII STANDARD -VERSION 2.0
 WRAP.                  NO:   ONE LINE PER DEPTH STEP
~WELL INFORMATION BLOCK
#MNEM.UNIT           DATA                    DESCRIPTION OF MNEMONIC
#---------    -------------------            -------------------------------
# Generated from Intellog Unique Number	CW_76_78/WELL/3586
WELL.         06-28-076-19W4                 : Well_name    - WELL
LOC .         00/06-28-076-19W4/0            : Location     - LOCATION
UWI .         00/06-28-076-19W4/0            : Uwi          - UNIQUE WELL ID
ENTR.         JOETTE                         : Entered      - ENTERED BY
SRVC.         SCHLUMBERGER                   : Scn          - SERVICE COMPANY
DATE.         08-26-92                       : Date         - LOG DATE
STRT.M        185                            : top_depth    - START DEPTH
STOP.M        445                            : bot_depth    - STOP DEPTH
STEP.M        0.25                           : increment    - STEP LENGTH
 NULL. -999.2500:NULL Value
~CURVE INFORMATION BLOCK
#MNEM UNIT       ERCB CURVE CODE    CURVE DESCRIPTION
#-----------   ------------------   ----------------------------------
DEPT.M        00 001 00 00         : DEPTH        - DEPTH
ILD .OHMM     00 120 00 00         : RESD         - DEEP RESISTIVITY (DIL)
DPHI.V/V      00 890 00 00         : PHID         - DENSITY POROSITY (SANDSTONE)
NPHI.V/V      00 330 00 00         : PHIN         - NEUTRON POROSITY (SANDSTONE)
GR  .API      00 310 00 00         : GR           - GAMMA RAY
~PARAMETER INFORMATION
#MNEM.UNIT           DATA             DESCRIPTION OF MNEMONIC
#---------         -----------     ------------------------------
GL  .M        573.1                : gl           - GROUND LEVEL ELEVATION
EREF.M        576.4                : kb           - ELEVATION OF DEPTH REFERENCE
DATM.M        576.4                : datum        - DATUM ELEVATION
TDD .M        448                  : tdd          - TOTAL DEPTH DRILLER
RUN .         \                    : Run          - RUN NUMBER
ENG .         BILL                 : Engineer     - RECORDING ENGINEER
WIT .         JIM                  : Witness      - WITNESSED BY
MUD .         GEL                  : Mud_type     - MUD TYPE
MATR.         SANDSTONE            : Logunit      - NEUTRON MATRIX
TMAX.C        23                   : BHT          - MAXIMUM RECORDED TEMPERATURE
BHTD.M        448                  : BHTDEP       - MAXIMUM RECORDED TEMPERATURE
MATR.         1                    : LOGUNIT      - NEUTRON MATRIX
RMT .C        19                   : MDTP         - TEMPERATURE OF MUD
NEUT.         1                    : NEUTRON      - NEUTRON TYPE
RESI.         0                    : RESIST       - RESISTIVITY TYPE
RMC .OHMM     3.53                 : RMC          - RESISTIVITY OF MUD CAKE
RMF .OHMM     7.87                 : RMF          - RESISTIVITY OF MUD FILTRATE
SUFT.C        5                    : SUFT         - SURFACE TEMPERATURE
~A  DEPTH     RESD     PHID     PHIN       GR
# ...
  315.500    9.894    0.329    0.480   45.653
  315.750    9.718    0.331    0.479   47.400
  316.000    9.035    0.335    0.479   50.309
  316.250    8.248    0.337    0.474   53.799
  316.500    7.128    0.333    0.470   52.058
  316.750    6.388    0.331    0.460   50.317
  317.000    5.726    0.333    0.452   52.645
  317.250    6.051    0.327    0.447   53.229
  317.500    7.405    0.292    0.453   53.813
  317.750    8.118    0.260    0.463   56.723
  318.000    7.830    0.288    0.458   60.212
  318.250    7.414    0.290    0.450   65.447
  318.500    7.150    0.262    0.439   71.262
  318.750    6.772    0.265    0.444   74.752
  319.000    6.773    0.296    0.454   72.430
  319.250    7.158    0.298    0.458   67.201
  319.500    7.565    0.310    0.459   62.555
  319.750    8.294    0.305    0.457   63.720
  320.000    9.092    0.294    0.448   67.211
  320.250    9.967    0.283    0.441   67.794
  320.500   11.128    0.266    0.433   66.053
  320.750   12.427    0.225    0.431   60.825
  321.000   12.429    0.196    0.411   57.341
  321.250   11.347    0.237    0.439   63.737
  321.500    9.452    0.250    0.447   71.877
  321.750    8.319    0.286    0.453   77.693
  322.000    7.594    0.289    0.449   81.764
  322.250    7.191    0.263    0.441   83.511
  322.500    6.936    0.255    0.433   81.189
  322.750    6.567    0.247    0.432   85.260
  323.000    6.220    0.250    0.431   87.007
  323.250    5.998    0.255    0.439   85.266
  323.500    5.578    0.250    0.443   83.525
  323.750    5.378    0.243    0.444   83.528
  324.000    5.283    0.249    0.444   85.275
  324.250    5.687    0.263    0.443   87.021
  324.500    6.121    0.261    0.437   85.280
  324.750    6.470    0.253    0.431   82.958
  325.000    6.591    0.226    0.423   81.218
  325.250    6.966    0.213    0.430   80.638
  325.500    7.499    0.222    0.439   81.222
  325.750    8.372    0.226    0.447   85.294
  326.000    9.348    0.221    0.447   92.853
  326.250    9.878    0.231    0.438   95.180
  326.500    9.703    0.295    0.432   89.371
  326.750    7.651    0.294    0.433   82.981
  327.000    6.492    0.267    0.442   76.590
  327.250    5.714    0.264    0.448   72.524
  327.500    5.612    0.252    0.450   67.878
  327.750    5.513    0.243    0.444   67.299
  328.000    5.515    0.275    0.439   66.720
  328.250    5.222    0.280    0.433   69.629
  328.500    4.350    0.270    0.432   84.163
  328.750    2.655    0.259    0.434   87.654
  329.000    2.423    0.250    0.434   87.656
  329.250    1.744    0.243    0.432   89.403
  329.500    1.188    0.244    0.429   91.730
  329.750    1.065    0.248    0.436   93.477
  330.000    0.752    0.251    0.438   92.317
  330.250    0.638    0.255    0.434   87.670
  330.500    0.572    0.253    0.436   85.930
  330.750    0.594    0.247    0.437   87.095
  331.000    0.740    0.230    0.440   88.841
  331.250    0.956    0.214    0.442   92.331
  331.500    1.597    0.206    0.443   97.565
  331.750    2.870    0.225    0.439  101.055
  332.000    3.447    0.247    0.417   98.733
  332.250    4.218    0.249    0.422   92.342
  332.500    4.885    0.240    0.432   84.208
  332.750    5.455    0.233    0.438   80.723
  333.000    5.980    0.225    0.440   75.495
  333.250    6.555    0.220    0.440   74.917
  333.500    7.320    0.223    0.444   77.826
  333.750    8.024    0.229    0.453   76.666
  334.000    8.637    0.234    0.449   73.763
  334.250    9.822    0.227    0.437   68.534
  334.500   10.379    0.223    0.431   66.794
  334.750   11.380    0.267    0.435   73.771
  335.000   12.249    0.283    0.449   82.493
  335.250   13.184    0.284    0.444   76.102
  335.500   14.453    0.272    0.437   62.736
  335.750   16.139    0.134    0.427   56.927
  336.000   17.368    0.095    0.417   57.511
  336.250   18.356    0.100    0.413   59.839
  336.500   17.703    0.127    0.441   63.328
  336.750   15.868    0.155    0.454   64.493
  337.000   12.979    0.251    0.456   65.078
  337.250   11.012    0.273    0.454   67.987
  337.500   10.239    0.299    0.452   75.546
  337.750   10.057    0.310    0.449   73.805
  338.000   10.062    0.311    0.423   72.064
  338.250   10.250    0.284    0.422   69.161
  338.500   11.237    0.256    0.426   65.676
  338.750   12.548    0.254    0.448   62.191
  339.000   13.262    0.235    0.417   59.288
  339.250   12.788    0.144    0.415   65.685
  339.500   10.850    0.202    0.407   68.594
  339.750   11.681    0.228    0.415   66.272
  340.000   13.041    0.213    0.422   62.787
  340.250   15.383    0.178    0.422   59.302
  340.500   14.836    0.064    0.415   59.886
  340.750   13.543    0.054    0.407   65.120
  341.000   11.282    0.123    0.391   73.842
  341.250   10.489    0.161    0.419   82.563
  341.500    9.754    0.212    0.440   87.797
  341.750    9.581    0.226    0.441   89.544
  342.000    9.583    0.222    0.439   82.572
  342.250    9.766    0.217    0.436   80.831
  342.500    9.948    0.222    0.429   81.415
  342.750   10.324    0.215    0.425   77.350
  343.000   10.714    0.200    0.427   74.446
  343.250   11.118    0.185    0.434   72.704
  343.500   11.120    0.202    0.439   79.101
  343.750   11.330    0.226    0.447   83.754
  344.000   11.545    0.234    0.458   83.757
  344.250   11.340    0.229    0.451   85.504
  344.500   10.935    0.222    0.443   87.831
  344.750   10.168    0.230    0.433   90.160
  345.000    9.629    0.223    0.428   87.838
  345.250    9.118    0.208    0.427   86.096
  345.500    8.956    0.205    0.434   88.424
  345.750    8.958    0.205    0.438   91.334
  346.000    8.801    0.208    0.441   93.080
  346.250    8.803    0.211    0.435   91.921
  346.500    8.038    0.211    0.434   89.016
  346.750    7.610    0.206    0.431   85.532
  347.000    6.576    0.202    0.436   85.535
  347.250    6.003    0.204    0.440   90.769
  347.500    5.283    0.201    0.433   94.259
  347.750    4.912    0.200    0.429   94.262
  348.000    4.914    0.205    0.436   97.171
  348.250    5.387    0.207    0.440   97.755
  348.500    5.798    0.211    0.444   95.433
  348.750    6.716    0.211    0.439   93.111
  349.000    7.922    0.208    0.434   89.045
  349.250    8.845    0.207    0.438   84.979
  349.500    9.696    0.211    0.434   82.075
  349.750   10.061    0.211    0.423   83.822
  350.000   10.441    0.205    0.425   83.244
  350.250   10.640    0.212    0.430   85.571
  350.500   10.642    0.218    0.437   88.481
  350.750   10.844    0.213    0.441   86.159
  351.000   11.049    0.207    0.441   83.837
  351.250   11.052    0.210    0.440   83.840
  351.500   11.058    0.213    0.435   84.424
  351.750   11.062    0.212    0.430   84.426
  352.000   11.065    0.209    0.420   86.173
  352.250   11.069    0.209    0.424   86.757
  352.500   11.073    0.212    0.430   86.760
  352.750   11.283    0.211    0.439   86.181
  353.000   11.286    0.203    0.437   86.185
  353.250   11.290    0.195    0.435   86.187
  353.500   11.295    0.192    0.437   86.190
  353.750   11.095    0.202    0.445   87.937
  354.000   11.100    0.211    0.445   89.683
  354.250   11.104    0.208    0.440   87.360
  354.500   10.906    0.205    0.422   84.457
  354.750   10.329    0.207    0.419   82.135
  355.000    9.780    0.212    0.425   85.625
  355.250    9.260    0.217    0.430   92.603
  355.500    8.610    0.216    0.439   96.674
  355.750    8.457    0.211    0.447   96.677
  356.000    8.009    0.206    0.447   94.936
  356.250    8.160    0.208    0.437   92.033
  356.500    8.783    0.208    0.437   85.642
  356.750   10.173    0.187    0.431   71.114
  357.000   11.357    0.072    0.426   61.817
  357.250   13.644    0.059    0.420   54.264
  357.500   15.802    0.039    0.425   50.780
  357.750   18.639    0.055    0.428   50.200
  358.000   22.807    0.079    0.435   50.203
  358.250   21.203    0.117    0.443   51.369
  358.500   17.991    0.142    0.453   53.696
  358.750   16.125    0.267    0.460   54.862
