~VERSION INFORMATION
 VERS.                 2.0:   CWLS LOG ASCII STANDARD -VERSION 2.0
 WRAP.                  NO:   ONE LINE PER DEPTH STEP
~WELL INFORMATION BLOCK
#MNEM.UNIT           DATA                    DESCRIPTION OF MNEMONIC
#---------    -------------------            -------------------------------
# Generated from Intellog Unique Number	CS_69_70/WELL/813
WELL.         ET AL TWEEDIE                  : Well_name    - WELL
LOC .         00/07-07-069-12W4/0            : Location     - LOCATION
UWI .         00/07-07-069-12W4/0            : Uwi          - UNIQUE WELL ID
ENTR.         SP                             : Entered      - ENTERED BY
SRVC.         SCHLUMBERGER                   : Scn          - SERVICE COMPANY
STRT.M        290                            : top_depth    - START DEPTH
STOP.M        499                            : bot_depth    - STOP DEPTH
STEP.M        0.25                           : increment    - STEP LENGTH
 NULL. -999.2500:NULL Value
~CURVE INFORMATION BLOCK
#MNEM UNIT       ERCB CURVE CODE    CURVE DESCRIPTION
#-----------   ------------------   ----------------------------------
DEPT.M        00 001 00 00         : DEPTH        - DEPTH
ILD .OHMM     00 120 00 00         : RESD         - DEEP RESISTIVITY (DIL)
DPHI.V/V      00 890 00 00         : PHID         - DENSITY POROSITY (LIMESTONE)
NPHI.V/V      00 330 00 00         : PHIN         - NEUTRON POROSITY (LIMESTONE)
GR  .API      00 310 00 00         : GR           - GAMMA RAY
~PARAMETER INFORMATION
#MNEM.UNIT           DATA             DESCRIPTION OF MNEMONIC
#---------         -----------     ------------------------------
GL  .M        598.64               : gl           - GROUND LEVEL ELEVATION
EREF.M        601.19               : kb           - ELEVATION OF DEPTH REFERENCE
DATM.M        598.64               : datum        - DATUM ELEVATION
TDD .M        495                  : tdd          - TOTAL DEPTH DRILLER
RUN .         ONE                  : Run          - RUN NUMBER
ENG .         BILL                 : Engineer     - RECORDING ENGINEER
WIT .         JIM                  : Witness      - WITNESSED BY
MUD .         GEL                  : Mud_type     - MUD TYPE
MATR.         LIMESTONE            : Logunit      - NEUTRON MATRIX
TMAX.C        27                   : BHT          - MAXIMUM RECORDED TEMPERATURE
BHTD.M        495                  : BHTDEP       - MAXIMUM RECORDED TEMPERATURE
MATR.         1                    : LOGUNIT      - NEUTRON MATRIX
RMT .C        25                   : MDTP         - TEMPERATURE OF MUD
NEUT.         1                    : NEUTRON      - NEUTRON TYPE
RESI.         0                    : RESIST       - RESISTIVITY TYPE
RMC .OHMM     0.25                 : RMC          - RESISTIVITY OF MUD CAKE
RMF .OHMM     0.25                 : RMF          - RESISTIVITY OF MUD FILTRATE
SUFT.C        15                   : SUFT         - SURFACE TEMPERATURE
~A  DEPTH     RESD     PHID     PHIN       GR
# ...
  420.500    2.752    0.250    0.394   86.219
  420.750    2.728    0.260    0.384   83.845
  421.000    2.685    0.258    0.378   87.017
  421.250    2.570    0.246    0.374   83.729
  421.500    2.510    0.239    0.369   81.964
  421.750    2.452    0.240    0.365   86.722
  422.000    2.444    0.256    0.361   88.919
  422.250    2.473    0.266    0.364   83.070
  422.500    2.540    0.284    0.369   78.563
  422.750    2.647    0.295    0.386   73.324
  423.000    2.838    0.270    0.419   67.597
  423.250    3.014    0.248    0.434   64.065
  423.500    3.189    0.231    0.392   67.055
  423.750    3.355    0.240    0.362   68.643
  424.000    3.517    0.253    0.364   65.415
  424.250    3.626    0.263    0.402   58.835
  424.500    3.668    0.253    0.413   62.617
  424.750    3.623    0.244    0.378   69.629
  425.000    3.593    0.252    0.357   74.387
  425.250    3.568    0.252    0.348   73.354
  425.500    3.577    0.247    0.346   68.237
  425.750    3.600    0.237    0.365   65.253
  426.000    3.656    0.214    0.381   61.294
  426.250    3.734    0.205    0.386   55.994
  426.500    3.849    0.224    0.373   49.962
  426.750    4.034    0.231    0.363   59.109
  427.000    4.300    0.221    0.361   66.122
  427.250    4.516    0.215    0.383   70.573
  427.500    4.752    0.244    0.368   71.674
  427.750    4.954    0.270    0.356   68.629
  428.000    5.069    0.287    0.377   72.289
  428.250    5.100    0.270    0.367   77.717
  428.500    4.756    0.178    0.314   84.364
  428.750    4.125    0.127    0.232   82.234
  429.000    3.768    0.164    0.338   78.762
  429.250    3.626    0.194    0.375   77.058
  429.500    3.773    0.228    0.374   74.746
  429.750    3.875    0.237    0.372   71.335
  430.000    3.965    0.238    0.380   68.229
  430.250    4.073    0.232    0.385   64.392
  430.500    4.175    0.228    0.383   65.615
  430.750    4.280    0.225    0.376   71.591
  431.000    4.338    0.220    0.371   78.603
  431.250    4.415    0.217    0.367   73.547
  431.500    4.459    0.212    0.364   76.354
  431.750    4.487    0.198    0.371   80.319
  432.000    4.498    0.185    0.352   76.177
  432.250    4.460    0.181    0.351   77.765
  432.500    4.421    0.199    0.362   80.571
  432.750    4.384    0.208    0.356   77.345
  433.000    4.362    0.208    0.346   76.920
  433.250    4.357    0.213    0.340   78.264
  433.500    4.352    0.217    0.337   79.669
  433.750    4.356    0.207    0.339   81.927
  434.000    4.349    0.210    0.340   75.043
  434.250    4.330    0.217    0.344   68.402
  434.500    4.348    0.222    0.352   71.696
  434.750    4.375    0.221    0.365   79.623
  435.000    4.410    0.221    0.360   74.019
  435.250    4.487    0.208    0.350   70.547
  435.500    4.558    0.193    0.343   78.475
  435.750    4.620    0.182    0.343   83.597
  436.000    4.658    0.182    0.345   84.514
  436.250    4.661    0.194    0.348   76.411
  436.500    4.629    0.202    0.363   72.269
  436.750    4.573    0.200    0.373   74.466
  437.000    4.551    0.202    0.380   79.284
  437.250    4.536    0.209    0.372   81.055
  437.500    4.540    0.217    0.366   86.483
  437.750    4.543    0.221    0.369   84.474
  438.000    4.538    0.221    0.370   81.673
  438.250    4.532    0.215    0.353   79.543
  438.500    4.510    0.210    0.341   74.487
  438.750    4.471    0.205    0.328   72.478
  439.000    4.424    0.204    0.318   76.687
  439.250    4.274    0.216    0.338   81.079
  439.500    4.120    0.215    0.353   72.304
  439.750    3.807    0.212    0.357   65.054
  440.000    3.382    0.216    0.348   64.936
  440.250    2.912    0.223    0.337   70.363
  440.500    2.640    0.233    0.324   75.791
  440.750    2.481    0.247    0.309   77.135
  441.000    2.396    0.263    0.319   78.357
  441.250    2.341    0.272    0.345   82.566
  441.500    2.346    0.266    0.354   78.484
  441.750    2.432    0.261    0.346   68.674
  442.000    2.555    0.254    0.349   68.860
  442.250    2.638    0.250    0.354   70.387
  442.500    2.755    0.246    0.365   69.597
  442.750    2.867    0.244    0.388   68.381
  443.000    3.056    0.242    0.407   68.079
  443.250    3.203    0.247    0.425   66.802
  443.500    3.389    0.248    0.373   65.830
  443.750    3.546    0.242    0.351   69.917
  444.000    3.731    0.228    0.365   77.112
  444.250    3.881    0.212    0.381   77.847
  444.500    4.085    0.198    0.344   67.671
  444.750    4.218    0.161    0.310   64.566
  445.000    4.348    0.167    0.295   71.151
  445.250    4.457    0.215    0.314   81.333
  445.500    4.527    0.212    0.329   78.106
  445.750    4.480    0.195    0.338   80.181
  446.000    4.351    0.172    0.352   83.719
  446.250    4.180    0.161    0.344   86.221
  446.500    3.979    0.182    0.331   78.178
  446.750    3.893    0.193    0.317   79.035
  447.000    3.831    0.205    0.313   77.514
  447.250    3.791    0.209    0.329   71.421
  447.500    3.773    0.214    0.348   73.497
  447.750    3.803    0.220    0.362   78.864
  448.000    3.849    0.207    0.345   82.037
  448.250    3.822    0.184    0.332   85.270
  448.500    3.473    0.152    0.327   87.894
  448.750    3.232    0.129    0.293   89.177
  449.000    3.065    0.153    0.295   89.667
  449.250    2.972    0.173    0.311   86.866
  449.500    2.913    0.198    0.326   91.197
  449.750    2.846    0.196    0.337   97.783
  450.000    2.837    0.172    0.344  100.102
  450.250    2.839    0.166    0.347   90.780
  450.500    2.878    0.179    0.341   85.540
  450.750    2.945    0.184    0.333   84.873
  451.000    3.042    0.187    0.322  104.625
  451.250    3.106    0.197    0.347  112.552
  451.500    3.161    0.201    0.368   99.754
  451.750    3.139    0.198    0.387   94.820
  452.000    2.955    0.182    0.360   94.701
  452.250    2.838    0.181    0.337   95.619
  452.500    2.773    0.196    0.345   96.231
  452.750    2.769    0.207    0.363   98.612
  453.000    2.802    0.214    0.378  100.991
  453.250    2.921    0.212    0.390   89.474
  453.500    3.184    0.210    0.396   77.835
  453.750    3.615    0.212    0.379   67.415
  454.000    4.127    0.203    0.371   60.957
  454.250    4.695    0.195    0.379   56.206
  454.500    5.523    0.187    0.367   57.367
  454.750    6.064    0.207    0.333   61.332
  455.000    6.684    0.222    0.313   56.032
  455.250    6.953    0.237    0.308   52.927
  455.500    7.276    0.254    0.304   52.381
  455.750    7.458    0.254    0.302   49.458
  456.000    7.804    0.254    0.301   42.452
  456.250    8.256    0.253    0.306   39.467
  456.500    8.784    0.230    0.310   39.166
  456.750    9.295    0.123    0.290   44.228
  457.000    9.546    0.070    0.250   47.340
  457.250    9.677    0.034    0.239   53.559
  457.500    9.487    0.020    0.236   61.974
  457.750    8.367    0.020    0.238   61.489
  458.000    7.190    0.071    0.228   61.370
  458.250    6.144    0.102    0.222   65.153
  458.500    5.665    0.125    0.279   68.752
  458.750    5.321    0.117    0.293   70.096
  459.000    5.018    0.137    0.271   62.967
  459.250    4.758    0.173    0.297   51.145
  459.500    4.596    0.187    0.321   46.760
  459.750    4.423    0.191    0.337   55.844
  460.000    4.312    0.212    0.329   66.697
  460.250    4.220    0.235    0.341   75.477
  460.500    4.138    0.269    0.338   81.515
  460.750    4.071    0.284    0.327   77.434
  461.000    3.985    0.273    0.336   77.254
  461.250    3.914    0.261    0.334   87.375
  461.500    3.873    0.249    0.350   93.047
  461.750    3.963    0.248    0.357   99.572
  462.000    4.116    0.252    0.345  106.462
  462.250    4.387    0.243    0.338   95.250
  462.500    4.607    0.196    0.337   88.182
  462.750    4.994    0.177    0.325   95.195
  463.000    5.265    0.195    0.319  103.549
  463.250    5.458    0.205    0.319   95.567
  463.500    5.637    0.208    0.316   86.183
  463.750    5.789    0.196    0.313   77.653
