~VERSION INFORMATION
 VERS.                 2.0:   CWLS LOG ASCII STANDARD -VERSION 2.0
 WRAP.                  NO:   ONE LINE PER DEPTH STEP
~WELL INFORMATION BLOCK
#MNEM.UNIT           DATA                    DESCRIPTION OF MNEMONIC
#---------    -------------------            -------------------------------
# Generated from Intellog Unique Number	CS_67_68/WELL/2188
WELL.         DOME AEC MEDLEY                : Well_name    - WELL
LOC .         00/09-11-067-02W4/0            : Location     - LOCATION
UWI .         00/09-11-067-02W4/0            : Uwi          - UNIQUE WELL ID
ENTR.         SP                             : Entered      - ENTERED BY
SRVC.         SCHLUMBERGER                   : Scn          - SERVICE COMPANY
STRT.M        310                            : top_depth    - START DEPTH
STOP.M        565                            : bot_depth    - STOP DEPTH
STEP.M        0.25                           : increment    - STEP LENGTH
 NULL. -999.2500:NULL Value
~CURVE INFORMATION BLOCK
#MNEM UNIT       ERCB CURVE CODE    CURVE DESCRIPTION
#-----------   ------------------   ----------------------------------
DEPT.M        00 001 00 00         : DEPTH        - DEPTH
ILD .OHMM     00 120 00 00         : RESD         - DEEP RESISTIVITY (DIL)
DPHI.V/V      00 890 00 00         : PHID         - DENSITY POROSITY (LIMESTONE)
GR  .API      00 310 00 00         : GR           - GAMMA RAY
CALI.MM       00 280 01 00         : CAL          - CALIPER
NPHI.V/V      00 330 00 00         : PHIN         - NEUTRON POROSITY (LIMESTONE)
~PARAMETER INFORMATION
#MNEM.UNIT           DATA             DESCRIPTION OF MNEMONIC
#---------         -----------     ------------------------------
GL  .M        619.09               : gl           - GROUND LEVEL ELEVATION
EREF.M        623                  : kb           - ELEVATION OF DEPTH REFERENCE
DATM.M        623                  : datum        - DATUM ELEVATION
TDD .M        571                  : tdd          - TOTAL DEPTH DRILLER
RUN .         ONE                  : Run          - RUN NUMBER
ENG .         BILL                 : Engineer     - RECORDING ENGINEER
WIT .         JIM                  : Witness      - WITNESSED BY
MUD .         GEL                  : Mud_type     - MUD TYPE
MATR.         LIMESTONE            : Logunit      - NEUTRON MATRIX
TMAX.C        25.5                 : BHT          - MAXIMUM RECORDED TEMPERATURE
BHTD.M        573                  : BHTDEP       - MAXIMUM RECORDED TEMPERATURE
MATR.         1                    : LOGUNIT      - NEUTRON MATRIX
RMT .C        25                   : MDTP         - TEMPERATURE OF MUD
NEUT.         1                    : NEUTRON      - NEUTRON TYPE
RESI.         0                    : RESIST       - RESISTIVITY TYPE
RMC .OHMM     0.25                 : RMC          - RESISTIVITY OF MUD CAKE
RMF .OHMM     0.25                 : RMF          - RESISTIVITY OF MUD FILTRATE
SUFT.C        15                   : SUFT         - SURFACE TEMPERATURE
~A  DEPTH     RESD     PHID       GR      CAL     PHIN
# ...
  346.500    4.665    0.050   74.488  172.612    0.318
  346.750    5.237    0.039   62.797  171.395    0.275
  347.000    5.355    0.090   55.953  170.685    0.361
  347.250    5.803    0.197   69.526  170.480    0.421
  347.500    6.206    0.252   78.857  170.478    0.454
  347.750    6.612    0.257   82.433  170.779    0.484
  348.000    8.003    0.249   81.405  170.877    0.438
  348.250    8.543    0.240   84.436  170.774    0.430
  348.500    9.325    0.233   86.135  170.671    0.441
  348.750    9.607    0.228   78.442  169.960    0.453
  349.000    9.841    0.276   75.960  169.654    0.439
  349.250    9.547    0.287   78.507  169.247    0.432
  349.500    9.005    0.272   80.750  169.042    0.431
  349.750    8.415    0.256   84.872  168.939    0.444
  350.000    7.982    0.253   88.327  168.835    0.452
  350.250    7.557    0.265   90.631  169.035    0.448
  350.500    7.263    0.270   91.057  169.235    0.458
  350.750    7.006    0.264   91.483  169.334    0.465
  351.000    6.939    0.258   91.909  169.736    0.461
  351.250    7.042    0.256   91.789  169.835    0.450
  351.500    7.363    0.261   89.186  169.833    0.434
  351.750    7.860    0.273   80.767  169.730    0.421
  352.000    8.422    0.283   73.863  167.906    0.431
  352.250    8.806    0.288   74.471  166.791    0.443
  352.500    9.055    0.288   75.684  166.080    0.434
  352.750    9.310    0.289   75.080  165.369    0.419
  353.000    9.082    0.298   72.477  165.064    0.420
  353.250    8.664    0.297   74.902  164.758    0.424
  353.500    8.111    0.290   79.690  164.654    0.425
  353.750    7.854    0.281   84.235  164.652    0.423
  354.000    7.721    0.274   90.417  165.256    0.423
  354.250    7.675    0.265   94.417  165.558    0.426
  354.500    7.743    0.258   90.542  165.960    0.429
  354.750    7.786    0.258   87.575  166.059    0.429
  355.000    8.020    0.269   86.244  166.057    0.444
  355.250    8.277    0.275   83.944  165.953    0.454
  355.500    8.526    0.270   80.795  166.052    0.438
  355.750    8.684    0.260   88.067  166.049    0.451
  356.000    8.682    0.251   91.522  166.249    0.468
  356.250    8.534    0.266   92.130  166.450    0.482
  356.500    8.467    0.277   91.647  166.447    0.462
  356.750    8.401    0.280   92.255  166.445    0.451
  357.000    8.462    0.269   92.439  166.443    0.463
  357.250    8.668    0.261   91.108  166.642    0.472
  357.500    8.928    0.252   86.626  166.539    0.476
  357.750    9.215    0.260   81.297  166.435    0.464
  358.000    9.509    0.275   77.422  166.332    0.443
  358.250    9.669    0.291   81.422  166.330    0.419
  358.500    9.738    0.308   85.362  166.327    0.403
  358.750    9.662    0.309   88.332  166.223    0.422
  359.000    9.391    0.313   89.728  166.221    0.432
  359.250    9.025    0.307   91.001  166.118    0.437
  359.500    8.922    0.300   94.033  166.014    0.445
  359.750    8.803    0.291   94.458  166.012    0.460
  360.000    8.270    0.288   89.008  165.908    0.456
  360.250    8.585    0.307   82.103  165.704    0.446
  360.500    8.583    0.318   73.200  165.499    0.441
  360.750    8.373    0.316   70.294  165.092    0.442
  361.000    8.169    0.314   72.356  164.988    0.434
  361.250    8.030    0.304   74.356  164.986    0.427
  361.500    8.271    0.292   78.660  164.984    0.436
  361.750    8.553    0.279   83.569  165.285    0.443
  362.000    8.860    0.267   90.477  165.586    0.432
  362.250    9.126    0.283   95.507  165.886    0.417
  362.500    9.366    0.285   97.690  166.086    0.402
  362.750    9.594    0.284   98.419  166.287    0.410
  363.000    9.754    0.296   83.700  166.588    0.436
  363.250    9.714    0.306   80.793  166.687    0.456
  363.500    9.531    0.304   84.976  166.685    0.435
  363.750    9.263    0.290   87.037  166.682    0.425
  364.000    9.089    0.284   89.644  166.680    0.432
  364.250    9.292    0.279   91.221  166.678    0.443
  364.500    9.465    0.283   90.860  166.776    0.442
  364.750    9.391    0.289   89.771  166.976    0.444
  365.000    8.775    0.276   90.378  167.277    0.461
  365.250    8.108    0.265   93.773  167.680    0.474
  365.500    7.563    0.258   97.288  168.790    0.457
  365.750    7.014    0.249   99.532  170.609    0.445
  366.000    6.716    0.240   99.534  171.720    0.436
  366.250    6.614    0.242   91.902  172.628    0.446
  366.500    6.877    0.253   86.452  172.221    0.463
  366.750    7.164    0.233   86.272  169.689    0.476
  367.000    7.647    0.195   85.910  166.955    0.481
  367.250    8.179    0.190   84.519  164.929    0.465
  367.500    8.584    0.240   83.430  164.117    0.450
  367.750    8.976    0.270   79.797  164.115    0.438
  368.000    9.212    0.274   74.589  164.214    0.423
  368.250    9.472    0.280   69.018  164.313    0.413
  368.500    9.666    0.301   64.657  164.411    0.404
  368.750    9.883    0.314   60.115  164.207    0.408
  369.000   10.048    0.328   55.695  164.104    0.422
  369.250   10.215    0.341   52.849  163.190    0.420
  369.500   10.231    0.349   50.186  163.087    0.413
  369.750   10.170    0.336   47.401  163.085    0.405
  370.000   10.035    0.325   44.313  163.082    0.396
  370.250    9.900    0.332   41.528  163.079    0.389
  370.500    9.805    0.340   46.982  163.078    0.385
  370.750    9.783    0.333   51.104  163.075    0.383
  371.000    9.798    0.325   55.650  162.668    0.385
  371.250    9.777    0.322   57.227  162.059    0.406
  371.500    9.753    0.336   54.078  161.753    0.420
  371.750    9.734    0.342   53.413  161.548    0.423
  372.000    9.731    0.336   55.354  161.647    0.410
  372.250    9.783    0.334   58.204  161.847    0.427
  372.500    9.834    0.335   58.145  162.046    0.438
  372.750    9.868    0.337   56.268  162.247    0.427
  373.000    9.884    0.339   60.511  162.346    0.420
  373.250    9.917    0.339   64.027  162.343    0.426
  373.500    9.951    0.337   66.816  162.645    0.417
  373.750    9.985    0.333   67.484  162.642    0.403
  374.000   10.019    0.327   68.031  162.640    0.410
  374.250   10.054    0.330   68.881  162.738    0.409
  374.500   10.126    0.335   69.610  162.939    0.400
  374.750   10.237    0.331   69.733  163.037    0.406
  375.000   10.292    0.322   74.278  163.136    0.416
  375.250   10.386    0.317   77.309  163.437    0.402
  375.500   10.480    0.317   79.613  163.638    0.419
  375.750   10.575    0.313   77.676  163.736    0.417
  376.000   10.651    0.304   74.407  163.936    0.398
  376.250   10.707    0.295   73.500  164.338    0.380
  376.500   10.684    0.288   74.108  164.539    0.392
  376.750   10.561    0.288   71.081  164.840    0.396
  377.000   10.362    0.290   72.961  165.141    0.383
  377.250   10.128    0.283   76.234  165.543    0.400
  377.500    9.789    0.270   78.962  165.946    0.409
  377.750    9.408    0.255   81.933  166.348    0.407
  378.000    8.974    0.246   83.933  166.649    0.405
  378.250    8.528    0.248   85.450  167.355    0.404
  378.500    8.135    0.245   86.785  167.757    0.403
  378.750    7.833    0.250   87.150  168.059    0.416
  379.000    7.628    0.264   88.242  167.955    0.439
  379.250    7.843    0.263   87.275  166.840    0.456
  379.500    8.578    0.251   79.159  165.522    0.471
  379.750    9.348    0.253   78.313  164.811    0.436
  380.000   10.054    0.248   81.343  164.607    0.399
  380.250   10.434    0.242   83.526  164.402    0.394
  380.500   10.728    0.262   73.411  164.399    0.404
  380.750   10.846    0.291   67.657  164.498    0.398
  381.000   10.822    0.293   67.538  164.698    0.381
  381.250   10.859    0.290   66.207  164.797    0.378
  381.500   10.856    0.280   64.453  165.098    0.376
  381.750   10.853    0.275   62.152  165.096    0.374
  382.000   10.708    0.279   60.033  165.296    0.373
  382.250   10.486    0.288   64.519  165.496    0.366
  382.500   10.346    0.281   72.094  165.392    0.365
  382.750   10.246    0.270   76.215  165.390    0.360
