~VERSION INFORMATION
 VERS.                 2.0:   CWLS LOG ASCII STANDARD -VERSION 2.0
 WRAP.                  NO:   ONE LINE PER DEPTH STEP
~WELL INFORMATION BLOCK
#MNEM.UNIT           DATA                    DESCRIPTION OF MNEMONIC
#---------    -------------------            -------------------------------
# Generated from Intellog Unique Number	CS_67_68/WELL/714
WELL.         ET AL TWEEDIE                  : Well_name    - WELL
LOC .         00/06-31-068-12W4/0            : Location     - LOCATION
UWI .         00/06-31-068-12W4/0            : Uwi          - UNIQUE WELL ID
ENTR.         SP                             : Entered      - ENTERED BY
SRVC.         SCHLUMBERGER                   : Scn          - SERVICE COMPANY
STRT.M        289.56                         : top_depth    - START DEPTH
STOP.M        502.560                        : bot_depth    - STOP DEPTH
STEP.M        0.25                           : increment    - STEP LENGTH
 NULL. -999.2500:NULL Value
~CURVE INFORMATION BLOCK
#MNEM UNIT       ERCB CURVE CODE    CURVE DESCRIPTION
#-----------   ------------------   ----------------------------------
DEPT.M        00 001 00 00         : DEPTH        - DEPTH
GR  .API      00 310 00 00         : GR           - GAMMA RAY
DPHI.V/V      00 890 00 00         : PHID         - DENSITY POROSITY (SANDSTONE)
NPHI.V/V      00 330 00 00         : PHIN         - NEUTRON POROSITY (SANDSTONE)
ILD .OHMM     00 120 00 00         : RESD         - DEEP RESISTIVITY (DIL)
~PARAMETER INFORMATION
#MNEM.UNIT           DATA             DESCRIPTION OF MNEMONIC
#---------         -----------     ------------------------------
GL  .M        591.922              : gl           - GROUND LEVEL ELEVATION
EREF.M        594.665              : kb           - ELEVATION OF DEPTH REFERENCE
DATM.M        591.922              : datum        - DATUM ELEVATION
TDD .M        504.749              : tdd          - TOTAL DEPTH DRILLER
RUN .         ONE                  : Run          - RUN NUMBER
ENG .         BILL                 : Engineer     - RECORDING ENGINEER
WIT .         JIM                  : Witness      - WITNESSED BY
MUD .         GEL                  : Mud_type     - MUD TYPE
MATR.         SANDSTONE            : Logunit      - NEUTRON MATRIX
TMAX.C        22.2222              : BHT          - MAXIMUM RECORDED TEMPERATURE
BHTD.M        504.749              : BHTDEP       - MAXIMUM RECORDED TEMPERATURE
MATR.         1                    : LOGUNIT      - NEUTRON MATRIX
RMT .C        25                   : MDTP         - TEMPERATURE OF MUD
NEUT.         1                    : NEUTRON      - NEUTRON TYPE
RESI.         0                    : RESIST       - RESISTIVITY TYPE
RMC .OHMM     0.25                 : RMC          - RESISTIVITY OF MUD CAKE
RMF .OHMM     0.25                 : RMF          - RESISTIVITY OF MUD FILTRATE
SUFT.C        15                   : SUFT         - SURFACE TEMPERATURE
~A  DEPTH       GR     PHID     PHIN     RESD
# ...
  333.060  103.800    0.234    0.488    3.109
  333.310  102.741    0.264    0.510    3.168
  333.560  101.087    0.286    0.506    3.044
  333.810   98.913    0.291    0.490    2.926
  334.060   99.844    0.278    0.482    2.801
  334.310  101.976    0.268    0.483    2.756
  334.560  103.126    0.258    0.494    2.796
  334.810  103.731    0.249    0.505    2.883
  335.060  103.756    0.243    0.503    3.006
  335.310  103.568    0.240    0.501    3.127
  335.560  103.704    0.257    0.503    3.218
  335.810  104.278    0.263    0.511    3.230
  336.060  103.471    0.268    0.513    3.145
  336.310  101.889    0.265    0.500    3.008
  336.560  101.370    0.257    0.485    2.928
  336.810  104.175    0.251    0.480    2.907
  337.060  108.300    0.247    0.491    2.950
  337.310  111.655    0.244    0.505    3.032
  337.560  112.026    0.279    0.498    3.128
  337.810  107.442    0.268    0.491    3.224
  338.060  102.329    0.249    0.491    3.361
  338.310  104.278    0.234    0.500    3.456
  338.560  106.971    0.223    0.513    3.489
  338.810  109.576    0.235    0.506    3.495
  339.060  110.459    0.247    0.493    3.479
  339.310  106.931    0.268    0.485    3.439
  339.560  103.638    0.266    0.485    3.397
  339.810  105.746    0.260    0.482    3.345
  340.060  106.583    0.247    0.498    3.292
  340.310  106.604    0.242    0.521    3.245
  340.560  101.687    0.257    0.509    3.188
  340.810   95.159    0.265    0.486    3.135
  341.060   91.795    0.272    0.471    3.046
  341.310   91.081    0.277    0.466    2.963
  341.560   92.408    0.269    0.470    2.871
  341.810   93.341    0.274    0.478    2.757
  342.060   92.923    0.289    0.482    2.617
  342.310   93.746    0.287    0.470    2.517
  342.560   95.977    0.272    0.463    2.417
  342.810   98.166    0.255    0.458    2.376
  343.060   99.857    0.246    0.462    2.383
  343.310   99.618    0.261    0.469    2.423
  343.560   96.945    0.269    0.472    2.511
  343.810   95.466    0.271    0.461    2.579
  344.060   95.604    0.271    0.448    2.629
  344.310   96.918    0.261    0.436    2.654
  344.560   98.263    0.239    0.432    2.635
  344.810  100.438    0.226    0.428    2.674
  345.060  103.160    0.211    0.423    2.767
  345.310  106.427    0.197    0.428    2.901
  345.560  108.141    0.206    0.450    3.053
  345.810  107.885    0.214    0.463    3.231
  346.060  106.099    0.220    0.467    3.422
  346.310  105.903    0.222    0.459    3.564
  346.560  107.775    0.219    0.459    3.719
  346.810  109.142    0.216    0.467    3.841
  347.060  111.087    0.213    0.457    3.942
  347.310  111.725    0.213    0.464    3.982
  347.560  110.901    0.220    0.476    4.011
  347.810  112.007    0.225    0.485    3.924
  348.060  114.628    0.206    0.494    3.788
  348.310  112.538    0.228    0.499    3.598
  348.560   90.671    0.264    0.486    3.333
  348.810   80.781    0.294    0.481    2.988
  349.060   77.627    0.314    0.473    2.675
  349.310   81.080    0.304    0.458    2.482
  349.560   85.411    0.291    0.462    2.375
  349.810   84.980    0.286    0.461    2.299
  350.060   82.050    0.297    0.448    2.255
  350.310   81.302    0.302    0.439    2.291
  350.560   81.515    0.301    0.432    2.365
  350.810   79.345    0.301    0.441    2.400
  351.060   73.778    0.305    0.448    2.293
  351.310   69.904    0.309    0.452    2.213
  351.560   68.290    0.313    0.449    2.145
  351.810   68.964    0.305    0.464    2.102
  352.060   79.877    0.296    0.478    2.086
  352.310   88.184    0.292    0.465    2.101
  352.560   92.379    0.273    0.450    2.212
  352.810   93.614    0.256    0.440    2.385
  353.060   94.684    0.250    0.448    2.554
  353.310   93.706    0.243    0.440    2.680
  353.560   91.869    0.254    0.444    2.781
  353.810   85.501    0.268    0.457    2.828
  354.060   78.145    0.283    0.465    2.749
  354.310   73.152    0.298    0.449    2.554
  354.560   68.569    0.308    0.456    2.338
  354.810   66.970    0.297    0.457    2.191
  355.060   71.897    0.285    0.448    2.117
  355.310   76.728    0.271    0.441    2.095
  355.560   85.243    0.259    0.445    2.144
  355.810   93.624    0.256    0.448    2.199
  356.060   99.481    0.265    0.448    2.253
  356.310   93.953    0.252    0.444    2.298
  356.560   89.586    0.245    0.440    2.317
  356.810   87.665    0.260    0.440    2.312
  357.060   87.753    0.271    0.443    2.301
  357.310   89.706    0.279    0.445    2.282
  357.560   91.626    0.275    0.448    2.268
  357.810   91.676    0.268    0.446    2.246
  358.060   88.508    0.280    0.435    2.237
  358.310   83.761    0.274    0.424    2.223
  358.560   84.557    0.273    0.433    2.223
  358.810   89.579    0.282    0.458    2.217
  359.060   90.133    0.289    0.481    2.213
  359.310   86.859    0.299    0.497    2.210
  359.560   83.249    0.312    0.505    2.201
  359.810   81.698    0.318    0.484    2.195
  360.060   81.888    0.312    0.473    2.190
  360.310   84.639    0.317    0.471    2.185
  360.560   89.099    0.312    0.469    2.177
  360.810   94.951    0.298    0.507    2.176
  361.060  100.141    0.290    0.501    2.186
  361.310  103.504    0.284    0.493    2.214
  361.560  104.811    0.276    0.500    2.265
  361.810  107.105    0.265    0.564    2.307
  362.060  108.381    0.274    0.589    2.285
  362.310  105.522    0.319    0.556    2.201
  362.560  100.377    0.336    0.532    2.153
  362.810   93.126    0.296    0.511    2.114
  363.060   87.023    0.294    0.513    2.094
  363.310   85.302    0.314    0.513    2.085
  363.560   85.069    0.332    0.509    2.092
  363.810   83.994    0.328    0.499    2.114
  364.060   83.475    0.318    0.493    2.132
  364.310   83.651    0.324    0.494    2.146
  364.560   83.713    0.324    0.500    2.140
  364.810   81.512    0.320    0.498    2.127
  365.060   80.435    0.325    0.488    2.128
  365.310   82.446    0.328    0.485    2.147
  365.560   83.591    0.318    0.492    2.169
  365.810   82.891    0.314    0.493    2.204
  366.060   79.760    0.320    0.487    2.240
  366.310   77.328    0.320    0.482    2.260
  366.560   77.601    0.305    0.486    2.252
  366.810   80.931    0.295    0.492    2.232
  367.060   83.786    0.287    0.492    2.206
  367.310   87.207    0.282    0.485    2.210
  367.560   89.756    0.280    0.480    2.235
  367.810   91.715    0.280    0.475    2.282
  368.060   92.315    0.265    0.473    2.329
  368.310   92.525    0.257    0.462    2.439
  368.560   91.262    0.250    0.455    2.552
  368.810   90.722    0.244    0.450    2.679
  369.060   91.708    0.243    0.452    2.765
  369.310   92.902    0.256    0.449    2.796
  369.560   92.343    0.256    0.452    2.803
  369.810   90.069    0.262    0.469    2.716
  370.060   82.848    0.289    0.492    2.411
  370.310   76.926    0.314    0.479    2.195
  370.560   73.848    0.329    0.477    1.983
  370.810   72.389    0.338    0.481    1.873
  371.060   72.733    0.329    0.502    1.868
  371.310   70.993    0.320    0.466    1.923
  371.560   69.805    0.315    0.439    2.001
  371.810   70.799    0.322    0.440    2.056
  372.060   73.011    0.315    0.450    2.097
  372.310   75.103    0.321    0.457    2.149
  372.560   76.684    0.322    0.463    2.156
  372.810   78.440    0.325    0.478    2.077
  373.060   80.217    0.326    0.500    1.999
  373.310   80.195    0.335    0.506    1.915
  373.560   79.335    0.329    0.494    1.875
  373.810   79.556    0.321    0.489    1.858
  374.060   80.903    0.317    0.483    1.849
  374.310   81.748    0.318    0.481    1.854
  374.560   82.209    0.317    0.484    1.877
  374.810   82.601    0.315    0.489    1.904
  375.060   83.453    0.313    0.494    1.953
  375.310   84.135    0.319    0.497    2.023
  375.560   84.002    0.326    0.500    2.097
  375.810   82.353    0.308    0.514    2.182
  376.060   78.387    0.231    0.349    2.327
  376.310   73.604    0.139    0.336    2.604
