~VERSION INFORMATION
 VERS.                 2.0:   CWLS LOG ASCII STANDARD -VERSION 2.0
 WRAP.                  NO:   ONE LINE PER DEPTH STEP
~WELL INFORMATION BLOCK
#MNEM.UNIT           DATA                    DESCRIPTION OF MNEMONIC
#---------    -------------------            -------------------------------
# Generated from Intellog Unique Number	CS_73_76/WELL/799
WELL.         SULPETRO LIMITED               : Well_name    - WELL
LOC .         00/09-29-073-10W4/0            : Location     - LOCATION
UWI .         00/09-29-073-10W4/0            : Uwi          - UNIQUE WELL ID
ENTR.         SP                             : Entered      - ENTERED BY
SRVC.         SCHLUMBERGER                   : Scn          - SERVICE COMPANY
STRT.M        295                            : top_depth    - START DEPTH
STOP.M        515                            : bot_depth    - STOP DEPTH
STEP.M        0.25                           : increment    - STEP LENGTH
 NULL. -999.2500:NULL Value
~CURVE INFORMATION BLOCK
#MNEM UNIT       ERCB CURVE CODE    CURVE DESCRIPTION
#-----------   ------------------   ----------------------------------
DEPT.M        00 001 00 00         : DEPTH        - DEPTH
ILD .OHMM     00 120 00 00         : RESD         - DEEP RESISTIVITY (DIL)
DPHI.V/V      00 890 00 00         : PHID         - DENSITY POROSITY (LIMESTONE)
NPHI.V/V      00 330 00 00         : PHIN         - NEUTRON POROSITY (LIMESTONE)
GR  .API      00 310 00 00         : GR           - GAMMA RAY
~PARAMETER INFORMATION
#MNEM.UNIT           DATA             DESCRIPTION OF MNEMONIC
#---------         -----------     ------------------------------
GL  .M        557.9                : gl           - GROUND LEVEL ELEVATION
EREF.M        660                  : kb           - ELEVATION OF DEPTH REFERENCE
DATM.M        557.9                : datum        - DATUM ELEVATION
TDD .M        520                  : tdd          - TOTAL DEPTH DRILLER
RUN .         ONE                  : Run          - RUN NUMBER
ENG .         BILL                 : Engineer     - RECORDING ENGINEER
WIT .         JIM                  : Witness      - WITNESSED BY
MUD .         GEL                  : Mud_type     - MUD TYPE
MATR.         LIMESTONE            : Logunit      - NEUTRON MATRIX
TMAX.C        25                   : BHT          - MAXIMUM RECORDED TEMPERATURE
BHTD.M        520                  : BHTDEP       - MAXIMUM RECORDED TEMPERATURE
MATR.         1                    : LOGUNIT      - NEUTRON MATRIX
RMT .C        25                   : MDTP         - TEMPERATURE OF MUD
NEUT.         1                    : NEUTRON      - NEUTRON TYPE
RESI.         0                    : RESIST       - RESISTIVITY TYPE
RMC .OHMM     0.25                 : RMC          - RESISTIVITY OF MUD CAKE
RMF .OHMM     0.25                 : RMF          - RESISTIVITY OF MUD FILTRATE
SUFT.C        15                   : SUFT         - SURFACE TEMPERATURE
~A  DEPTH     RESD     PHID     PHIN       GR
# ...
  469.000   11.762    0.267    0.358   85.573
  469.250   11.984    0.253    0.349   87.376
  469.500   11.549    0.247    0.338   88.578
  469.750   11.338    0.252    0.330   89.778
  470.000   11.130    0.265    0.320   90.378
  470.250   10.726    0.273    0.326   89.170
  470.500   10.529    0.279    0.339   86.757
  470.750   10.147    0.283    0.343   84.946
  471.000    9.779    0.247    0.350   84.341
  471.250    9.600    0.220    0.358   82.530
  471.500    9.424    0.202    0.360   87.948
  471.750    9.425    0.187    0.360   96.378
  472.000    9.253    0.177    0.359  104.206
  472.250    9.254    0.173    0.338  105.407
  472.500    9.429    0.193    0.319   99.380
  472.750    9.970    0.238    0.311   89.135
  473.000   10.740    0.267    0.306   78.289
  473.250   12.462    0.282    0.303   71.057
  473.500   14.731    0.293    0.315   63.222
  473.750   16.778    0.294    0.319   54.785
  474.000   18.413    0.301    0.323   48.156
  474.250   19.112    0.308    0.325   50.561
  474.500   18.078    0.297    0.342   65.618
  474.750   11.366    0.250    0.367   81.277
  475.000    7.279    0.211    0.400   95.732
  475.250    6.046    0.188    0.453  106.571
  475.500    6.047    0.214    0.469  106.567
  475.750    6.277    0.248    0.441   92.107
  476.000    6.888    0.272    0.417   75.838
  476.250    9.102    0.290    0.393   69.811
  476.500   12.253    0.293    0.375   66.194
  476.750   15.313    0.290    0.361   65.587
  477.000   18.441    0.292    0.358   65.584
  477.250   19.865    0.293    0.360   64.376
  477.500   15.319    0.298    0.361   62.565
  477.750   12.490    0.298    0.365   61.355
  478.000    9.281    0.305    0.365   60.751
  478.250    7.026    0.312    0.365   59.543
  478.500    6.056    0.319    0.366   53.516
  478.750    4.938    0.330    0.372   53.512
  479.000    4.501    0.340    0.377   56.521
  479.250    4.258    0.345    0.389   57.119
  479.500    4.180    0.358    0.395   56.514
  479.750    4.028    0.333    0.400   54.100
  480.000    3.954    0.327    0.402   52.892
  480.250    4.029    0.316    0.399   55.901
  480.500    4.029    0.316    0.395   62.523
  480.750    4.105    0.309    0.392   66.135
  481.000    4.261    0.302    0.390   70.349
  481.250    4.506    0.287    0.389   75.164
  481.500    4.854    0.286    0.389   80.581
  481.750    5.133    0.277    0.389   82.988
  482.000    5.039    0.269    0.389   84.793
  482.250    4.593    0.274    0.389   87.199
  482.500    4.426    0.286    0.393   80.568
  482.750    4.345    0.295    0.406   75.746
  483.000    4.266    0.310    0.411   72.127
  483.250    4.346    0.310    0.418   70.921
  483.500    4.511    0.292    0.418   78.145
  483.750    4.596    0.271    0.411   87.178
  484.000    5.044    0.258    0.406   96.210
  484.250    5.640    0.253    0.404  103.436
  484.500    5.853    0.238    0.397  108.854
  484.750    6.424    0.238    0.394  114.874
  485.000    6.668    0.222    0.393  119.088
  485.250    6.921    0.209    0.394  122.699
  485.500    7.319    0.212    0.393  125.105
  485.750    7.457    0.203    0.391  126.307
  486.000    7.740    0.218    0.387  114.857
  486.250    7.885    0.230    0.382  104.613
  486.500    8.185    0.239    0.375   97.381
  486.750    8.339    0.250    0.362   91.957
  487.000    8.341    0.256    0.353   84.122
  487.250    8.341    0.264    0.348   84.719
  487.500    8.039    0.261    0.350   88.332
  487.750    8.039    0.258    0.356   94.954
  488.000    7.893    0.228    0.363   99.168
  488.250    7.894    0.170    0.357   97.358
  488.500    7.895    0.138    0.347   92.535
  488.750    7.896    0.147    0.344   88.917
  489.000    7.897    0.159    0.350   92.527
  489.250    7.752    0.167    0.363   97.945
  489.500    7.753    0.186    0.383  100.955
  489.750    7.612    0.197    0.402  110.589
  490.000    7.200    0.180    0.387  111.791
  490.250    6.563    0.210    0.374  101.547
  490.500    6.093    0.237    0.358   85.881
  490.750    5.351    0.261    0.352   74.432
  491.000    4.788    0.288    0.353   64.188
  491.250    4.614    0.294    0.369   53.342
  491.500    4.365    0.296    0.382   52.133
  491.750    4.365    0.299    0.392   53.334
  492.000    4.447    0.306    0.400   52.728
  492.250    4.880    0.317    0.399   53.327
  492.500    5.559    0.327    0.387   55.734
  492.750    5.988    0.298    0.375   64.163
  493.000    6.332    0.269    0.361   73.196
  493.250    6.696    0.250    0.356   83.433
  493.500    6.822    0.222    0.356   90.659
  493.750    6.823    0.205    0.352   96.680
  494.000    6.698    0.198    0.351   99.086
  494.250    6.575    0.198    0.349   97.276
  494.500    6.106    0.205    0.355   97.874
  494.750    5.565    0.223    0.364   97.268
  495.000    5.363    0.232    0.376   96.663
  495.250    4.980    0.255    0.381   88.828
  495.500    4.799    0.260    0.389   84.005
  495.750    4.624    0.264    0.389   79.786
  496.000    4.374    0.286    0.385   75.566
  496.250    4.294    0.291    0.380   72.550
  496.500    4.216    0.286    0.376   74.353
  496.750    4.063    0.279    0.372   75.555
  497.000    3.988    0.266    0.367   76.757
  497.250    3.773    0.284    0.362   72.536
  497.500    3.636    0.303    0.360   68.316
  497.750    3.569    0.314    0.357   62.288
  498.000    3.504    0.320    0.362   59.273
  498.250    3.377    0.301    0.363   58.667
  498.500    3.315    0.295    0.367   58.061
  498.750    3.195    0.287    0.367   55.046
  499.000    3.136    0.281    0.367   56.248
  499.250    3.022    0.299    0.377   53.835
  499.500    2.967    0.315    0.375   49.613
  499.750    2.967    0.328    0.371   46.598
  500.000    2.913    0.338    0.366   45.391
  500.250    2.968    0.338    0.362   50.207
  500.500    3.081    0.278    0.365   63.456
  500.750    3.381    0.255    0.368   73.091
  501.000    3.575    0.236    0.372   86.942
  501.250    3.711    0.226    0.375   93.566
  501.500    3.781    0.242    0.378   93.562
  501.750    3.576    0.254    0.378   91.149
  502.000    3.200    0.275    0.374   83.314
  502.250    3.084    0.296    0.374   75.480
  502.500    2.971    0.314    0.377   63.428
  502.750    2.863    0.331    0.379   53.183
  503.000    2.709    0.348    0.378   45.951
  503.250    2.659    0.353    0.376   38.117
  503.500    2.563    0.363    0.374   30.886
  503.750    2.516    0.376    0.379   27.870
  504.000    2.516    0.378    0.383   27.867
  504.250    2.470    0.376    0.388   29.669
  504.500    2.470    0.361    0.385   32.076
  504.750    2.425    0.362    0.378   33.278
  505.000    2.425    0.356    0.372   32.671
  505.250    2.381    0.345    0.362   31.464
  505.500    2.338    0.345    0.359   30.255
  505.750    2.338    0.348    0.355   28.443
  506.000    2.338    0.350    0.354   27.840
  506.250    2.339    0.344    0.356   29.041
  506.500    2.339    0.345    0.364   32.049
  506.750    2.339    0.344    0.368   35.660
  507.000    2.339    0.342    0.371   39.873
  507.250    2.340    0.339    0.362   42.882
  507.500    2.340    0.331    0.352   44.686
  507.750    2.297    0.326    0.347   38.658
  508.000    2.298    0.325    0.343   35.039
  508.250    2.298    0.337    0.358   33.832
  508.500    2.341    0.355    0.367   32.624
  508.750    2.569    0.364    0.368   32.019
  509.000    2.717    0.364    0.367   31.412
  509.250    2.927    0.353    0.342   31.410
  509.500    3.658    0.284    0.297   30.200
  509.750    4.924    0.142    0.166   27.788
  510.000    6.154    0.117    0.149   24.169
  510.250    9.974    0.072    0.132   22.962
  510.500   15.009    0.064    0.119   21.754
  510.750   19.109    0.063    0.112   20.543
  511.000   20.585    0.070    0.107   19.939
  511.250   20.588    0.077    0.106   18.731
  511.500   20.212    0.090    0.107   16.920
  511.750   19.120    0.106    0.110   16.314
  512.000   18.086    0.111    0.118   16.914
  512.250   17.756    0.120    0.124   17.512
