~VERSION INFORMATION
 VERS.                 2.0:   CWLS LOG ASCII STANDARD -VERSION 2.0
 WRAP.                  NO:   ONE LINE PER DEPTH STEP
~WELL INFORMATION BLOCK
#MNEM.UNIT           DATA                    DESCRIPTION OF MNEMONIC
#---------    -------------------            -------------------------------
# Generated from Intellog Unique Number	CC_84_87/WELL/1074
NULL.         -999.25                        : NULL_VALUE
WELL.         PARA ET AL GRANOR              : Well_name    - WELL
LOC .         07-02-084-18W4                 : Location     - LOCATION          
UWI .         00/07-02-084-18W400            : Uwi          - UNIQUE WELL ID    
ENTR.         JHS                            : Entered      - ENTERED BY        
SRVC.         COMPUTALOG                     : Scn          - SERVICE COMPANY   
DATE.         25 FEB 82                      : Date         - LOG DATE
STRT.M        100                            : top_depth    - START DEPTH       
STOP.M        289.9                          : bot_depth    - STOP DEPTH        
STEP.M        0.3                            : increment    - STEP LENGTH       
~CURVE INFORMATION BLOCK
#MNEM UNIT       ERCB CURVE CODE    CURVE DESCRIPTION
#-----------   ------------------   ----------------------------------
DEPT.M        00 001 00 00         : DEPTH        - DEPTH                       
DPHI.V/V      00 890 00 00         : PHID         - DENSITY POROSITY (LIMESTONE)
NPHI.V/V      00 330 00 00         : PHIN         - NEUTRON POROSITY (LIMESTONE)
GR  .API      00 310 00 00         : GR           - GAMMA RAY                   
ILD .OHMM     00 120 00 00         : RESD         - DEEP RESISTIVITY (DIL)      
~PARAMETER INFORMATION       
#MNEM.UNIT           DATA             DESCRIPTION OF MNEMONIC
#---------         -----------     ------------------------------
GL  .M        547.8                : gl           - GROUND LEVEL ELEVATION      
EREF.M        550.3                : kb           - ELEVATION OF DEPTH REFERENCE
DATM.M        550.3                : datum        - DATUM ELEVATION             
TDD .M        293                  : tdd          - TOTAL DEPTH DRILLER         
RUN .         ONE                  : Run          - RUN NUMBER                  
ENG .         BILL                 : Engineer     - RECORDING ENGINEER          
WIT .         JIM                  : Witness      - WITNESSED BY                
MUD .         GEL                  : Mud_type     - MUD TYPE                    
MATR.         LIMESTONE            : Logunit      - NEUTRON MATRIX              
TMAX.C        21                   : BHT          - MAXIMUM RECORDED TEMPERATURE
BHTD.M        293                  : BHTDEP       - MAXIMUM RECORDED TEMPERATURE
MATR.         1                    : LOGUNIT      - NEUTRON MATRIX              
RMT .C        25                   : MDTP         - TEMPERATURE OF MUD          
NEUT.         1                    : NEUTRON      - NEUTRON TYPE                
RESI.         0                    : RESIST       - RESISTIVITY TYPE            
RMC .OHMM     0.25                 : RMC          - RESISTIVITY OF MUD CAKE     
RMF .OHMM     0.25                 : RMF          - RESISTIVITY OF MUD FILTRATE 
SUFT.C        15                   : SUFT         - SURFACE TEMPERATURE         
~A  DEPTH     PHID     PHIN       GR     RESD
# ...
  152.201    0.275    0.458   91.202   14.442
  152.501    0.237    0.396   90.597   14.181
  152.801    0.200    0.363   93.691   14.191
  153.101    0.194    0.368   90.614   15.036
  153.401    0.218    0.396   75.192   16.235
  153.701    0.228    0.276   59.151   17.869
  154.001    0.114    0.212   61.013   19.293
  154.301    0.146    0.216   61.025   21.235
  154.601    0.281    0.335   65.353   23.372
  154.901    0.308    0.403   73.389   24.297
  155.201    0.319    0.386   74.016   23.403
  155.501    0.315    0.412   72.173   20.499
  155.801    0.309    0.415   70.333   18.650
  156.101    0.323    0.400   75.279   16.970
  156.401    0.324    0.420   77.759   16.349
  156.701    0.330    0.420   74.682   16.051
  157.001    0.336    0.388   74.076   16.373
  157.301    0.326    0.379   74.702   16.380
  157.601    0.317    0.400   73.477   17.029
  157.901    0.323    0.421   75.338   17.041
  158.201    0.330    0.438   75.966   17.051
  158.501    0.334    0.450   74.740   16.742
  158.801    0.336    0.433   72.898   16.437
  159.101    0.336    0.409   70.439   16.140
  159.401    0.338    0.371   67.978   15.845
  159.701    0.336    0.416   67.371   15.859
  160.001    0.333    0.473   66.147   15.866
  160.301    0.330    0.457   61.217   15.581
  160.601    0.329    0.361   66.166   15.589
  160.901    0.335    0.382   69.263   15.602
  161.201    0.325    0.400   69.891   15.319
  161.501    0.327    0.400   69.900   15.041
  161.801    0.340    0.415   70.527   14.768
  162.101    0.339    0.406   73.622   14.497
  162.401    0.330    0.451   75.485   14.235
  162.701    0.330    0.481   73.024   13.710
  163.001    0.324    0.502   76.738   12.959
  163.301    0.325    0.472   82.921   12.249
  163.601    0.326    0.422   85.400   11.801
  163.901    0.325    0.438   79.853   11.584
  164.201    0.325    0.459   77.395   11.375
  164.501    0.321    0.448   78.020   11.382
  164.801    0.320    0.456   73.710   11.392
  165.101    0.311    0.424   72.485   11.618
  165.401    0.322    0.424   68.792   12.079
  165.701    0.337    0.401   74.357   12.318
  166.001    0.346    0.382   82.391   12.804
  166.301    0.331    0.391   84.870   13.058
  166.601    0.330    0.406   81.792   13.318
  166.901    0.340    0.426   74.396   13.328
  167.201    0.322    0.495   73.787   13.085
  167.501    0.084    0.276   65.772   12.848
  167.801    0.022    0.109   57.758   12.857
  168.101    0.000    0.096   54.681   13.365
  168.401    0.000    0.084   52.220   15.574
  168.701    0.000    0.088   50.378   18.494
  169.001    0.000    0.091   50.389   22.386
  169.301    0.000    0.089   51.014   27.099
  169.601    0.000    0.102   53.495   29.261
  169.901    0.000    0.127   57.825   31.003
  170.201    0.034    0.198   65.860   30.438
  170.501    0.138    0.310   65.869   28.768
  170.801    0.290    0.460   67.731   23.801
  171.101    0.329    0.481   72.679   18.955
  171.401    0.328    0.501   70.837   15.680
  171.701    0.331    0.445   65.909   13.735
  172.001    0.342    0.415   65.918   12.497
  172.301    0.342    0.425   62.841   12.269
  172.601    0.329    0.410   64.085   12.045
  172.901    0.326    0.399   67.182   12.286
  173.201    0.336    0.459   63.488   12.294
  173.501    0.355    0.479   62.880   12.304
  173.801    0.350    0.480   61.655   12.313
  174.101    0.329    0.457   64.133   12.320
  174.401    0.323    0.445   65.996   12.095
  174.701    0.329    0.469   64.154   12.106
  175.001    0.343    0.480   64.164   11.885
  175.301    0.338    0.486   64.173   11.893
  175.601    0.327    0.462   67.269   11.901
  175.901    0.329    0.423   69.131   11.687
  176.201    0.327    0.422   65.437   11.694
  176.501    0.328    0.451   68.533   11.701
  176.801    0.335    0.451   71.629   11.488
  177.101    0.333    0.450   67.318   11.495
  177.401    0.339    0.415   67.328   11.505
  177.701    0.348    0.436   67.338   11.513
  178.001    0.345    0.425   65.497   11.521
  178.301    0.344    0.414   69.210   11.528
  178.601    0.339    0.385   68.601   11.758
  178.901    0.321    0.414   68.611   11.544
  179.201    0.326    0.435   68.004   11.553
  179.501    0.341    0.416   63.692   11.560
  179.801    0.344    0.437   68.640   11.568
  180.101    0.331    0.478   69.268   11.577
  180.401    0.336    0.491   69.277   11.584
  180.701    0.333    0.462   69.288   11.374
  181.001    0.333    0.437   64.975   11.382
  181.301    0.333    0.402   63.133   11.175
  181.601    0.330    0.392   68.082   11.182
  181.901    0.329    0.442   68.090   11.189
  182.201    0.336    0.457   67.483   11.198
  182.501    0.355    0.454   66.258   10.993
  182.801    0.341    0.447   68.738   11.001
  183.101    0.322    0.430   76.155   11.010
  183.401    0.339    0.423   77.401   10.810
  183.701    0.337    0.436   74.939   10.613
  184.001    0.312    0.453   70.629   10.420
  184.301    0.298    0.461   73.107   10.231
  184.601    0.311    0.441   73.735   10.045
  184.901    0.314    0.411   74.979    9.676
  185.201    0.301    0.423   79.928    9.321
  185.501    0.294    0.448   81.790    9.151
  185.801    0.301    0.395   79.329    8.985
  186.101    0.286    0.356   77.486    8.822
  186.401    0.279    0.361   76.879    8.827
  186.701    0.290    0.446   71.951    9.004
  187.001    0.314    0.459   57.761    9.183
  187.301    0.326    0.452   55.920    9.731
  187.601    0.328    0.458   55.312   10.308
  187.901    0.312    0.394   56.557   10.921
  188.201    0.316    0.367   54.715   12.019
  188.501    0.317    0.402   54.107   12.735
  188.801    0.308    0.420   54.733   12.267
  189.101    0.310    0.407   58.448   11.817
  189.401    0.245    0.357   63.397   11.386
  189.701    0.237    0.353   63.406   10.968
  190.001    0.254    0.409   59.711   10.768
  190.301    0.287    0.429   59.103   10.775
  190.601    0.292    0.434   64.052   10.381
  190.901    0.270    0.394   73.939    9.999
  191.201    0.264    0.390   84.442    9.098
  191.501    0.247    0.422   93.712    7.527
  191.801    0.165    0.392  104.216    6.227
  192.101    0.104    0.445  120.275    5.151
  192.401    0.150    0.468  130.162    4.181
  192.701    0.183    0.453  133.258    3.525
  193.001    0.173    0.479  133.269    3.396
  193.301    0.192    0.471  136.366    3.271
  193.601    0.190    0.423  136.992    3.274
  193.901    0.175    0.409  139.471    3.339
  194.201    0.184    0.410  137.628    3.471
  194.501    0.206    0.394  133.316    3.608
  194.801    0.202    0.365  131.475    3.822
  195.101    0.190    0.399  130.867    3.899
  195.401    0.182    0.470  133.346    3.901
  195.701    0.185    0.460  130.886    3.831
  196.001    0.197    0.404  129.044    3.833
  196.301    0.203    0.444  126.585    3.835
  196.601    0.205    0.486  122.273    3.838
  196.901    0.210    0.475  109.937    3.915
  197.201    0.203    0.457  105.627    4.148
  197.501    0.192    0.401  108.105    4.833
  197.801    0.218    0.363  113.670    5.631
  198.101    0.221    0.376  113.063    6.562
  198.401    0.213    0.432  110.603    7.086
  198.701    0.212    0.446  112.464    7.228
  199.001    0.217    0.455  107.536    7.233
  199.301    0.232    0.405   95.200    7.518
  199.601    0.226    0.361  101.999    7.815
  199.901    0.213    0.369  108.183    7.970
  200.201    0.212    0.364  112.515    7.977
  200.501    0.209    0.395  112.525    7.981
  200.801    0.217    0.433  114.384    7.837
  201.101    0.227    0.415  119.332    7.842
  201.401    0.229    0.386  116.257    7.848
  201.701    0.212    0.375  112.563    7.705
  202.001    0.204    0.374  106.399    7.566
  202.301    0.197    0.416  100.853    7.570
  202.601    0.218    0.399  104.567    7.576
  202.901    0.234    0.387  106.428    7.581
  203.201    0.211    0.375  110.760    7.732
  203.501    0.201    0.411  106.447    8.038
  203.801    0.214    0.430  103.987    7.891
  204.101    0.218    0.441  106.467    7.749
