~VERSION INFORMATION
 VERS.                 2.0:   CWLS LOG ASCII STANDARD -VERSION 2.0
 WRAP.                  NO:   ONE LINE PER DEPTH STEP
~WELL INFORMATION BLOCK
#MNEM.UNIT           DATA                    DESCRIPTION OF MNEMONIC
#---------    -------------------            -------------------------------
# Generated from Intellog Unique Number	CW_79_81/WELL/3693
WELL.         06-32-079-02W5                 : Well_name    - WELL
LOC .         00/06-32-079-02W5/0            : Location     - LOCATION
UWI .         00/06-32-079-02W5/0            : Uwi          - UNIQUE WELL ID
ENTR.         JOETTE                         : Entered      - ENTERED BY
SRVC.         SCHLUMBERGER                   : Scn          - SERVICE COMPANY
DATE.         08/26/92                       : Date         - LOG DATE
STRT.M        300                            : top_depth    - START DEPTH
STOP.M        520                            : bot_depth    - STOP DEPTH
STEP.M        0.25                           : increment    - STEP LENGTH
 NULL. -999.2500:NULL Value
~CURVE INFORMATION BLOCK
#MNEM UNIT       ERCB CURVE CODE    CURVE DESCRIPTION
#-----------   ------------------   ----------------------------------
DEPT.M        00 001 00 00         : DEPTH        - DEPTH
ILD .OHMM     00 120 00 00         : RESD         - DEEP RESISTIVITY (DIL)
GR  .API      00 310 00 00         : GR           - GAMMA RAY
NPHI.V/V      00 330 00 00         : PHIN         - NEUTRON POROSITY (SANDSTONE)
DPHI.V/V      00 890 00 00         : PHID         - DENSITY POROSITY (SANDSTONE)
~PARAMETER INFORMATION
#MNEM.UNIT           DATA             DESCRIPTION OF MNEMONIC
#---------         -----------     ------------------------------
GL  .M        617.8                : gl           - GROUND LEVEL ELEVATION
EREF.M        621.9                : kb           - ELEVATION OF DEPTH REFERENCE
DATM.M        621.9                : datum        - DATUM ELEVATION
TDD .M        521                  : tdd          - TOTAL DEPTH DRILLER
RUN .         ONE                  : Run          - RUN NUMBER
ENG .         BILL                 : Engineer     - RECORDING ENGINEER
WIT .         JIM                  : Witness      - WITNESSED BY
MUD .         GEL                  : Mud_type     - MUD TYPE
MATR.         SANDSTONE            : Logunit      - NEUTRON MATRIX
TMAX.C        18                   : BHT          - MAXIMUM RECORDED TEMPERATURE
BHTD.M        521                  : BHTDEP       - MAXIMUM RECORDED TEMPERATURE
MATR.         1                    : LOGUNIT      - NEUTRON MATRIX
RMT .C        16                   : MDTP         - TEMPERATURE OF MUD
NEUT.         1                    : NEUTRON      - NEUTRON TYPE
RESI.         0                    : RESIST       - RESISTIVITY TYPE
RMC .OHMM     4.35                 : RMC          - RESISTIVITY OF MUD CAKE
RMF .OHMM     4.35                 : RMF          - RESISTIVITY OF MUD FILTRATE
SUFT.C        5                    : SUFT         - SURFACE TEMPERATURE
~A  DEPTH     RESD       GR     PHIN     PHID
# ...
  343.500   15.901   54.087    0.497    0.340
  343.750   15.348   54.146    0.492    0.336
  344.000   15.078   54.205    0.495    0.343
  344.250   14.813   56.623    0.503    0.351
  344.500   14.832   56.697    0.504    0.355
  344.750   14.580   52.626    0.499    0.361
  345.000   14.068   51.505    0.492    0.366
  345.250   14.077   51.579    0.482    0.357
  345.500   13.583   51.048    0.469    0.346
  345.750   13.344   49.927    0.458    0.336
  346.000   13.114   48.806    0.448    0.333
  346.250   12.654   46.505    0.446    0.336
  346.500   12.435   43.585    0.460    0.339
  346.750   11.995   46.623    0.470    0.346
  347.000   11.143   51.976    0.458    0.350
  347.250    9.089   60.294    0.437    0.341
  347.500    7.413   70.396    0.451    0.351
  347.750    6.277   76.944    0.518    0.364
  348.000    6.285   81.737    0.539    0.397
  348.250    6.910   78.846    0.555    0.392
  348.500    7.312   74.761    0.529    0.392
  348.750    8.341   72.460    0.500    0.338
  349.000    9.519   68.389    0.477    0.334
  349.250   10.076   66.693    0.468    0.338
  349.500    9.902   67.342    0.481    0.341
  349.750    9.037   67.991    0.483    0.347
  350.000    8.715   66.870    0.485    0.313
  350.250    7.802   68.109    0.495    0.317
  350.500    7.384   67.592    0.504    0.317
  350.750    6.738   67.032    0.499    0.315
  351.000    6.497   68.875    0.496    0.321
  351.250    6.385   73.653    0.500    0.331
  351.500    6.161   76.087    0.509    0.322
  351.750    6.167   74.376    0.515    0.323
  352.000    6.180   70.880    0.518    0.331
  352.250    6.184   68.579    0.511    0.330
  352.500    6.189   71.603    0.506    0.328
  352.750    5.974   75.201    0.511    0.322
  353.000    5.867   81.749    0.520    0.322
  353.250    5.352   86.527    0.528    0.331
  353.500    4.616   88.946    0.530    0.335
  353.750    4.056   89.595    0.542    0.324
  354.000    3.700   89.078    0.570    0.316
  354.250    3.917   86.777    0.592    0.326
  354.500    4.639   84.462    0.537    0.331
  354.750    7.544   79.801    0.528    0.329
  355.000    8.449   72.781    0.509    0.281
  355.250   11.189   65.171    0.505    0.333
  355.500   11.629   60.496    0.500    0.367
  355.750   12.082   54.065    0.488    0.380
  356.000   13.041   55.304    0.463    0.377
  356.250   13.303   57.133    0.462    0.372
  356.500   13.315   57.782    0.457    0.347
  356.750   13.094   57.855    0.452    0.333
  357.000   12.860   61.468    0.458    0.343
  357.250   12.642   62.102    0.468    0.343
  357.500   12.653   61.571    0.471    0.341
  357.750   12.677   61.645    0.475    0.340
  358.000   12.450   64.063    0.481    0.341
  358.250   12.239   68.856    0.492    0.332
  358.500   12.028   70.670    0.487    0.309
  358.750   11.817   73.103    0.477    0.310
  359.000   10.782   74.917    0.474    0.303
  359.250    9.472   80.876    0.476    0.276
  359.500    7.582   85.079    0.480    0.277
  359.750    7.594   87.497    0.496    0.279
  360.000    8.501   86.376    0.523    0.266
  360.250   11.905   82.881    0.527    0.246
  360.500   12.605   78.810    0.452    0.222
  360.750   13.598   71.200    0.400    0.204
  361.000   14.673   66.554    0.405    0.179
  361.250   14.420   66.613    0.400    0.180
  361.500   12.441   67.866    0.461    0.246
  361.750   11.993   69.076    0.523    0.280
  362.000   10.738   73.869    0.524    0.320
  362.250    9.613   80.417    0.518    0.317
  362.500    8.768   85.195    0.520    0.287
  362.750    8.148   89.383    0.522    0.260
  363.000    7.715   91.212    0.516    0.252
  363.250    7.306   90.091    0.504    0.261
  363.500    7.178   87.215    0.508    0.261
  363.750    7.059   86.698    0.509    0.251
  364.000    7.067   89.117    0.481    0.240
  364.250    7.072   89.766    0.483    0.238
  364.500    6.952   87.465    0.493    0.238
  364.750    6.706   83.999    0.511    0.241
  365.000    6.351   82.863    0.528    0.242
  365.250    5.791   81.152    0.521    0.257
  365.500    5.280   81.801    0.518    0.262
  365.750    5.287   84.205    0.521    0.261
  366.000    5.600   84.264    0.529    0.257
  366.250    5.820   86.682    0.533    0.248
  366.500    6.162   90.885    0.501    0.236
  366.750    6.406   89.764    0.501    0.230
  367.000    6.414   88.643    0.536    0.241
  367.250    6.422   89.882    0.515    0.253
  367.500    6.192   89.941    0.505    0.259
  367.750    5.652   83.496    0.499    0.300
  368.000    5.152   75.886    0.498    0.294
  368.250    4.362   78.304    0.510    0.255
  368.500    3.762   82.493    0.525    0.258
  368.750    3.431   86.696    0.559    0.264
  369.000    3.017   87.949    0.569    0.272
  369.250    2.964   89.763    0.575    0.276
  369.500    2.967   96.901    0.584    0.280
  369.750    3.203   99.909    0.588    0.268
  370.000    3.326   96.429    0.566    0.260
  370.250    3.726   92.358    0.540    0.271
  370.500    4.932   88.288    0.538    0.294
  370.750    5.222   83.037    0.543    0.302
  371.000    5.848   70.118    0.547    0.315
  371.250    7.192   67.802    0.525    0.310
  371.500    8.051   67.861    0.507    0.308
  371.750    9.187   66.769    0.493    0.316
  372.000    9.724   66.224    0.492    0.344
  372.250   10.490   64.513    0.482    0.350
  372.500   11.320   62.816    0.469    0.355
  372.750   11.986   61.106    0.471    0.351
  373.000   12.695   59.970    0.486    0.336
  373.250   12.942   58.849    0.506    0.326
  373.500   13.206   56.548    0.495    0.327
  373.750   13.475   54.247    0.486    0.336
  374.000   13.745   55.486    0.488    0.345
  374.250   14.026   57.904    0.489    0.348
  374.500   14.039   56.783    0.473    0.340
  374.750   14.056   54.483    0.468    0.338
  375.000   14.078   53.952    0.475    0.339
  375.250   14.091   55.795    0.487    0.329
  375.500   14.104   56.444    0.488    0.328
  375.750   14.104   55.337    0.478    0.334
  376.000   13.382   54.777    0.477    0.337
  376.250   14.156   55.426    0.482    0.343
  376.500   13.921   57.254    0.488    0.341
  376.750   13.933   55.558    0.483    0.337
  377.000   13.933   55.012    0.476    0.335
  377.250   13.714   55.071    0.477    0.339
  377.500   13.731   57.505    0.483    0.339
  377.750   13.739   58.743    0.488    0.342
  378.000   13.757   57.047    0.494    0.345
  378.250   13.523   56.516    0.493    0.340
  378.500   13.544   58.344    0.484    0.332
  378.750   13.553   60.763    0.479    0.335
  379.000   13.569   62.002    0.483    0.345
  379.250   13.339   60.881    0.489    0.340
  379.500   13.356   59.170    0.487    0.340
  379.750   13.376   59.229    0.490    0.344
  380.000   13.393   60.467    0.497    0.345
  380.250   13.162   61.691    0.504    0.334
  380.500   12.939   65.305    0.499    0.339
  380.750   12.250   68.903    0.500    0.334
  381.000   11.809   73.091    0.506    0.300
  381.250   10.380   79.049    0.516    0.270
  381.500    9.293   86.792    0.519    0.246
  381.750    8.323   92.765    0.515    0.252
  382.000    7.877   95.183    0.513    0.246
  382.250    7.596   96.422    0.486    0.235
  382.500    7.467   96.481    0.470    0.232
  382.750    7.474   94.165    0.472    0.242
  383.000    7.768   90.095    0.478    0.244
  383.250    8.227   90.154    0.500    0.241
  383.500    8.711   86.083    0.535    0.253
  383.750    9.397   80.832    0.554    0.305
  384.000   10.328   78.546    0.549    0.326
  384.250   11.141   76.835    0.518    0.320
  384.500   10.549   76.894    0.501    0.311
  384.750    9.800   78.133    0.507    0.306
  385.000    9.636   78.177    0.533    0.306
  385.250   10.395   71.157    0.529    0.321
  385.500   11.003   65.906    0.503    0.334
  385.750   11.647   64.800    0.476    0.330
  386.000   12.805   64.844    0.468    0.320
  386.250   13.817   66.702    0.476    0.318
  386.500   13.583   67.912    0.495    0.351
  386.750   13.094   68.561    0.501    0.344
