~VERSION INFORMATION
 VERS.                 2.0:   CWLS LOG ASCII STANDARD -VERSION 2.0
 WRAP.                  NO:   ONE LINE PER DEPTH STEP
~WELL INFORMATION BLOCK
#MNEM.UNIT           DATA                    DESCRIPTION OF MNEMONIC
#---------    -------------------            -------------------------------
# Generated from Intellog Unique Number	CS_69_70/WELL/474
NULL.         -999.25                        : NULL_VALUE
WELL.         07-03-070-08W4                 : Well_name    - WELL              
LOC .         00/07-03-070-08W4/0            : Location     - LOCATION          
UWI .         00/07-03-070-08W4/0            : Uwi          - UNIQUE WELL ID    
ENTR.         JOETTE                         : Entered      - ENTERED BY        
SRVC.         SCHLUMBERGER                   : Scn          - SERVICE COMPANY   
DATE.         05\15\92                       : Date         - LOG DATE          
STRT.M        300                            : top_depth    - START DEPTH       
STOP.M        520                            : bot_depth    - STOP DEPTH        
STEP.M        0.25                           : increment    - STEP LENGTH       
~CURVE INFORMATION BLOCK
#MNEM UNIT       ERCB CURVE CODE    CURVE DESCRIPTION
#-----------   ------------------   ----------------------------------
DEPT.M        00 001 00 00         : DEPTH        - DEPTH                       
GR  .API      00 310 00 00         : GR           - GAMMA RAY                   
NPHI.V/V      00 330 00 00         : PHIN         - NEUTRON POROSITY (SANDSTONE)
DPHI.V/V      00 890 00 00         : PHID         - DENSITY POROSITY (SANDSTONE)
ILD .OHMM     00 120 00 00         : RESD         - DEEP RESISTIVITY (DIL)      
CALI.MM       00 280 01 00         : CAL          - CALIPER                     
~PARAMETER INFORMATION       
#MNEM.UNIT           DATA             DESCRIPTION OF MNEMONIC
#---------         -----------     ------------------------------
GL  .M        640                  : gl           - GROUND LEVEL ELEVATION      
EREF.M        648.7                : kb           - ELEVATION OF DEPTH REFERENCE
DATM.M        648.7                : datum        - DATUM ELEVATION             
TDD .M        625                  : tdd          - TOTAL DEPTH DRILLER         
RUN .         ONE                  : Run          - RUN NUMBER                  
ENG .         JO                   : Engineer     - RECORDING ENGINEER          
WIT .         TIM                  : Witness      - WITNESSED BY                
MUD .         GEL                  : Mud_type     - MUD TYPE                    
MATR.         SANDSTONE            : Logunit      - NEUTRON MATRIX              
TMAX.C        25                   : BHT          - MAXIMUM RECORDED TEMPERATURE
BHTD.M        625                  : BHTDEP       - MAXIMUM RECORDED TEMPERATURE
RMT .C        15                   : MDTP         - TEMPERATURE OF MUD          
MUDD.KG/M     1080                 : MWT          - MUD DENSITY                 
NEUT.         1                    : NEUTRON      - NEUTRON TYPE                
RESI.         0                    : RESIST       - RESISTIVITY TYPE            
RM  .OHMM     3.3                  : RM           - RESISTIVITY OF MUD          
RMC .OHMM     3.3                  : RMC          - RESISTIVITY OF MUD CAKE     
RMF .OHMM     3.3                  : RMF          - RESISTIVITY OF MUD FILTRATE 
SUFT.C        4                    : SUFT         - SURFACE TEMPERATURE         
~A  DEPTH       GR     PHIN     PHID     RESD      CAL
# ...
  446.000   79.444    0.436    0.281    3.979  173.599
  446.250   81.930    0.444    0.281    4.376  169.672
  446.500   83.222    0.462    0.266    4.632  163.755
  446.750   79.034    0.466    0.276    5.285  165.882
  447.000   76.073    0.475    0.290    5.917  169.016
  447.250   78.592    0.441    0.283    6.384  172.151
  447.500   78.624    0.432    0.253    6.890  171.251
  447.750   74.469    0.409    0.238    6.415  165.334
  448.000   73.324    0.376    0.172    6.187  157.373
  448.250   73.978    0.405    0.254    5.547  157.482
  448.500   77.086    0.450    0.283    4.972  161.625
  448.750   80.799    0.452    0.270    4.538  159.689
  449.000   86.900    0.486    0.257    3.995  154.754
  449.250   93.018    0.491    0.241    3.717  154.890
  449.500   93.083    0.482    0.230    3.522  161.024
  449.750   92.543    0.485    0.227    3.400  172.283
  450.000   96.272    0.495    0.244    3.406  173.373
  450.250   96.943    0.508    0.244    3.351  172.473
  450.500   97.008    0.511    0.243    3.237  169.610
  450.750   96.451    0.504    0.241    3.241  167.647
  451.000   95.911    0.506    0.244    3.129  165.738
  451.250   97.792    0.517    0.243    2.965  164.865
  451.500  100.278    0.523    0.237    2.757  163.938
  451.750  104.008    0.498    0.226    2.519  163.037
  452.000  103.451    0.490    0.237    2.767  160.120
  452.250   98.069    0.496    0.246    3.463  156.220
  452.500   88.434    0.491    0.250    4.254  154.284
  452.750   76.999    0.471    0.243    5.322  151.394
  453.000   68.575    0.425    0.239    8.480  150.494
  453.250   61.982    0.377    0.166    9.145  149.594
  453.500   71.142    0.323    0.152    9.694  149.675
  453.750   74.250    0.352    0.194    9.715  149.784
  454.000   68.852    0.355    0.225    9.546  149.892
  454.250   65.891    0.334    0.223    9.387  150.001
  454.500   67.183    0.353    0.221    9.584  150.164
  454.750   68.458    0.354    0.234    9.960  150.245
  455.000   65.481    0.327    0.253   10.552  150.381
  455.250   61.931    0.314    0.287   11.830  150.463
  455.500   61.391    0.314    0.307   12.293  150.626
  455.750   63.877    0.305    0.306   12.774  150.707
  456.000   63.942    0.302    0.306   13.281  150.816
  456.250   62.192    0.316    0.307   13.813  150.951
  456.500   59.819    0.332    0.298   13.832  151.006
  456.750   60.490    0.327    0.278   13.857  151.169
  457.000   63.614    0.297    0.233   13.377  151.223
  457.250   66.116    0.292    0.175   12.682  151.359
  457.500   66.754    0.319    0.114   11.797  151.467
  457.750   66.836    0.333    0.152   10.975  149.586
  458.000   65.690    0.354    0.195   10.022  148.658
  458.250   63.318    0.363    0.254    9.497  145.741
  458.500   63.383    0.355    0.244    9.164  145.849
  458.750   67.096    0.351    0.233    8.855  147.021
  459.000   70.188    0.358    0.231    8.863  148.111
  459.250   72.069    0.376    0.227    9.390  148.193
  459.500   70.923    0.373    0.221    9.945  149.310
  459.750   71.005    0.359    0.222   10.334  150.428
  460.000   73.491    0.362    0.216   11.367  151.572
  460.250   75.977    0.390    0.228   11.818  152.662
  460.500   75.437    0.395    0.260   12.286  153.834
  460.750   73.670    0.394    0.274   12.538  152.907
  461.000   76.156    0.389    0.284   12.561  153.015
  461.250   77.432    0.378    0.293   12.352  151.134
  461.500   65.392    0.345    0.276   11.711  149.198
  461.750   64.852    0.259    0.269   11.098  147.316
  462.000   69.759    0.295    0.294   10.134  146.388
  462.250   72.867    0.345    0.252    9.427  146.551
  462.500   72.327    0.346    0.242    8.613  146.633
  462.750   68.793    0.332    0.229    8.307  146.714
  463.000   67.026    0.338    0.258    8.023  147.832
  463.250   64.049    0.351    0.255    8.034  148.949
  463.500   65.325    0.364    0.245    8.671  150.066
  463.750   66.011    0.377    0.234    9.179  150.202
  464.000   63.034    0.361    0.232    9.903  150.311
  464.250   65.520    0.337    0.230   11.092  150.420
  464.500   71.033    0.346    0.222   11.747  150.528
  464.750   76.561    0.382    0.214   12.679  150.664
  465.000   69.347    0.398    0.249   12.945  150.800
  465.250   66.386    0.364    0.270   12.491  149.845
  465.500   74.941    0.376    0.260   11.197  149.981
  465.750   81.059    0.402    0.258    9.668  150.062
  466.000   95.666    0.421    0.272    8.202  150.171
  466.250  125.405    0.412    0.242    8.220  150.307
  466.500  122.444    0.393    0.212    8.381  150.388
  466.750   98.283    0.369    0.205    9.216  150.524
  467.000   81.385    0.341    0.230    9.942  150.633
  467.250   69.950    0.329    0.247   10.726  150.741
  467.500   67.005    0.336    0.234   12.020  150.850
  467.750   65.238    0.347    0.244   12.718  150.986
  468.000   66.514    0.357    0.260   13.984  151.067
  468.250   67.806    0.358    0.258   15.086  150.167
  468.500   66.039    0.353    0.257   17.214  150.303
  468.750   54.605    0.362    0.265   18.571  149.403
  469.000   57.696    0.369    0.274   18.605  149.484
  469.250   60.199    0.357    0.267   17.976  149.620
  469.500   59.053    0.377    0.256   18.346  149.701
  469.750   55.503    0.394    0.256   18.705  148.828
  470.000   53.131    0.393    0.271   20.961  148.910
  470.250   48.959    0.383    0.298   22.179  148.064
  470.500   44.772    0.374    0.295   24.831  148.146
  470.750   38.784    0.366    0.289   31.082  148.309
  471.000   29.771    0.367    0.291   37.475  148.363
  471.250   22.556    0.363    0.290   46.931  147.517
  471.500   21.411    0.350    0.296   55.520  147.598
  471.750   22.098    0.345    0.332   64.534  147.734
  472.000   22.768    0.364    0.343   62.299  147.789
  472.250   23.455    0.373    0.333   55.821  147.897
  472.500   24.109    0.360    0.307   51.020  148.033
  472.750   25.990    0.344    0.301   47.419  148.114
  473.000   31.502    0.356    0.296   40.209  148.250
  473.250   33.989    0.381    0.298   35.383  148.332
  473.500   29.817    0.367    0.316   34.173  148.467
  473.750   35.346    0.389    0.322   35.526  148.603
  474.000   26.316    0.387    0.311   40.518  148.739
  474.250   19.723    0.369    0.305   47.075  149.829
  474.500   26.446    0.343    0.310   55.766  149.911
  474.750   37.422    0.416    0.308   57.923  150.019
  475.000   30.830    0.435    0.302   58.080  150.128
  475.250   25.464    0.367    0.302   57.116  150.237
  475.500   25.513    0.336    0.310   53.133  150.372
  475.750   31.041    0.335    0.317   45.876  150.508
  476.000   36.538    0.368    0.318   36.782  150.562
  476.250   46.303    0.386    0.324   23.189  149.662
  476.500   56.657    0.376    0.330   14.893  149.852
  476.750   70.055    0.362    0.307   11.941  149.907
  477.000   89.520    0.344    0.252   10.507  149.007
  477.250   86.559    0.325    0.229   10.338  149.115
  477.500   82.371    0.349    0.219   11.371  148.215
  477.750   73.358    0.376    0.225   11.817  148.324
  478.000   64.933    0.365    0.253   12.279  148.432
  478.250   58.946    0.353    0.272   12.301  148.541
  478.500   54.791    0.353    0.269   11.233  148.650
  478.750   53.024    0.375    0.294    9.703  147.749
  479.000   53.089    0.385    0.306    8.698  147.858
  479.250   56.180    0.380    0.311    7.804  147.012
  479.500   60.515    0.369    0.304    7.392  147.067
  479.750   62.379    0.358    0.303    7.270  147.202
  480.000   66.076    0.356    0.293    7.152  146.329
  480.250   66.158    0.362    0.266    7.159  146.465
  480.500   66.206    0.360    0.266    7.449  146.519
  480.750   66.304    0.355    0.270    7.466  146.628
  481.000   66.958    0.352    0.272    7.476  146.764
  481.250   68.234    0.361    0.274    7.220  146.900
  481.500   71.931    0.375    0.270    7.227  146.981
  481.750   75.022    0.375    0.267    7.110  147.063
  482.000   78.130    0.368    0.260    7.123  147.198
  482.250   81.221    0.356    0.237    7.266  147.280
