~VERSION INFORMATION
 VERS.                 2.0:   CWLS LOG ASCII STANDARD -VERSION 2.0
 WRAP.                  NO:   ONE LINE PER DEPTH STEP
~WELL INFORMATION BLOCK
#MNEM.UNIT           DATA                    DESCRIPTION OF MNEMONIC
#---------    -------------------            -------------------------------
# Generated from Intellog Unique Number	CS_73_76/WELL/2813
WELL.         TEXACO WINEFRED LAKE 7-17      : Well_name    - WELL
LOC .         07-17-075-03W4                   : Location     - LOCATION
UWI .         00/07-17-075-03W4/0             : Uwi          - UNIQUE WELL ID
ENTR.         ANDERSEN                       : Entered      - ENTERED BY
SRVC.         COMPUTALOG                     : Scn          - SERVICE COMPANY
STRT.M        260                            : top_depth    - START DEPTH
STOP.M        510                            : bot_depth    - STOP DEPTH
STEP.M        0.25                           : increment    - STEP LENGTH
 NULL. -999.2500:NULL Value
~CURVE INFORMATION BLOCK
#MNEM UNIT       ERCB CURVE CODE    CURVE DESCRIPTION
#-----------   ------------------   ----------------------------------
DEPT.M        00 001 00 00         : DEPTH        - DEPTH
GR  .API      00 310 00 00         : GR           - GAMMA RAY
CALI.MM       00 280 01 00         : CAL          - CALIPER
NPHI.V/V      00 330 00 00         : PHIN         - NEUTRON POROSITY (SANDSTONE)
DPHI.V/V      00 890 00 00         : PHID         - DENSITY POROSITY (SANDSTONE)
ILD .OHMM     00 120 00 00         : RESD         - DEEP RESISTIVITY (DIL)
~PARAMETER INFORMATION
#MNEM.UNIT           DATA             DESCRIPTION OF MNEMONIC
#---------         -----------     ------------------------------
GL  .M        624.1                : gl           - GROUND LEVEL ELEVATION
EREF.M        627.7                : kb           - ELEVATION OF DEPTH REFERENCE
DATM.M        627.7                : datum        - DATUM ELEVATION
TDD .M        526                  : tdd          - TOTAL DEPTH DRILLER
RUN .         ONE                  : Run          - RUN NUMBER
ENG .         BILL                 : Engineer     - RECORDING ENGINEER
WIT .         JIM                  : Witness      - WITNESSED BY
MUD .         GEL                  : Mud_type     - MUD TYPE
MATR.         SANDSTONE            : Logunit      - NEUTRON MATRIX
TMAX.C        20                   : BHT          - MAXIMUM RECORDED TEMPERATURE
BHTD.M        526                  : BHTDEP       - MAXIMUM RECORDED TEMPERATURE
RMT .C        18                   : MDTP         - TEMPERATURE OF MUD
MUDD.KG/M     1100                 : MWT          - MUD DENSITY
NEUT.         1                    : NEUTRON      - NEUTRON TYPE
RESI.         0                    : RESIST       - RESISTIVITY TYPE
RM  .OHMM     4.7                  : RM           - RESISTIVITY OF MUD
RMC .OHMM     3.3                  : RMC          - RESISTIVITY OF MUD CAKE
RMF .OHMM     7.3                  : RMF          - RESISTIVITY OF MUD FILTRATE
SUFT.C        15                   : SUFT         - SURFACE TEMPERATURE
~A  DEPTH       GR      CAL     PHIN     PHID     RESD
# ...
  296.500   81.638  196.653    0.421    0.273   10.882
  296.750   79.234  195.658    0.440    0.282   10.895
  297.000   79.842  195.673    0.445    0.296   10.920
  297.250   87.080  195.680    0.436    0.302   10.946
  297.500   94.319  197.701    0.423    0.292   10.977
  297.750   93.723  197.709    0.427    0.279   10.996
  298.000   91.921  198.728    0.430    0.261   11.455
  298.250   91.322  198.735    0.426    0.266   12.152
  298.500   88.917  199.752    0.414    0.274   12.868
  298.750   79.882  199.759    0.404    0.296   14.171
  299.000   78.079  199.771    0.408    0.314   14.463
  299.250   76.277  199.779    0.408    0.326   15.343
  299.500   74.475  199.786    0.403    0.324   15.369
  299.750   73.879  199.796    0.396    0.314   14.857
  300.000   76.897  199.805    0.384    0.301   14.328
  300.250   79.316  199.815    0.377    0.286   12.606
  300.500   77.515  199.825    0.376    0.272   11.946
  300.750   84.752  199.837    0.377    0.253   11.745
  301.000   94.402  199.847    0.376    0.231   11.560
  301.250   84.161  199.859    0.378    0.228   11.594
  301.500   79.346  199.869    0.381    0.236   12.057
  301.750   79.955  199.876    0.381    0.243   13.536
  302.000   79.357  199.891    0.380    0.236   14.342
  302.250   77.554  199.895    0.375    0.236   15.197
  302.500   76.355  199.905    0.371    0.231   17.051
  302.750   70.936  198.913    0.362    0.256   19.120
  303.000   63.709  198.920    0.353    0.286   21.043
  303.250   51.057  198.930    0.346    0.324   23.160
  303.500   41.419  197.935    0.350    0.327   24.568
  303.750   40.823  195.940    0.362    0.318   25.564
  304.000   39.019  195.945    0.358    0.334   26.600
  304.250   36.011  195.955    0.355    0.347   27.197
  304.500   36.620  195.970    0.365    0.341   27.244
  304.750   34.819  195.975    0.372    0.343   27.307
  305.000   31.811  197.996    0.373    0.350   27.355
  305.250   28.201  198.006    0.378    0.357   27.434
  305.500   27.604  198.015    0.377    0.350   26.973
  305.750   28.212  198.028    0.374    0.349   26.534
  306.000   30.026  199.039    0.378    0.352   25.159
  306.250   30.032  199.052    0.380    0.353   24.278
  306.500   28.833  199.061    0.378    0.349   21.763
  306.750   27.633  199.069    0.371    0.356   20.253
  307.000   27.036  199.078    0.357    0.366   19.170
  307.250   31.261  199.088    0.360    0.361   17.499
  307.500   38.500  200.103    0.368    0.348   15.678
  307.750   48.752  200.115    0.384    0.329   14.311
  308.000   75.883  200.124    0.397    0.307   13.302
  308.250   88.547  200.132    0.411    0.298   12.143
  308.500   96.388  200.144    0.412    0.287   10.892
  308.750  103.024  200.154    0.404    0.279   10.309
  309.000  108.455  200.166    0.411    0.264    9.594
  309.250  111.475  200.176    0.418    0.243    8.928
  309.500  111.480  200.185    0.418    0.236    8.615
  309.750  111.486  200.193    0.414    0.239    8.470
  310.000  113.302  200.207    0.404    0.239    8.337
  310.250  110.895  200.212    0.395    0.243    8.197
  310.500  110.298  200.222    0.399    0.244    8.216
  310.750  111.510  200.232    0.414    0.243    8.083
  311.000  109.707  200.241    0.438    0.243    7.951
  311.250  106.101  200.254    0.460    0.246    7.974
  311.500  105.501  200.263    0.482    0.251    8.298
  311.750  105.507  200.273    0.478    0.257    8.963
  312.000  105.513  200.283    0.482    0.267   10.637
  312.250  104.917  200.290    0.485    0.274   11.700
  312.500  102.512  200.302    0.468    0.283   13.376
  312.750   94.078  200.317    0.449    0.294   13.918
  313.000   86.248  200.324    0.445    0.307   13.958
  313.250   86.857  200.331    0.450    0.306   15.078
  313.500   90.479  200.341    0.451    0.293   16.585
  313.750   91.691  200.353    0.461    0.293   19.306
  314.000   89.287  199.359    0.467    0.299   22.488
  314.250   88.086  199.371    0.468    0.299   26.688
  314.500   82.064  199.376    0.460    0.299   28.812
  314.750   70.618  199.385    0.438    0.309   31.122
  315.000   57.363  199.398    0.404    0.329   32.421
  315.250   45.314  199.407    0.388    0.340   33.091
  315.500   40.500  199.415    0.390    0.345   32.572
  315.750   40.504  199.424    0.395    0.346   31.431
  316.000   46.539  199.434    0.390    0.337   27.621
  316.250   49.560  199.449    0.392    0.321   23.838
  316.500   52.578  199.456    0.400    0.328   20.973
  316.750   58.611  199.468    0.406    0.319   20.238
  317.000   64.644  200.485    0.398    0.297   18.845
  317.250   63.445  200.492    0.389    0.324   18.174
  317.500   58.629  200.500    0.392    0.343   16.291
  317.750   56.225  200.512    0.402    0.352   14.587
  318.000   56.832  200.521    0.401    0.347   12.589
  318.250   60.456  200.531    0.394    0.330   10.871
  318.500   64.077  201.546    0.405    0.307   10.111
  318.750   70.110  201.553    0.415    0.281    9.751
  319.000   97.243  202.570    0.432    0.257    9.969
  319.250   98.454  202.577    0.447    0.247   10.972
  319.500   94.239  202.589    0.451    0.257   12.529
  319.750   89.423  202.599    0.440    0.271   15.436
  320.000   88.826  200.604    0.418    0.278   17.646
  320.250   85.215  199.607    0.410    0.259   17.698
  320.500   76.180  199.614    0.421    0.223   17.390
  320.750   69.556  196.613    0.424    0.227   15.874
  321.000   65.344  196.623    0.412    0.278   14.222
  321.250   64.144  196.635    0.393    0.307   13.227
  321.500   66.561  196.642    0.378    0.303   12.534
  321.750   70.784  196.649    0.373    0.290   12.109
  322.000   71.996  196.659    0.394    0.285   12.607
  322.250   70.194  196.671    0.402    0.275   13.351
  322.500   72.612  197.686    0.395    0.264   14.971
  322.750   77.440  197.695    0.397    0.251   17.105
  323.000   75.637  197.703    0.404    0.239   18.847
  323.250   68.410  197.712    0.409    0.228   19.600
  323.500   60.580  197.722    0.414    0.227   20.406
  323.750   55.163  196.732    0.408    0.272   20.063
  324.000   55.169  196.742    0.402    0.301   18.335
  324.250   55.776  196.754    0.403    0.341   16.717
  324.500   55.179  196.759    0.403    0.350   14.427
  324.750   55.788  196.771    0.402    0.348   12.679
  325.000   59.410  196.778    0.398    0.326   11.359
  325.250   64.238  195.786    0.395    0.294   10.177
  325.500   69.067  195.796    0.396    0.276    9.118
  325.750   72.085  195.805    0.403    0.278    8.323
  326.000   72.694  195.815    0.427    0.288    7.887
  326.250   72.700  195.823    0.454    0.302    8.054
  326.500   73.911  195.835    0.477    0.309    9.203
  326.750   77.536  195.842    0.479    0.301   11.128
  327.000   75.129  195.852    0.475    0.315   11.804
  327.250   69.108  196.869    0.472    0.334   10.775
  327.500   64.894  196.881    0.460    0.351   10.398
  327.750   67.914  197.897    0.454    0.351   10.039
  328.000   69.125  197.902    0.452    0.343   10.068
  328.250   68.528  197.912    0.442    0.329   10.282
  328.500   70.344  198.929    0.420    0.296   10.699
  328.750   73.965  198.936    0.408    0.259   11.343
  329.000   78.191  198.946    0.404    0.255   12.025
  329.250   76.389  198.956    0.398    0.265   12.749
  329.500   73.380  197.963    0.391    0.279   13.265
  329.750   58.317  197.975    0.385    0.305   14.064
  330.000   47.473  197.980    0.383    0.327   15.200
  330.250   46.275  197.995    0.378    0.327   16.115
  330.500   46.281  198.002    0.371    0.325   16.759
  330.750   44.478  198.010    0.364    0.325   17.438
  331.000   42.073  198.024    0.359    0.330   17.808
  331.250   39.670  198.036    0.356    0.335   17.860
  331.500   41.484  198.041    0.356    0.337   17.254
  331.750   44.502  198.053    0.359    0.337   16.964
  332.000   52.343  198.063    0.368    0.335   16.698
  332.250   55.966  198.070    0.390    0.335   16.131
  332.500   51.151  199.085    0.398    0.341   16.150
  332.750   49.347  199.097    0.385    0.347   16.197
