~VERSION INFORMATION
 VERS.                 2.0:   CWLS LOG ASCII STANDARD -VERSION 2.0
 WRAP.                  NO:   ONE LINE PER DEPTH STEP
~WELL INFORMATION BLOCK
#MNEM.UNIT           DATA                    DESCRIPTION OF MNEMONIC
#---------    -------------------            -------------------------------
# Generated from Intellog Unique Number	CW_79_81/WELL/2463
WELL.         HB GODIN                       : Well_name    - WELL
LOC .         00/07-36-081-02W5/0            : Location     - LOCATION
UWI .         00/07-36-081-02W5/0            : Uwi          - UNIQUE WELL ID
ENTR.         MAX                            : Entered      - ENTERED BY
SRVC.         SCHLUMBERGER                   : Scn          - SERVICE COMPANY
STRT.M        243.84                         : top_depth    - START DEPTH
STOP.M        463.09                         : bot_depth    - STOP DEPTH
STEP.M        0.25                           : increment    - STEP LENGTH
 NULL. -999.2500:NULL Value
~CURVE INFORMATION BLOCK
#MNEM UNIT       ERCB CURVE CODE    CURVE DESCRIPTION
#-----------   ------------------   ----------------------------------
DEPT.M        00 001 00 00         : DEPTH        - DEPTH
ILD .OHMM     00 120 00 00         : RESD         - DEEP RESISTIVITY (DIL)
NPHI.V/V      00 330 00 00         : PHIN         - NEUTRON POROSITY (SANDSTONE)
DPHI.V/V      00 890 00 00         : PHID         - DENSITY POROSITY (SANDSTONE)
GR  .API      00 310 00 00         : GR           - GAMMA RAY
CALI.MM       00 280 01 00         : CAL          - CALIPER
~PARAMETER INFORMATION
#MNEM.UNIT           DATA             DESCRIPTION OF MNEMONIC
#---------         -----------     ------------------------------
GL  .M        578.206              : gl           - GROUND LEVEL ELEVATION
EREF.M        581.863              : kb           - ELEVATION OF DEPTH REFERENCE
DATM.M        578.206              : datum        - DATUM ELEVATION
TDD .M        457.81               : tdd          - TOTAL DEPTH DRILLER
RUN .         ONE                  : Run          - RUN NUMBER
ENG .         BILL                 : Engineer     - RECORDING ENGINEER
WIT .         JIM                  : Witness      - WITNESSED BY
MUD .         GEL                  : Mud_type     - MUD TYPE
MATR.         SANDSTONE            : Logunit      - NEUTRON MATRIX
TMAX.C        23.3333              : BHT          - MAXIMUM RECORDED TEMPERATURE
BHTD.M        457.81               : BHTDEP       - MAXIMUM RECORDED TEMPERATURE
MATR.         1                    : LOGUNIT      - NEUTRON MATRIX
RMT .C        15.5556              : MDTP         - TEMPERATURE OF MUD
NEUT.         1                    : NEUTRON      - NEUTRON TYPE
RESI.         0                    : RESIST       - RESISTIVITY TYPE
RMC .OHMM     6.42                 : RMC          - RESISTIVITY OF MUD CAKE
RMF .OHMM     6.17                 : RMF          - RESISTIVITY OF MUD FILTRATE
SUFT.C        -15                  : SUFT         - SURFACE TEMPERATURE
~A  DEPTH     RESD     PHIN     PHID       GR      CAL
# ...
  426.340   10.011    0.440    0.142  100.625  200.826
  426.590   10.011    0.433    0.118   96.931  200.918
  426.840    9.945    0.416    0.102   99.444  201.004
  427.090    9.809    0.412    0.132  102.092  201.496
  427.340    9.730    0.412    0.145  101.209  201.994
  427.590    9.776    0.415    0.145   99.730  202.286
  427.840   10.019    0.415    0.133   98.719  202.369
  428.090   10.656    0.396    0.109   96.235  202.472
  428.340   11.167    0.383    0.087   90.641  202.568
  428.590   11.591    0.370    0.080   90.224  201.880
  428.840   11.712    0.356    0.080   91.921  201.478
  429.090   11.553    0.366    0.093   94.211  201.166
  429.340   11.233    0.394    0.112   95.208  200.952
  429.590   10.875    0.409    0.114   91.993  201.062
  429.840   10.641    0.420    0.099   88.611  201.149
  430.090   10.345    0.421    0.090   89.131  200.832
  430.340   10.058    0.416    0.078   92.136  200.516
  430.590    9.597    0.421    0.097   96.202  200.214
  430.840    9.015    0.436    0.129   99.617  200.016
  431.090    8.399    0.438    0.106  100.782  200.109
  431.340    7.856    0.424    0.091  102.798  200.205
  431.590    7.306    0.420    0.091  106.390  200.688
  431.840    6.873    0.429    0.122  107.328  201.483
  432.090    6.441    0.430    0.144  106.439  202.374
  432.340    6.054    0.425    0.141  104.665  202.957
  432.590    5.837    0.440    0.114  102.584  202.578
  432.840    5.798    0.462    0.076  100.184  202.268
  433.090    5.933    0.443    0.053   97.404  201.971
  433.340    6.335    0.393    0.032   94.447  201.652
  433.590    7.035    0.366    0.051   92.615  201.341
  433.840    7.935    0.376    0.103   91.492  201.038
  434.090    8.579    0.402    0.146   88.217  200.656
  434.340    8.721    0.400    0.163   84.595  200.327
  434.590    8.921    0.399    0.169   85.357  200.419
  434.840    9.325    0.409    0.166   84.166  200.205
  435.090   10.097    0.416    0.180   80.085  199.894
  435.340   11.358    0.416    0.196   72.707  199.489
  435.590   13.638    0.383    0.148   60.534  198.809
  435.840   17.235    0.245    0.069   52.480  198.896
  436.090   21.488    0.282    0.112   52.068  198.589
  436.340   22.919    0.331    0.145   53.775  197.983
  436.590   21.671    0.386    0.193   55.120  197.476
  436.840   19.339    0.432    0.247   55.405  197.167
  437.090   16.887    0.441    0.273   55.668  196.868
  437.340   16.277    0.416    0.277   55.473  196.954
  437.590   17.266    0.411    0.276   55.522  197.056
  437.840   18.027    0.415    0.266   55.925  196.837
  438.090   17.980    0.414    0.250   56.920  196.530
  438.340   17.296    0.408    0.231   58.625  196.133
  438.590   16.919    0.407    0.212   60.312  195.176
  438.840   17.462    0.412    0.217   56.685  194.015
  439.090   18.392    0.408    0.219   53.438  193.309
  439.340   20.940    0.416    0.244   51.960  192.303
  439.590   23.486    0.424    0.271   51.419  192.400
  439.840   25.541    0.430    0.286   51.466  193.497
  440.090   31.010    0.430    0.284   52.634  193.921
  440.340   34.838    0.419    0.280   54.667  193.582
  440.590   34.126    0.415    0.282   58.012  191.678
  440.840   31.412    0.411    0.282   60.835  191.264
  441.090   28.833    0.408    0.274   64.661  191.955
  441.340   26.891    0.407    0.257   68.668  193.350
  441.590   24.831    0.405    0.236   69.289  195.966
  441.840   23.052    0.414    0.222   67.381  200.648
  442.090   21.279    0.413    0.201   68.614  201.130
  442.340   19.206    0.401    0.187   73.381  200.728
  442.590   16.686    0.389    0.179   81.569  200.017
  442.840   13.640    0.390    0.174   90.766  199.499
  443.090    9.577    0.418    0.160   96.894  199.618
  443.340    6.897    0.440    0.147  100.144  199.704
  443.590    5.601    0.476    0.134   99.020  199.806
  443.840    4.978    0.492    0.128   97.369  199.587
  444.090    4.708    0.484    0.129   96.126  199.271
  444.340    4.645    0.467    0.130   95.054  198.964
  444.590    4.728    0.471    0.122   92.260  198.676
  444.840    4.955    0.469    0.123   89.860  198.773
  445.090    5.143    0.464    0.116   89.213  198.865
  445.340    5.281    0.468    0.112   88.907  198.644
  445.590    5.481    0.452    0.122   90.373  198.128
  445.840    5.806    0.419    0.146   92.317  197.726
  446.090    6.401    0.405    0.187   89.940  198.340
  446.340    7.247    0.417    0.229   86.061  198.862
  446.590    8.790    0.406    0.242   80.923  198.918
  446.840   10.011    0.398    0.249   78.803  199.300
  447.090   10.684    0.396    0.257   78.742  199.801
  447.340   10.754    0.403    0.267   79.911  200.204
  447.590   10.027    0.424    0.263   82.360  200.305
  447.840    8.835    0.440    0.238   86.107  200.391
  448.090    7.858    0.452    0.211   89.934  200.883
  448.340    7.237    0.453    0.185   90.393  201.075
  448.590    6.787    0.446    0.182   89.617  200.968
  448.840    6.447    0.436    0.196   88.378  200.758
  449.090    6.206    0.428    0.192   85.700  200.859
  449.340    6.119    0.414    0.186   83.775  200.945
  449.590    6.170    0.413    0.196   81.236  201.038
  449.840    6.358    0.418    0.229   79.938  200.838
  450.090    6.763    0.429    0.253   78.929  200.526
  450.340    7.502    0.443    0.258   76.557  200.208
  450.590    9.031    0.447    0.263   69.307  199.929
  450.840   10.549    0.413    0.277   63.463  200.025
  451.090   11.846    0.400    0.277   62.108  199.709
  451.340   12.501    0.396    0.270   63.048  199.407
  451.590   12.328    0.394    0.258   64.750  199.295
  451.840   11.484    0.390    0.246   67.807  199.371
  452.090    9.970    0.387    0.241   75.930  199.390
  452.340    8.532    0.397    0.252   80.905  199.070
  452.590    7.993    0.420    0.267   82.370  199.163
  452.840    7.703    0.458    0.280   81.892  199.255
  453.090    7.739    0.470    0.287   79.940  198.948
  453.340    8.120    0.454    0.282   76.924  198.240
  453.590    8.947    0.437    0.258   72.131  197.294
  453.840    9.669    0.408    0.235   66.784  196.142
  454.090   10.255    0.364    0.223   63.537  195.835
  454.340   10.708    0.350    0.215   62.766  195.821
  454.590   10.880    0.345    0.226   60.576  195.709
  454.840   10.792    0.338    0.252   57.556  195.407
  455.090   10.634    0.339    0.268   59.341  195.052
  455.340   10.563    0.362    0.237   62.100  194.723
  455.590   10.345    0.371    0.255   60.745  194.880
  455.840   10.076    0.389    0.268   59.378  194.634
  456.090    9.833    0.416    0.286   57.659  194.485
  456.340    9.612    0.427    0.297   55.709  194.570
  456.590    9.321    0.375    0.267   53.632  194.598
  456.840    9.191    0.334    0.247   51.227  194.279
  457.090    9.133    0.337    0.219   51.045  194.371
  457.340    9.127    0.335    0.203   49.976  194.749
  457.590    9.202    0.333    0.184   48.495  195.032
  457.840    9.362    0.331    0.154   47.194  195.129
  458.090    9.613    0.323    0.107   46.590  195.255
  458.340    9.771    0.333    0.074   45.659  195.332
  458.590    9.780    0.332    0.161   47.605  196.213
  458.840    9.791    0.297    0.192   50.074  196.816
  459.090    9.730    0.269    0.202   53.191  197.113
  459.340    9.652    0.264    0.209   58.904  197.096
  459.590    9.809    0.279    0.217   72.918  196.631
  459.840   10.199    0.290    0.225   82.554  195.886
  460.090   10.897    0.298    0.245   85.445  195.579
  460.340   11.709    0.310    0.297   89.572  196.170
  460.590   12.479    0.328    0.271   91.042  197.061
  460.840   13.148    0.331    0.177   88.735  197.755
  461.090   13.963    0.266    0.153   83.581  197.876
  461.340   14.522    0.275    0.159   79.942  197.972
  461.590   15.074    0.270    0.149   70.796  197.665
  461.840   15.901    0.277    0.147   58.993  197.644
  462.090   16.992    0.293    0.143   47.367  197.731
  462.340   18.514    0.309    0.148   38.101  197.831
  462.590   21.819    0.307    0.183   31.805  198.106
