~VERSION INFORMATION
 VERS.                 2.0:   CWLS LOG ASCII STANDARD -VERSION 2.0
 WRAP.                  NO:   ONE LINE PER DEPTH STEP
~WELL INFORMATION BLOCK
#MNEM.UNIT           DATA                    DESCRIPTION OF MNEMONIC
#---------    -------------------            -------------------------------
# Generated from Intellog Unique Number	CW_70_72/WELL/694
NULL.         -999.25                        : NULL_VALUE
WELL.         MAXUS CALLING LAKE 06-23       : Well_name    - WELL              
LOC .         06-23-072-19W4                 : Location     - LOCATION          
UWI .         00/06-23-072-19W4/0            : Uwi          - UNIQUE WELL ID    
ENTR.         JAYE                           : Entered      - ENTERED BY        
SRVC.         WESTERN ATLAS                  : Scn          - SERVICE COMPANY   
DATE.         7 MAR 88                       : Date         - LOG DATE          
STRT.M        335                            : top_depth    - START DEPTH       
STOP.M        565                            : bot_depth    - STOP DEPTH        
STEP.M        0.25                           : increment    - STEP LENGTH       
~CURVE INFORMATION BLOCK
#MNEM UNIT       ERCB CURVE CODE    CURVE DESCRIPTION
#-----------   ------------------   ----------------------------------
DEPT.M        00 001 00 00         : DEPTH        - DEPTH                       
DPHI.V/V      00 890 00 00         : PHID         - DENSITY POROSITY (SANDSTONE)
NPHI.V/V      00 330 00 00         : PHIN         - NEUTRON POROSITY (SANDSTONE)
GR  .API      00 310 00 00         : GR           - GAMMA RAY                   
CALI.MM       00 280 01 00         : CAL          - CALIPER                     
ILD .OHMM     00 120 00 00         : RESD         - DEEP RESISTIVITY (DIL)      
~PARAMETER INFORMATION       
#MNEM.UNIT           DATA             DESCRIPTION OF MNEMONIC
#---------         -----------     ------------------------------
GL  .M        628.2                : gl           - GROUND LEVEL ELEVATION      
EREF.M        631.8                : kb           - ELEVATION OF DEPTH REFERENCE
DATM.M        628.2                : datum        - DATUM ELEVATION             
TDD .M        620                  : tdd          - TOTAL DEPTH DRILLER         
RUN .         ONE                  : Run          - RUN NUMBER                  
ENG .         RORMOWSKI            : Engineer     - RECORDING ENGINEER          
WIT .         HERRON               : Witness      - WITNESSED BY                
BASE.         SLAVE LAKE           : Branch       - HOME BASE OF LOGGING UNIT   
MUD .         GEL CHEM MUDD        : Mud_type     - MUD TYPE                    
MATR.         SANDSTONE            : Logunit      - NEUTRON MATRIX              
TMAX.C        25                   : BHT          - MAXIMUM RECORDED TEMPERATURE
BHTD.M        618.8                : BHTDEP       - MAXIMUM RECORDED TEMPERATURE
RMT .C        16                   : MDTP         - TEMPERATURE OF MUD          
MUDD.KG/M     1140                 : MWT          - MUD DENSITY                 
NEUT.         1                    : NEUTRON      - NEUTRON TYPE                
RESI.         0                    : RESIST       - RESISTIVITY TYPE            
RM  .OHMM     4.1                  : RM           - RESISTIVITY OF MUD          
RMC .OHMM     4.8                  : RMC          - RESISTIVITY OF MUD CAKE     
RMF .OHMM     3.5                  : RMF          - RESISTIVITY OF MUD FILTRATE 
SUFT.C        32                   : SUFT         - SURFACE TEMPERATURE         
~A  DEPTH     PHID     PHIN       GR      CAL     RESD
# ...
  408.000    0.295    0.416   66.019  171.998    4.645
  408.250    0.304    0.424   66.818  172.006    4.715
  408.500    0.313    0.421   64.196  172.015    4.822
  408.750    0.319    0.414   64.079  171.922    5.023
  409.000    0.326    0.422   67.200  171.829    5.409
  409.250    0.328    0.419   68.244  171.734    5.869
  409.500    0.325    0.404   68.494  171.744    6.843
  409.750    0.313    0.329   68.927  171.751    8.009
  410.000    0.286    0.289   67.099  171.658    9.219
  410.250    0.069    0.242   62.400  171.770    8.903
  410.500    0.044    0.229   58.188  171.677    8.014
  410.750    0.037    0.260   55.749  171.786    6.838
  411.000    0.052    0.323   60.215  171.794    5.878
  411.250    0.191    0.362   63.642  172.007    5.311
  411.500    0.325    0.392   64.930  171.812    4.817
  411.750    0.325    0.416   63.041  171.413    4.609
  412.000    0.318    0.431   63.779  171.218    4.509
  412.250    0.309    0.428   65.617  171.022    4.594
  412.500    0.319    0.427   67.822  170.726    4.920
  412.750    0.328    0.410   69.538  170.531    5.358
  413.000    0.331    0.386   66.061  170.437    5.845
  413.250    0.328    0.372   67.471  171.770    6.629
  413.500    0.321    0.357   72.303  173.510    7.616
  413.750    0.301    0.341   74.874  174.638    7.847
  414.000    0.124    0.319   60.154  175.462    7.077
  414.250    0.073    0.290   72.624  175.980    6.128
  414.500    0.118    0.301   78.739  176.802    5.558
  414.750    0.227    0.382   83.571  177.728    5.347
  415.000    0.223    0.380   86.509  178.754    5.270
  415.250    0.217    0.383   87.248  180.494    5.261
  415.500    0.211    0.396   87.619  180.910    5.272
  415.750    0.238    0.404   89.274  177.761    5.235
  416.000    0.243    0.400   91.295  176.650    5.168
  416.250    0.228    0.396   91.911  176.659    5.103
  416.500    0.229    0.391   93.016  176.668    5.104
  416.750    0.223    0.373   92.105  176.676    5.191
  417.000    0.211    0.383   86.855  177.092    5.388
  417.250    0.241    0.410   89.060  177.201    5.439
  417.500    0.231    0.403   87.660  178.127    5.410
  417.750    0.223    0.395   86.871  179.764    5.391
  418.000    0.213    0.402   86.448  182.624    5.353
  418.250    0.220    0.421   87.370  184.771    5.305
  418.500    0.238    0.412   90.613  186.511    5.247
  418.750    0.224    0.407   95.323  186.927    5.124
  419.000    0.205    0.398   99.788  187.037    5.022
  419.250    0.200    0.383   92.584  187.046    4.922
  419.500    0.196    0.375   86.601  186.953    4.762
  419.750    0.197    0.388   88.684  186.962    4.490
  420.000    0.199    0.401   91.927  187.173    4.148
  420.250    0.199    0.401   93.276  187.692    3.803
  420.500    0.198    0.409   92.915  188.005    3.507
  420.750    0.202    0.426   94.692  188.115    3.294
  421.000    0.213    0.436   96.713  187.717    3.175
  421.250    0.223    0.438   96.596  183.652    3.159
  421.500    0.222    0.437   95.318  174.496    3.254
  421.750    0.233    0.437   89.336  173.791    3.498
  422.000    0.254    0.437   84.331  172.883    3.664
  422.250    0.295    0.434   78.715  172.995    3.939
  422.500    0.297    0.425   78.231  173.614    4.172
  422.750    0.288    0.415   80.925  174.029    4.419
  423.000    0.276    0.414   81.541  174.751    4.621
  423.250    0.273    0.413   84.417  175.370    4.665
  423.500    0.256    0.400   84.483  175.480    4.623
  423.750    0.237    0.406   83.878  176.202    4.423
  424.000    0.237    0.400   84.250  175.701    4.375
  424.250    0.237    0.382   81.994  173.775    4.450
  424.500    0.254    0.364   76.744  167.878    4.601
  424.750    0.280    0.373   68.684  165.340    4.688
  425.000    0.304    0.399   63.496  165.553    4.561
  425.250    0.326    0.388   65.884  165.663    4.396
  425.500    0.336    0.386   70.533  165.875    4.246
  425.750    0.320    0.447   76.587  166.088    4.085
  426.000    0.305    0.453   85.879  166.401    3.981
  426.250    0.295    0.431   79.224  166.614    3.960
  426.500    0.302    0.411   73.731  166.928    3.991
  426.750    0.312    0.401   71.231  167.241    4.051
  427.000    0.323    0.391   68.242  167.455    4.112
  427.250    0.333    0.373   67.208  167.462    4.121
  427.500    0.337    0.380   65.808  167.063    4.084
  427.750    0.338    0.408   63.186  163.916    4.010
  428.000    0.354    0.448   62.886  162.498    3.923
  428.250    0.319    0.442   63.196  165.766    3.852
  428.500    0.310    0.432   62.713  167.404    3.775
  428.750    0.323    0.419   61.251  167.311    3.714
  429.000    0.335    0.393   59.363  167.013    3.680
  429.250    0.344    0.404   58.512  166.818    3.661
  429.500    0.333    0.416   61.267  166.622    3.648
  429.750    0.337    0.414   63.105  166.427    3.662
  430.000    0.336    0.413   62.805  166.235    3.690
  430.250    0.332    0.418   63.543  166.140    3.739
  430.500    0.328    0.409   65.381  165.945    3.803
  430.750    0.319    0.402   66.852  165.955    3.918
  431.000    0.323    0.402   65.575  165.859    4.142
  431.250    0.325    0.410   67.535  166.786    4.428
  431.500    0.333    0.422   66.440  167.709    4.840
  431.750    0.326    0.421   67.545  169.246    5.339
  432.000    0.329    0.419   69.445  170.272    5.750
  432.250    0.331    0.418   67.494  170.383    5.913
  432.500    0.330    0.421   64.567  170.187    5.668
  432.750    0.327    0.419   62.311  169.178    5.255
  433.000    0.314    0.406   60.055  168.881    4.846
  433.250    0.290    0.390   57.739  169.195    4.387
  433.500    0.270    0.379   72.774  170.528    4.205
  433.750    0.289    0.380   82.861  172.878    4.364
  434.000    0.292    0.378   77.123  174.414    4.806
  434.250    0.295    0.374   67.596  170.960    5.562
  434.500    0.318    0.381   63.813  165.673    6.498
  434.750    0.334    0.385   66.263  162.016    7.718
  435.000    0.320    0.374   66.267  161.617    9.780
  435.250    0.285    0.340   62.485  168.244   11.921
  435.500    0.173    0.313   56.502  171.309   14.423
  435.750    0.091    0.185   52.535  171.114   17.387
  436.000    0.059    0.164   47.775  171.529   19.574
  436.250    0.035    0.150   47.597  171.232   21.042
  436.500    0.043    0.139   47.113  170.630   20.968
  436.750    0.043    0.130   42.475  172.064   19.660
  437.000    0.019    0.119   43.885  170.748   16.867
  437.250    0.004    0.115   42.546  164.647   14.155
  437.500    0.012    0.122   40.841  162.111   11.989
  437.750   -0.012    0.145   41.395  161.711    9.876
  438.000   -0.023    0.216   44.211  161.720    7.943
  438.250    0.026    0.279   47.699  161.423    6.604
  438.500    0.266    0.297   53.569  161.126    5.522
  438.750    0.228    0.303   50.703  161.033    4.591
  439.000    0.216    0.321   51.746  160.940    3.961
  439.250    0.300    0.362   53.402  160.948    3.734
  439.500    0.330    0.380   54.262  160.854    3.694
  439.750    0.335    0.390   57.017  160.659    3.702
  440.000    0.328    0.389   59.955  160.363    3.716
  440.250    0.320    0.384   56.782  160.067    3.703
  440.500    0.319    0.389   58.376  160.074    3.697
  440.750    0.323    0.398   61.620  160.389    3.624
  441.000    0.323    0.394   65.108  160.703    3.512
  441.250    0.318    0.387   66.518  160.914    3.392
  441.500    0.325    0.389   68.845  160.923    3.270
  441.750    0.320    0.393   69.461  161.136    3.193
  442.000    0.310    0.399   62.746  161.247    3.152
  442.250    0.316    0.397   65.805  161.560    3.212
  442.500    0.327    0.392   63.428  161.670    3.327
  442.750    0.340    0.390   61.538  161.780    3.492
  443.000    0.347    0.390   57.817  161.585    3.810
  443.250    0.344    0.385   54.400  161.288    4.156
  443.500    0.335    0.377   52.511  161.093    4.435
  443.750    0.344    0.374   53.616  160.899    4.706
  444.000    0.323    0.377   56.248  160.805    4.966
  444.250    0.313    0.358   58.392  160.609    5.202
