~VERSION INFORMATION
 VERS.                 2.0:   CWLS LOG ASCII STANDARD -VERSION 2.0
 WRAP.                  NO:   ONE LINE PER DEPTH STEP
~WELL INFORMATION BLOCK
#MNEM.UNIT           DATA                    DESCRIPTION OF MNEMONIC
#---------    -------------------            -------------------------------
# Generated from Intellog Unique Number	CS_69_70/WELL/784
NULL.         -999.25                        : NULL_VALUE
WELL.         ET AL TWEEDIE                  : Well_name    - WELL              
LOC .         00/06-31-070-11W4/0            : Location     - LOCATION          
UWI .         00/06-31-070-11W4/0            : Uwi          - UNIQUE WELL ID    
ENTR.         SP                             : Entered      - ENTERED BY        
SRVC.         SCHLUMBERGER                   : Scn          - SERVICE COMPANY   
STRT.M        265                            : top_depth    - START DEPTH       
STOP.M        470                            : bot_depth    - STOP DEPTH        
STEP.M        0.25                           : increment    - STEP LENGTH       
~CURVE INFORMATION BLOCK
#MNEM UNIT       ERCB CURVE CODE    CURVE DESCRIPTION
#-----------   ------------------   ----------------------------------
DEPT.M        00 001 00 00         : DEPTH        - DEPTH                       
ILD .OHMM     00 120 00 00         : RESD         - DEEP RESISTIVITY (DIL)      
DPHI.V/V      00 890 00 00         : PHID         - DENSITY POROSITY (LIMESTONE)
NPHI.V/V      00 330 00 00         : PHIN         - NEUTRON POROSITY (LIMESTONE)
GR  .API      00 310 00 00         : GR           - GAMMA RAY                   
~PARAMETER INFORMATION       
#MNEM.UNIT           DATA             DESCRIPTION OF MNEMONIC
#---------         -----------     ------------------------------
GL  .M        601.69               : gl           - GROUND LEVEL ELEVATION      
EREF.M        605.66               : kb           - ELEVATION OF DEPTH REFERENCE
DATM.M        601.69               : datum        - DATUM ELEVATION             
TDD .M        488                  : tdd          - TOTAL DEPTH DRILLER         
RUN .         ONE                  : Run          - RUN NUMBER                  
ENG .         BILL                 : Engineer     - RECORDING ENGINEER          
WIT .         JIM                  : Witness      - WITNESSED BY                
MUD .         GEL                  : Mud_type     - MUD TYPE                    
MATR.         LIMESTONE            : Logunit      - NEUTRON MATRIX              
TMAX.C        18.5                 : BHT          - MAXIMUM RECORDED TEMPERATURE
BHTD.M        488                  : BHTDEP       - MAXIMUM RECORDED TEMPERATURE
MATR.         1                    : LOGUNIT      - NEUTRON MATRIX              
RMT .C        25                   : MDTP         - TEMPERATURE OF MUD          
NEUT.         1                    : NEUTRON      - NEUTRON TYPE                
RESI.         0                    : RESIST       - RESISTIVITY TYPE            
RMC .OHMM     0.25                 : RMC          - RESISTIVITY OF MUD CAKE     
RMF .OHMM     0.25                 : RMF          - RESISTIVITY OF MUD FILTRATE 
SUFT.C        15                   : SUFT         - SURFACE TEMPERATURE         
~A  DEPTH     RESD     PHID     PHIN       GR
# ...
  352.000    9.354    0.325    0.423   57.124
  352.250    9.290    0.333    0.416   56.344
  352.500    9.259    0.338    0.416   56.774
  352.750    9.212    0.342    0.422   57.872
  353.000    9.164    0.328    0.450   59.336
  353.250    9.083    0.327    0.443   60.010
  353.500    9.053    0.329    0.436   60.502
  353.750    9.040    0.320    0.446   60.326
  354.000    9.028    0.318    0.452   60.030
  354.250    9.083    0.323    0.447   59.734
  354.500    9.121    0.330    0.445   62.894
  354.750    9.177    0.332    0.445   65.386
  355.000    9.232    0.331    0.460   66.909
  355.250    9.272    0.336    0.474   67.036
  355.500    9.276    0.340    0.487   65.286
  355.750    9.264    0.335    0.481   62.748
  356.000    9.200    0.325    0.455   61.421
  356.250    9.101    0.319    0.439   61.127
  356.500    9.020    0.315    0.427   61.376
  356.750    8.974    0.313    0.444   61.686
  357.000    8.978    0.314    0.447   62.359
  357.250    8.932    0.324    0.446   62.367
  357.500    8.936    0.325    0.447   61.829
  357.750    8.759    0.323    0.434   61.412
  358.000    8.552    0.329    0.422   61.543
  358.250    8.366    0.336    0.426   62.093
  358.500    8.953    0.334    0.432   62.706
  358.750    8.758    0.327    0.421   63.380
  359.000    8.747    0.316    0.411   63.933
  359.250    8.816    0.308    0.428   64.304
  359.500    8.987    0.310    0.442   64.373
  359.750    9.093    0.312    0.433   64.984
  360.000    8.779    0.312    0.408   65.840
  360.250    8.196    0.303    0.421   69.908
  360.500    7.552    0.298    0.428   78.582
  360.750    7.011    0.267    0.419   84.347
  361.000    6.657    0.258    0.416   88.112
  361.250    6.488    0.255    0.429   90.725
  361.500    6.371    0.261    0.438   89.521
  361.750    6.362    0.263    0.447   87.347
  362.000    6.401    0.256    0.455   86.929
  362.250    6.452    0.251    0.459   89.785
  362.500    6.432    0.250    0.462   92.944
  362.750    6.386    0.244    0.455   94.709
  363.000    6.306    0.235    0.440   93.080
  363.250    6.204    0.227    0.431   91.450
  363.500    6.312    0.226    0.443   92.851
  363.750    6.630    0.268    0.456   93.405
  364.000    7.055    0.288    0.465   92.502
  364.250    7.636    0.306    0.462   86.994
  364.500    7.930    0.305    0.448   80.274
  364.750    8.313    0.306    0.437   78.220
  365.000    8.700    0.312    0.428   76.834
  365.250    9.035    0.323    0.442   75.327
  365.500    9.366    0.319    0.462   73.818
  365.750    9.764    0.298    0.479   72.370
  366.000   10.141    0.186    0.353   74.379
  366.250   10.357    0.188    0.312   78.325
  366.500   10.401    0.239    0.388   81.119
  366.750   10.387    0.255    0.429   83.551
  367.000   10.313    0.274    0.452   82.649
  367.250   10.129    0.283    0.449   80.535
  367.500    9.945    0.289    0.439   81.999
  367.750    9.857    0.279    0.433   82.853
  368.000    9.733    0.270    0.437   83.163
  368.250    9.611    0.263    0.442   80.988
  368.500    9.420    0.268    0.430   81.481
  368.750    8.943    0.268    0.424   84.094
  369.000    8.428    0.266    0.423   85.798
  369.250    7.942    0.253    0.422   86.108
  369.500    7.583    0.244    0.424   90.540
  369.750    7.336    0.240    0.437   94.002
  370.000    7.325    0.243    0.450   94.554
  370.250    7.399    0.234    0.451   90.562
  370.500    7.597    0.218    0.427   87.660
  370.750    7.995    0.212    0.418   91.061
  371.000    8.320    0.211    0.416   93.858
  371.250    8.464    0.210    0.410   92.954
  371.500    8.532    0.208    0.424   89.507
  371.750    8.364    0.213    0.424   88.241
  372.000    8.288    0.212    0.422   87.218
  372.250    8.248    0.218    0.426   86.983
  372.500    8.251    0.210    0.420   89.112
  372.750    8.316    0.203    0.417   91.422
  373.000    8.337    0.199    0.425   92.581
  373.250    8.277    0.197    0.431   92.769
  373.500    8.113    0.215    0.423   91.868
  373.750    7.804    0.227    0.424   90.663
  374.000    7.577    0.227    0.431   91.034
  374.250    7.234    0.228    0.433   92.071
  374.500    6.920    0.235    0.459   92.322
  374.750    6.707    0.246    0.471   92.207
  375.000    6.672    0.254    0.457   91.608
  375.250    6.713    0.258    0.450   87.312
  375.500    6.592    0.255    0.445   85.986
  375.750    6.437    0.244    0.448   91.206
  376.000    6.251    0.236    0.451   95.941
  376.250    6.138    0.231    0.463   98.493
  376.500    6.016    0.230    0.480   96.864
  376.750    5.928    0.236    0.496   95.114
  377.000    5.463    0.236    0.498   95.242
  377.250    4.619    0.233    0.480   95.310
  377.500    4.024    0.244    0.452   94.347
  377.750    3.499    0.262    0.432   92.475
  378.000    2.953    0.275    0.434   96.240
  378.250    2.525    0.283    0.505  101.218
  378.500    2.139    0.290    0.554  103.286
  378.750    1.909    0.290    0.562  103.475
  379.000    1.799    0.276    0.574  105.786
  379.250    2.228    0.261    0.595  106.155
  379.500    2.779    0.249    0.530  101.860
  379.750    3.605    0.240    0.484   94.958
  380.000    4.213    0.234    0.460   89.207
  380.250    4.715    0.228    0.442   83.578
  380.500    5.180    0.244    0.448   85.525
  380.750    5.410    0.246    0.458   91.110
  381.000    5.494    0.242    0.462   94.208
  381.250    5.559    0.234    0.456   95.547
  381.500    5.593    0.226    0.448   95.494
  381.750    5.670    0.222    0.457   91.864
  382.000    5.811    0.224    0.466   87.932
  382.250    6.104    0.245    0.477   85.636
  382.500    6.316    0.260    0.485   81.945
  382.750    6.499    0.268    0.472   78.316
  383.000    6.514    0.252    0.443   81.233
  383.250    6.554    0.232    0.428   84.271
  383.500    6.570    0.225    0.425   83.368
  383.750    6.513    0.243    0.426   80.588
  384.000    6.504    0.265    0.424   77.383
  384.250    6.470    0.271    0.427   79.754
  384.500    6.425    0.268    0.434   83.398
  384.750    6.403    0.287    0.432   84.617
  385.000    6.346    0.298    0.438   83.230
  385.250    6.233    0.298    0.446   79.298
  385.500    6.199    0.304    0.437   75.244
  385.750    5.954    0.312    0.431   70.888
  386.000    5.922    0.317    0.433   67.864
  386.250    5.815    0.319    0.417   65.933
  386.500    5.731    0.318    0.405   64.364
  386.750    5.681    0.317    0.405   63.826
  387.000    5.641    0.316    0.417   64.378
  387.250    5.633    0.315    0.423   66.689
  387.500    5.689    0.307    0.426   71.726
  387.750    5.735    0.294    0.428   79.067
  388.000    5.802    0.278    0.430   84.105
  388.250    5.936    0.260    0.434   86.961
  388.500    6.305    0.250    0.441   88.180
  388.750    6.992    0.253    0.451   87.521
  389.000    7.510    0.291    0.463   85.588
  389.250    7.829    0.309    0.483   79.717
  389.500    7.309    0.105    0.503   67.602
  389.750    6.525    0.084    0.294   57.609
  390.000    5.824    0.070    0.237   56.283
  390.250    5.267    0.181    0.327   65.503
  390.500    5.029    0.218    0.374   76.965
  390.750    5.671    0.236    0.444   80.124
  391.000    6.515    0.223    0.432   78.497
  391.250    7.239    0.152    0.375   77.593
  391.500    7.476    0.097    0.285   77.539
  391.750    7.124    0.112    0.285   77.607
  392.000    6.701    0.167    0.319   78.100
  392.250    6.291    0.192    0.363   78.652
  392.500    5.929    0.230    0.390   76.720
  392.750    5.598    0.234    0.409   76.666
  393.000    5.455    0.237    0.423   79.401
  393.250    5.278    0.240    0.432   81.529
  393.500    5.124    0.241    0.434   83.113
  393.750    4.848    0.240    0.434   85.301
  394.000    4.716    0.239    0.432   88.158
  394.250    4.605    0.238    0.430   89.558
  394.500    4.514    0.241    0.429   89.990
  394.750    4.524    0.246    0.438   87.088
  395.000    4.508    0.243    0.442   85.883
  395.250    4.469    0.244    0.444   88.680
