~VERSION INFORMATION
 VERS.                 2.0:   CWLS LOG ASCII STANDARD -VERSION 2.0
 WRAP.                  NO:   ONE LINE PER DEPTH STEP
~WELL INFORMATION BLOCK
#MNEM.UNIT           DATA                    DESCRIPTION OF MNEMONIC
#---------    -------------------            -------------------------------
# Generated from Intellog Unique Number	CW_82_90/WELL/532
WELL.         06-26-082-20W4                 : Well_name    - WELL
LOC .         00/06-26-082-20W4/0            : Location     - LOCATION
UWI .         00/06-26-082-20W4/0            : Uwi          - UNIQUE WELL ID
ENTR.         JAYE                           : Entered      - ENTERED BY
SRVC.         SCHLUMBERGER                   : Scn          - SERVICE COMPANY
DATE.         22 JAN 75                      : Date         - LOG DATE
STRT.M        179.832                        : top_depth    - START DEPTH
STOP.M        365.832                        : bot_depth    - STOP DEPTH
STEP.M        0.25                           : increment    - STEP LENGTH
 NULL. -999.2500:NULL Value
~CURVE INFORMATION BLOCK
#MNEM UNIT       ERCB CURVE CODE    CURVE DESCRIPTION
#-----------   ------------------   ----------------------------------
DEPT.M        00 001 00 00         : DEPTH        - DEPTH
CALI.MM       00 280 01 00         : CAL          - CALIPER
GR  .API      00 310 00 00         : GR           - GAMMA RAY
NPHI.V/V      00 330 00 00         : PHIN         - NEUTRON POROSITY (SANDSTONE)
DPHI.V/V      00 890 00 00         : PHID         - DENSITY POROSITY (SANDSTONE)
ILD .OHMM     00 120 00 00         : RESD         - DEEP RESISTIVITY (DIL)
~PARAMETER INFORMATION
#MNEM.UNIT           DATA             DESCRIPTION OF MNEMONIC
#---------         -----------     ------------------------------
GL  .M        594.36               : gl           - GROUND LEVEL ELEVATION
EREF.M        596.798              : kb           - ELEVATION OF DEPTH REFERENCE
DATM.M        594.36               : datum        - DATUM ELEVATION
TDD .M        369.418              : tdd          - TOTAL DEPTH DRILLER
RUN .         ONE                  : Run          - RUN NUMBER
ENG .         CURRIE               : Engineer     - RECORDING ENGINEER
WIT .         CUMMINS              : Witness      - WITNESSED BY
BASE.         EDMONTON             : Branch       - HOME BASE OF LOGGING UNIT
MUD .         GEL CHEM             : Mud_type     - MUD TYPE
MATR.         SANDSTONE            : Logunit      - NEUTRON MATRIX
TMAX.C        20                   : BHT          - MAXIMUM RECORDED TEMPERATURE
BHTD.M        369.418              : BHTDEP       - MAXIMUM RECORDED TEMPERATURE
RMT .C        21.1111              : MDTP         - TEMPERATURE OF MUD
MUDD.KG/M     9100                 : MWT          - MUD DENSITY
NEUT.         1                    : NEUTRON      - NEUTRON TYPE
RESI.         0                    : RESIST       - RESISTIVITY TYPE
RM  .OHMM     4.62                 : RM           - RESISTIVITY OF MUD
RMC .OHMM     0.25                 : RMC          - RESISTIVITY OF MUD CAKE
RMF .OHMM     5.52                 : RMF          - RESISTIVITY OF MUD FILTRATE
SUFT.C        4                    : SUFT         - SURFACE TEMPERATURE
~A  DEPTH      CAL       GR     PHIN     PHID     RESD
# ...
  252.832  164.322   54.399    0.501    0.358   14.606
  253.082  164.564   55.265    0.508    0.366   14.824
  253.332  164.792   54.797    0.497    0.369   15.046
  253.582  165.237   53.965    0.501    0.375   15.205
  253.832  165.477   54.348    0.512    0.365   15.370
  254.082  165.302   55.522    0.519    0.359   15.415
  254.332  164.087   55.412    0.521    0.360   15.523
  254.582  162.867   53.430    0.513    0.351   15.533
  254.832  162.069   54.356    0.481    0.364   15.670
  255.082  162.097   54.070    0.473    0.367   15.775
  255.332  163.372   53.301    0.482    0.364   15.946
  255.582  164.861   53.682    0.495    0.356   16.057
  255.832  165.099   53.333    0.506    0.353   16.038
  256.082  164.609   52.625    0.512    0.358   15.954
  256.332  164.222   52.157    0.492    0.370   15.936
  256.582  163.733   51.202    0.482    0.374   15.885
  256.832  163.660   51.522    0.491    0.374   15.773
  257.082  164.318   52.268    0.504    0.360   15.662
  257.332  164.760   53.194    0.517    0.378   15.668
  257.582  163.648   53.395    0.530    0.385   15.590
  257.832  161.290   52.379    0.536    0.382   15.449
  258.082  160.278   52.704    0.514    0.383   15.395
  258.332  162.180   53.267    0.497    0.379   15.194
  258.582  162.834   53.161    0.501    0.376   15.086
  258.832  162.968   54.267    0.510    0.365   15.217
  259.082  162.685   54.831    0.513    0.366   15.323
  259.332  162.928   56.124    0.513    0.369   15.242
  259.582  163.472   58.078    0.523    0.364   14.927
  259.832  163.818   58.704    0.533    0.360   14.850
  260.082  164.057   56.961    0.524    0.365   14.744
  260.332  164.187   53.645    0.523    0.367   14.694
  260.582  163.489   53.176    0.545    0.369   14.646
  260.832  162.379   56.225    0.526    0.366   14.627
  261.082  161.690   58.004    0.503    0.374   14.552
  261.332  161.612   56.686    0.498    0.369   14.421
  261.582  161.430   56.218    0.526    0.355   14.431
  261.832  161.460   56.840    0.536    0.360   14.415
  262.082  161.493   58.131    0.535    0.368   14.425
  262.332  160.695   56.756    0.534    0.373   14.466
  262.582  160.617   54.347    0.521    0.350   14.449
  262.832  160.755   54.244    0.522    0.343   14.578
  263.082  161.826   55.290    0.506    0.350   14.763
  263.332  162.474   56.945    0.497    0.365   14.893
  263.582  163.340   57.748    0.498    0.368   14.698
  263.832  164.515   59.828    0.496    0.368   14.249
  264.082  164.547   60.633    0.488    0.369   14.005
  264.332  163.947   63.318    0.482    0.351   13.820
  264.582  162.941   63.215    0.486    0.350   13.722
  264.832  162.454   60.807    0.493    0.356   13.624
  265.082  162.690   59.307    0.515    0.354   13.529
  265.332  163.338   61.508    0.529    0.348   13.510
  265.582  164.512   63.709    0.532    0.354   13.467
  265.832  165.376   64.573    0.512    0.343   13.479
  266.082  166.026   63.924    0.500    0.346   13.464
  266.332  166.476   63.881    0.509    0.363   13.420
  266.582  165.476   65.595    0.520    0.366   13.430
  266.832  164.975   66.705    0.514    0.360   13.386
  267.082  164.285   65.327    0.513    0.358   13.237
  267.332  164.314   62.010    0.518    0.345   13.168
  267.582  164.448   60.511    0.519    0.339   13.022
  267.832  164.477   60.407    0.526    0.335   12.474
  268.082  164.717   60.909    0.530    0.321   11.501
  268.332  165.265   65.171    0.528    0.315    9.258
  268.582  165.708   68.947    0.525    0.327    6.533
  268.832  166.058   72.240    0.536    0.342    5.674
  269.082  166.184   74.196    0.555    0.324    4.869
  269.332  166.838   73.245    0.571    0.301    4.271
  269.582  167.594   77.201    0.585    0.270    3.799
  269.832  168.670   79.401    0.541    0.275    3.699
  270.082  169.837   81.361    0.509    0.272    3.702
  270.332  171.117   85.316    0.563    0.256    3.711
  270.582  173.221   94.065    0.579    0.270    3.983
  270.832  175.640   99.720    0.594    0.262    4.309
  271.082  178.071  100.223    0.600    0.253    4.852
  271.332  178.614  100.664    0.552    0.238    5.585
  271.582  179.055  100.681    0.562    0.232    6.188
  271.832  179.814   97.971    0.556    0.229    7.009
  272.082  179.740   95.926    0.555    0.244    8.463
  272.332  179.049   93.761    0.532    0.254   10.117
  272.582  177.312   87.594    0.511    0.247   12.143
  272.832  174.741   81.852    0.507    0.268   14.574
  273.082  171.348   76.837    0.502    0.274   17.458
  273.332  168.884   74.249    0.512    0.284   19.734
  273.582  167.668   72.809    0.496    0.291   20.845
  273.832  167.076   70.705    0.493    0.298   20.782
  274.082  166.484   68.601    0.490    0.309   20.060
  274.332  166.300   67.768    0.501    0.322   16.741
  274.582  166.332   67.603    0.509    0.303   13.859
  274.832  166.363   69.865    0.497    0.280   12.084
  275.082  166.081   79.280    0.473    0.262   11.277
  275.332  167.464   85.359    0.473    0.253   11.064
  275.582  169.362   90.166    0.461    0.258   11.117
  275.832  171.677   86.365    0.472    0.243   11.148
  276.082  181.991   86.143    0.469    0.248   11.340
  276.332  184.306   90.523    0.466    0.264   11.436
  276.582  177.586   91.811    0.467    0.251   11.960
  276.832  167.330   90.131    0.479    0.239   12.408
  277.082  163.941   91.725    0.481    0.241   12.923
  277.332  164.069   90.045    0.502    0.257   13.436
  277.582  165.449   88.546    0.498    0.271   13.663
  277.832  167.353   89.598    0.491    0.265   13.698
  278.082  168.214   92.036    0.498    0.254   12.992
  278.332  168.552   91.689    0.503    0.256   12.245
  278.582  170.037   92.980    0.507    0.245   11.315
  278.832  172.251   91.664    0.503    0.254   10.793
  279.082  173.939   91.569    0.499    0.241   10.420
  279.332  175.842   92.124    0.512    0.229   10.265
  279.582  177.333   95.778    0.526    0.218   10.418
  279.832  178.083   96.886    0.493    0.222   10.613
  280.082  178.735   87.021    0.486    0.242   10.991
  280.332  177.416   80.856    0.470    0.275   10.954
  280.582  163.527   78.447    0.459    0.276   10.408
  280.832  164.395   77.857    0.474    0.273    9.427
  281.082  164.842   77.632    0.477    0.265    9.284
  281.332  165.385   76.378    0.464    0.267   10.267
  281.582  166.662   74.999    0.453    0.265   12.128
  281.832  167.937   71.985    0.444    0.255   12.481
  282.082  168.800   74.004    0.439    0.254   12.418
  282.332  169.658   78.689    0.453    0.270   11.917
  282.582  170.211   80.468    0.466    0.231   11.145
  282.832  170.449   84.242    0.483    0.248   10.630
  283.082  170.996   86.562    0.501    0.253   10.366
  283.332  171.858   85.912    0.509    0.268   10.734
  283.582  173.031   84.111    0.498    0.265   10.938
  283.832  169.738   83.158    0.481    0.247   10.858
  284.082  166.133   82.994    0.449    0.202   10.462
  284.332  165.339   82.707    0.431    0.149    9.666
  284.582  165.469   82.000    0.461    0.181    9.003
  284.832  165.084   80.985    0.491    0.268    8.073
  285.082  165.633   81.184    0.531    0.269    7.268
  285.332  167.218   82.959    0.530    0.286    6.596
  285.582  176.910   83.946    0.552    0.269    6.368
  285.832  182.864   85.055    0.565    0.301    6.247
  286.082  179.047   87.983    0.571    0.298    7.175
  286.332  170.667   89.151    0.566    0.290    8.579
  286.582  167.267   91.594    0.539    0.294    9.735
  286.832  168.231   92.883    0.514    0.294   11.319
  287.082  169.717   86.656    0.496    0.289   11.743
  287.332  170.789   82.065    0.506    0.281   11.705
  287.582  171.233   78.810    0.506    0.281   11.620
  287.832  170.847   78.766    0.509    0.287   11.513
  288.082  169.942   77.146    0.516    0.293   11.454
  288.332  169.456   73.648    0.503    0.283   11.373
  288.582  169.068   69.848    0.491    0.273   11.358
  288.832  168.786   70.348    0.486    0.279   11.188
  289.082  168.815   72.486    0.495    0.289   11.019
