~VERSION INFORMATION
 VERS.                 2.0:   CWLS LOG ASCII STANDARD -VERSION 2.0
 WRAP.                  NO:   ONE LINE PER DEPTH STEP
~WELL INFORMATION BLOCK
#MNEM.UNIT           DATA                    DESCRIPTION OF MNEMONIC
#---------    -------------------            -------------------------------
# Generated from Intellog Unique Number	CN_94_101/WELL/2594
WELL.         PARAMOUNT RESOURCES LTD.       : Well_name    - WELL
LOC .         00/09-35-094-18W4/0            : Location     - LOCATION
UWI .         00/09-35-094-18W400            : Uwi          - UNIQUE WELL ID
ENTR.         JOETTE                         : Entered      - ENTERED BY
SRVC.         COMPUTALOG                     : Scn          - SERVICE COMPANY
DATE.         06/12/92                       : Date         - LOG DATE
STRT.M        95                             : top_depth    - START DEPTH
STOP.M        295                            : bot_depth    - STOP DEPTH
STEP.M        0.25                           : increment    - STEP LENGTH
 NULL. -999.2500:NULL Value
~CURVE INFORMATION BLOCK
#MNEM UNIT       ERCB CURVE CODE    CURVE DESCRIPTION
#-----------   ------------------   ----------------------------------
DEPT.M        00 001 00 00         : DEPTH        - DEPTH
CALI.MM       00 280 01 00         : CAL          - CALIPER
GR  .API      00 310 00 00         : GR           - GAMMA RAY
NPHI.V/V      00 330 00 00         : PHIN         - NEUTRON POROSITY (SANDSTONE)
DPHI.V/V      00 890 00 00         : PHID         - DENSITY POROSITY (SANDSTONE)
ILD .OHMM     00 120 00 00         : RESD         - DEEP RESISTIVITY (DIL)
~PARAMETER INFORMATION
#MNEM.UNIT           DATA             DESCRIPTION OF MNEMONIC
#---------         -----------     ------------------------------
GL  .M        554.9                : gl           - GROUND LEVEL ELEVATION
EREF.M        558.7                : kb           - ELEVATION OF DEPTH REFERENCE
DATM.M        558.7                : datum        - DATUM ELEVATION
TDD .M        293.9                : tdd          - TOTAL DEPTH DRILLER
RUN .         ONE                  : Run          - RUN NUMBER
ENG .         BILL                 : Engineer     - RECORDING ENGINEER
WIT .         JIM                  : Witness      - WITNESSED BY
MUD .         GEL                  : Mud_type     - MUD TYPE
MATR.         SANDSTONE            : Logunit      - NEUTRON MATRIX
TMAX.C        25                   : BHT          - MAXIMUM RECORDED TEMPERATURE
BHTD.M        293.9                : BHTDEP       - MAXIMUM RECORDED TEMPERATURE
RMT .C        15                   : MDTP         - TEMPERATURE OF MUD
MUDD.KG/M     1100                 : MWT          - MUD DENSITY
NEUT.         1                    : NEUTRON      - NEUTRON TYPE
RESI.         0                    : RESIST       - RESISTIVITY TYPE
RM  .OHMM     2.1                  : RM           - RESISTIVITY OF MUD
RMC .OHMM     2.1                  : RMC          - RESISTIVITY OF MUD CAKE
RMF .OHMM     4.5                  : RMF          - RESISTIVITY OF MUD FILTRATE
SUFT.C        -15                  : SUFT         - SURFACE TEMPERATURE
~A  DEPTH      CAL       GR     PHIN     PHID     RESD
# ...
  204.500  154.503   65.218    0.428    0.329    6.907
  204.750  159.709   69.592    0.454    0.319    6.404
  205.000  161.791   72.090    0.450    0.291    5.827
  205.250  164.913   75.213    0.444    0.283    5.203
  205.500  165.951   80.837    0.447    0.274    4.734
  205.750  164.905   85.836    0.441    0.274    4.735
  206.000  163.859   88.960    0.439    0.276    4.646
  206.250  162.812   89.583    0.462    0.275    4.646
  206.500  162.808   90.831    0.477    0.269    4.825
  206.750  162.804   90.829    0.488    0.264    4.917
  207.000  162.800   88.951    0.483    0.259    5.303
  207.250  162.795   84.572    0.468    0.259    5.507
  207.500  162.793   82.694    0.440    0.272    5.829
  207.750  164.873   81.441    0.435    0.280    6.053
  208.000  166.951   86.440    0.435    0.279    6.528
  208.250  166.949   84.562    0.455    0.233    6.909
  208.500  160.693   67.055    0.383    0.165    8.036
  208.750  157.563   57.050    0.355    0.080    8.667
  209.000  157.559   63.299    0.338    0.208    8.190
  209.250  163.805   71.424    0.385    0.234    7.176
  209.500  164.845   81.425    0.404    0.243    6.529
  209.750  167.968   87.049    0.404    0.247    5.941
  210.000  169.006   84.546    0.417    0.252    5.830
  210.250  164.834   82.668    0.419    0.265    5.830
  210.500  159.620   85.792    0.420    0.269    5.509
  210.750  157.532   90.791    0.435    0.253    5.305
  211.000  161.694   90.789    0.434    0.240    4.737
  211.250  163.776   88.285    0.407    0.234    4.476
  211.500  167.939   88.283    0.406    0.237    4.151
  211.750  168.976   90.156    0.494    0.237    3.997
  212.000  167.929   93.280    0.508    0.233    3.849
  212.250  166.885   97.654    0.505    0.232    3.777
  212.500  166.881  100.152    0.502    0.234    3.997
  212.750  167.917  102.025    0.499    0.229    4.073
  213.000  167.915  103.273    0.499    0.200    4.477
  213.250  167.910   72.011    0.492    0.147    4.828
  213.500  164.781   65.757    0.402    0.104    4.920
  213.750  158.524   64.504    0.302    0.133    4.477
  214.000  158.521   73.254    0.298    0.212    4.231
  214.250  162.684   89.507    0.337    0.234    4.231
  214.500  165.807  102.008    0.483    0.240    4.394
  214.750  169.970  102.005    0.497    0.231    4.739
  215.000  172.051   93.251    0.445    0.224    5.833
  215.250  173.087   88.247    0.435    0.223    7.180
  215.500  173.085  102.624    0.408    0.223    8.195
  215.750  174.122  105.747    0.423    0.227    8.510
  216.000  174.118   99.493    0.403    0.236    8.351
  216.250  174.115   91.363    0.381    0.241    8.351
  216.500  172.027   90.110    0.375    0.248    8.511
  216.750  169.939   90.733    0.375    0.253    9.007
  217.000  161.600   91.981    0.374    0.223    9.179
  217.250  157.428   90.102    0.369    0.191    9.533
  217.500  156.381   88.850    0.371    0.170    9.533
  217.750  158.462   85.722    0.396    0.181    9.008
  218.000  162.625   87.594    0.401    0.215    8.353
  218.250  164.706   90.094    0.399    0.232    7.319
  218.500  167.826   95.718    0.398    0.236    7.319
  218.750  168.863   97.591    0.398    0.231    7.182
  219.000  168.860   97.588    0.403    0.226    7.182
  219.250  169.899   98.211    0.416    0.222    7.319
  219.500  169.895   98.209    0.434    0.227    7.459
  219.750  170.932   96.331    0.432    0.238    7.894
  220.000  170.929   91.952    0.400    0.249    8.354
  220.250  170.925   86.323    0.369    0.245    8.842
  220.500  167.794   85.070    0.363    0.242    9.357
  220.750  161.539   86.318    0.355    0.241    9.536
  221.000  156.325   90.067    0.374    0.242    9.536
  221.250  160.488   90.690    0.387    0.242    9.183
  221.500  163.611   87.561    0.388    0.236    8.843
  221.750  166.733   83.183    0.384    0.202    8.843
  222.000  161.517   83.180    0.384    0.205    9.012
  222.250  159.430   85.053    0.386    0.238    9.012
  222.500  157.344   88.802    0.387    0.249    9.012
  222.750  156.298   91.301    0.384    0.257    8.844
  223.000  158.378   91.298    0.382    0.255    8.201
  223.250  161.499   90.045    0.385    0.252    8.047
  223.500  164.621   88.167    0.391    0.246    7.604
  223.750  166.700   85.663    0.380    0.243    7.749
  224.000  167.740   82.536    0.327    0.239    8.201
  224.250  168.777   73.781    0.257    0.242    8.201
  224.500  168.774   77.530    0.268    0.239    8.680
  224.750  170.852   90.031    0.396    0.226    8.846
  225.000  171.892   92.529    0.407    0.211    9.186
  225.250  171.888   94.403    0.398    0.177    9.186
  225.500  171.883   87.523    0.384    0.079    8.846
  225.750  170.837   78.143    0.361    0.037    7.899
  226.000  165.622   73.137    0.352    0.108    7.606
  226.250  160.409   77.513    0.377    0.183    6.921
  226.500  157.278   86.888    0.408    0.216    6.921
  226.750  157.275  100.640    0.428    0.236    7.464
  227.000  158.312  106.264    0.429    0.222    8.519
  227.250  159.351  102.510    0.467    0.161    8.848
  227.500  161.429   93.756    0.297    0.126    8.051
  227.750  161.426   77.498    0.241    0.027    6.541
  228.000  162.464   71.869    0.251    0.163    4.399
  228.250  161.417   87.497    0.384    0.222    4.237
  228.500  162.455   98.748    0.450    0.239    4.400
  228.750  163.495  101.246    0.444    0.248    4.835
  229.000  166.615   93.741    0.418    0.253    4.318
  229.250  166.613   93.738    0.411    0.259    3.643
  229.500  164.525   99.363    0.477    0.264    3.253
  229.750  160.351  104.362    0.502    0.263    3.132
  230.000  160.349  104.359    0.527    0.249    3.643
  230.250  160.346  101.856    0.504    0.239    5.625
  230.500  162.426   98.728    0.467    0.241    6.182
  230.750  164.505   94.350    0.454    0.252    7.190
  231.000  166.585   90.596    0.440    0.254    8.207
  231.250  167.624   85.591    0.413    0.220    8.523
  231.500  168.662   83.715    0.400    0.194    8.207
  231.750  165.532   78.710    0.366    0.158    7.468
  232.000  160.318   79.333    0.333    0.130    7.191
  232.250  155.102   97.461    0.375    0.159    6.543
  232.500  155.098  100.585    0.424    0.203    6.183
  232.750  156.137  102.458    0.451    0.221    6.669
  233.000  158.216   99.329    0.461    0.188    7.329
  233.250  159.255   96.826    0.460    0.141    7.904
  233.500  162.377   86.821    0.423    0.104    8.853
  233.750  164.456   78.691    0.357    0.057    9.915
  234.000  165.495   78.689    0.326    0.164   10.297
  234.250  166.531   86.814    0.365    0.226   10.297
  234.500  166.529   96.189    0.379    0.243   10.494
  234.750  162.357   98.687    0.374    0.243   10.494
  235.000  160.268   95.559    0.371    0.226   10.494
  235.250  160.264   94.306    0.369    0.211   10.495
  235.500  160.259   96.180    0.373    0.191   10.495
  235.750  160.257   96.802    0.375    0.187   10.495
  236.000  162.337   94.299    0.374    0.210   10.696
  236.250  164.416   92.421    0.369    0.224   10.900
  236.500  164.413   93.669    0.360    0.215   10.900
  236.750  164.409   96.168    0.360    0.214   10.900
  237.000  163.362   96.165    0.360    0.215   10.697
  237.250  163.359   94.287    0.360    0.217   10.697
  237.500  164.395   94.910    0.360    0.219   10.108
  237.750  165.435   97.408    0.362    0.216   10.497
  238.000  166.472   99.282    0.368    0.211   10.698
  238.250  168.552  102.405    0.382    0.200   10.902
  238.500  169.591  103.653    0.384    0.192   11.110
  238.750  172.712  104.275    0.387    0.184   11.322
  239.000  173.751  103.023    0.391    0.180   12.211
  239.250  174.788  101.145    0.381    0.178   12.444
  239.500  172.701   99.267    0.385    0.178   13.676
  239.750  168.529   95.513    0.359    0.151   15.031
  240.000  163.313   87.383    0.297    0.118   17.483
  240.250  161.226   76.128    0.269    0.035   20.334
  240.500  159.139   68.623    0.251    0.030   22.774
  240.750  157.049   62.994    0.240    0.018   24.562
