~VERSION INFORMATION
 VERS.                 2.0:   CWLS LOG ASCII STANDARD -VERSION 2.0
 WRAP.                  NO:   ONE LINE PER DEPTH STEP
~WELL INFORMATION BLOCK
#MNEM.UNIT           DATA                    DESCRIPTION OF MNEMONIC
#---------    -------------------            -------------------------------
# Generated from Intellog Unique Number	CS_77_79/WELL/901
WELL.         CWWE WINEFRED                  : Well_name    - WELL
LOC .         00/07-19-078-03W4/0            : Location     - LOCATION
UWI .         00/07-19-078-03W4/0            : Uwi          - UNIQUE WELL ID
ENTR.         JHS                            : Entered      - ENTERED BY
SRVC.         SCHLUMBERGER                   : Scn          - SERVICE COMPANY
STRT.M        135                            : top_depth    - START DEPTH
STOP.M        415                            : bot_depth    - STOP DEPTH
STEP.M        0.25                           : increment    - STEP LENGTH
 NULL. -999.2500:NULL Value
~CURVE INFORMATION BLOCK
#MNEM UNIT       ERCB CURVE CODE    CURVE DESCRIPTION
#-----------   ------------------   ----------------------------------
DEPT.M        00 001 00 00         : DEPTH        - DEPTH
DPHI.V/V      00 890 00 00         : PHID         - DENSITY POROSITY (LIMESTONE)
NPHI.V/V      00 330 00 00         : PHIN         - NEUTRON POROSITY (LIMESTONE)
GR  .API      00 310 00 00         : GR           - GAMMA RAY
ILD .OHMM     00 120 00 00         : RESD         - DEEP RESISTIVITY (DIL)
RHOB.KG/M3    00 350 00 00         : DENS         - BULK DENSITY
~PARAMETER INFORMATION
#MNEM.UNIT           DATA             DESCRIPTION OF MNEMONIC
#---------         -----------     ------------------------------
GL  .M        556.2                : gl           - GROUND LEVEL ELEVATION
EREF.M        560.15               : kb           - ELEVATION OF DEPTH REFERENCE
DATM.M        560.15               : datum        - DATUM ELEVATION
TDD .M        423                  : tdd          - TOTAL DEPTH DRILLER
RUN .         ONE                  : Run          - RUN NUMBER
ENG .         BILL                 : Engineer     - RECORDING ENGINEER
WIT .         JIM                  : Witness      - WITNESSED BY
MUD .         GEL                  : Mud_type     - MUD TYPE
MATR.         LIMESTONE            : Logunit      - NEUTRON MATRIX
TMAX.C        24                   : BHT          - MAXIMUM RECORDED TEMPERATURE
BHTD.M        423                  : BHTDEP       - MAXIMUM RECORDED TEMPERATURE
MATR.         1                    : LOGUNIT      - NEUTRON MATRIX
RMT .C        25                   : MDTP         - TEMPERATURE OF MUD
NEUT.         1                    : NEUTRON      - NEUTRON TYPE
RESI.         0                    : RESIST       - RESISTIVITY TYPE
RMC .OHMM     0.25                 : RMC          - RESISTIVITY OF MUD CAKE
RMF .OHMM     0.25                 : RMF          - RESISTIVITY OF MUD FILTRATE
SUFT.C        15                   : SUFT         - SURFACE TEMPERATURE
~A  DEPTH     PHID     PHIN       GR     RESD     DENS
# ...
  390.500    0.157    0.384  111.385    5.956 2441.820
  390.750    0.164    0.415  110.169    6.073 2429.220
  391.000    0.201    0.443  111.460    6.074 2365.890
  391.250    0.378    0.547  104.615    6.076 2063.560
  391.500    0.380    0.608   92.780    5.852 2059.460
  391.750    0.316    0.615  107.195    5.636 2169.560
  392.000    0.285    0.600  116.605    5.327 2222.560
  392.250    0.290    0.583  122.265    5.035 2214.240
  392.500    0.369    0.590  107.298    4.759 2078.990
  392.750    0.386    0.610   99.216    4.671 2049.500
  393.000    0.312    0.481  103.624    4.673 2176.540
  393.250    0.249    0.453  106.791    4.763 2284.520
  393.500    0.202    0.429  107.450    5.043 2365.030
  393.750    0.152    0.409  103.108    5.340 2449.740
  394.000    0.142    0.396  100.644    5.443 2466.800
  394.250    0.150    0.410  108.825    5.655 2454.260
  394.500    0.152    0.425  110.090    5.876 2450.110
  394.750    0.149    0.403  113.253    5.877 2454.480
  395.000    0.142    0.378  117.045    5.991 2467.280
  395.250    0.122    0.349  116.449    6.225 2501.280
  395.500    0.113    0.321  106.490    6.467 2516.180
  395.750    0.106    0.311   85.280    6.718 2528.990
  396.000    0.113    0.310   77.815    7.114 2516.460
  396.250    0.124    0.311   79.730    7.251 2497.520
  396.500    0.130    0.312   71.643    7.394 2487.130
  396.750    0.136    0.314   61.053    7.395 2476.610
  397.000    0.160    0.314   51.096    7.123 2436.550
  397.250    0.188    0.303   46.754    6.606 2388.030
  397.500    0.206    0.293   39.294    6.243 2358.550
  397.750    0.233    0.296   32.457    5.575 2312.130
  398.000    0.252    0.309   26.869    4.793 2278.420
  398.250    0.234    0.304   23.781    4.530 2310.280
  398.500    0.218    0.298   30.700    4.531 2337.900
  398.750    0.204    0.299   37.609    4.533 2361.290
  399.000    0.208    0.308   41.392    4.709 2355.060
  399.250    0.226    0.316   42.682    4.801 2323.490
  399.500    0.236    0.322   42.098    4.988 2306.670
  399.750    0.247    0.322   40.250    5.281 2287.750
  400.000    0.244    0.315   39.033    5.384 2292.120
  400.250    0.197    0.308   47.827    5.700 2372.620
  400.500    0.170    0.303   55.357    6.035 2419.270
  400.750    0.150    0.297   64.144    6.390 2453.240
  401.000    0.139    0.298   71.674    6.766 2472.380
  401.250    0.133    0.306   78.588    7.028 2483.080
  401.500    0.124    0.313   80.513    7.302 2498.010
  401.750    0.114    0.314   77.422    7.444 2515.060
  402.000    0.121    0.308   73.703    7.447 2502.490
  402.250    0.144    0.299   71.240    7.309 2464.550
  402.500    0.164    0.294   66.279    7.175 2428.710
  402.750    0.192    0.295   59.437    6.781 2382.320
  403.000    0.209    0.292   48.221    6.531 2352.820
  403.250    0.188    0.296   36.385    6.057 2388.910
  403.500    0.169    0.311   45.806    5.724 2420.760
  403.750    0.155    0.352   55.835    5.309 2444.140
  404.000    0.146    0.380   73.999    4.923 2461.190
  404.250    0.175    0.395   82.775    4.832 2410.560
  404.500    0.202    0.411   94.685    4.927 2364.140
  404.750    0.227    0.431   98.473    5.119 2321.970
  405.000    0.242    0.514  100.382    5.120 2296.710
  405.250    0.242    0.535  112.918    4.931 2296.830
  405.500    0.244    0.510  123.581    4.661 2292.730
  405.750    0.237    0.486  131.121    4.323 2305.550
  406.000    0.208    0.448  126.148    4.406 2354.320
  406.250    0.181    0.418  111.814    4.492 2400.960
  406.500    0.157    0.396  116.224    4.756 2441.280
  406.750    0.143    0.381  120.639    5.036 2464.660
  407.000    0.153    0.373  116.930    5.332 2447.880
  407.250    0.147    0.398  108.212    5.753    0.000
  407.500    0.112    0.381   92.002    6.207    0.000
  407.750    0.091    0.343   76.416    6.697    0.000
  408.000    0.111    0.303   37.083    7.505    0.000
  408.250    0.122    0.246   27.748    8.571    0.000
  408.500    0.089    0.217   17.160    9.788    0.000
  408.750    0.048    0.202   16.579   11.392    0.000
  409.000    0.028    0.182   19.121   13.259    0.000
  409.250    0.015    0.170   21.018   15.143    0.000
  409.500    0.004    0.166   21.055   16.338    0.000
  409.750    0.000    0.170   21.092   17.966    0.000
  410.000    0.005    0.171   21.135   19.021    0.000
  410.250    0.030    0.163   20.543   20.916    0.000
  410.500    0.048    0.157   20.581   23.000    0.000
  410.750    0.057    0.160   15.616   24.815    0.000
  411.000    0.046    0.163   13.798   27.808    0.000
  411.250    0.040    0.164   13.190   30.006    0.000
  411.500    0.033    0.164   16.989   30.017    0.000
  411.750    0.026    0.168   17.009   29.463    0.000
  412.000    0.011    0.169   17.065   28.378    0.000
  412.250    0.000    0.163   17.084   26.821    0.000
  412.500    0.000    0.158   18.375   26.328    0.000
  412.750    0.000    0.154   17.171   26.837    0.000
  413.000    0.000    0.152   15.961   29.511    0.000
  413.250    0.003    0.153   15.359   32.450    0.000
  413.500    0.013    0.159   12.900   36.364    0.000
  413.750    0.017    0.161   11.684   39.236    0.000
  414.000    0.007    0.161   10.466   43.972    0.000
  414.250    0.000    0.161    9.261   46.553    0.000
  414.500    0.000    0.163   10.546   49.294    0.000
  414.750    0.003    0.166   11.829   50.248    0.000
  415.000    0.010    0.167   13.742   50.262    0.000
