~VERSION INFORMATION
 VERS.                 2.0:   CWLS LOG ASCII STANDARD -VERSION 2.0
 WRAP.                  NO:   ONE LINE PER DEPTH STEP
~WELL INFORMATION BLOCK
#MNEM.UNIT           DATA                    DESCRIPTION OF MNEMONIC
#---------    -------------------            -------------------------------
# Generated from Intellog Unique Number	CS_77_79/WELL/850
WELL.         CANADIAN WORLDWIDE ENERGY      : Well_name    - WELL
LOC .         00/04-13-077-05W4/0            : Location     - LOCATION
UWI .         00/04-13-077-05W4/0            : Uwi          - UNIQUE WELL ID
ENTR.         SP                             : Entered      - ENTERED BY
SRVC.         SCHLUMBERGER                   : Scn          - SERVICE COMPANY
STRT.M        165                            : top_depth    - START DEPTH
STOP.M        410                            : bot_depth    - STOP DEPTH
STEP.M        0.25                           : increment    - STEP LENGTH
 NULL. -999.2500:NULL Value
~CURVE INFORMATION BLOCK
#MNEM UNIT       ERCB CURVE CODE    CURVE DESCRIPTION
#-----------   ------------------   ----------------------------------
DEPT.M        00 001 00 00         : DEPTH        - DEPTH
ILD .OHMM     00 120 00 00         : RESD         - DEEP RESISTIVITY (DIL)
DPHI.V/V      00 890 00 00         : PHID         - DENSITY POROSITY (LIMESTONE)
NPHI.V/V      00 330 00 00         : PHIN         - NEUTRON POROSITY (LIMESTONE)
GR  .API      00 310 00 00         : GR           - GAMMA RAY
~PARAMETER INFORMATION
#MNEM.UNIT           DATA             DESCRIPTION OF MNEMONIC
#---------         -----------     ------------------------------
GL  .M        570.3                : gl           - GROUND LEVEL ELEVATION
EREF.M        573.3                : kb           - ELEVATION OF DEPTH REFERENCE
DATM.M        570.3                : datum        - DATUM ELEVATION
TDD .M        411.6                : tdd          - TOTAL DEPTH DRILLER
RUN .         ONE                  : Run          - RUN NUMBER
ENG .         BILL                 : Engineer     - RECORDING ENGINEER
WIT .         JIM                  : Witness      - WITNESSED BY
MUD .         GEL                  : Mud_type     - MUD TYPE
MATR.         LIMESTONE            : Logunit      - NEUTRON MATRIX
TMAX.C        20                   : BHT          - MAXIMUM RECORDED TEMPERATURE
BHTD.M        415                  : BHTDEP       - MAXIMUM RECORDED TEMPERATURE
MATR.         1                    : LOGUNIT      - NEUTRON MATRIX
RMT .C        25                   : MDTP         - TEMPERATURE OF MUD
NEUT.         1                    : NEUTRON      - NEUTRON TYPE
RESI.         0                    : RESIST       - RESISTIVITY TYPE
RMC .OHMM     0.25                 : RMC          - RESISTIVITY OF MUD CAKE
RMF .OHMM     0.25                 : RMF          - RESISTIVITY OF MUD FILTRATE
SUFT.C        15                   : SUFT         - SURFACE TEMPERATURE
~A  DEPTH     RESD     PHID     PHIN       GR
# ...
  295.500   10.054    0.288    0.462   77.461
  295.750   10.849    0.285    0.439   74.436
  296.000   11.930    0.147    0.414   65.341
  296.250   12.635    0.077    0.373   59.887
  296.500   12.882    0.066    0.288   62.936
  296.750   12.896    0.103    0.288   69.632
  297.000   12.434    0.167    0.349   74.502
  297.250   11.332    0.288    0.460   76.939
  297.500   10.326    0.301    0.465   78.775
  297.750    9.773    0.299    0.465   75.141
  298.000    9.602    0.295    0.449   72.728
  298.250    9.612    0.296    0.440   75.169
  298.500    9.618    0.299    0.452   77.609
  298.750    9.453    0.290    0.460   77.621
  299.000    9.283    0.275    0.467   76.417
  299.250    8.787    0.275    0.464   75.218
  299.500    8.630    0.281    0.474   75.835
  299.750    8.169    0.274    0.490   80.105
  300.000    8.172    0.265    0.502   81.333
  300.250    7.734    0.246    0.503   83.164
  300.500    7.599    0.238    0.492   84.994
  300.750    7.463    0.230    0.483   89.263
  301.000    7.473    0.228    0.473   91.092
  301.250    7.621    0.231    0.464   94.143
  301.500    7.628    0.233    0.452   96.581
  301.750    7.929    0.237    0.444   91.737
  302.000    8.396    0.248    0.435   91.143
  302.250    8.727    0.253    0.434   90.545
  302.500    8.733    0.259    0.431   89.345
  302.750    8.909    0.266    0.426   85.712
  303.000    9.089    0.277    0.436   82.085
  303.250    8.926    0.287    0.455   83.312
  303.500    8.934    0.280    0.470   85.749
  303.750    8.617    0.261    0.471   88.802
  304.000    8.306    0.254    0.462   90.025
  304.250    8.007    0.269    0.453   89.428
  304.500    7.578    0.280    0.463   86.406
  304.750    7.171    0.282    0.467   85.810
  305.000    6.912    0.269    0.464   85.825
  305.250    6.299    0.261    0.474   87.660
  305.500    5.740    0.246    0.492   90.099
  305.750    4.946    0.222    0.503   91.931
  306.000    4.506    0.217    0.508   94.981
  306.250    4.032    0.223    0.509   97.425
  306.500    3.960    0.240    0.505   92.579
  306.750    4.193    0.245    0.495   93.197
  307.000    4.524    0.243    0.505   95.039
  307.250    4.794    0.241    0.500   95.652
  307.500    4.888    0.240    0.491   96.876
  307.750    4.893    0.246    0.489  100.536
  308.000    4.630    0.245    0.500  102.372
  308.250    4.298    0.247    0.534  102.382
  308.500    3.918    0.255    0.554   98.143
  308.750    3.848    0.256    0.568   94.512
  309.000    3.853    0.255    0.578   93.308
  309.250    3.856    0.265    0.587   93.320
  309.500    3.933    0.267    0.573   91.509
  309.750    4.244    0.262    0.528   87.877
  310.000    4.667    0.240    0.478   79.388
  310.250    5.133    0.224    0.455   68.468
  310.500    5.433    0.202    0.446   72.732
  310.750    5.864    0.267    0.454   76.391
  311.000    6.328    0.293    0.466   77.010
  311.250    6.452    0.300    0.475   75.804
  311.500    6.838    0.299    0.489   74.603
  311.750    7.105    0.300    0.498   75.225
  312.000    7.245    0.307    0.496   77.055
  312.250    7.388    0.296    0.488   80.107
  312.500    7.398    0.238    0.485   83.763
  312.750    7.267    0.216    0.481   86.812
  313.000    6.874    0.206    0.472   89.863
  313.250    6.753    0.203    0.469   91.089
  313.500    6.637    0.206    0.482   91.709
  313.750    6.641    0.217    0.487   90.509
  314.000    6.648    0.220    0.481   89.302
  314.250    6.784    0.225    0.474   88.100
  314.500    6.789    0.231    0.461   88.111
  314.750    6.796    0.233    0.461   87.516
  315.000    6.803    0.232    0.460   85.706
  315.250    6.809    0.230    0.461   84.503
  315.500    6.816    0.227    0.469   84.520
  315.750    6.822    0.228    0.477   84.528
  316.000    6.705    0.234    0.481   88.187
  316.250    6.710    0.248    0.471   91.237
  316.500    6.715    0.248    0.466   94.288
  316.750    6.602    0.240    0.460   95.508
  317.000    6.606    0.234    0.456   93.095
  317.250    6.610    0.239    0.451   89.462
  317.500    6.255    0.260    0.436   88.261
  317.750    5.919    0.266    0.426   90.094
  318.000    5.600    0.243    0.425   92.535
  318.250    5.009    0.223    0.424   93.763
  318.500    4.480    0.208    0.434   93.168
  318.750    3.932    0.209    0.451   93.178
  319.000    3.324    0.228    0.485   94.408
  319.250    2.917    0.257    0.514   95.030
  319.500    2.610    0.280    0.545   93.821
  319.750    2.424    0.275    0.568   89.582
  320.000    2.336    0.270    0.568   88.380
  320.250    2.252    0.270    0.588   89.001
  320.500    2.213    0.276    0.604   87.193
  320.750    2.174    0.276    0.580   84.168
  321.000    2.177    0.273    0.568   83.571
  321.250    2.221    0.267    0.562   86.012
  321.500    2.265    0.263    0.584   89.669
  321.750    2.309    0.258    0.565   91.503
  322.000    2.445    0.257    0.541   92.731
  322.250    2.792    0.255    0.520   90.316
  322.500    3.128    0.251    0.501   89.721
  322.750    3.374    0.240    0.494   91.556
  323.000    3.781    0.229    0.472   92.171
  323.250    4.318    0.224    0.441   93.398
  323.500    4.571    0.220    0.442   87.947
  323.750    4.932    0.213    0.441   83.103
  324.000    5.322    0.203    0.404   81.290
  324.250    5.635    0.191    0.391   80.086
  324.500    5.748    0.187    0.459   85.566
  324.750    5.647    0.219    0.485   89.831
  325.000    5.343    0.240    0.495   91.054
  325.250    4.962    0.251    0.479   95.930
  325.500    4.607    0.256    0.470  100.798
  325.750    4.279    0.251    0.457  103.845
  326.000    4.050    0.235    0.448   95.356
  326.250    3.978    0.224    0.443   89.296
  326.500    3.908    0.225    0.436   91.128
  326.750    3.911    0.221    0.454   95.395
  327.000    3.844    0.216    0.485   96.620
  327.250    3.775    0.217    0.487   96.023
  327.500    3.707    0.219    0.476   97.860
  327.750    3.576    0.221    0.474   99.698
  328.000    3.512    0.222    0.481   99.097
  328.250    3.388    0.226    0.485   96.681
  328.500    3.390    0.227    0.515   97.301
  328.750    3.393    0.225    0.519   98.527
  329.000    3.527    0.223    0.498   93.077
  329.250    3.951    0.230    0.487   90.655
  329.500    4.511    0.239    0.476   84.599
  329.750    5.149    0.229    0.462   87.646
  330.000    5.770    0.221    0.444   91.303
  330.250    6.343    0.206    0.420   91.919
  330.500    6.974    0.192    0.413   84.038
  330.750    7.814    0.179    0.412   78.584
  331.000    8.117    0.173    0.407   73.130
  331.250    8.926    0.194    0.373   71.320
  331.500    9.631    0.219    0.353   73.761
  331.750   10.199    0.195    0.328   65.883
  332.000   11.006    0.081    0.281   61.641
  332.250   11.657    0.056    0.269   62.259
  332.500   12.112    0.090    0.303   67.744
  332.750   12.590    0.145    0.328   73.219
  333.000   13.083    0.232    0.341   78.087
  333.250   13.096    0.306    0.354   76.277
  333.500   12.631    0.318    0.365   72.646
  333.750   11.953    0.317    0.371   71.442
  334.000   11.521    0.301    0.379   76.317
  334.250   11.104    0.291    0.388   80.582
  334.500   10.121    0.265    0.393   81.197
  334.750    8.240    0.245    0.395   72.711
  335.000    6.463    0.240    0.408   72.721
  335.250    5.570    0.229    0.421   78.805
  335.500    5.469    0.220    0.435   86.104
  335.750    6.014    0.228    0.443   84.903
  336.000    6.996    0.292    0.432   69.732
  336.250    8.291    0.309    0.410   46.059
  336.500   10.793    0.294    0.358   46.070
  336.750   15.725    0.289    0.314   48.512
  337.000   23.788    0.292    0.337   47.312
  337.250   36.668    0.295    0.357   44.895
  337.500   46.852    0.297    0.367   43.086
  337.750   43.512    0.295    0.374   47.955
  338.000   38.907    0.283    0.375   60.115
  338.250   31.091    0.264    0.361   70.452
  338.500   19.471    0.242    0.348   81.393
  338.750   16.459    0.214    0.344   79.587
