~VERSION INFORMATION
 VERS.                 2.0:   CWLS LOG ASCII STANDARD -VERSION 2.0
 WRAP.                  NO:   ONE LINE PER DEPTH STEP
~WELL INFORMATION BLOCK
#MNEM.UNIT           DATA                    DESCRIPTION OF MNEMONIC
#---------    -------------------            -------------------------------
# Generated from Intellog Unique Number	CW_82_90/WELL/416
NULL.         -999.25                        : NULL_VALUE
WELL.         GULF WABASCA                   : Well_name    - WELL              
LOC .         00/05-06-083-22W4/0            : Location     - LOCATION          
UWI .         00/05-06-083-22W4/0            : Uwi          - UNIQUE WELL ID    
ENTR.         JAYE                           : Entered      - ENTERED BY        
SRVC.         SCHLUMBERGER                   : Scn          - SERVICE COMPANY   
DATE.         31 DEC 73                      : Date         - LOG DATE          
STRT.M        252.984                        : top_depth    - START DEPTH       
STOP.M        432.734                        : bot_depth    - STOP DEPTH        
STEP.M        0.25                           : increment    - STEP LENGTH       
~CURVE INFORMATION BLOCK
#MNEM UNIT       ERCB CURVE CODE    CURVE DESCRIPTION
#-----------   ------------------   ----------------------------------
DEPT.M        00 001 00 00         : DEPTH        - DEPTH                       
ILD .OHMM     00 120 00 00         : RESD         - DEEP RESISTIVITY (DIL)      
CALI.MM       00 280 01 00         : CAL          - CALIPER                     
GR  .API      00 310 00 00         : GR           - GAMMA RAY                   
DPHI.V/V      00 890 00 00         : PHID         - DENSITY POROSITY (SANDSTONE)
NPHI.V/V      00 330 00 00         : PHIN         - NEUTRON POROSITY (SANDSTONE)
~PARAMETER INFORMATION       
#MNEM.UNIT           DATA             DESCRIPTION OF MNEMONIC
#---------         -----------     ------------------------------
GL  .M        620.573              : gl           - GROUND LEVEL ELEVATION      
EREF.M        623.926              : kb           - ELEVATION OF DEPTH REFERENCE
DATM.M        620.573              : datum        - DATUM ELEVATION             
TDD .M        441.046              : tdd          - TOTAL DEPTH DRILLER         
RUN .         TWO                  : Run          - RUN NUMBER                  
ENG .         WARKIW               : Engineer     - RECORDING ENGINEER          
WIT .         CAMPBELL             : Witness      - WITNESSED BY                
BASE.         EDMONTON             : Branch       - HOME BASE OF LOGGING UNIT   
MUD .         GEL CHEM             : Mud_type     - MUD TYPE                    
MATR.         SANDSTONE            : Logunit      - NEUTRON MATRIX              
TMAX.C        29.4                 : BHT          - MAXIMUM RECORDED TEMPERATURE
BHTD.M        441.046              : BHTDEP       - MAXIMUM RECORDED TEMPERATURE
RMT .C        15.5556              : MDTP         - TEMPERATURE OF MUD          
MUDD.KG/M     9200                 : MWT          - MUD DENSITY                 
NEUT.         1                    : NEUTRON      - NEUTRON TYPE                
RESI.         0                    : RESIST       - RESISTIVITY TYPE            
RM  .OHMM     2.1                  : RM           - RESISTIVITY OF MUD          
RMC .OHMM     0                    : RMC          - RESISTIVITY OF MUD CAKE     
RMF .OHMM     0                    : RMF          - RESISTIVITY OF MUD FILTRATE 
SUFT.C        -17.7778             : SUFT         - SURFACE TEMPERATURE         
~A  DEPTH     RESD      CAL       GR     PHID     PHIN
# ...
  325.984    7.101  256.659   83.088    0.326    0.610
  326.234    6.788  257.191   91.632    0.299    0.628
  326.484    6.585  257.212   93.599    0.270    0.656
  326.734    6.436  256.514   93.920    0.266    0.603
  326.984    6.347  256.117   94.179    0.274    0.578
  327.234    6.472  255.315   91.942    0.264    0.556
  327.484    6.647  254.714   88.910    0.271    0.580
  327.734    6.839  262.368   85.880    0.286    0.610
  327.984    6.884  304.480   81.999    0.272    0.675
  328.234    6.702  332.665   78.236    0.302    0.631
  328.484    6.314  282.135   72.221    0.308    0.602
  328.734    5.860  250.380   72.663    0.257    0.579
  328.984    5.330  252.051   77.492    0.239    0.566
  329.234    4.813  260.221   90.241    0.277    0.580
  329.484    4.534  263.130   92.998    0.273    0.635
  329.734    4.311  253.144   92.649    0.272    0.639
  329.984    4.107  253.168   93.396    0.288    0.632
  330.234    4.125  253.703   93.656    0.279    0.657
  330.484    4.275  254.240   92.820    0.268    0.672
  330.734    4.666  254.360   88.693    0.256    0.638
  330.984    5.046  253.969   83.713    0.232    0.603
  331.234    5.436  253.680   78.734    0.188    0.543
  331.484    5.998  253.083   81.735    0.158    0.485
  331.734    6.546  252.486   82.604    0.227    0.513
  331.984    7.002  252.502   77.504    0.242    0.546
  332.234    7.419  252.425   74.169    0.246    0.584
  332.484    7.833  252.235   72.781    0.253    0.567
  332.734    8.225  251.740   73.105    0.260    0.560
  332.984    8.325  251.448   73.606    0.249    0.598
  333.234    8.031  251.369   73.259    0.256    0.584
  333.484    7.251  251.287   72.968    0.280    0.561
  333.734    6.744  252.337   74.751    0.287    0.578
  333.984    6.614  253.181   78.606    0.281    0.567
  334.234    6.794  254.236   82.643    0.273    0.534
  334.484    7.135  255.595   84.793    0.248    0.509
  334.734    7.408  256.543   84.990    0.233    0.540
  334.984    7.865  257.183   85.556    0.224    0.559
  335.234    8.395  257.721   87.155    0.229    0.582
  335.484    8.831  257.636   89.849    0.238    0.556
  335.734    9.139  256.404   91.389    0.242    0.563
  335.984    9.282  256.023   90.005    0.239    0.563
  336.234    9.379  256.154   88.192    0.238    0.550
  336.484    9.490  255.357   84.066    0.233    0.567
  336.734    9.694  255.383   80.670    0.226    0.572
  336.984    9.758  255.306   79.407    0.230    0.556
  337.234    9.784  254.614   80.093    0.255    0.546
  337.484    9.792  254.438   81.268    0.273    0.509
  337.734    9.730  254.469   80.490    0.254    0.517
  337.984    9.632  254.185   76.730    0.244    0.519
  338.234    9.642  253.387   73.578    0.253    0.543
  338.484    9.583  253.319   71.765    0.263    0.545
  338.734    9.487  253.340   70.686    0.265    0.525
  338.984    9.528  253.371   71.432    0.261    0.521
  339.234    9.696  253.501   70.050    0.250    0.520
  339.484    9.777  253.530   70.672    0.258    0.539
  339.734    9.840  250.570   73.004    0.247    0.547
  339.984    9.850  250.298   73.263    0.213    0.523
  340.234    9.878  250.633   73.158    0.226    0.519
  340.484    9.850  250.865   72.686    0.259    0.538
  340.734    9.897  250.480   69.111    0.268    0.530
  340.984    9.870  248.757   66.750    0.278    0.522
  341.234    9.898  248.172   66.523    0.282    0.514
  341.484    9.888  248.613   65.807    0.262    0.573
  341.734    9.880  248.947   65.942    0.253    0.560
  341.984    9.745  249.389   76.132    0.270    0.531
  342.234    9.558  249.311   76.392    0.272    0.517
  342.484    9.393  249.142   74.035    0.262    0.573
  342.734    9.230  249.162   73.929    0.256    0.598
  342.984    9.121  249.085   75.344    0.258    0.571
  343.234    8.947  249.523   78.650    0.272    0.530
  343.484    8.664  250.800   81.651    0.266    0.556
  343.734    8.343  251.846   84.106    0.253    0.545
  343.984    7.976  257.438   86.070    0.230    0.566
  344.234    7.823  252.315   84.564    0.241    0.588
  344.484    7.731  250.804   79.035    0.249    0.570
  344.734    7.925  251.340   75.517    0.230    0.515
  344.984    8.990  252.407   70.659    0.064    0.422
  345.234   10.502  252.742   66.535    0.039    0.233
  345.484   14.059  252.971   65.392    0.016    0.208
  345.734   16.425  252.178   67.663    0.012    0.233
  345.984   17.664  252.001   73.586    0.092    0.269
  346.234   17.011  252.024   79.269    0.148    0.326
  346.484   13.804  252.059   82.087    0.250    0.562
  346.734   10.918  251.776   78.569    0.251    0.560
  346.984    9.750  251.390   73.408    0.205    0.529
  347.234    9.777  251.313   66.783    0.185    0.495
  347.484   10.711  251.137   63.876    0.166    0.435
  347.734   11.883  251.584   63.892    0.120    0.270
  347.984   12.994  251.608   66.040    0.065    0.259
  348.234   12.982  251.635   68.858    0.063    0.289
  348.484   12.273  251.046   72.468    0.182    0.397
  348.734   10.840  251.073   73.763    0.238    0.460
  348.984    9.418  250.893   74.451    0.275    0.582
  349.234    8.806  251.026   75.502    0.273    0.568
  349.484    8.204  251.161   75.701    0.273    0.624
  349.734    7.828  247.486   74.256    0.264    0.636
  349.984    7.280  249.461   76.647    0.275    0.614
  350.234    6.972  253.609   79.708    0.280    0.595
  350.484    6.715  267.438   80.275    0.269    0.595
  350.734    6.526  285.492   79.925    0.247    0.616
  350.984    6.424  278.620   79.878    0.253    0.614
  351.234    6.443  263.302   79.040    0.256    0.611
  351.484    6.593  262.608   77.412    0.269    0.617
  351.734    6.747  255.015   77.427    0.280    0.644
  351.984    6.878  253.500   78.908    0.235    0.650
  352.234    7.065  253.838   81.542    0.244    0.634
  352.484    7.216  253.661   84.056    0.241    0.617
  352.734    7.356  253.586   84.257    0.229    0.599
  352.984    7.472  253.514   84.331    0.227    0.575
  353.234    7.535  253.021   84.227    0.219    0.551
  353.484    7.571  253.255   84.303    0.229    0.524
  353.734    7.578  255.551   85.356    0.243    0.574
  353.984    7.599  257.742   86.345    0.277    0.599
  354.234    7.605  260.447   86.851    0.258    0.642
  354.484    7.544  263.669   87.780    0.223    0.648
  354.734    7.454  262.260   89.134    0.226    0.631
  354.984    7.324  260.737   89.395    0.276    0.606
  355.234    7.212  268.387   89.837    0.271    0.561
  355.484    7.165  276.037   91.072    0.259    0.577
  355.734    7.211  289.351   92.914    0.258    0.607
  355.984    7.420  290.000   92.020    0.256    0.627
  356.234    7.763  297.237   90.755    0.248    0.623
  356.484    8.519  295.101   89.491    0.242    0.601
  356.734    9.128  255.786   85.851    0.223    0.537
  356.984    9.620  250.561   82.516    0.203    0.491
  357.234    9.846  249.774   82.593    0.192    0.483
  357.484    9.908  249.999   87.239    0.192    0.480
  357.734    9.898  250.543   87.744    0.240    0.529
  357.984    9.853  250.993   88.916    0.235    0.530
  358.234    9.936  251.538   87.227    0.228    0.540
  358.484   10.148  251.971   83.100    0.273    0.559
  358.734   10.617  252.209   78.548    0.268    0.535
  358.984   11.271  252.239   74.481    0.260    0.555
  359.234   11.576  251.955   72.613    0.244    0.513
  359.484   11.589  251.976   72.625    0.236    0.486
  359.734   11.515  252.212   73.557    0.247    0.548
  359.984   11.630  252.035   74.242    0.269    0.579
  360.234   12.145  251.958   72.733    0.268    0.591
  360.484   12.917  252.194   64.525    0.233    0.589
  360.734   14.228  252.637   60.581    0.164    0.335
  360.984   17.795  254.621   60.113    0.112    0.310
  361.234   22.460  257.224   61.710    0.074    0.286
  361.484   25.759  258.382   63.679    0.083    0.289
  361.734   27.959  256.351   61.195    0.084    0.300
  361.984   27.881  254.629   61.271    0.073    0.255
  362.234   24.624  252.394   63.480    0.060    0.254
