~VERSION INFORMATION
 VERS.                 2.0:   CWLS LOG ASCII STANDARD -VERSION 2.0
 WRAP.                  NO:   ONE LINE PER DEPTH STEP
~WELL INFORMATION BLOCK
#MNEM.UNIT           DATA                    DESCRIPTION OF MNEMONIC
#---------    -------------------            -------------------------------
# Generated from Intellog Unique Number	CW_70_72/WELL/879
NULL.         -999.25                        : NULL_VALUE
WELL.         ICG ET AL CALL W 07-10         : Well_name    - WELL              
LOC .         07-10-072-20W4                 : Location     - LOCATION          
UWI .         00/07-10-072-20W4/0            : Uwi          - UNIQUE WELL ID    
ENTR.         JAYE                           : Entered      - ENTERED BY        
SRVC.         SCHLUMBERGER                   : Scn          - SERVICE COMPANY   
DATE.         22 MAR 77                      : Date         - LOG DATE          
STRT.M        320.04                         : top_depth    - START DEPTH       
STOP.M        503.04                         : bot_depth    - STOP DEPTH        
STEP.M        0.25                           : increment    - STEP LENGTH       
~CURVE INFORMATION BLOCK
#MNEM UNIT       ERCB CURVE CODE    CURVE DESCRIPTION
#-----------   ------------------   ----------------------------------
DEPT.M        00 001 00 00         : DEPTH        - DEPTH                       
DPHI.V/V      00 890 00 00         : PHID         - DENSITY POROSITY (SANDSTONE)
NPHI.V/V      00 330 00 00         : PHIN         - NEUTRON POROSITY (SANDSTONE)
GR  .API      00 310 00 00         : GR           - GAMMA RAY                   
CALI.MM       00 280 01 00         : CAL          - CALIPER                     
ILD .OHMM     00 120 00 00         : RESD         - DEEP RESISTIVITY (DIL)      
~PARAMETER INFORMATION       
#MNEM.UNIT           DATA             DESCRIPTION OF MNEMONIC
#---------         -----------     ------------------------------
GL  .M        594.36               : gl           - GROUND LEVEL ELEVATION      
EREF.M        597.408              : kb           - ELEVATION OF DEPTH REFERENCE
DATM.M        594.36               : datum        - DATUM ELEVATION             
TDD .M        504.444              : tdd          - TOTAL DEPTH DRILLER         
RUN .         ONE                  : Run          - RUN NUMBER                  
ENG .         WORONUK              : Engineer     - RECORDING ENGINEER          
WIT .         GREEN                : Witness      - WITNESSED BY                
BASE.         EDM                  : Branch       - HOME BASE OF LOGGING UNIT   
MUD .         GEL CHEM             : Mud_type     - MUD TYPE                    
MATR.         SANDSTONE            : Logunit      - NEUTRON MATRIX              
TMAX.C        22.7778              : BHT          - MAXIMUM RECORDED TEMPERATURE
BHTD.M        504.444              : BHTDEP       - MAXIMUM RECORDED TEMPERATURE
RMT .C        17.2222              : MDTP         - TEMPERATURE OF MUD          
MUDD.KG/M     1140                 : MWT          - MUD DENSITY                 
NEUT.         1                    : NEUTRON      - NEUTRON TYPE                
RESI.         0                    : RESIST       - RESISTIVITY TYPE            
RM  .OHMM     4.75                 : RM           - RESISTIVITY OF MUD          
RMC .OHMM     0                    : RMC          - RESISTIVITY OF MUD CAKE     
RMF .OHMM     5.46                 : RMF          - RESISTIVITY OF MUD FILTRATE 
SUFT.C        -17.7778             : SUFT         - SURFACE TEMPERATURE         
~A  DEPTH     PHID     PHIN       GR      CAL     RESD
# ...
  429.540    0.263    0.477   97.215  137.413    4.060
  429.790    0.267    0.476   90.495  137.040    3.895
  430.040    0.277    0.472   87.179  136.979    3.771
  430.290    0.298    0.468   85.681  137.432    3.699
  430.540    0.296    0.461   82.851  138.294    3.635
  430.790    0.304    0.449   83.544  139.979    3.605
  431.040    0.320    0.460   86.302  144.856    3.588
  431.290    0.316    0.461   90.455  146.436    3.590
  431.540    0.305    0.456   92.180  146.482    3.626
  431.790    0.306    0.443   92.204  146.519    3.710
  432.040    0.295    0.447   92.350  147.072    3.789
  432.290    0.285    0.451   92.555  147.941    3.927
  432.540    0.278    0.444   94.522  149.008    4.130
  432.790    0.268    0.445   96.976  149.560    4.433
  433.040    0.256    0.477   96.574  150.224    4.775
  433.290    0.246    0.478   96.113  150.565    4.968
  433.540    0.240    0.464   96.503  151.944    4.944
  433.790    0.216    0.447   99.136  154.355    4.708
  434.040    0.217    0.437  104.021  156.146    4.338
  434.290    0.205    0.453  108.483  157.415    4.057
  434.540    0.160    0.474  112.331  159.819    3.877
  434.790    0.185    0.498  118.855  164.796    3.706
  435.040    0.203    0.532  119.728  168.435    3.523
  435.290    0.215    0.517  121.999  171.666    3.246
  435.540    0.224    0.509  127.369  174.276    3.018
  435.790    0.235    0.508  131.951  175.449    2.796
  436.040    0.210    0.518  135.558  164.791    2.667
  436.290    0.195    0.545  137.283  160.097    2.621
  436.540    0.221    0.573  136.275  161.991    2.737
  436.790    0.230    0.556  135.022  166.042    3.019
  437.040    0.222    0.539  133.528  171.741    3.418
  437.290    0.231    0.526  131.363  178.672    3.806
  437.540    0.213    0.506  127.681  183.444    4.130
  437.790    0.205    0.472  124.972  171.552    4.400
  438.040    0.189    0.473  126.756  159.555    4.594
  438.290    0.161    0.504  129.880  163.199    4.641
  438.540    0.180    0.520  135.553  166.941    4.636
  438.790    0.189    0.499  140.559  167.804    4.639
  439.040    0.191    0.483  136.270  163.732    4.712
  439.290    0.169    0.475  128.885  159.043    4.830
  439.540    0.185    0.459  124.591  156.197    4.996
  439.790    0.158    0.448  119.513  154.802    5.169
  440.040    0.121    0.444  121.661  154.635    5.308
  440.290    0.128    0.436  122.598  154.475    5.421
  440.540    0.177    0.437  122.682  154.405    5.496
  440.790    0.200    0.451  122.098  154.556    5.521
  441.040    0.190    0.460  121.517  154.792    5.495
  441.290    0.175    0.464  121.051  155.040    5.509
  441.540    0.176    0.456  121.441  155.390    5.566
  441.790    0.165    0.435  121.282  155.850    5.591
  442.040    0.171    0.453  120.514  156.401    5.605
  442.290    0.182    0.461  117.500  156.953    5.610
  442.540    0.198    0.454  117.099  157.298    5.645
  442.790    0.197    0.450  119.857  157.542    5.619
  443.040    0.188    0.451  118.726  157.897    5.634
  443.290    0.184    0.445  116.685  158.240    5.617
  443.540    0.174    0.448  119.016  158.803    5.561
  443.790    0.192    0.442  121.592  159.146    5.494
  444.040    0.228    0.439  121.676  159.501    5.418
  444.290    0.218    0.434  120.729  159.850    5.344
  444.540    0.222    0.430  120.996  160.293    5.280
  444.790    0.213    0.428  122.659  160.647    5.255
  445.040    0.200    0.430  125.598  161.207    5.211
  445.290    0.207    0.443  127.632  161.552    5.186
  445.540    0.200    0.450  122.183  161.193    5.143
  445.790    0.204    0.451  114.919  161.220    5.119
  446.040    0.214    0.457  110.931  161.256    5.067
  446.290    0.199    0.462  105.306  161.406    4.979
  446.540    0.187    0.463  100.529  161.438    4.794
  446.790    0.193    0.457   99.278  161.374    4.516
  447.040    0.212    0.441  101.914  155.553    4.300
  447.290    0.231    0.463  101.391  151.374    4.073
  447.540    0.249    0.462   91.816  150.076    3.822
  447.790    0.284    0.450   81.876  151.044    3.580
  448.040    0.310    0.438   70.844  153.037    3.329
  448.290    0.318    0.437   72.327  153.798    3.235
  448.540    0.313    0.433   73.442  147.152    3.197
  448.790    0.299    0.433   72.797  148.120    3.253
  449.040    0.296    0.436   73.064  150.629    3.334
  449.290    0.312    0.437   75.034  153.757    3.526
  449.540    0.316    0.435   75.542  155.956    3.798
  449.790    0.309    0.426   72.712  153.936    4.062
  450.040    0.294    0.415   70.668  149.554    4.319
  450.290    0.281    0.397   69.173  147.433    4.315
  450.540    0.280    0.406   69.927  147.476    4.027
  450.790    0.298    0.436   72.079  149.467    3.724
  451.040    0.317    0.443   74.776  151.980    3.546
  451.290    0.319    0.441   76.680  153.766    3.334
  451.540    0.322    0.433   80.653  152.883    3.147
  451.790    0.316    0.426   79.583  150.661    3.052
  452.040    0.319    0.444   75.295  149.771    2.982
  452.290    0.316    0.451   72.219  150.325    2.936
  452.540    0.308    0.451   71.757  151.088    2.906
  452.790    0.296    0.448   72.693  150.614    2.909
  453.040    0.278    0.443   73.810  149.932    2.943
  453.290    0.308    0.445   72.131  148.841    2.973
  453.540    0.317    0.453   71.245  147.856    3.030
  453.790    0.307    0.455   71.024  147.897    3.078
  454.040    0.309    0.447   71.537  148.343    3.131
  454.290    0.306    0.444   72.651  149.317    3.252
  454.540    0.281    0.461   75.471  150.284    3.420
  454.790    0.295    0.453   76.708  151.453    4.076
  455.040    0.290    0.424   74.182  152.006    5.485
  455.290    0.258    0.395   70.987  152.355    7.300
  455.540    0.193    0.321   68.092  152.907    7.735
  455.790    0.140    0.286   65.202  152.333    6.382
  456.040    0.153    0.310   63.887  150.009    5.227
  456.290    0.224    0.391   66.098  147.059    4.532
  456.540    0.248    0.422   70.680  143.502    3.915
  456.790    0.267    0.448   74.468  143.132    3.574
  457.040    0.311    0.441   75.344  146.976    3.391
  457.290    0.310    0.436   75.366  152.776    3.320
  457.540    0.295    0.427   75.754  149.526    3.305
  457.790    0.287    0.413   76.203  146.272    3.401
  458.040    0.273    0.399   76.412  145.802    3.524
  458.290    0.262    0.412   77.163  146.974    3.733
  458.540    0.269    0.431   79.373  148.553    4.037
  458.790    0.274    0.437   79.215  150.959    4.340
  459.040    0.242    0.427   75.715  147.916    4.474
  459.290    0.193    0.330   75.921  137.668    4.453
  459.540    0.155    0.315   77.038  139.458    4.288
  459.790    0.183    0.377   79.674  145.361    4.054
  460.040    0.241    0.417   81.824  148.696    3.860
  460.290    0.292    0.434   77.170  149.560    3.696
  460.540    0.312    0.452   74.767  149.702    3.520
  460.790    0.321    0.464   74.728  149.330    3.377
  461.040    0.311    0.461   75.479  148.960    3.288
  461.290    0.314    0.456   76.903  148.589    3.237
  461.540    0.300    0.439   77.654  148.424    3.281
  461.790    0.296    0.444   76.404  148.461    3.401
  462.040    0.278    0.458   74.177  147.986    3.603
  462.290    0.270    0.444   71.468  145.660    3.874
  462.540    0.264    0.424   73.436  143.953    4.197
  462.790    0.253    0.403   75.767  144.509    4.471
  463.040    0.247    0.409   77.797  145.985    4.668
  463.290    0.245    0.410   77.759  148.391    4.838
  463.540    0.240    0.403   76.143  149.360    4.869
  463.790    0.235    0.393   76.227  149.090    4.802
  464.040    0.220    0.405   76.615  148.717    4.658
  464.290    0.237    0.427   77.915  148.554    4.477
  464.540    0.260    0.439   79.458  148.491    4.367
  464.790    0.277    0.434   81.607  148.428    4.205
  465.040    0.267    0.421   82.665  148.265    4.071
  465.290    0.237    0.407   78.496  148.204    3.963
  465.540    0.244    0.416   75.785  147.725    3.789
  465.790    0.263    0.432   76.539  146.326    3.621
