~VERSION INFORMATION
 VERS.                 2.0:   CWLS LOG ASCII STANDARD -VERSION 2.0
 WRAP.                  NO:   ONE LINE PER DEPTH STEP
~WELL INFORMATION BLOCK
#MNEM.UNIT           DATA                    DESCRIPTION OF MNEMONIC
#---------    -------------------            -------------------------------
# Generated from Intellog Unique Number	CN_94_101/WELL/2572
WELL.         PARAMOUNT RESOURCES LTD.       : Well_name    - WELL
LOC .         00/07-24-094-19W4/0            : Location     - LOCATION
UWI .         00/07-24-094-19W4/0            : Uwi          - UNIQUE WELL ID
ENTR.         JOETTE                         : Entered      - ENTERED BY
SRVC.         COMPUTALOG                     : Scn          - SERVICE COMPANY
DATE.         06\12\92                       : Date         - LOG DATE
STRT.M        90                             : top_depth    - START DEPTH
STOP.M        277                            : bot_depth    - STOP DEPTH
STEP.M        0.25                           : increment    - STEP LENGTH
 NULL. -999.2500:NULL Value
~CURVE INFORMATION BLOCK
#MNEM UNIT       ERCB CURVE CODE    CURVE DESCRIPTION
#-----------   ------------------   ----------------------------------
DEPT.M        00 001 00 00         : DEPTH        - DEPTH
CALI.MM       00 280 01 00         : CAL          - CALIPER
GR  .API      00 310 00 00         : GR           - GAMMA RAY
NPHI.V/V      00 330 00 00         : PHIN         - NEUTRON POROSITY (SANDSTONE)
DPHI.V/V      00 890 00 00         : PHID         - DENSITY POROSITY (SANDSTONE)
ILD .OHMM     00 120 00 00         : RESD         - DEEP RESISTIVITY (DIL)
~PARAMETER INFORMATION
#MNEM.UNIT           DATA             DESCRIPTION OF MNEMONIC
#---------         -----------     ------------------------------
GL  .M        557.4                : gl           - GROUND LEVEL ELEVATION
EREF.M        560.8                : kb           - ELEVATION OF DEPTH REFERENCE
DATM.M        560.8                : datum        - DATUM ELEVATION
TDD .M        280.1                : tdd          - TOTAL DEPTH DRILLER
RUN .         ONE                  : Run          - RUN NUMBER
ENG .         JO                   : Engineer     - RECORDING ENGINEER
WIT .         TIM                  : Witness      - WITNESSED BY
MUD .         GEL                  : Mud_type     - MUD TYPE
MATR.         SANDSTONE            : Logunit      - NEUTRON MATRIX
TMAX.C        32                   : BHT          - MAXIMUM RECORDED TEMPERATURE
BHTD.M        280.1                : BHTDEP       - MAXIMUM RECORDED TEMPERATURE
RMT .C        19                   : MDTP         - TEMPERATURE OF MUD
MUDD.KG/M     1130                 : MWT          - MUD DENSITY
NEUT.         1                    : NEUTRON      - NEUTRON TYPE
RESI.         0                    : RESIST       - RESISTIVITY TYPE
RM  .OHMM     5.3                  : RM           - RESISTIVITY OF MUD
RMC .OHMM     5.3                  : RMC          - RESISTIVITY OF MUD CAKE
RMF .OHMM     5.3                  : RMF          - RESISTIVITY OF MUD FILTRATE
SUFT.C        4                    : SUFT         - SURFACE TEMPERATURE
~A  DEPTH      CAL       GR     PHIN     PHID     RESD
# ...
  199.500  195.988   90.741    0.367    0.242    6.987
  199.750  198.045   93.827    0.314    0.213    7.534
  200.000  194.959   98.148    0.276    0.177    8.283
  200.250  183.642   82.716    0.252    0.087    9.638
  200.500  176.440   69.136    0.236   -0.001   10.594
  200.750  173.354   64.815    0.234    0.007   11.425
  201.000  173.354   59.259    0.266    0.060   12.092
  201.250  174.383   61.728    0.289    0.226   12.551
  201.500  177.469   64.198    0.317    0.273   11.193
  201.750  180.556   68.519    0.354    0.296   10.364
  202.000  180.556   73.457    0.428    0.315   10.166
  202.250  181.584   77.160    0.441    0.321    9.781
  202.500  182.613   77.160    0.435    0.310    9.777
  202.750  178.498   74.074    0.404    0.294    9.586
  203.000  173.354   74.074    0.398    0.276    9.401
  203.250  175.412   78.395    0.384    0.277    9.395
  203.500  183.642   85.802    0.393    0.276    9.214
  203.750  186.728   90.124    0.415    0.268    8.534
  204.000  183.642   88.272    0.425    0.273    8.058
  204.250  175.412   85.802    0.428    0.298    6.915
  204.500  171.296   87.654    0.437    0.284    6.405
  204.750  170.267   84.568    0.447    0.270    6.047
  205.000  169.239   87.654    0.437    0.256    5.601
  205.250  171.296   91.358    0.444    0.255    4.808
  205.500  172.325   96.296    0.466    0.255    4.127
  205.750  174.383  101.852    0.477    0.257    3.475
  206.000  177.469  103.086    0.477    0.266    3.344
  206.250  177.469  106.173    0.470    0.273    3.343
  206.500  177.469   99.383    0.456    0.312    3.965
  206.750  176.440   82.716    0.450    0.297    5.687
  207.000  176.440   70.988    0.435    0.268    6.252
  207.250  175.412   67.284    0.421    0.255    8.634
  207.500  173.354   66.667    0.413    0.270    8.796
  207.750  172.325   68.519    0.409    0.309    9.133
  208.000  175.412   70.988    0.402    0.293   10.036
  208.250  180.556   70.370    0.407    0.323   10.421
  208.500  184.671   68.519    0.424    0.333   10.220
  208.750  191.872   70.370    0.416    0.356    5.883
  209.000  182.613   74.691    0.405    0.378    5.146
  209.250  174.383   84.568    0.415    0.324    4.859
  209.500  173.354   94.444    0.450    0.334    4.500
  209.750  175.412   91.975    0.458    0.312    4.498
  210.000  180.556   87.654    0.447    0.313    4.760
  210.250  184.671   80.864    0.434    0.324    5.232
  210.500  185.700   83.333    0.446    0.295    5.536
  210.750  180.556   87.037    0.453    0.267    5.971
  211.000  175.412   90.741    0.450    0.237    6.199
  211.250  172.325   87.037    0.431    0.202    6.683
  211.500  171.296   82.099    0.373    0.165    6.941
  211.750  172.325   77.778    0.357    0.125    7.207
  212.000  177.469   79.012    0.355    0.179    7.624
  212.250  182.613   83.333    0.388    0.224    7.622
  212.500  184.671   90.124    0.426    0.231    7.058
  212.750  183.642   96.296    0.429    0.236    6.793
  213.000  182.613   97.531    0.418    0.249    6.536
  213.250  180.556   96.914    0.408    0.256    6.658
  213.500  181.584   95.062    0.404    0.251    6.911
  213.750  182.613   91.358    0.409    0.247    7.040
  214.000  182.613   92.593    0.415    0.247    7.173
  214.250  177.469   97.531    0.420    0.250    7.169
  214.500  175.412  101.852    0.419    0.252    6.515
  214.750  175.412  100.000    0.423    0.252    4.366
  215.000  176.440   95.679    0.420    0.251    4.282
  215.250  177.469   92.593    0.411    0.246    4.042
  215.500  180.556   90.124    0.405    0.236    3.816
  215.750  182.613  102.469    0.421    0.231    3.602
  216.000  183.642  104.938    0.446    0.228    3.466
  216.250  182.613  111.728    0.463    0.224    3.465
  216.500  178.498  114.198    0.469    0.212    3.463
  216.750  174.383  112.963    0.473    0.176    3.663
  217.000  176.440  107.407    0.478    0.182    3.733
  217.250  178.498  101.235    0.449    0.214    4.103
  217.500  183.642   99.383    0.436    0.236    4.774
  217.750  186.728  102.469    0.408    0.239    5.349
  218.000  186.728  105.556    0.394    0.232    5.992
  218.250  185.700  109.259    0.383    0.226    6.342
  218.500  185.700  114.198    0.415    0.225    6.970
  218.750  185.700  114.815    0.388    0.221    7.376
  219.000  187.757  109.877    0.378    0.216    7.805
  219.250  190.844   96.296    0.366    0.223    8.102
  219.500  192.901   93.827    0.365    0.231    8.254
  219.750  193.930   93.827    0.358    0.228    8.254
  220.000  184.671   95.062    0.349    0.221    8.403
  220.250  178.498   97.531    0.336    0.210    8.399
  220.500  174.383   96.296    0.337    0.195    8.394
  220.750  173.354   95.679    0.346    0.188    8.391
  221.000  173.354   96.296    0.362    0.205    8.710
  221.250  174.383  101.852    0.378    0.218    8.873
  221.500  176.440  103.086    0.386    0.219    8.869
  221.750  179.527  103.086    0.400    0.220    8.698
  222.000  183.642  102.469    0.402    0.223    8.369
  222.250  184.671  102.469    0.394    0.226    8.053
  222.500  186.728  102.469    0.421    0.229    7.458
  222.750  187.757  101.852    0.435    0.223    7.176
  223.000  187.757  100.617    0.439    0.228    7.036
  223.250  182.613  112.346    0.408    0.234    7.444
  223.500  176.440   98.765    0.379    0.219    8.030
  223.750  171.296   93.827    0.377    0.219    8.498
  224.000  170.267   95.679    0.377    0.232    8.992
  224.250  171.296   98.148    0.377    0.242    9.334
  224.500  174.383  100.000    0.383    0.240    9.330
  224.750  178.498  100.617    0.376    0.237    9.148
  225.000  180.556   99.383    0.365    0.236    8.973
  225.250  184.671   96.914    0.362    0.236    8.632
  225.500  181.584   95.679    0.371    0.239    8.628
  225.750  179.527   95.062    0.400    0.239    8.624
  226.000  174.383   95.062    0.425    0.240    8.619
  226.250  173.354   95.062    0.434    0.239    8.614
  226.500  172.325   98.148    0.436    0.237    8.609
  226.750  176.440   99.383    0.388    0.235    8.605
  227.000  181.584  101.235    0.369    0.231    8.600
  227.250  188.786  104.321    0.369    0.225    8.595
  227.500  193.930  109.259    0.377    0.218    8.592
  227.750  191.872  111.111    0.383    0.208    8.424
  228.000  188.786  108.642    0.374    0.206    8.421
  228.250  182.613  103.086    0.374    0.209    8.416
  228.500  176.440  104.321    0.383    0.216    8.412
  228.750  173.354  103.704    0.383    0.224    8.407
  229.000  171.296  102.469    0.379    0.229    8.403
  229.250  171.296  106.173    0.388    0.232    8.400
  229.500  176.440  112.346    0.405    0.221    8.081
  229.750  179.527  115.432    0.420    0.174    7.485
  230.000  184.671  109.877    0.408    0.152    6.802
  230.250  184.671  102.469    0.384    0.121    6.422
  230.500  182.613   94.444    0.357    0.140    6.542
  230.750  176.440   96.914    0.363    0.181    6.664
  231.000  171.296  104.938    0.374    0.225    6.412
  231.250  169.239  103.704    0.392    0.237    5.717
  231.500  167.181  100.000    0.409    0.242    5.098
  231.750  168.210   95.679    0.416    0.245    4.722
  232.000  170.267   94.444    0.401    0.256    4.373
  232.250  172.325  100.617    0.415    0.260    3.974
  232.500  173.354  106.790    0.434    0.258    3.681
  232.750  175.412  113.580    0.451    0.255    3.220
  233.000  176.440  114.198    0.471    0.248    3.040
  233.250  177.469  112.963    0.464    0.245    2.816
  233.500  178.498  107.407    0.439    0.239    2.761
  233.750  178.498  100.000    0.427    0.241    3.035
  234.000  178.498   92.593    0.397    0.242    3.336
  234.250  178.498   88.889    0.382    0.236    3.668
  234.500  177.469   88.889    0.388    0.227    4.350
  234.750  174.383   88.889    0.411    0.218    5.063
  235.000  171.296   91.358    0.427    0.213    6.004
  235.250  171.296   97.531    0.431    0.213    6.475
  235.500  173.354  106.790    0.427    0.211    5.885
  235.750  176.440  104.938    0.436    0.205    5.148
