~VERSION INFORMATION
 VERS.                 2.0:   CWLS LOG ASCII STANDARD -VERSION 2.0
 WRAP.                  NO:   ONE LINE PER DEPTH STEP
~WELL INFORMATION BLOCK
#MNEM.UNIT           DATA                    DESCRIPTION OF MNEMONIC
#---------    -------------------            -------------------------------
# Generated from Intellog Unique Number	CN_91_93/WELL/1069
WELL.         PARAMOUNT RESOURCES LTD.       : Well_name    - WELL
LOC .         00/04-07-091-19W4/0            : Location     - LOCATION
UWI .         00/04-07-091-19W4/0            : Uwi          - UNIQUE WELL ID
ENTR.         JOETTE                         : Entered      - ENTERED BY
SRVC.         SCHLUMBERGER                   : Scn          - SERVICE COMPANY
DATE.         01/31/92                       : Date         - LOG DATE
STRT.F        295.276                        : top_depth    - START DEPTH
STOP.F        761.155                        : bot_depth    - STOP DEPTH
STEP.F        0.82                           : increment    - STEP LENGTH
 NULL. -999.2500:NULL Value
~CURVE INFORMATION BLOCK
#MNEM UNIT       ERCB CURVE CODE    CURVE DESCRIPTION
#-----------   ------------------   ----------------------------------
DEPT.F        00 001 00 00         : DEPTH        - DEPTH
ILD .OHMM     00 120 00 00         : RESD         - DEEP RESISTIVITY (DIL)
DPHI.V/V      00 890 00 00         : PHID         - DENSITY POROSITY (SANDSTONE)
NPHI.V/V      00 330 00 00         : PHIN         - NEUTRON POROSITY (SANDSTONE)
CALI.IN       00 280 01 00         : CAL          - CALIPER
GR  .API      00 310 00 00         : GR           - GAMMA RAY
~PARAMETER INFORMATION
#MNEM.UNIT           DATA             DESCRIPTION OF MNEMONIC
#---------         -----------     ------------------------------
GL  .F        1674.54              : gl           - GROUND LEVEL ELEVATION
EREF.F        1684.71              : kb           - ELEVATION OF DEPTH REFERENCE
DATM.F        1684.71              : datum        - DATUM ELEVATION
TDD .F        766.404              : tdd          - TOTAL DEPTH DRILLER
RUN .         ONE                  : Run          - RUN NUMBER
ENG .         JO                   : Engineer     - RECORDING ENGINEER
WIT .         TIM                  : Witness      - WITNESSED BY
MUD .         GEL                  : Mud_type     - MUD TYPE
MATR.         SANDSTONE            : Logunit      - NEUTRON MATRIX
TMAX.F        71.6                 : BHT          - MAXIMUM RECORDED TEMPERATURE
BHTD.F        766.404              : BHTDEP       - MAXIMUM RECORDED TEMPERATURE
RMT .F        53.6                 : MDTP         - TEMPERATURE OF MUD
MUDD.LB/G     9.5                  : MWT          - MUD DENSITY
NEUT.         1                    : NEUTRON      - NEUTRON TYPE
RESI.         0                    : RESIST       - RESISTIVITY TYPE
RM  .OHMM     1.5                  : RM           - RESISTIVITY OF MUD
RMC .OHMM     6.5                  : RMC          - RESISTIVITY OF MUD CAKE
RMF .OHMM     5.7                  : RMF          - RESISTIVITY OF MUD FILTRATE
SUFT.F        39.2                 : SUFT         - SURFACE TEMPERATURE
~A  DEPTH     RESD     PHID     PHIN      CAL       GR
# ...
  654.528   21.027    0.179    0.415    6.188  101.341
  655.348   21.483    0.167    0.419    6.188  100.785
  656.168   22.099    0.154    0.416    6.212  101.111
  656.988   22.577    0.142    0.413    6.233  102.321
  657.808   23.064    0.129    0.416    6.255  102.354
  658.629   22.925    0.130    0.420    6.257  101.802
  659.449   22.471    0.170    0.419    6.278  101.844
  660.269   22.030    0.196    0.420    6.300  104.212
  661.089   21.594    0.193    0.418    6.340  104.836
  661.909   21.610    0.135    0.413    6.381   96.375
  662.730   21.628    0.072    0.400    6.421   91.132
  663.550   21.795    0.089    0.387    6.424   88.240
  664.370   21.962    0.129    0.395    6.426   92.082
  665.190   21.978    0.179    0.400    6.428  101.196
  666.010   21.994    0.196    0.402    6.450  102.698
  666.831   22.008    0.190    0.399    6.491  102.150
  667.651   22.329    0.176    0.394    6.512  104.518
  668.471   22.812    0.165    0.389    6.514  103.970
  669.291   23.307    0.179    0.375    6.497  102.535
  670.112   23.307    0.191    0.377    6.365  103.745
  670.932   23.837    0.160    0.375    6.290  104.364
  671.752   24.682    0.109    0.369    6.292  101.765
  672.572   24.531    0.052    0.355    6.292   97.397
  673.392   23.719    0.089    0.369    6.297  100.364
  674.213   22.931    0.141    0.375    6.300  107.720
  675.033   20.842    0.175    0.384    6.303  111.562
  675.853   19.470    0.181    0.380    6.304  113.654
  676.673   18.695    0.181    0.383    6.345  115.738
  677.493   17.957    0.177    0.387    6.346  117.236
  678.314   17.599    0.172    0.385    6.387  114.634
  679.134   17.018    0.166    0.392    6.428  116.136
  679.954   16.798    0.173    0.406    6.469  118.509
  680.774   16.926    0.191    0.417    6.490  117.668
  681.594   17.292    0.197    0.434    6.531  113.889
  682.415   18.283    0.165    0.438    6.552  108.060
  683.235   20.570    0.043    0.429    6.535   95.209
  684.055   20.726    0.099    0.420    6.422  104.026
  684.875   19.902    0.125    0.410    6.271  111.973
  685.696   17.119    0.187    0.403    6.271  115.233
  686.516   14.425    0.187    0.403    6.257  115.848
  687.336   14.336    0.189    0.403    6.258  117.350
  688.156   14.447    0.197    0.414    6.258  117.388
  688.976   14.757    0.197    0.421    6.282  112.433
  689.797   15.284    0.190    0.428    6.303  110.420
  690.617   16.161    0.192    0.425    6.325  111.919
  691.437   17.327    0.190    0.419    6.346  114.300
  692.257   18.962    0.173    0.409    6.349  115.208
  693.077   22.231    0.117    0.383    6.332  110.555
  693.898   24.841    0.090    0.371    6.295   89.201
  694.718   26.812    0.036    0.345    6.259   74.876
  695.538   29.343    0.221    0.336    6.280   58.506
  696.358   31.029    0.289    0.332    6.244   47.112
  697.178   32.364    0.306    0.334    6.246   37.479
  697.999   34.223    0.308    0.339    6.246   32.532
  698.819   36.433    0.305    0.351    6.233   26.707
  699.639   42.420    0.299    0.357    6.215   27.038
  700.459   54.761    0.289    0.340    6.179   29.122
  701.280   67.839    0.256    0.302    6.181   28.281
  702.100   85.801    0.186    0.279    6.165   27.134
  702.920   92.616    0.030    0.143    6.166   25.122
  703.740   98.606    0.009    0.102    6.111   24.277
  704.560   99.360    0.014    0.071    6.074   25.189
  705.381   88.447    0.099    0.175    6.057   27.566
  706.201   82.640    0.177    0.267    6.059   29.654
  707.021   82.640    0.280    0.289    6.042   32.035
  707.841   80.515    0.294    0.340    6.045   33.525
  708.661   76.784    0.300    0.360    6.066   35.031
  709.482   76.784    0.306    0.373    6.068   36.233
  710.302   75.340    0.308    0.386    6.109   38.028
  711.122   73.334    0.307    0.394    6.150   39.522
  711.942   71.402    0.303    0.396    6.191   41.020
  712.762   69.508    0.307    0.399    6.231   43.108
  713.583   70.039    0.308    0.409    6.233   42.560
  714.403   71.055    0.286    0.418    6.217   41.418
  715.223   71.121    0.289    0.417    6.217   37.354
  716.043   69.240    0.290    0.408    6.184   34.162
  716.864   55.204    0.282    0.393    6.147   32.149
  717.684   50.517    0.237    0.376    6.091   32.191
  718.504   40.849    0.194    0.373    6.036   32.806
  719.324   38.154    0.188    0.381    6.018   34.003
  720.144   33.733    0.213    0.387    5.982   36.966
  720.965   26.170    0.186    0.373    6.004   45.498
  721.785   21.896    0.163    0.384    6.005   54.324
  722.605   18.322    0.145    0.398    6.047   61.387
  723.425   13.546    0.160    0.407    6.049   69.623
  724.245   11.812    0.185    0.415    6.032   79.620
  725.066   10.811    0.206    0.446    6.034   88.734
  725.886   10.818    0.214    0.454    6.037   92.580
  726.706   11.677    0.202    0.436    6.058   88.805
  727.526   12.692    0.178    0.400    6.060   81.227
  728.346   13.424    0.166    0.394    6.082   79.792
  729.167   13.617    0.157    0.395    6.085   84.809
  729.987   13.617    0.172    0.399    6.086   93.040
  730.807   13.643    0.189    0.402    6.088  104.218
  731.627   13.460    0.207    0.412    6.129  108.637
  732.448   12.750    0.206    0.435    6.189  115.998
  733.268   16.802    0.198    0.420    6.249  103.435
  734.088   19.429    0.195    0.403    6.289   95.263
  734.908   21.413    0.190    0.386    6.291   95.882
  735.728   24.420    0.176    0.374    6.236   96.502
  736.549   32.185    0.180    0.363    6.219   89.505
  737.369   37.473    0.196    0.333    6.240   72.545
  738.189   41.583    0.197    0.277    6.262   62.326
  739.009   44.886    0.196    0.269    6.283   61.188
  739.829   48.127    0.275    0.266    6.305   65.322
  740.650   51.240    0.295    0.260    6.269   73.269
  741.470   52.342    0.316    0.267    6.252   75.060
  742.290   51.665    0.319    0.281    6.234   75.972
  743.110   49.280    0.300    0.283    6.218   78.353
  743.930   48.642    0.275    0.319    6.218   81.609
  744.751   48.669    0.261    0.326    6.204   84.576
  745.571   49.045    0.264    0.359    6.206   87.828
  746.391   49.045    0.258    0.372    6.206   84.346
  747.211   49.816    0.233    0.382    6.210   79.111
  748.031   50.174    0.225    0.395    6.192   79.141
  748.852   51.263    0.229    0.397    6.192   79.467
  749.672   51.305    0.246    0.397    6.198   57.531
  750.492   51.698    0.255    0.397    6.199   51.409
  751.312   52.093    0.259    0.397    6.199   48.806
  752.133   52.849    0.258    0.395    6.204   48.551
  752.953   55.886    0.254    0.408    6.204   50.338
  753.773   59.917    0.248    0.433    6.229   55.648
  754.593   62.054    0.259    0.428    6.249   58.029
  755.413   62.054    0.279    0.418    6.253   56.013
  756.234   63.029    0.283    0.410    6.253   51.656
  757.054   61.764    0.278    0.410    6.253   49.928
  757.874   47.260    0.215    0.413    6.258   48.790
  758.694   38.209    0.191    0.431    6.258   47.648
  759.514   31.756    0.186    0.486    6.264   43.287
  760.335   30.285    0.166    0.544    6.264   40.977
  761.155   29.484    0.174    0.524    6.249   40.157
