~VERSION INFORMATION
 VERS.                 2.0:   CWLS LOG ASCII STANDARD -VERSION 2.0
 WRAP.                  NO:   ONE LINE PER DEPTH STEP
~WELL INFORMATION BLOCK
#MNEM.UNIT           DATA                    DESCRIPTION OF MNEMONIC
#---------    -------------------            -------------------------------
# Generated from Intellog Unique Number	CS_67_68/WELL/2165
WELL.         GEOG et al HYLO                : Well_name    - WELL
LOC .         00/06-03-067-14W4/0            : Location     - LOCATION
UWI .         00/06-03-067-14W4/0            : Uwi          - UNIQUE WELL ID
ENTR.         SP                             : Entered      - ENTERED BY
SRVC.         SCHLUMBERGER                   : Scn          - SERVICE COMPANY
STRT.M        335                            : top_depth    - START DEPTH
STOP.M        520                            : bot_depth    - STOP DEPTH
STEP.M        0.25                           : increment    - STEP LENGTH
 NULL. -999.2500:NULL Value
~CURVE INFORMATION BLOCK
#MNEM UNIT       ERCB CURVE CODE    CURVE DESCRIPTION
#-----------   ------------------   ----------------------------------
DEPT.M        00 001 00 00         : DEPTH        - DEPTH
ILD .OHMM     00 120 00 00         : RESD         - DEEP RESISTIVITY (DIL)
DPHI.V/V      00 890 00 00         : PHID         - DENSITY POROSITY (LIMESTONE)
NPHI.V/V      00 330 00 00         : PHIN         - NEUTRON POROSITY (LIMESTONE)
GR  .API      00 310 00 00         : GR           - GAMMA RAY
CALI.MM       00 280 01 00         : CAL          - CALIPER
~PARAMETER INFORMATION
#MNEM.UNIT           DATA             DESCRIPTION OF MNEMONIC
#---------         -----------     ------------------------------
GL  .M        598.4                : gl           - GROUND LEVEL ELEVATION
EREF.M        601.36               : kb           - ELEVATION OF DEPTH REFERENCE
DATM.M        601.36               : datum        - DATUM ELEVATION
TDD .M        520                  : tdd          - TOTAL DEPTH DRILLER
RUN .         ONE                  : Run          - RUN NUMBER
ENG .         BILL                 : Engineer     - RECORDING ENGINEER
WIT .         JIM                  : Witness      - WITNESSED BY
MUD .         GEL                  : Mud_type     - MUD TYPE
MATR.         LIMESTONE            : Logunit      - NEUTRON MATRIX
TMAX.C        16.7                 : BHT          - MAXIMUM RECORDED TEMPERATURE
BHTD.M        521.2                : BHTDEP       - MAXIMUM RECORDED TEMPERATURE
MATR.         1                    : LOGUNIT      - NEUTRON MATRIX
RMT .C        25                   : MDTP         - TEMPERATURE OF MUD
NEUT.         1                    : NEUTRON      - NEUTRON TYPE
RESI.         0                    : RESIST       - RESISTIVITY TYPE
RMC .OHMM     0.25                 : RMC          - RESISTIVITY OF MUD CAKE
RMF .OHMM     0.25                 : RMF          - RESISTIVITY OF MUD FILTRATE
SUFT.C        15                   : SUFT         - SURFACE TEMPERATURE
~A  DEPTH     RESD     PHID     PHIN       GR      CAL
# ...
  408.000    4.071    0.171    0.369  102.899  187.347
  408.250    3.857    0.168    0.374  104.175  190.283
  408.500    3.581    0.177    0.366  104.119  191.198
  408.750    3.336    0.177    0.367  101.033  188.177
  409.000    3.074    0.189    0.379   97.523  184.649
  409.250    2.796    0.213    0.377   92.742  181.325
  409.500    2.506    0.233    0.381   88.626  177.898
  409.750    2.301    0.242    0.392   86.449  178.108
  410.000    2.156    0.238    0.401   94.027  184.275
  410.250    2.035    0.229    0.411   99.847  189.835
  410.500    2.084    0.254    0.442  103.607  195.799
  410.750    2.274    0.251    0.452  101.068  201.461
  411.000    2.485    0.241    0.437   97.618  204.497
  411.250    2.676    0.260    0.415   91.565  203.595
  411.500    2.855    0.245    0.397   88.903  197.140
  411.750    2.979    0.218    0.393   87.211  191.795
  412.000    2.704    0.207    0.403   86.427  188.167
  412.250    2.437    0.217    0.406   84.069  185.751
  412.500    2.225    0.247    0.397   79.166  181.922
  412.750    2.054    0.279    0.385   79.594  181.020
  413.000    1.921    0.295    0.388   80.023  181.633
  413.250    1.820    0.304    0.391   79.845  182.650
  413.500    1.903    0.309    0.385   77.062  183.262
  413.750    2.080    0.301    0.389   73.372  183.774
  414.000    2.341    0.292    0.387   71.679  183.479
  414.250    2.660    0.279    0.380   73.561  183.081
  414.500    2.979    0.254    0.375   78.534  182.079
  414.750    3.317    0.242    0.372   82.233  175.725
  415.000    3.652    0.258    0.381   86.357  179.468
  415.250    3.954    0.274    0.398   89.269  183.110
  415.500    4.188    0.284    0.409   88.304  182.107
  415.750    3.767    0.291    0.398   80.372  180.095
  416.000    3.181    0.292    0.390   75.348  179.193
  416.250    2.742    0.284    0.416   73.293  178.797
  416.500    2.499    0.284    0.404   71.964  179.006
  416.750    2.421    0.304    0.395   71.544  180.124
  417.000    2.452    0.315    0.390   70.942  181.645
  417.250    2.530    0.293    0.381   70.341  182.763
  417.500    2.694    0.249    0.368   70.466  183.174
  417.750    3.050    0.224    0.353   71.864  181.767
  418.000    3.402    0.207    0.340   73.504  179.856
  418.250    3.859    0.193    0.330   74.660  179.560
  418.500    4.410    0.192    0.319   75.451  181.586
  418.750    5.049    0.204    0.304   76.243  184.219
  419.000    5.855    0.156    0.289   76.308  182.510
  419.250    6.568    0.099    0.271   75.888  182.415
  419.500    5.546    0.078    0.252   71.712  186.259
  419.750    4.581    0.065    0.237   67.293  189.802
  420.000    3.687    0.120    0.258   65.238  191.221
  420.250    3.051    0.154    0.330   64.576  189.209
  420.500    2.586    0.175    0.368   64.580  184.875
  420.750    2.296    0.219    0.384   66.341  183.568
  421.000    2.058    0.263    0.391   67.860  182.768
  421.250    1.975    0.282    0.388   67.016  182.573
  421.500    1.956    0.272    0.386   63.143  182.883
  421.750    2.004    0.275    0.384   60.300  182.992
  422.000    2.079    0.268    0.396   60.668  183.301
  422.250    2.162    0.280    0.401   64.247  183.611
  422.500    2.214    0.287    0.398   66.795  184.527
  422.750    2.193    0.285    0.398   68.314  184.635
  423.000    2.093    0.280    0.402   68.197  184.037
  423.250    1.987    0.281    0.395   67.656  183.640
  423.500    1.851    0.283    0.390   66.692  183.343
  423.750    1.728    0.288    0.383   66.392  182.644
  424.000    1.674    0.299    0.375   66.578  182.247
  424.250    1.668    0.310    0.376   67.553  182.052
  424.500    1.708    0.317    0.391   68.769  181.960
  424.750    1.760    0.324    0.397   69.196  182.167
  425.000    1.829    0.327    0.391   69.624  182.276
  425.250    1.930    0.312    0.384   70.719  182.284
  425.500    2.090    0.296    0.380   72.117  182.189
  425.750    2.205    0.282    0.387   72.788  181.592
  426.000    2.348    0.277    0.396   72.489  181.395
  426.250    2.464    0.269    0.401   73.644  180.998
  426.500    2.561    0.256    0.400   74.981  180.702
  426.750    2.667    0.249    0.392   76.803  181.115
  427.000    2.778    0.211    0.385   78.382  181.625
  427.250    2.904    0.191    0.386   80.992  183.956
  427.500    3.035    0.214    0.377   82.632  185.577
  427.750    3.167    0.239    0.367   81.485  183.060
  428.000    3.262    0.255    0.374   80.278  176.706
  428.250    3.360    0.270    0.375   77.495  173.785
  428.500    3.448    0.207    0.372   79.074  176.417
  428.750    3.525    0.184    0.377   82.228  179.455
  429.000    3.570    0.177    0.374   84.353  180.976
  429.250    3.589    0.175    0.377   84.721  181.790
  429.500    3.609    0.177    0.377   84.847  182.201
  429.750    3.635    0.189    0.380   86.305  181.905
  430.000    3.655    0.205    0.377   87.520  181.711
  430.250    3.661    0.224    0.369   84.920  181.617
  430.500    3.827    0.245    0.364   84.015  181.624
  430.750    3.869    0.223    0.361   86.019  181.632
  431.000    3.833    0.199    0.364   88.144  182.445
  431.250    3.762    0.187    0.363   89.480  185.683
  431.500    3.671    0.179    0.360   89.182  188.922
  431.750    3.511    0.174    0.358   88.035  190.746
  432.000    3.433    0.179    0.367   87.312  192.066
  432.250    3.369    0.183    0.371   86.650  192.578
  432.500    3.350    0.178    0.360   85.504  192.585
  432.750    3.356    0.173    0.359   84.720  192.391
  433.000    3.355    0.165    0.372   83.997  191.993
  433.250    3.379    0.177    0.380   83.396  189.072
  433.500    3.398    0.183    0.389   83.400  185.040
  433.750    3.519    0.178    0.387   83.647  181.614
  434.000    3.651    0.173    0.385   86.256  181.116
  434.250    3.831    0.173    0.394   87.775  185.061
  434.500    3.983    0.180    0.405   87.900  189.208
  434.750    3.975    0.175    0.410   87.117  192.346
  435.000    3.836    0.172    0.400   86.879  193.060
  435.250    3.601    0.182    0.391   87.125  192.360
  435.500    3.306    0.197    0.382   88.280  190.651
  435.750    3.103    0.190    0.378   91.375  190.153
  436.000    2.929    0.193    0.385   95.439  190.867
  436.250    2.796    0.195    0.398   97.744  191.985
  436.500    2.714    0.194    0.391   99.505  193.001
  436.750    2.674    0.184    0.392   99.813  194.119
  437.000    2.708    0.175    0.396   99.877  194.429
  437.250    2.826    0.175    0.398   99.518  194.537
  437.500    2.992    0.158    0.390   99.037  194.443
  437.750    3.134    0.137    0.382   99.890  194.450
  438.000    3.168    0.146    0.391   98.561  194.760
  438.250    3.127    0.161    0.397   98.203  194.969
  438.500    3.041    0.162    0.415   98.510  194.977
  438.750    2.924    0.165    0.423   99.059  194.378
  439.000    2.806    0.187    0.420   99.064  193.173
  439.250    2.729    0.236    0.417   98.280  190.959
  439.500    2.669    0.272    0.415   96.951  188.946
  439.750    2.639    0.274    0.425   94.532  186.025
  440.000    2.748    0.255    0.417   90.417  185.426
  440.250    3.014    0.241    0.409   83.817  185.434
  440.500    3.234    0.224    0.400   82.973  186.248
  440.750    3.496    0.209    0.390   84.190  187.669
  441.000    3.647    0.202    0.383   85.587  190.301
  441.250    3.586    0.186    0.378   87.349  193.237
  441.500    3.342    0.176    0.383   88.140  195.263
  441.750    3.096    0.180    0.378   85.055  194.664
  442.000    2.880    0.202    0.372   82.030  191.945
  442.250    2.649    0.220    0.368   78.763  189.731
  442.500    2.405    0.224    0.383   75.798  188.224
  442.750    2.061    0.221    0.384   76.348  187.826
  443.000    1.777    0.224    0.384   77.261  187.936
  443.250    1.563    0.244    0.379   75.750  187.741
  443.500    1.395    0.269    0.375   69.151  187.545
  443.750    1.293    0.293    0.379   57.402  186.946
  444.000    1.207    0.318    0.388   54.741  185.843
  444.250    1.161    0.325    0.386   51.413  184.537
