~VERSION INFORMATION
 VERS.                 2.0:   CWLS LOG ASCII STANDARD -VERSION 2.0
 WRAP.                  NO:   ONE LINE PER DEPTH STEP
~WELL INFORMATION BLOCK
#MNEM.UNIT           DATA                    DESCRIPTION OF MNEMONIC
#---------    -------------------            -------------------------------
# Generated from Intellog Unique Number	CW_76_78/WELL/198
WELL.         GAO GERO MCMULLEN 06-24        : Well_name    - WELL
LOC .         00/06-24-077-01W5/0            : Location     - LOCATION
UWI .         00/06-24-077-01W5/0            : Uwi          - UNIQUE WELL ID
ENTR.         JJ                             : Entered      - ENTERED BY
SRVC.         WESTERN ATLAS                  : Scn          - SERVICE COMPANY
DATE.         12 FEB 71                      : Date         - LOG DATE
STRT.M        497.434                        : top_depth    - START DEPTH
STOP.M        624.934                        : bot_depth    - STOP DEPTH
STEP.M        0.25                           : increment    - STEP LENGTH
 NULL. -999.2500:NULL Value
~CURVE INFORMATION BLOCK
#MNEM UNIT       ERCB CURVE CODE    CURVE DESCRIPTION
#-----------   ------------------   ----------------------------------
DEPT.M        00 001 00 00         : DEPTH        - DEPTH
DELT.US/F     00 520 00 00         : DELT         - SONIC TRAVEL TIME
GR  .API      00 310 00 00         : GR           - GAMMA RAY
CALI.MM       00 280 01 00         : CAL          - CALIPER
ILD .OHMM     00 120 00 00         : RESD         - DEEP RESISTIVITY (DIL)
~PARAMETER INFORMATION
#MNEM.UNIT           DATA             DESCRIPTION OF MNEMONIC
#---------         -----------     ------------------------------
GL  .M        680.618              : gl           - GROUND LEVEL ELEVATION
EREF.M        683.362              : kb           - ELEVATION OF DEPTH REFERENCE
DATM.M        680.618              : datum        - DATUM ELEVATION
TDD .M        637.032              : tdd          - TOTAL DEPTH DRILLER
RUN .         ONE                  : Run          - RUN NUMBER
ENG .         GILEY                : Engineer     - RECORDING ENGINEER
WIT .         MCARTHUR             : Witness      - WITNESSED BY
MUD .         GEL                  : Mud_type     - MUD TYPE
MATR.         SANDSTONE            : Logunit      - NEUTRON MATRIX
TMAX.C        22.2222              : BHT          - MAXIMUM RECORDED TEMPERATURE
BHTD.M        636.422              : BHTDEP       - MAXIMUM RECORDED TEMPERATURE
RMT .C        17.7778              : MDTP         - TEMPERATURE OF MUD
MUDD.KG/M     1152                 : MWT          - MUD DENSITY
NEUT.         1                    : NEUTRON      - NEUTRON TYPE
RESI.         0                    : RESIST       - RESISTIVITY TYPE
RM  .OHMM     3                    : RM           - RESISTIVITY OF MUD
RMC .OHMM     0                    : RMC          - RESISTIVITY OF MUD CAKE
RMF .OHMM     2.8                  : RMF          - RESISTIVITY OF MUD FILTRATE
SUFT.C        5                    : SUFT         - SURFACE TEMPERATURE
~A  DEPTH     DELT       GR      CAL     RESD
# ...
  584.434  370.791   67.723  203.648    6.118
  584.684  341.026   63.179  203.567    7.897
  584.934  323.409   58.455  204.199    8.683
  585.184  303.194   54.574  204.627    8.370
  585.434  278.106   56.658  205.359    7.318
  585.684  326.689   53.925  205.683    6.087
  585.934  339.349   55.392  205.699    4.900
  586.184  355.581   60.175  205.512    4.184
  586.434  368.757   56.028  204.922    4.042
  586.684  379.857   52.852  204.119    4.754
  586.934  386.409   53.302  203.219    5.463
  587.184  376.328   56.935  203.343    6.549
  587.434  314.923   63.531  204.078    8.166
  587.684  278.206   69.597  204.908    9.587
  587.934  251.752   73.938  205.747    9.309
  588.184  324.636   77.571  206.173    8.201
  588.434  340.413   79.656  206.497    7.130
  588.684  349.689   80.770  206.926    6.651
  588.934  345.265   81.662  207.457    6.987
  589.184  345.708   83.482  207.882    7.520
  589.434  344.853   86.408  208.202    7.872
  589.684  327.367   91.059  208.525    7.910
  589.934  308.775   89.918  208.242    7.769
  590.184  308.310   87.494  208.564    7.255
  590.434  349.489   83.079  208.581    6.832
  590.684  355.845   79.551  208.599    6.475
  590.934  307.107   80.311  208.619    6.376
  591.184  320.222   82.973  208.431    6.671
  591.434  356.203   83.951  207.945    7.281
  591.684  368.796   85.596  207.144    7.890
  591.934  331.820   82.155  206.139    8.046
  592.184  299.909   76.946  205.749    7.706
  592.434  311.463   80.139  205.362    6.359
  592.684  379.149   83.727  205.481    5.031
  592.934  416.041   88.775  206.007    3.765
  593.184  413.237   86.219  206.639    3.368
  593.434  354.040   78.931  206.967    3.501
  593.684  367.347   62.316  206.887    4.251
  593.934  379.162   54.011  206.500    6.028
  594.184  341.531   44.912  206.304   13.818
  594.434  320.279   38.995  205.202   21.864
  594.684  227.625   40.596  203.688   27.677
  594.934  261.397   44.272  201.666   42.370
  595.184  313.945   49.056  200.664   48.328
  595.434  329.462   52.069  201.707   77.324
  595.684  326.851   58.355  202.644    8.905
  595.934  316.188   63.449  204.090    8.059
  596.184  325.858   70.795  205.026    8.785
  596.434  349.300   71.202  205.860   11.675
  596.684  365.337   63.694  205.880   14.779
  596.934  339.534   57.247  205.487   19.379
  597.184  310.028   54.912  204.997   16.825
  597.434  298.908   57.041  204.610   13.499
  597.684  332.356   66.953  204.423    9.903
  597.934  378.537   68.599  204.028    8.117
  598.184  369.690   70.064  202.109    7.584
  598.434  367.340   72.549  199.371    7.097
  598.684  371.100   74.325  202.655    6.583
  598.934  399.675   77.294  206.756    5.855
  599.184  374.782   83.580  208.204    5.206
  599.434  373.147   85.710  208.941    4.635
  599.684  432.516   85.099  208.865    3.930
  599.934  447.838   88.379  208.874    3.685
  600.184  458.742   86.486  208.993    3.236
  600.434  427.027   83.487  209.732    3.022
  600.684  397.067   83.320  209.749    2.810
  600.934  387.506   88.676  209.558    2.683
  601.184  401.853   93.592  209.172    2.547
  601.434  421.333   96.785  209.088    2.505
  601.684  438.928  100.107  208.696    2.542
  601.934  443.987  105.643  207.596    2.622
  602.184  425.070  108.833  207.714    2.773
  602.434  396.407  102.518  208.244    3.502
  602.684  356.118   86.876  208.874    5.724
  602.934  323.428   82.639  209.502    5.818
  603.184  312.893   79.332  208.913    5.227
  603.434  319.963   91.675  208.318    4.403
  603.684  337.624   97.032  207.515    3.874
  603.934  391.731  101.285  206.416    3.464
  604.184  413.421  105.273  206.535    3.300
  604.434  427.119  107.844  207.166    3.221
  604.684  395.858  109.090  207.592    3.204
  604.934  369.016  107.418  208.122    3.278
  605.184  362.573  100.088  208.139    3.354
  605.434  362.498   97.443  208.157    3.453
  605.684  359.758   94.488  208.481    3.650
  605.934  367.674   90.294  208.602    3.909
  606.184  357.074   87.385  209.133    4.302
  606.434  346.864   91.240  209.656    4.569
  606.684  357.767   92.618  210.190    5.808
  606.934  373.024   85.286  208.879    7.164
  607.184  357.031   77.912  206.346    8.913
  607.434  352.279   74.558  205.652   10.522
  607.684  349.928   70.588  206.182   12.805
  607.934  332.312   66.926  207.321   13.902
  608.184  295.790   67.199  208.868   11.289
  608.434  226.589   75.298  209.295    8.082
  608.684  243.210   81.275  208.496    6.137
  608.934  270.160   87.959  206.986    4.898
  609.184  302.244   95.086  205.164    4.151
  609.434  328.221   98.541  203.038    3.819
  609.684  353.613  101.645  201.830    3.834
  609.934  374.067  104.350  203.588    4.048
  610.184  385.167  106.393  206.053    4.625
  610.434  363.844   98.132  203.520    5.252
  610.684  352.075   93.542  198.537    5.657
  610.934  345.115   91.780  196.103    5.916
  611.184  332.499   89.357  195.101    5.230
  611.434  333.658   84.679  196.651    4.265
  611.684  351.511   81.591  197.997    3.637
  611.934  370.345   84.871  200.367    3.323
  612.184  400.219   94.782  203.654    3.337
  612.434  412.033  104.872  207.448    3.550
  612.684  380.967  109.963  211.751    3.807
  612.934  357.179  112.403  211.769    4.098
  613.184  349.112  105.249  207.810    4.456
  613.434  381.585  100.039  205.683    4.371
  613.684  386.967   95.272  204.475    3.940
  613.934  370.648   88.030  204.903    3.682
  614.184  365.895   88.746  206.554    3.587
  614.434  363.415   93.572  207.898    3.996
  614.684  399.724  100.698  204.553    4.825
  614.934  417.969  106.100  206.405    5.312
  615.184  388.139  105.667  210.098    5.093
  615.434  359.867  102.313  211.750    4.172
  615.684  354.464   97.726  209.419    3.816
  615.934  353.219   95.388  206.684    3.644
  616.184  354.961   94.292  206.909    3.718
  616.434  355.991   94.609  208.249    4.132
  616.684  360.657   96.651  210.516    4.776
  616.934  369.807  100.284  210.433    5.423
  617.184  367.979  103.740  209.736    5.403
  617.434  375.050   97.692  209.043    5.113
  617.684  376.077   92.438  208.750    4.911
  617.934  362.879   95.939  208.670    4.677
  618.184  362.804   99.706  208.684    4.478
  618.434  388.976  102.719  208.704    4.319
  618.684  397.280  101.754  208.824    4.300
  618.934  385.640   99.464  208.132    4.417
  619.184  381.277  100.798  207.024    4.414
  619.434  380.357  105.138  205.107    4.044
  619.684  357.868  107.491  204.202    3.534
  619.934  390.470  112.847  203.508    3.199
  620.184  396.241  115.110  203.420    3.022
  620.434  373.103  110.210  203.755    2.959
  620.684  338.854  109.954  203.873    3.112
  620.934  284.922  112.924  204.196    3.766
  621.184  317.915  112.578  204.518    4.290
  621.434  345.058   96.978  205.148    5.391
  621.684  312.436   85.579  205.370    7.180
  621.934  327.952   76.259  205.393    9.024
  622.184  222.044   54.028  205.513   12.504
  622.434  251.464   45.989  205.730   23.275
  622.684  270.489   36.360  206.365   40.552
  622.934  174.002   26.375  206.890   46.154
  623.184  192.247   21.565  207.217   48.318
  623.434  210.815   22.988  207.645   49.298
  623.684  210.936   21.889  207.660   47.745
  623.934  191.889   22.649  207.988   46.367
  624.184  211.046   22.922  208.207   47.684
  624.434  212.074   23.505  208.231   48.707
  624.684  206.671   23.690  208.246   49.356
  624.934  209.063   22.813  208.262   49.570
