~V
VERS. 2.00: Ver 2.00
WRAP. NO:
VEND. PRIZM:GeoGraphix
~W
STRT.M 125.0000:START DEPTH
STOP.M 325.0000:STOP DEPTH
STEP.M 0.2500:STEP
NULL. -999.2500:NULL VALUE
WELL. 00/06-21-082-05W4/0 :WELL
COMP. :COMPANY
UWI. 00_06-21-082-05W4_0:UNIQUE WELL ID
FLD. :FIELD
CNTY. :COUNTY
STAT. :STATE
CTRY. :COUNTRY
PDAT. :PERMANENT DATUM
LMF. :LOG MEASURED FROM
DMF. :DRILLING MEASURED FROM
LOC1. :LOCATION LINE 1
LOC2. :LOCATION LINE 2
LOC3. :LOCATION LINE 3
SEC. :SECTION
TWP. :TOWNSHIP
RAN. :RANGE
SRVC. :Logging Company
BASE. :Logging Unit Location
ENG. :Logging Engineer
WITN. :Witnessed By
RUN. :Run No.
MUD_TYPE. :Type Fluid in Hole
MUDS. :Source of Mud Sample
RMFS. :Source of Mud Filtrate
RMCS. :Source of Mud Cake
LOC. :LOCATION
DATE. :LOG DATE
~C
DEPT.M :DEPTH
NPHI. :NPHI
GR.API :GR
DPHI. :Created by graphical digitiser entry.
ILD.Ohmm :ILD
~P
EKB. -999.2500:ELEVATION OF KELLY BUSHING
EDF. -999.2500:ELEVATION OF DRILLING FLOOR
EGL. -999.2500:ELEVATION OF GROUND LEVEL
EPD. -999.2500:ELEVATION OF PERMANENT DATUM
APD. -999.2500:LMF DISTANCE ABOVE PERMANENT DATUM
LAT. -999.2500:LATITUDE OF WELL LOCATION
LONG. -999.2500:LONGITUDE OF WELL LOCATION
TDD. -999.2500:Total Depth Driller
TDL. -999.2500:Total Depth Logger
LCSG1. -999.2500:Depth of Casing from Logger
CSIZE. -999.2500:Casing Size
CWT. -999.2500:Casing Weight
BS. -999.2500:Bit Size
TLI. 125.1000:Top Logged Interval
BLI. 324.9000:Bottom Logged Interval
MRT. 0.0000:Maximum Recorded Temperature
WMUD. -999.2500:Drilling Mud Density
DFV. -999.2500:Drilling Mud Viscosity
PH. -999.2500:Drilling Mud pH
DFL. -999.2500:Drilling Mud Fluid Loss
RM. -999.2500:Resistivity of Drilling Fluid
RMT. -999.2500:Measured Temp. of Drilling Fluid
RMF. -999.2500:Resistivity of Drilling Fluid Filtrate
RMFT. -999.2500:Measured Temp. of Drilling Fluid Filtrate
RMC. -999.2500:Resistivity of Mud Cake
RMCT. -999.2500:Measured Temp. of Mud Cake
PHImax.V/V 0.3900:Maximum allowable Porosity
RwBnd.OHMM 0.1500:Bound Water Resistivity
RhoHy.KG/MT 1000.0000:Hydrocarbon Bulk density
SwCutoff.V/V 0.7000:Water Saturation Cutoff
PHINsh.V/V 0.4800:New Description
Rw.OHMM 1.0000:Formation Water Resistivity
Rshl.OHMM 5.0000:Resistivity shale
Trw.DEGC 25.0000:Rw measured at Lab conditions
ShaleCutoff.V/V 0.4000:New Description
GRcln.API 45.0000:Gamma Ray clean
RhoM.KG/MT 2650.0000:Bulk Density Matrix
GRshl.API 90.0000:Gamma Ray shale
m. 2.0000:Archie "m"
n. 2.0000:Archie "n"
GasTol.V/V 0.0500:Gas Tollerance
BHTemp.DEGC 25.0000:Bottom Hole Temperature
BHTDepth.M 1000.0000:Bottom Hole Depth
PHIDsh.US/MT 0.1800:New Description
a. 1.0000:Archie "a"
Gas Tol.V/V 0.0500:Gas Tollerance
RhoF.KG/MT 1000.0000:Bulk Density Fluid
RhoShl.KG/MT 2300.0000:Bulk Density Shale
TarCutoff.V/V 0.0300:New Description
SurfTemp.DEGC 10.0000:New Description
HIshl.V/V 0.4000:Neutron Hydrogen Index shale
NULL. -999.2500:
~A
# ...
  196.5000     0.5220    79.4389     0.2677     2.1757 
  196.7500     0.5167    80.3568     0.2756     2.1711 
  197.0000     0.5072    80.7855     0.2856     2.1425 
  197.2500     0.5048    80.7174     0.2866     2.1147 
  197.5000     0.5142    80.3866     0.2822     2.1147 
  197.7500     0.5313    79.9718     0.2792     2.1594 
  198.0000     0.5412    79.3006     0.2765     2.2446 
  198.2500     0.5277    78.2084     0.3022     2.3998 
  198.5000     0.5321    77.7744     0.3158     2.5461 
  198.7500     0.5390    78.4428     0.3185     2.6723 
  199.0000     0.5353    79.8548     0.3143     2.7638 
  199.2500     0.5225    81.1982     0.3056     2.8075 
  199.5000     0.5295    81.5556     0.2889     2.7964 
  199.7500     0.5358    79.8581     0.2677     2.8330 
  200.0000     0.5175    77.2626     0.2478     2.9238 
  200.2500     0.5042    74.6021     0.2336     3.0602 
  200.5000     0.4978    72.2543     0.2265     3.2379 
  200.7500     0.4825    70.5040     0.2285     3.4572 
  201.0000     0.4357    69.9049     0.2480     3.7230 
  201.2500     0.4472    70.6913     0.2844     3.9948 
  201.5000     0.4498    70.8034     0.2837     4.1833 
  201.7500     0.4222    70.2328     0.2891     4.2597 
  202.0000     0.3930    69.2559     0.3078     4.1832 
  202.2500     0.3907    68.0023     0.3275     3.9255 
  202.5000     0.3934    66.0241     0.3317     3.4942 
  202.7500     0.4027    64.6393     0.3214     3.0601 
  203.0000     0.4289    65.0726     0.3139     2.6806 
  203.2500     0.4671    65.7651     0.3054     2.3576 
  203.5000     0.4907    65.8703     0.3022     2.1273 
  203.7500     0.4895    64.5697     0.3093     2.0525 
  204.0000     0.5078    60.3882     0.3201     2.2158 
  204.2500     0.4922    55.8995     0.3436     2.9452 
  204.5000     0.4095    53.1769     0.3584     4.1554 
  204.7500     0.3219    52.0046     0.3589     5.6801 
  205.0000     0.2786    52.8336     0.3510     7.3631 
  205.2500     0.2921    56.0748     0.3431     8.8396 
  205.5000     0.3143    61.3921     0.3372     9.3169 
  205.7500     0.3337    64.7129     0.3399     8.4349 
  206.0000     0.3441    66.4973     0.3438     7.5765 
  206.2500     0.3488    67.5023     0.3384     6.8602 
  206.5000     0.3470    69.0048     0.3255     6.2298 
  206.7500     0.3432    71.7345     0.3137     5.6721 
  207.0000     0.3562    74.8067     0.3131     5.4361 
  207.2500     0.3706    76.2031     0.3218     6.4786 
  207.5000     0.3409    79.4473     0.3359     8.1640 
  207.7500     0.2681    89.0857     0.3440    11.5066 
  208.0000     0.2074    99.3120     0.3426    18.1602 
  208.2500     0.1996   101.9576     0.3330    27.2418 
  208.5000     0.2027    94.4822     0.3166    32.1553 
  208.7500     0.2296    83.1840     0.3039    23.9725 
  209.0000     0.2512    79.1486     0.3055    18.2459 
  209.2500     0.2650    80.8641     0.3142    14.9717 
  209.5000     0.2651    86.2102     0.3216    13.8723 
  209.7500     0.2532    93.1294     0.3238    14.1070 
  210.0000     0.2513   100.2989     0.3275    13.9825 
  210.2500     0.2624   107.0561     0.3108    11.7443 
  210.5000     0.2838   108.6270     0.2946     9.3223 
  210.7500     0.3140   104.4084     0.2860     7.5785 
  211.0000     0.3463    96.9841     0.2798     6.6562 
  211.2500     0.3714    89.3721     0.2752     6.3587 
  211.5000     0.3794    82.2724     0.2917     6.5275 
  211.7500     0.3649    78.6548     0.3123     7.3462 
  212.0000     0.3397    77.8970     0.3173     8.6618 
  212.2500     0.3183    78.2646     0.3212    10.4465 
  212.5000     0.3017    80.3426     0.3221    12.5765 
  212.7500     0.2883    84.9241     0.3149    14.7462 
  213.0000     0.2856    90.8992     0.3042    16.3816 
  213.2500     0.2967    95.6529     0.2882    15.0489 
  213.5000     0.3155    94.4982     0.2777    11.9130 
  213.7500     0.3357    88.3685     0.2667     8.9125 
  214.0000     0.3530    81.0297     0.2597     6.9570 
  214.2500     0.3654    76.3086     0.2621     6.1242 
  214.5000     0.3734    75.3234     0.2708     5.8573 
  214.7500     0.3710    78.1587     0.2795     6.0530 
  215.0000     0.3583    81.3829     0.2710     6.2519 
  215.2500     0.3341    81.9540     0.2642     6.4465 
  215.5000     0.3170    78.6241     0.2789     7.0841 
  215.7500     0.3199    72.4284     0.3167     8.5221 
  216.0000     0.3249    67.1757     0.3421    10.4817 
  216.2500     0.2540    63.7606     0.3491    11.8285 
  216.5000     0.2413    64.7019     0.3313    11.5012 
  216.7500     0.2583    68.3829     0.3017     9.7815 
  217.0000     0.3017    71.7480     0.2753     7.7835 
  217.2500     0.3575    71.8888     0.2675     6.6856 
  217.5000     0.3641    67.6319     0.2932     6.9620 
  217.7500     0.3347    63.0255     0.3281     7.7537 
  218.0000     0.2729    59.6928     0.3406     8.7247 
  218.2500     0.2380    57.6290     0.3454     9.7129 
  218.5000     0.2307    56.9173     0.3470    10.6446 
  218.7500     0.2297    57.5022     0.3461    11.6288 
  219.0000     0.2289    58.9635     0.3460    13.0519 
  219.2500     0.2198    55.2824     0.3577    15.4870 
  219.5000     0.2036    49.6099     0.3650    17.4433 
  219.7500     0.1950    44.2805     0.3638    19.3041 
  220.0000     0.2031    42.6665     0.3549    19.9943 
  220.2500     0.2275    46.6697     0.3419    17.5117 
  220.5000     0.2550    54.2143     0.3302     9.4573 
  220.7500     0.2824    62.6009     0.3130     6.7319 
  221.0000     0.3098    68.7889     0.2787     5.0720 
  221.2500     0.3373    71.6757     0.2533     3.9604 
  221.5000     0.3648    69.9858     0.2521     3.1760 
  221.7500     0.3922    63.3392     0.2720     2.6404 
  222.0000     0.4196    53.3190     0.2848     2.2659 
  222.2500     0.4161    47.7252     0.2989     1.9446 
  222.5000     0.4007    45.8741     0.3013     1.7251 
  222.7500     0.3889    45.3694     0.3013     1.5925 
  223.0000     0.3862    45.3206     0.3012     1.5182 
  223.2500     0.3890    45.8990     0.3003     1.4731 
  223.5000     0.3844    47.8927     0.3000     1.4408 
  223.7500     0.3768    48.9227     0.3110     1.4209 
  224.0000     0.3787    49.3998     0.3185     1.4283 
  224.2500     0.3811    50.7017     0.3158     1.4540 
  224.5000     0.3751    52.8830     0.3036     1.4859 
  224.7500     0.3610    55.2558     0.2884     1.5145 
  225.0000     0.3563    56.9692     0.2808     1.5371 
  225.2500     0.3631    57.1841     0.2917     1.5497 
  225.5000     0.3723    58.7126     0.3032     1.5396 
  225.7500     0.3820    61.3542     0.3103     1.5095 
  226.0000     0.3909    63.8066     0.3138     1.4685 
  226.2500     0.3962    63.8651     0.3144     1.4237 
  226.5000     0.3915    58.6226     0.3046     1.3724 
  226.7500     0.3861    49.0651     0.2937     1.3187 
  227.0000     0.3905    43.8283     0.2910     1.2737 
  227.2500     0.3977    41.0709     0.3007     1.2416 
  227.5000     0.4012    40.4248     0.3199     1.2245 
  227.7500     0.3977    42.0592     0.3379     1.2301 
  228.0000     0.3894    45.7430     0.3344     1.2792 
  228.2500     0.3947    50.7128     0.3209     1.3878 
  228.5000     0.3922    56.6633     0.3034     1.5584 
  228.7500     0.3862    62.5999     0.2871     1.7756 
  229.0000     0.3797    67.4671     0.2707     2.0345 
  229.2500     0.3758    70.6108     0.2520     2.3310 
  229.5000     0.3772    72.2421     0.2338     2.6528 
  229.7500     0.3760    69.9239     0.2446     2.9311 
  230.0000     0.3877    62.9769     0.2596     2.9702 
  230.2500     0.3993    54.7590     0.2676     2.7228 
  230.5000     0.3968    48.1153     0.2739     2.3283 
  230.7500     0.3786    44.3754     0.2870     1.9559 
  231.0000     0.3691    42.3504     0.3052     1.6469 
  231.2500     0.3777    41.4585     0.3165     1.4228 
  231.5000     0.3875    39.8750     0.3240     1.2968 
  231.7500     0.3963    37.8503     0.3265     1.2413 
  232.0000     0.4022    36.0575     0.3222     1.2233 
