~VERSION INFORMATION
 VERS.                 2.0:   CWLS LOG ASCII STANDARD -VERSION 2.0
 WRAP.                  NO:   ONE LINE PER DEPTH STEP
~WELL INFORMATION BLOCK
#MNEM.UNIT           DATA                    DESCRIPTION OF MNEMONIC
#---------    -------------------            -------------------------------
# Generated from Intellog Unique Number	CX_WELLS/WELL/2872
WELL.         07-08-081-18W4                 : Well_name    - WELL
LOC .         00/07-08-081-18W4/0            : Location     - LOCATION
UWI .         00/07-08-081-18W4/0            : Uwi          - UNIQUE WELL ID
ENTR.         T                              : Entered      - ENTERED BY
SRVC.         SCHLUMBERGER                   : Scn          - SERVICE COMPANY
STRT.F        550                            : top_depth    - START DEPTH
STOP.F        1220.11                        : bot_depth    - STOP DEPTH
STEP.F        0.82                           : increment    - STEP LENGTH
 NULL. -999.2500:NULL Value
~CURVE INFORMATION BLOCK
#MNEM UNIT       ERCB CURVE CODE    CURVE DESCRIPTION
#-----------   ------------------   ----------------------------------
DEPT.F        00 001 00 00         : DEPTH        - DEPTH
GR  .API      00 310 00 00         : GR           - GAMMA RAY
NPHI.V/V      00 330 00 00         : PHIN         - NEUTRON POROSITY (SANDSTONE)
ILD .OHMM     00 120 00 00         : RESD         - DEEP RESISTIVITY (OTHER)
~PARAMETER INFORMATION
#MNEM.UNIT           DATA             DESCRIPTION OF MNEMONIC
#---------         -----------     ------------------------------
GL  .F        1854                 : gl           - GROUND LEVEL ELEVATION
EREF.F        1865                 : kb           - ELEVATION OF DEPTH REFERENCE
DATM.F        1865                 : datum        - DATUM ELEVATION
TDD .F        1227                 : tdd          - TOTAL DEPTH DRILLER
RUN .         ONE                  : Run          - RUN NUMBER
ENG .         BILL                 : Engineer     - RECORDING ENGINEER
WIT .         JIM                  : Witness      - WITNESSED BY
MUD .         GEL                  : Mud_type     - MUD TYPE
MATR.         SANDSTONE            : Logunit      - NEUTRON MATRIX
TMAX.F        73                   : BHT          - MAXIMUM RECORDED TEMPERATURE
BHTD.F        1227                 : BHTDEP       - MAXIMUM RECORDED TEMPERATURE
MATR.         1                    : LOGUNIT      - NEUTRON MATRIX
RMT .F        65                   : MDTP         - TEMPERATURE OF MUD
NEUT.         1                    : NEUTRON      - NEUTRON TYPE
RESI.         7.1                  : RESIST       - RESISTIVITY TYPE
RMC .OHMM     6.5                  : RMC          - RESISTIVITY OF MUD CAKE
RMF .OHMM     5                    : RMF          - RESISTIVITY OF MUD FILTRATE
SUFT.F        35                   : SUFT         - SURFACE TEMPERATURE
~A  DEPTH       GR     PHIN     RESD
# ...
  727.986   41.573    0.402    8.474
  728.806   41.585    0.407    8.312
  729.626   40.989    0.422    8.230
  730.446   40.387    0.428    8.233
  731.266   39.183    0.434    8.236
  732.087   39.195    0.434    8.323
  732.907   39.848    0.435    8.409
  733.727   40.488    0.435    8.664
  734.547   40.519    0.433    9.086
  735.367   39.302    0.428    9.340
  736.188   32.496    0.423    9.930
  737.008   26.925    0.409   10.351
  737.828   22.610    0.394   10.773
  738.648   20.151    0.382   11.195
  739.469   20.176    0.377   11.618
  740.289   22.064    0.374   11.872
  741.109   26.436    0.374   12.211
  741.929   28.324    0.375   12.380
  742.749   28.977    0.379   12.718
  743.570   29.002    0.383   12.972
  744.390   29.027    0.384   13.143
  745.210   29.058    0.386   13.148
  746.030   29.704    0.388   13.150
  746.850   29.717    0.391   13.069
  747.671   30.363    0.392   13.072
  748.491   30.388    0.392   13.075
  749.311   30.413    0.392   13.162
  750.131   29.817    0.391   13.165
  750.951   28.607    0.390   13.336
  751.772   27.396    0.388   13.423
  752.592   27.427    0.387   13.593
  753.412   27.440    0.386   13.849
  754.232   29.334    0.383   13.934
  755.052   29.981    0.381   14.189
  755.873   30.627    0.376   14.361
  756.693   31.273    0.366   14.447
  757.513   31.298    0.362   14.534
  758.333   30.696    0.352   14.621
  759.154   28.858    0.347   14.959
  759.974   26.399    0.339   15.380
  760.794   25.188    0.326   15.886
  761.614   27.076    0.321   16.559
  762.434   28.337    0.350   16.981
  763.255   31.474    0.367   16.984
  764.075   32.120    0.387   16.904
  764.895   30.282    0.411   16.656
  765.715   28.444    0.425   16.073
  766.535   27.848    0.420   15.239
  767.356   27.252    0.415   14.739
  768.176   26.041    0.411   14.324
  768.996   25.445    0.406   14.160
  769.816   24.228    0.403   14.079
  770.636   24.247    0.399   14.082
  771.457   23.043    0.396   14.170
  772.277   22.441    0.396   14.172
  773.097   21.838    0.396   14.342
  773.917   20.622    0.395   14.429
  774.738   20.647    0.393   14.517
  775.558   21.293    0.397   14.520
  776.378   22.566    0.401   14.439
  777.198   23.833    0.404   14.275
  778.018   23.237    0.407   14.193
  778.839   22.014    0.407   14.030
  779.659   21.431    0.407   13.949
  780.479   21.456    0.412   13.953
  781.299   21.475    0.418   14.041
  782.119   21.512    0.418   14.127
  782.940   20.904    0.413   14.214
  783.760   20.929    0.410   14.216
  784.580   21.588    0.410   14.219
  785.400   22.221    0.410   14.223
  786.220   22.874    0.408   14.225
  787.041   23.513    0.403   14.230
  787.861   24.781    0.400   14.233
  788.681   26.054    0.391   14.235
  789.501   27.942    0.384   14.238
  790.322   27.961    0.376   14.241
  791.142   29.228    0.374   14.245
  791.962   29.260    0.376   14.415
  792.782   28.664    0.377   14.586
  793.602   27.447    0.379   14.590
  794.423   27.472    0.380   14.593
  795.243   28.124    0.381   14.595
  796.063   28.770    0.382   14.599
  796.883   28.174    0.386   14.603
  797.703   27.572    0.388   14.604
  798.524   26.355    0.387   14.691
  799.344   26.387    0.385   15.197
  800.164   27.039    0.380   15.618
  800.984   27.052    0.372   16.627
  801.804   26.456    0.368   17.635
  802.625   25.239    0.371   18.392
  803.445   25.264    0.377   18.981
  804.265   27.158    0.381   19.069
  805.085   29.667    0.383   18.736
  805.906   30.941    0.387   18.237
  806.726   30.345    0.384   17.486
  807.546   29.743    0.382   16.736
  808.366   29.768    0.379   15.985
  809.186   29.799    0.377   14.900
  810.007   29.824    0.375   13.900
  810.827   29.849    0.378   13.818
  811.647   29.868    0.379   13.654
  812.467   29.893    0.383   13.572
  813.287   29.304    0.389   13.493
  814.108   28.708    0.391   13.411
  814.928   28.112    0.395   13.415
  815.748   26.895    0.400   13.336
  816.568   26.920    0.408   13.338
  817.388   26.945    0.417   13.341
  818.209   27.598    0.418   13.262
  819.029   28.237    0.417   13.180
  819.849   30.125    0.414   13.016
  820.669   32.014    0.402   12.935
  821.490   33.902    0.389   12.772
  822.310   33.927    0.378   12.690
  823.130   33.337    0.372   12.610
  823.950   31.506    0.379   12.530
  824.770   30.282    0.395   12.531
  825.591   28.451    0.414   12.452
  826.411   27.842    0.413   12.455
  827.231   27.867    0.408   12.457
  828.051   29.147    0.406   12.378
  828.871   30.408    0.408   12.380
  829.692   31.681    0.403   12.300
  830.512   32.942    0.398   12.137
  831.332   34.209    0.388   12.139
  832.152   35.483    0.380   12.059
  832.972   36.750    0.368   12.061
  833.793   39.886    0.358   12.231
  834.613   41.147    0.333   12.569
  835.433   45.520    0.343   13.410
  836.253   48.023    0.364   14.334
  837.073   51.780    0.396   14.421
  837.894   52.420    0.414   13.503
  838.714   52.445    0.438   12.585
  839.534   48.129    0.451   11.332
  840.354   45.664    0.446   10.163
  841.175   46.310    0.443    8.910
  841.995   48.198    0.438    8.915
  842.815   49.478    0.435    9.084
  843.635   51.366    0.430    9.506
  844.455   52.627    0.424   10.096
  845.276   55.136    0.420   10.267
  846.096   57.024    0.415   10.271
  846.916   58.298    0.413   10.106
  847.736   58.944    0.410    9.942
  848.556   60.217    0.409    9.776
  849.377   60.230    0.410    9.528
  850.197   60.255    0.411    9.112
  851.017   59.659    0.410    8.864
  851.837   58.448    0.410    8.784
  852.657   57.846    0.409    8.619
  853.478   56.636    0.409    8.622
  854.298   53.562    0.412    8.626
  855.118   51.711    0.416    8.547
  855.938   47.395    0.420    8.549
  856.759   45.557    0.420    8.552
  857.579   46.216    0.415    8.556
  858.399   46.856    0.410    8.558
  859.219   46.875    0.410    8.564
  860.039   46.900    0.410    8.565
  860.860   45.683    0.409    8.568
  861.680   45.093    0.403    8.740
  862.500   44.491    0.401    8.825
  863.320   42.659    0.406    9.080
  864.140   40.821    0.403    9.167
  864.961   37.741    0.391    9.254
  865.781   34.034    0.378    9.174
  866.601   31.581    0.365    9.092
  867.421   32.227    0.355    9.178
  868.241   31.631    0.350    9.852
  869.062   29.800    0.358   10.693
  869.882   28.570    0.358   11.868
  870.702   27.360    0.360   13.630
  871.522   29.869    0.366   14.554
  872.343   32.993    0.373   15.981
  873.163   38.613    0.382   16.655
  873.983   44.849    0.388   16.155
  874.803   49.848    0.403   14.316
  875.623   50.488    0.415   12.560
  876.444   50.513    0.431   11.223
  877.264   51.780    0.436    9.384
  878.084   53.675    0.433    7.880
  878.904   54.321    0.428    7.129
  879.724   53.110    0.422    6.883
  880.545   51.881    0.416    6.884
  881.365   49.434    0.410    7.056
  882.185   48.826    0.406    7.142
  883.005   46.988    0.406    7.313
  883.825   47.647    0.412    7.484
  884.646   48.914    0.418    7.654
  885.466   49.566    0.425    7.657
  886.286   50.833    0.440    7.661
  887.106   51.467    0.443    7.664
  887.927   52.113    0.438    7.585
  888.747   53.386    0.433    7.587
  889.567   54.039    0.429    7.506
  890.387   54.679    0.425    7.509
  891.207   55.331    0.423    7.512
  892.028   55.971    0.423    7.515
  892.848   56.611    0.423    7.518
  893.668   57.263    0.421    7.523
  894.488   57.916    0.420    7.609
  895.308   57.928    0.419    7.613
  896.129   58.581    0.416    7.615
  896.949   59.227    0.416    7.534
  897.769   58.010    0.416    7.454
  898.589   56.178    0.418    7.373
  899.409   55.576    0.422    7.294
  900.230   53.123    0.426    7.295
  901.050   51.291    0.427    7.301
  901.870   48.826    0.427    7.302
  902.690   45.746    0.427    7.305
  903.510   43.902    0.427    7.392
  904.331   41.443    0.426    7.646
  905.151   40.853    0.419    7.984
