~VERSION INFORMATION
 VERS.                 2.0:   CWLS LOG ASCII STANDARD -VERSION 2.0
 WRAP.                  NO:   ONE LINE PER DEPTH STEP
~WELL INFORMATION BLOCK
#MNEM.UNIT           DATA                    DESCRIPTION OF MNEMONIC
#---------    -------------------            -------------------------------
# Generated from Intellog Unique Number	CW_76_78/WELL/199
WELL.         SULPETRO MARTEN HILLS 04-29    : Well_name    - WELL
LOC .         00/04-29-076-23W4/0            : Location     - LOCATION
UWI .         00/04-29-076-23W4/0            : Uwi          - UNIQUE WELL ID
ENTR.         JAYE                           : Entered      - ENTERED BY
SRVC.         SCHLUMBERGER                   : Scn          - SERVICE COMPANY
DATE.         4 MAR 84                       : Date         - LOG DATE
STRT.M        640                            : top_depth    - START DEPTH
STOP.M        891                            : bot_depth    - STOP DEPTH
STEP.M        0.25                           : increment    - STEP LENGTH
 NULL. -999.2500:NULL Value
~CURVE INFORMATION BLOCK
#MNEM UNIT       ERCB CURVE CODE    CURVE DESCRIPTION
#-----------   ------------------   ----------------------------------
DEPT.M        00 001 00 00         : DEPTH        - DEPTH
ILD .OHMM     00 120 00 00         : RESD         - DEEP RESISTIVITY (DIL)
NPHI.V/V      00 330 00 00         : PHIN         - NEUTRON POROSITY (SANDSTONE)
DPHI.V/V      00 890 00 00         : PHID         - DENSITY POROSITY (SANDSTONE)
GR  .API      00 310 00 00         : GR           - GAMMA RAY
CALI.MM       00 280 01 00         : CAL          - CALIPER
~PARAMETER INFORMATION
#MNEM.UNIT           DATA             DESCRIPTION OF MNEMONIC
#---------         -----------     ------------------------------
GL  .M        935.93               : gl           - GROUND LEVEL ELEVATION
EREF.M        939.4                : kb           - ELEVATION OF DEPTH REFERENCE
DATM.M        935.93               : datum        - DATUM ELEVATION
TDD .M        896                  : tdd          - TOTAL DEPTH DRILLER
RUN .         ONE                  : Run          - RUN NUMBER
MUD .         GEL CHEM             : Mud_type     - MUD TYPE
MATR.         SANDSTONE            : Logunit      - NEUTRON MATRIX
TMAX.C        24                   : BHT          - MAXIMUM RECORDED TEMPERATURE
BHTD.M        891                  : BHTDEP       - MAXIMUM RECORDED TEMPERATURE
RMT .C        14                   : MDTP         - TEMPERATURE OF MUD
MUDD.KG/M     1170                 : MWT          - MUD DENSITY
NEUT.         1                    : NEUTRON      - NEUTRON TYPE
RESI.         0                    : RESIST       - RESISTIVITY TYPE
RM  .OHMM     1.374                : RM           - RESISTIVITY OF MUD
RMC .OHMM     0                    : RMC          - RESISTIVITY OF MUD CAKE
RMF .OHMM     1.642                : RMF          - RESISTIVITY OF MUD FILTRATE
SUFT.C        0                    : SUFT         - SURFACE TEMPERATURE
~A  DEPTH     RESD     PHIN     PHID       GR      CAL
# ...
  749.500    4.312    0.465    0.231   82.664  161.593
  749.750    4.574    0.472    0.263   85.760  155.673
  750.000    4.920    0.453    0.280   87.061  148.059
  750.250    5.489    0.446    0.288   85.263  145.166
  750.500    5.961    0.438    0.289   77.295  144.870
  750.750    6.969    0.447    0.273   68.641  146.443
  751.000    8.502    0.431    0.231   60.113  148.744
  751.250   10.986    0.271    0.094   59.188  151.149
  751.500   12.941    0.224    0.079   61.316  153.759
  751.750   15.269    0.220    0.147   63.758  154.607
  752.000   16.514    0.300    0.193   65.946  153.895
  752.250   13.622    0.403    0.248   69.632  150.066
  752.500   10.809    0.420    0.277   72.445  143.123
  752.750    7.673    0.427    0.286   75.072  144.905
  753.000    6.031    0.436    0.223   76.577  148.034
  753.250    5.438    0.434    0.203   80.823  151.271
  753.500    5.051    0.429    0.206   85.133  154.506
  753.750    4.842    0.445    0.213   87.884  157.325
  754.000    4.711    0.476    0.209   92.131  159.417
  754.250    4.618    0.490    0.210   92.077  160.265
  754.500    4.560    0.482    0.217   90.466  157.994
  754.750    4.528    0.435    0.228   85.927  151.985
  755.000    4.547    0.425    0.228   81.137  147.845
  755.250    4.694    0.431    0.229   77.844  145.784
  755.500    4.812    0.454    0.236   76.170  145.486
  755.750    5.023    0.475    0.257   74.309  145.087
  756.000    5.245    0.488    0.288   74.069  145.311
  756.250    5.536    0.491    0.281   73.330  145.533
  756.500    5.717    0.485    0.269   70.847  145.548
  756.750    6.000    0.459    0.275   67.117  146.083
  757.000    6.300    0.474    0.223   62.141  146.515
  757.250    6.789    0.345    0.110   58.597  146.738
  757.500    7.302    0.297    0.058   54.493  146.751
  757.750    7.956    0.288    0.089   50.265  146.665
  758.000    8.603    0.291    0.150   50.212  147.199
  758.250    9.065    0.330    0.188   61.376  148.252
  758.500    9.379    0.395    0.217   73.413  149.721
  758.750    9.736    0.286    0.143   71.178  151.917
  759.000   10.317    0.222    0.008   53.613  153.906
  759.250   12.084    0.176   -0.014   47.142  151.429
  759.500   14.259    0.177    0.039   50.017  148.016
  759.750   14.588    0.267    0.081   57.381  147.620
  760.000   13.778    0.309    0.136   63.559  147.841
  760.250   12.535    0.374    0.177   72.355  147.960
  760.500   11.584    0.382    0.159   71.928  148.286
  760.750   10.521    0.281    0.110   63.400  148.717
  761.000    9.594    0.273    0.127   60.853  149.355
  761.250    8.445    0.325    0.183   71.831  150.410
  761.500    7.448    0.394    0.219   79.817  151.566
  761.750    6.605    0.442    0.238   84.251  153.661
  762.000    5.791    0.457    0.221   81.269  154.712
  762.250    5.271    0.463    0.214   82.337  156.080
  762.500    4.780    0.467    0.229   85.775  157.444
  762.750    4.391    0.474    0.245   89.273  158.602
  763.000    4.525    0.478    0.229   89.719  159.761
  763.250    4.848    0.465    0.189   87.360  160.293
  763.500    5.234    0.435    0.176   81.013  159.375
  763.750    5.863    0.432    0.172   82.331  157.832
  764.000    6.260    0.437    0.172   83.337  155.978
  764.250    6.204    0.425    0.178   83.096  154.954
  764.500    5.903    0.424    0.202   85.349  154.971
  764.750    5.607    0.468    0.204   89.970  156.232
  765.000    5.355    0.489    0.196   90.665  157.597
  765.250    5.173    0.493    0.202   90.425  158.444
  765.500    5.050    0.467    0.214   92.303  158.147
  765.750    5.091    0.449    0.216   97.173  157.956
  766.000    5.169    0.448    0.212   98.741  158.488
  766.250    5.267    0.458    0.201   98.189  159.335
  766.500    5.368    0.459    0.184   96.266  159.766
  766.750    5.421    0.465    0.186   93.783  159.885
  767.000    5.383    0.472    0.205   92.981  160.107
  767.250    5.277    0.485    0.215   98.226  160.123
  767.500    5.173    0.490    0.207  100.042  160.350
  767.750    5.051    0.478    0.204   98.679  160.465
  768.000    4.979    0.465    0.200   96.071  161.312
  768.250    4.917    0.450    0.194   95.582  162.157
  768.500    4.901    0.431    0.183   95.903  163.005
  768.750    4.929    0.448    0.177   96.036  163.330
  769.000    5.016    0.456    0.198   96.046  162.307
  769.250    5.168    0.454    0.220   95.806  157.959
  769.500    5.286    0.441    0.213   95.130  152.367
  769.750    5.389    0.435    0.218   93.955  150.513
  770.000    5.584    0.441    0.231   91.159  149.697
  770.250    5.830    0.451    0.228   88.925  148.780
  770.500    6.031    0.441    0.192   86.629  148.482
  770.750    6.285    0.395    0.173   84.768  148.288
  771.000    6.721    0.398    0.189   84.403  148.304
  771.250    7.109    0.425    0.193   84.101  148.423
  771.500    7.534    0.399    0.188   81.928  148.542
  771.750    8.027    0.391    0.189   78.946  148.974
  772.000    8.537    0.348    0.134   75.216  149.405
  772.250    8.462    0.325    0.128   76.534  149.523
  772.500    8.187    0.364    0.170   82.589  149.539
  772.750    7.907    0.440    0.202   87.459  149.864
  773.000    7.469    0.452    0.206   85.598  150.714
  773.250    6.938    0.396    0.186   87.726  151.349
  773.500    6.541    0.372    0.182   90.789  151.987
  773.750    6.247    0.464    0.211   92.419  152.315
  774.000    6.123    0.480    0.244   89.997  152.331
  774.250    6.036    0.454    0.246   84.959  152.241
  774.500    5.894    0.441    0.224   83.035  152.257
  774.750    5.800    0.434    0.201   86.846  152.378
  775.000    5.715    0.436    0.217   92.152  152.392
  775.250    5.697    0.447    0.236   93.471  152.409
  775.500    5.668    0.456    0.214   89.305  152.320
  775.750    5.629    0.450    0.197   90.249  152.334
  776.000    5.609    0.441    0.199   93.311  152.245
  776.250    5.571    0.437    0.207   93.508  152.157
  776.500    5.531    0.430    0.208   93.329  152.278
  776.750    5.504    0.436    0.207   96.517  152.084
  777.000    5.474    0.436    0.204   97.275  151.684
  777.250    5.427    0.428    0.200   95.974  151.283
  777.500    5.378    0.440    0.197   94.364  150.675
  777.750    5.401    0.452    0.220   92.753  150.068
  778.000    5.405    0.461    0.225   90.954  150.185
  778.250    5.477    0.465    0.226   89.405  152.485
  778.500    5.499    0.459    0.227   88.668  156.552
  778.750    5.564    0.459    0.211   89.736  159.787
  779.000    5.659    0.480    0.210   92.611  161.152
  779.250    5.747    0.471    0.216   94.490  160.545
  779.500    5.835    0.455    0.205   95.496  159.521
  779.750    5.859    0.448    0.202   95.568  158.082
  780.000    5.894    0.436    0.212   94.767  156.123
  780.250    5.896    0.419    0.207   93.965  153.856
  780.500    5.922    0.426    0.200   95.409  152.727
  780.750    5.957    0.423    0.192   96.227  152.434
  781.000    6.060    0.411    0.192   96.673  152.239
  781.250    6.269    0.413    0.202   95.561  151.942
  781.500    6.400    0.415    0.209   95.133  152.063
  781.750    6.439    0.390    0.211   95.143  152.180
  782.000    6.288    0.396    0.214   96.398  152.405
  782.250    6.017    0.416    0.211   96.594  153.041
  782.500    5.704    0.417    0.199   96.665  154.927
  782.750    5.378    0.427    0.216   97.485  159.408
  783.000    5.108    0.445    0.231  101.046  164.409
  783.250    5.016    0.469    0.249  101.117  170.759
  783.500    5.112    0.448    0.252   96.204  167.556
  783.750    5.437    0.427    0.260   93.035  163.001
  784.000    6.079    0.444    0.276   89.679  157.927
  784.250    6.661    0.446    0.238   88.192  156.487
  784.500    7.204    0.424    0.202   90.133  156.607
  784.750    7.733    0.419    0.196   91.888  155.272
  785.000    8.442    0.437    0.217   92.207  152.795
  785.250    8.492    0.440    0.225   90.721  150.005
  785.500    7.800    0.420    0.202   89.796  150.644
  785.750    7.152    0.413    0.155   94.292  155.540
