~VERSION INFORMATION
 VERS.                 2.0:   CWLS LOG ASCII STANDARD -VERSION 2.0
 WRAP.                  NO:   ONE LINE PER DEPTH STEP
~WELL INFORMATION BLOCK
#MNEM.UNIT           DATA                    DESCRIPTION OF MNEMONIC
#---------    -------------------            -------------------------------
# Generated from Intellog Unique Number	CW_82_90/WELL/619
WELL.         07-11-082-25W4                 : Well_name    - WELL
LOC .         00/07-11-082-25W4/0            : Location     - LOCATION
UWI .         00/07-11-082-25W4/0            : Uwi          - UNIQUE WELL ID
ENTR.         JAYE                           : Entered      - ENTERED BY
SRVC.         SCHLUMBERGER                   : Scn          - SERVICE COMPANY
DATE.         10 MAR 77                      : Date         - LOG DATE
STRT.M        225.552                        : top_depth    - START DEPTH
STOP.M        450.802                        : bot_depth    - STOP DEPTH
STEP.M        0.25                           : increment    - STEP LENGTH
 NULL. -999.2500:NULL Value
~CURVE INFORMATION BLOCK
#MNEM UNIT       ERCB CURVE CODE    CURVE DESCRIPTION
#-----------   ------------------   ----------------------------------
DEPT.M        00 001 00 00         : DEPTH        - DEPTH
CALI.MM       00 280 01 00         : CAL          - CALIPER
GR  .API      00 310 00 00         : GR           - GAMMA RAY
NPHI.V/V      00 330 00 00         : PHIN         - NEUTRON POROSITY (SANDSTONE)
DPHI.V/V      00 890 00 00         : PHID         - DENSITY POROSITY (SANDSTONE)
ILD .OHMM     00 120 00 00         : RESD         - DEEP RESISTIVITY (DIL)
~PARAMETER INFORMATION
#MNEM.UNIT           DATA             DESCRIPTION OF MNEMONIC
#---------         -----------     ------------------------------
GL  .M        580.339              : gl           - GROUND LEVEL ELEVATION
EREF.M        583.387              : kb           - ELEVATION OF DEPTH REFERENCE
DATM.M        580.339              : datum        - DATUM ELEVATION
TDD .M        452.933              : tdd          - TOTAL DEPTH DRILLER
RUN .         ONE                  : Run          - RUN NUMBER
BASE.         EDMONTON             : Branch       - HOME BASE OF LOGGING UNIT
MATR.         SANDSTONE            : Logunit      - NEUTRON MATRIX
TMAX.C        17.2222              : BHT          - MAXIMUM RECORDED TEMPERATURE
BHTD.M        452.933              : BHTDEP       - MAXIMUM RECORDED TEMPERATURE
RMT .C        9.44444              : MDTP         - TEMPERATURE OF MUD
MUDD.KG/M     1100                 : MWT          - MUD DENSITY
NEUT.         1                    : NEUTRON      - NEUTRON TYPE
RESI.         0                    : RESIST       - RESISTIVITY TYPE
RM  .OHMM     6.3                  : RM           - RESISTIVITY OF MUD
RMC .OHMM     0.25                 : RMC          - RESISTIVITY OF MUD CAKE
RMF .OHMM     0.25                 : RMF          - RESISTIVITY OF MUD FILTRATE
SUFT.C        4                    : SUFT         - SURFACE TEMPERATURE
~A  DEPTH      CAL       GR     PHIN     PHID     RESD
# ...
  298.552  171.599  115.123    0.455    0.211    9.773
  298.802  171.729  116.265    0.472    0.213    9.370
  299.052  172.178  120.109    0.477    0.225    8.686
  299.302  171.992  118.805    0.466    0.248    7.848
  299.552  171.375  113.983    0.458    0.263    7.451
  299.802  170.758  109.476    0.460    0.265    7.032
  300.052  169.824  106.036    0.476    0.264    6.729
  300.302  169.104  100.651    0.483    0.281    6.860
  300.552  168.276   94.762    0.472    0.275    7.496
  300.802  167.556   88.559    0.441    0.291    8.437
  301.052  167.047   77.333    0.419    0.290    9.899
  301.302  166.539   65.040    0.389    0.292   11.707
  301.552  166.454   54.003    0.372    0.306   13.736
  301.802  167.330   54.772    0.384    0.331   16.117
  302.052  167.989   52.964    0.431    0.334   17.891
  302.302  168.543   52.035    0.459    0.324   18.494
  302.552  168.569   52.174    0.472    0.330   19.346
  302.802  168.483   53.946    0.459    0.304   21.432
  303.052  167.870   56.847    0.441    0.255   24.998
  303.302  167.148   57.552    0.402    0.213   29.623
  303.552  166.002   59.136    0.381    0.195   36.019
  303.802  165.280   60.030    0.363    0.199   42.850
  304.052  166.792   62.052    0.345    0.223   50.778
  304.302  168.303   63.822    0.379    0.241   64.873
  304.552  171.307   61.513    0.403    0.269   53.616
  304.802  172.713   59.394    0.428    0.324   62.046
  305.052  171.776   58.967    0.451    0.344   60.680
  305.302  168.824   58.982    0.464    0.345   55.922
  305.552  166.930   58.995    0.469    0.351   52.147
  305.802  165.786   58.694    0.486    0.354   50.703
  306.052  164.860   58.458    0.491    0.343   51.896
  306.302  164.560   58.658    0.477    0.339   57.379
  306.552  164.260   60.681    0.474    0.331   56.659
  306.802  163.969   62.829    0.469    0.325   54.445
  307.052  164.526   65.982    0.467    0.328   50.371
  307.302  164.866   68.068    0.470    0.332   47.633
  307.552  165.415   66.951    0.480    0.342   44.864
  307.802  166.395   68.472    0.491    0.344   41.264
  308.052  167.057   69.806    0.491    0.325   29.991
  308.302  167.078   71.827    0.489    0.269   22.631
  308.552  167.208   75.546    0.494    0.210   18.447
  308.802  167.342   82.717    0.407    0.147   16.180
  309.052  167.577   87.692    0.307    0.131   14.794
  309.302  167.703   91.283    0.342    0.193   13.262
  309.552  167.940   94.374    0.405    0.277   12.565
  309.802  167.647   94.890    0.459    0.315   11.976
  310.052  167.669   92.831    0.482    0.299   11.369
  310.302  167.484   89.644    0.503    0.296   10.687
  310.552  167.396   90.033    0.523    0.295   10.105
  310.802  167.309   92.809    0.511    0.302    9.786
  311.052  167.121   94.644    0.460    0.313    9.918
  311.302  167.253   94.406    0.458    0.316   10.478
  311.552  167.487   91.532    0.481    0.294   10.896
  311.802  167.618   90.227    0.489    0.280   11.375
  312.052  167.959   89.926    0.494    0.284   11.620
  312.302  168.090   90.129    0.491    0.279   11.730
  312.552  168.109   91.523    0.491    0.285   11.516
  312.802  168.345   94.740    0.490    0.281   11.240
  313.052  168.367   95.005    0.481    0.308   11.256
  313.302  168.400   95.835    0.481    0.307   11.229
  313.552  168.520   98.485    0.476    0.301   11.136
  313.802  168.868  101.386    0.465    0.283   10.977
  314.052  168.992  104.917    0.440    0.270   10.841
  314.302  169.123  107.255    0.444    0.253   10.771
  314.552  169.147  108.147    0.443    0.252   10.639
  314.802  169.489  107.345    0.462    0.224   10.405
  315.052  169.828  107.170    0.475    0.227   10.156
  315.302  170.281  109.882    0.463    0.246    9.661
  315.552  170.832  112.784    0.460    0.215    9.082
  315.802  172.134  114.681    0.488    0.225    8.536
  316.052  172.260  114.256    0.506    0.247    8.201
  316.302  172.283  116.656    0.505    0.233    7.925
  316.552  172.732  117.549    0.481    0.214    7.890
  316.802  173.712  115.301    0.470    0.224    8.108
  317.052  174.798  113.495    0.480    0.221    8.481
  317.302  176.415  114.576    0.473    0.219    8.961
  317.552  178.673  115.531    0.463    0.195    9.448
  317.802  180.609  114.666    0.455    0.196    9.651
  318.052  181.377  113.298    0.447    0.215    9.364
  318.302  178.741  111.742    0.449    0.244    9.249
  318.552  170.790  107.987    0.431    0.268    9.637
  318.802  168.691   91.426    0.412    0.251   10.384
  319.052  168.285   92.067    0.396    0.250   11.167
  319.302  168.203   97.354    0.397    0.183   11.797
  319.552  168.544  103.270    0.412    0.188   11.909
  319.802  169.210  108.056    0.418    0.231   11.284
  320.052  169.441  108.698    0.428    0.239   10.671
  320.302  170.207  111.537    0.439    0.232   10.150
  320.552  172.040  112.995    0.439    0.234    9.466
  320.802  172.168  109.868    0.469    0.220    8.707
  321.052  170.171  116.790    0.466    0.234    8.200
  321.302  167.751  118.814    0.434    0.229    7.925
  321.552  166.924  113.741    0.447    0.206    7.797
  321.802  166.524  110.488    0.448    0.205    7.886
  322.052  166.332  106.235    0.432    0.195    8.136
  322.302  166.785  103.925    0.422    0.240    8.394
  322.552  167.013  102.869    0.404    0.264    8.710
  322.802  167.036  101.627    0.397    0.289    9.148
  323.052  167.065  101.830    0.445    0.299    9.513
  323.302  167.297  105.799    0.487    0.296   10.030
  323.552  167.747  109.265    0.490    0.276   10.368
  323.802  167.874  113.988    0.447    0.237   10.866
  324.052  167.475  114.127    0.445    0.233   11.079
  324.302  168.667  116.339    0.450    0.222   11.429
  324.552  170.391  118.802    0.475    0.231   11.584
  324.802  171.901  117.183    0.472    0.249   11.671
  325.052  173.092  114.998    0.448    0.215   11.595
  325.302  174.072  113.569    0.437    0.212   11.521
  325.552  172.608  118.478    0.434    0.221   11.561
  325.802  171.354  116.736    0.437    0.222   11.694
  326.052  171.696  114.049    0.468    0.222   11.734
  326.302  172.675  112.493    0.469    0.237   11.543
  326.552  173.020  110.373    0.452    0.236   11.356
  326.802  172.727  112.205    0.450    0.240   11.328
  327.052  172.746  115.232    0.445    0.240   11.390
  327.302  172.556  115.874    0.443    0.227   11.498
  327.552  170.987  113.190    0.423    0.233   11.675
  327.802  169.732  106.672    0.406    0.228   11.856
  328.052  169.332  107.815    0.396    0.228   12.256
  328.302  169.459  104.126    0.424    0.225   12.897
  328.552  170.974  104.202    0.421    0.214   13.896
  328.802  171.100  102.395    0.414    0.274   14.712
  329.052  168.998   91.859    0.394    0.277   16.493
  329.302  167.959   87.290    0.337    0.280   18.056
  329.552  167.662   89.188    0.322    0.301   19.885
  329.802  167.683   90.834    0.323    0.294   20.926
  330.052  167.493   89.780    0.338    0.267   21.038
  330.302  167.731   88.035    0.353    0.269   20.293
  330.552  167.752   87.171    0.330    0.282   19.075
  330.802  167.988   88.878    0.330    0.247   18.691
  331.052  168.120   88.766    0.352    0.249   18.831
  331.302  168.037   84.762    0.347    0.290   19.388
  331.552  167.847   85.026    0.341    0.294   20.003
  331.802  167.658   86.296    0.340    0.288   20.596
  332.052  167.466   87.188    0.338    0.297   21.460
  332.302  167.068   86.198    0.341    0.305   22.182
  332.552  167.090   87.028    0.347    0.275   22.570
  332.802  166.901   91.059    0.355    0.256   22.381
  333.052  166.815   98.921    0.367    0.269   20.464
  333.302  166.626  102.953    0.385    0.282   18.563
  333.552  166.862  105.918    0.422    0.244   17.312
  333.802  166.886  101.350    0.435    0.255   15.549
  334.052  166.909  102.242    0.423    0.254   14.273
  334.302  166.717  100.812    0.435    0.258   14.238
  334.552  166.527  101.578    0.427    0.264   14.572
  334.802  166.979  100.210    0.412    0.279   14.652
