~VERSION INFORMATION
 VERS.                 2.0:   CWLS LOG ASCII STANDARD -VERSION 2.0
 WRAP.                  NO:   ONE LINE PER DEPTH STEP
~WELL INFORMATION BLOCK
#MNEM.UNIT           DATA                    DESCRIPTION OF MNEMONIC
#---------    -------------------            -------------------------------
# Generated from Intellog Unique Number	CS_77_79/WELL/897
WELL.         KANDEX CAN-SUP THORNBURY       : Well_name    - WELL
LOC .         00/07-14-078-13W4/0            : Location     - LOCATION
UWI .         00/07-14-078-13W4/0            : Uwi          - UNIQUE WELL ID
ENTR.         JHS                            : Entered      - ENTERED BY
SRVC.         SCHLUMBERGER                   : Scn          - SERVICE COMPANY
STRT.M        259.080                        : top_depth    - START DEPTH
STOP.M        487.330                        : bot_depth    - STOP DEPTH
STEP.M        0.25                           : increment    - STEP LENGTH
 NULL. -999.2500:NULL Value
~CURVE INFORMATION BLOCK
#MNEM UNIT       ERCB CURVE CODE    CURVE DESCRIPTION
#-----------   ------------------   ----------------------------------
DEPT.M        00 001 00 00         : DEPTH        - DEPTH
RHOB.KG/M3    00 350 00 00         : DENS         - BULK DENSITY
GR  .API      00 310 00 00         : GR           - GAMMA RAY
DPHI.V/V      00 890 00 00         : PHID         - DENSITY POROSITY (SANDSTONE)
NPHI.V/V      00 330 00 00         : PHIN         - NEUTRON POROSITY (SANDSTONE)
ILD .OHMM     00 120 00 00         : RESD         - DEEP RESISTIVITY (DIL)
~PARAMETER INFORMATION
#MNEM.UNIT           DATA             DESCRIPTION OF MNEMONIC
#---------         -----------     ------------------------------
GL  .M        681.533              : gl           - GROUND LEVEL ELEVATION
EREF.M        684.886              : kb           - ELEVATION OF DEPTH REFERENCE
DATM.M        684.886              : datum        - DATUM ELEVATION
TDD .M        492.252              : tdd          - TOTAL DEPTH DRILLER
RUN .         ONE                  : Run          - RUN NUMBER
ENG .         BILL                 : Engineer     - RECORDING ENGINEER
WIT .         JIM                  : Witness      - WITNESSED BY
MUD .         GEL                  : Mud_type     - MUD TYPE
MATR.         SANDSTONE            : Logunit      - NEUTRON MATRIX
TMAX.C        21.1111              : BHT          - MAXIMUM RECORDED TEMPERATURE
BHTD.M        492.252              : BHTDEP       - MAXIMUM RECORDED TEMPERATURE
MATR.         1                    : LOGUNIT      - NEUTRON MATRIX
RMT .C        25                   : MDTP         - TEMPERATURE OF MUD
NEUT.         1                    : NEUTRON      - NEUTRON TYPE
RESI.         0                    : RESIST       - RESISTIVITY TYPE
RMC .OHMM     0.25                 : RMC          - RESISTIVITY OF MUD CAKE
RMF .OHMM     0.25                 : RMF          - RESISTIVITY OF MUD FILTRATE
SUFT.C        15                   : SUFT         - SURFACE TEMPERATURE
~A  DEPTH     DENS       GR     PHID     PHIN     RESD
# ...
  405.080    0.000   68.269    0.349    0.444    5.756
  405.330    0.000   67.921    0.364    0.478    5.301
  405.580    0.000   67.887    0.372    0.494    5.135
  405.830   -0.000   70.582    0.363    0.496    5.143
  406.080   -0.000   72.076    0.354    0.489    5.146
  406.330   -0.000   71.958    0.361    0.490    5.149
  406.580    0.000   70.932    0.370    0.486    5.152
  406.830    0.000   70.215    0.365    0.488    5.154
  407.080    0.000   69.572    0.355    0.501    5.157
  407.330   -0.000   69.644    0.342    0.486    5.160
  407.580   -0.000   69.828    0.339    0.480    5.163
  407.830   -0.000   70.895    0.336    0.486    5.166
  408.080    0.000   72.617    0.358    0.494    5.168
  408.330    0.000   72.646    0.347    0.497    5.172
  408.580   -0.000   70.984    0.350    0.502    5.175
  408.830   -0.000   70.221    0.356    0.519    5.177
  409.080   -0.000   72.097    0.353    0.525    5.180
  409.330    0.000   74.669    0.347    0.520    5.183
  409.580    0.000   73.543    0.355    0.508    5.176
  409.830    0.000   70.826    0.345    0.501    5.294
  410.080   -0.000   69.911    0.355    0.493    5.282
  410.330   -0.000   68.752    0.366    0.491    5.445
  410.580   -0.000   65.989    0.347    0.504    5.497
  410.830    0.000   63.125    0.343    0.510    5.503
  411.080    0.000   65.477    0.338    0.498    5.512
  411.330   -0.000   66.764    0.338    0.500    5.406
  411.580   -0.000   68.371    0.347    0.494    5.346
  411.830   -0.000   73.191    0.339    0.494    5.313
  412.080    0.000   77.623    0.342    0.492    5.318
  412.330    0.000   82.156    0.347    0.479    5.202
  412.580    0.000   83.439    0.347    0.485    5.345
  412.830   -0.000   80.882    0.336    0.497    5.401
  413.080   -0.000   76.076    0.313    0.504    5.788
  413.330   -0.000   72.040    0.258    0.485    6.358
  413.580    0.000   67.306    0.164    0.367    7.290
  413.830    0.000   63.512    0.096    0.310    8.512
  414.080    0.000   62.607    0.062    0.235    9.730
  414.330   -0.000   65.302    0.068    0.253    9.596
  414.580   -0.000   71.554    0.128    0.283    8.238
  414.830    0.000   77.227    0.233    0.342    6.990
  415.080    0.000   82.325    0.275    0.457    5.875
  415.330    0.000   86.378    0.360    0.507    5.303
  415.580   -0.000   85.642    0.353    0.502    5.168
  415.830   -0.000   81.896    0.341    0.523    5.154
  416.080   -0.000   76.732    0.330    0.520    5.266
  416.330    0.000   76.338    0.315    0.505    5.346
  416.580    0.000   76.943    0.310    0.520    5.362
  416.830    0.000   77.589    0.313    0.508    5.365
  417.080   -0.000   77.700    0.318    0.502    5.267
  417.330   -0.000   77.348    0.324    0.506    5.277
  417.580    0.000   77.550    0.341    0.507    5.279
  417.830    0.000   80.700    0.344    0.502    5.219
  418.080    0.000   81.948    0.325    0.473    5.190
  418.330   -0.000   81.338    0.321    0.469    5.191
  418.580   -0.000   81.863    0.331    0.490    5.182
  418.830   -0.000   84.769    0.322    0.506    5.299
  419.080    0.000   87.388    0.306    0.494    5.384
  419.330    0.000   88.046    0.298    0.479    5.398
  419.580    0.000   92.603    0.285    0.490    5.406
  419.830   -0.006   91.539    0.286    0.476    5.337
  420.080   -0.070   89.762    0.288    0.470    5.209
  420.330   -0.081   91.929    0.265    0.484    5.220
  420.580    4.484   92.888    0.241    0.503    5.602
  420.830   41.231   90.244    0.260    0.489    5.742
  421.080  -51.495   87.093    0.276    0.468    5.735
  421.330 2397.310   82.327    0.294    0.460    5.738
  421.580 2226.230   79.039    0.292    0.473    5.741
  421.830 2262.520   76.050    0.261    0.489    5.742
  422.080 2285.270   75.270    0.248    0.512    5.692
  422.330 2267.120   76.127    0.259    0.519    5.645
  422.580 2177.520   75.683    0.311    0.512    5.655
  422.830 2203.630   73.771    0.296    0.502    5.534
  423.080 2211.700   74.254    0.291    0.505    5.549
  423.330 2203.260   79.147    0.296    0.501    5.551
  423.580 2191.690   83.083    0.303    0.500    5.548
  423.830 2207.860   85.282    0.294    0.503    5.663
  424.080 2251.640   91.842    0.268    0.505    5.833
  424.330 2288.240   95.880    0.247    0.505    6.181
  424.580 2316.620   92.904    0.230    0.505    6.464
  424.830 2289.760   88.749    0.246    0.495    6.539
  425.080 2321.760   86.266    0.227    0.480    6.598
  425.330 2338.430   89.514    0.217    0.477    6.502
  425.580 2299.710   95.593    0.240    0.481    6.350
  425.830 2313.040   99.152    0.232    0.474    6.356
  426.080 2293.990  101.332    0.243    0.482    6.148
  426.330 2279.500  101.222    0.252    0.489    6.097
  426.580 2304.030  100.189    0.237    0.491    6.030
  426.830 2298.910   99.698    0.240    0.455    6.366
  427.080 2297.200   97.866    0.241    0.470    6.480
  427.330 2315.560   99.256    0.231    0.482    6.940
  427.580 2334.630   99.398    0.220    0.485    7.164
  427.830 2304.640   96.673    0.237    0.474    7.378
  428.080 2330.450   96.362    0.222    0.454    7.528
  428.330 2356.840   96.358    0.207    0.440    7.397
  428.580 2351.890   98.124    0.209    0.443    7.252
  428.830 2340.670  102.890    0.216    0.453    7.050
  429.080 2379.680  105.135    0.193    0.456    6.796
  429.330 2378.790  106.556    0.194    0.445    6.545
  429.580 2353.160  109.527    0.209    0.436    6.377
  429.830 2326.140  108.446    0.224    0.434    6.130
  430.080 2332.760  104.052    0.221    0.438    5.879
  430.330 2361.980  102.104    0.204    0.443    5.647
  430.580 2335.100   99.836    0.219    0.458    5.322
  430.830 2348.600   96.389    0.211    0.486    4.915
  431.080 2373.880   95.010    0.197    0.500    4.727
  431.330 2387.630  101.375    0.189    0.480    4.440
  431.580 2351.640  103.747    0.210    0.482    3.862
  431.830 2349.610   99.319    0.211    0.512    3.119
  432.080 2296.300   94.090    0.242    0.548    2.578
  432.330 2210.670  100.543    0.292    0.583    2.247
  432.580 2226.100  102.992    0.283    0.589    2.073
  432.830 2229.870  102.699    0.281    0.569    2.020
  433.080 2241.830  101.816    0.274    0.565    1.983
  433.330 2261.980  100.145    0.262    0.577    2.042
  433.580 2243.420   98.617    0.273    0.581    2.150
  433.830 2243.350   97.022    0.273    0.563    2.283
  434.080 2282.140   96.285    0.250    0.564    2.558
  434.330 2283.950   97.468    0.249    0.555    2.948
  434.580 2300.530   99.107    0.239    0.526    3.576
  434.830 2327.320  101.440    0.224    0.497    4.428
  435.080 2346.990  101.453    0.212    0.470    5.260
  435.330 2378.960  100.390    0.194    0.458    5.735
  435.580 2386.570   96.245    0.189    0.414    5.907
  435.830 2410.830   94.060    0.175    0.395    5.727
  436.080 2440.090   97.168    0.158    0.402    5.321
  436.330 2364.670  100.951    0.202    0.431    4.739
  436.580 2357.870  102.564    0.206    0.455    4.363
  436.830 2330.750  102.967    0.222    0.481    4.340
  437.080 2320.270   98.758    0.228    0.493    4.412
  437.330 2322.330   93.291    0.227    0.472    4.953
  437.580 2339.960   89.522    0.216    0.449    6.152
  437.830 2387.320   85.469    0.189    0.421    7.274
  438.080 2462.150   83.973    0.145    0.380    7.939
  438.330 2574.300   91.545    0.079    0.349    7.815
  438.580 2573.090  100.615    0.080    0.369    7.080
  438.830 2332.130  102.379    0.221    0.409    6.681
  439.080 2331.230  106.497    0.222    0.444    5.824
  439.330 2327.860  109.142    0.223    0.456    4.894
  439.580 2313.190  109.142    0.232    0.475    4.030
  439.830 2294.970  107.080    0.243    0.522    3.415
  440.080 2284.880  107.781    0.249    0.522    3.290
  440.330 2309.130  110.849    0.234    0.506    3.314
  440.580 2324.190  114.427    0.226    0.490    3.363
  440.830 2313.670  114.825    0.232    0.503    3.603
  441.080 2302.170  109.473    0.238    0.496    4.047
  441.330 2336.080  104.424    0.219    0.475    4.222
