~VERSION INFORMATION
 VERS.                 2.0:   CWLS LOG ASCII STANDARD -VERSION 2.0
 WRAP.                  NO:   ONE LINE PER DEPTH STEP
~WELL INFORMATION BLOCK
#MNEM.UNIT           DATA                    DESCRIPTION OF MNEMONIC
#---------    -------------------            -------------------------------
# Generated from Intellog Unique Number	CW_73_75/WELL/549
WELL.         AMOCO 59 MARTEN HILLS 06-21    : Well_name    - WELL
LOC .         00/06-21-075-25W4/0            : Location     - LOCATION
UWI .         00/06-21-075-25W4/0            : Uwi          - UNIQUE WELL ID
ENTR.         JAYE                           : Entered      - ENTERED BY
SRVC.         SCHLUMBERGER                   : Scn          - SERVICE COMPANY
DATE.         27 JAN 75                      : Date         - LOG DATE
STRT.M        445.008                        : top_depth    - START DEPTH
STOP.M        647.508                        : bot_depth    - STOP DEPTH
STEP.M        0.25                           : increment    - STEP LENGTH
 NULL. -999.2500:NULL Value
~CURVE INFORMATION BLOCK
#MNEM UNIT       ERCB CURVE CODE    CURVE DESCRIPTION
#-----------   ------------------   ----------------------------------
DEPT.M        00 001 00 00         : DEPTH        - DEPTH
ILD .OHMM     00 120 00 00         : RESD         - DEEP RESISTIVITY (DIL)
NPHI.V/V      00 330 00 00         : PHIN         - NEUTRON POROSITY (SANDSTONE)
DPHI.V/V      00 890 00 00         : PHID         - DENSITY POROSITY (SANDSTONE)
GR  .API      00 310 00 00         : GR           - GAMMA RAY
CALI.MM       00 280 01 00         : CAL          - CALIPER
~PARAMETER INFORMATION
#MNEM.UNIT           DATA             DESCRIPTION OF MNEMONIC
#---------         -----------     ------------------------------
GL  .M        724.51               : gl           - GROUND LEVEL ELEVATION
EREF.M        728.624              : kb           - ELEVATION OF DEPTH REFERENCE
DATM.M        724.51               : datum        - DATUM ELEVATION
TDD .M        647.7                : tdd          - TOTAL DEPTH DRILLER
RUN .         ONE                  : Run          - RUN NUMBER
MATR.         SANDSTONE            : Logunit      - NEUTRON MATRIX
TMAX.C        27.7778              : BHT          - MAXIMUM RECORDED TEMPERATURE
BHTD.M        648.005              : BHTDEP       - MAXIMUM RECORDED TEMPERATURE
RMT .C        17.2222              : MDTP         - TEMPERATURE OF MUD
MUDD.KG/M     0                    : MWT          - MUD DENSITY
NEUT.         1                    : NEUTRON      - NEUTRON TYPE
RESI.         0                    : RESIST       - RESISTIVITY TYPE
RM  .OHMM     4.33                 : RM           - RESISTIVITY OF MUD
RMC .OHMM     0                    : RMC          - RESISTIVITY OF MUD CAKE
RMF .OHMM     5.22                 : RMF          - RESISTIVITY OF MUD FILTRATE
SUFT.C        -17.7778             : SUFT         - SURFACE TEMPERATURE
~A  DEPTH     RESD     PHIN     PHID       GR      CAL
# ...
  481.508    4.385    0.478    0.250  105.025  220.484
  481.758    4.189    0.443    0.241  106.227  219.457
  482.008    4.060    0.453    0.221  111.652  218.633
  482.258    4.105    0.467    0.222  102.481  217.912
  482.508    4.524    0.480    0.224   90.114  217.089
  482.758    5.134    0.468    0.247   80.038  216.164
  483.008    6.011    0.453    0.265   75.692  215.136
  483.258    7.156    0.461    0.257   72.492  215.028
  483.508    8.471    0.461    0.259   68.930  215.124
  483.758    9.149    0.468    0.278   62.654  215.425
  484.008    8.983    0.455    0.270   56.921  215.521
  484.258    8.580    0.450    0.278   53.057  216.434
  484.508    7.871    0.467    0.282   54.319  217.346
  484.758    7.301    0.476    0.319   58.055  218.056
  485.008    6.885    0.468    0.332   61.007  218.152
  485.258    6.759    0.472    0.329   62.089  217.432
  485.508    6.722    0.482    0.349   62.447  216.710
  485.758    6.747    0.478    0.338   60.393  216.092
  486.008    6.747    0.455    0.330   56.892  215.984
  486.258    6.661    0.431    0.324   55.803  216.080
  486.508    6.480    0.415    0.323   57.246  216.379
  486.758    6.121    0.438    0.328   61.344  217.497
  487.008    5.815    0.448    0.331   62.908  218.818
  487.258    5.443    0.457    0.324   65.559  219.221
  487.508    5.040    0.488    0.329   70.260  219.930
  487.758    4.674    0.489    0.332   70.980  220.434
  488.008    4.336    0.470    0.317   71.278  220.735
  488.258    4.007    0.451    0.294   77.547  221.648
  488.508    3.841    0.442    0.280   83.213  222.663
  488.758    3.855    0.480    0.272   81.701  222.963
  489.008    4.066    0.510    0.270   68.972  220.711
  489.258    4.280    0.477    0.319   58.715  217.845
  489.508    4.572    0.469    0.342   52.379  216.410
  489.758    4.929    0.453    0.344   56.899  215.688
  490.008    5.189    0.441    0.332   60.936  215.274
  490.258    5.324    0.453    0.315   64.069  215.267
  490.508    5.334    0.466    0.310   61.170  214.954
  490.758    5.393    0.465    0.326   56.221  215.255
  491.008    5.002    0.428    0.326   53.262  215.453
  491.258    4.210    0.385    0.315   52.354  215.243
  491.508    3.615    0.365    0.280   56.632  214.932
  491.758    3.221    0.434    0.253   60.489  214.619
  492.008    2.880    0.495    0.313   67.361  213.592
  492.258    3.262    0.539    0.301   71.036  212.871
  492.508    3.876    0.501    0.323   66.751  212.457
  492.758    4.407    0.467    0.344   56.796  212.654
  493.008    5.160    0.460    0.327   51.424  213.260
  493.258    5.781    0.464    0.318   49.672  213.664
  493.508    5.920    0.479    0.313   54.010  214.372
  493.758    5.845    0.492    0.303   56.962  214.979
  494.008    5.718    0.494    0.296   58.346  215.178
  494.258    5.655    0.486    0.316   56.653  215.478
  494.508    5.613    0.480    0.328   58.278  215.675
  494.758    5.572    0.469    0.325   61.471  215.771
  495.008    5.511    0.466    0.319   59.839  215.765
  495.258    5.451    0.481    0.317   59.353  215.454
  495.508    5.391    0.492    0.313   58.928  215.242
  495.758    5.283    0.459    0.310   56.210  215.134
  496.008    5.121    0.450    0.305   53.553  215.128
  496.258    4.955    0.467    0.307   52.584  215.021
  496.508    4.733    0.462    0.327   55.837  213.993
  496.758    4.455    0.463    0.333   59.754  213.579
  497.008    3.990    0.472    0.330   64.274  213.470
  497.258    3.647    0.483    0.337   70.120  213.464
  497.508    3.261    0.494    0.319   76.570  213.560
  497.758    3.155    0.522    0.304   83.020  213.963
  498.008    3.231    0.541    0.302   82.594  213.957
  498.258    3.587    0.507    0.312   69.021  213.951
  498.508    4.503    0.473    0.330   62.684  213.740
  498.758    5.283    0.466    0.330   59.002  213.223
  499.008    5.633    0.457    0.322   60.506  212.809
  499.258    5.302    0.462    0.327   63.638  212.088
  499.508    5.009    0.471    0.333   64.962  211.265
  499.758    4.828    0.488    0.330   65.561  210.647
  500.008    4.767    0.495    0.329   66.040  209.926
  500.258    4.766    0.490    0.332   65.795  209.511
  500.508    4.810    0.500    0.325   66.455  211.139
  500.758    4.863    0.496    0.306   68.985  213.890
  501.008    4.926    0.485    0.311   71.756  215.110
  501.258    5.017    0.469    0.318   69.400  215.411
  501.508    5.186    0.491    0.309   66.441  214.383
  501.758    5.778    0.499    0.299   67.463  214.581
  502.008    6.704    0.466    0.272   66.132  215.699
  502.258    7.484    0.422    0.233   61.364  217.838
  502.508    7.849    0.304    0.191   57.621  220.384
  502.758    7.280    0.331    0.144   57.618  222.114
  503.008    6.790    0.415    0.129   58.880  221.190
  503.258    6.275    0.449    0.148   62.677  217.506
  503.508    5.399    0.470    0.187   67.679  215.866
  503.758    4.854    0.483    0.277   72.380  215.350
  504.008    4.569    0.486    0.247   75.512  215.242
  504.258    4.404    0.487    0.257   76.534  215.337
  504.508    4.308    0.487    0.271   78.823  215.637
  504.758    4.316    0.492    0.256   83.343  216.039
  505.008    4.348    0.501    0.223   81.046  216.341
  505.258    4.372    0.491    0.203   77.545  216.538
  505.508    4.380    0.476    0.216   73.621  216.737
  505.758    4.428    0.455    0.250   65.838  216.834
  506.008    4.510    0.437    0.282   58.717  216.521
  506.258    4.644    0.436    0.318   56.844  215.902
  506.508    4.730    0.436    0.330   58.770  215.590
  506.758    4.862    0.436    0.321   57.681  215.278
  507.008    4.925    0.442    0.334   55.748  214.965
  507.258    4.934    0.456    0.341   58.036  214.550
  507.508    4.897    0.454    0.342   59.359  214.442
  507.758    4.879    0.453    0.346   58.994  214.436
  508.008    4.870    0.455    0.362   56.457  214.838
  508.258    4.906    0.470    0.357   55.247  215.139
  508.508    4.924    0.472    0.350   54.882  214.827
  508.758    4.951    0.461    0.348   54.637  214.004
  509.008    4.933    0.451    0.347   54.874  212.364
  509.258    4.933    0.456    0.336   57.585  209.805
  509.508    4.924    0.465    0.351   60.839  207.449
  509.758    4.870    0.472    0.348   61.800  206.013
  510.008    4.808    0.478    0.333   62.460  205.190
  510.258    4.764    0.481    0.342   63.481  205.184
  510.508    4.729    0.491    0.332   67.338  207.732
  510.758    4.738    0.505    0.323   70.169  209.563
  511.008    4.781    0.490    0.316   71.613  211.089
  511.258    4.879    0.471    0.276   72.393  211.798
  511.508    4.978    0.464    0.253   71.606  212.099
  511.758    5.117    0.461    0.268   69.793  212.093
  512.008    5.259    0.465    0.272   67.799  212.392
  512.258    5.386    0.484    0.281   65.805  213.204
  512.508    5.536    0.481    0.311   63.630  215.445
  512.758    5.775    0.471    0.329   63.023  218.298
  513.008    6.318    0.462    0.309   62.718  219.313
  513.258    7.183    0.450    0.299   61.026  219.206
  513.508    8.903    0.436    0.276   58.972  218.587
  513.758   11.830    0.367    0.221   59.632  218.989
  514.008   13.402    0.277    0.147   61.136  219.596
  514.258   12.730    0.242    0.115   65.958  220.509
  514.508   10.385    0.249    0.097   64.446  220.810
  514.758    8.488    0.275    0.119   59.979  220.803
  515.008    7.156    0.298    0.206   55.272  219.061
  515.258    6.023    0.343    0.236   61.721  217.523
  515.508    4.977    0.386    0.268   64.130  217.517
  515.758    4.516    0.463    0.297   63.463  217.715
  516.008    4.377    0.480    0.304   63.038  217.607
  516.258    4.434    0.499    0.310   62.974  217.704
  516.508    4.516    0.511    0.304   62.608  217.697
  516.758    4.616    0.505    0.322   61.218  216.057
  517.008    4.736    0.478    0.305   61.696  215.336
  517.258    4.797    0.471    0.299   64.769  215.637
  517.508    4.806    0.465    0.291   67.419  216.039
  517.758    4.718    0.455    0.282   70.672  217.360
