~VERSION INFORMATION
 VERS.                 2.0:   CWLS LOG ASCII STANDARD -VERSION 2.0
 WRAP.                  NO:   ONE LINE PER DEPTH STEP
~WELL INFORMATION BLOCK
#MNEM.UNIT           DATA                    DESCRIPTION OF MNEMONIC
#---------    -------------------            -------------------------------
# Generated from Intellog Unique Number	CS_77_79/WELL/878
WELL.         C.W.W.E. HARDY                 : Well_name    - WELL
LOC .         00/06-19-078-04W4/0            : Location     - LOCATION
UWI .         00/06-19-078-04W4/0            : Uwi          - UNIQUE WELL ID
ENTR.         JHS                            : Entered      - ENTERED BY
SRVC.         SCHLUMBERGER                   : Scn          - SERVICE COMPANY
STRT.M        140                            : top_depth    - START DEPTH
STOP.M        380                            : bot_depth    - STOP DEPTH
STEP.M        0.25                           : increment    - STEP LENGTH
 NULL. -999.2500:NULL Value
~CURVE INFORMATION BLOCK
#MNEM UNIT       ERCB CURVE CODE    CURVE DESCRIPTION
#-----------   ------------------   ----------------------------------
DEPT.M        00 001 00 00         : DEPTH        - DEPTH
DPHI.V/V      00 890 00 00         : PHID         - DENSITY POROSITY (LIMESTONE)
NPHI.V/V      00 330 00 00         : PHIN         - NEUTRON POROSITY (LIMESTONE)
GR  .API      00 310 00 00         : GR           - GAMMA RAY
ILD .OHMM     00 120 00 00         : RESD         - DEEP RESISTIVITY (DIL)
RHOB.KG/M3    00 350 00 00         : DENS         - BULK DENSITY
~PARAMETER INFORMATION
#MNEM.UNIT           DATA             DESCRIPTION OF MNEMONIC
#---------         -----------     ------------------------------
GL  .M        562.1                : gl           - GROUND LEVEL ELEVATION
EREF.M        566                  : kb           - ELEVATION OF DEPTH REFERENCE
DATM.M        566                  : datum        - DATUM ELEVATION
TDD .M        385                  : tdd          - TOTAL DEPTH DRILLER
RUN .         ONE                  : Run          - RUN NUMBER
ENG .         BILL                 : Engineer     - RECORDING ENGINEER
WIT .         JIM                  : Witness      - WITNESSED BY
MUD .         GEL                  : Mud_type     - MUD TYPE
MATR.         LIMESTONE            : Logunit      - NEUTRON MATRIX
TMAX.C        18                   : BHT          - MAXIMUM RECORDED TEMPERATURE
BHTD.M        385                  : BHTDEP       - MAXIMUM RECORDED TEMPERATURE
MATR.         1                    : LOGUNIT      - NEUTRON MATRIX
RMT .C        25                   : MDTP         - TEMPERATURE OF MUD
NEUT.         1                    : NEUTRON      - NEUTRON TYPE
RESI.         0                    : RESIST       - RESISTIVITY TYPE
RMC .OHMM     0.25                 : RMC          - RESISTIVITY OF MUD CAKE
RMF .OHMM     0.25                 : RMF          - RESISTIVITY OF MUD FILTRATE
SUFT.C        15                   : SUFT         - SURFACE TEMPERATURE
~A  DEPTH     PHID     PHIN       GR     RESD     DENS
  140.000    0.282    0.555  105.120    3.475    0.000
  140.250    0.263    0.557  107.008    3.415    0.000
  140.500    0.271    0.558  105.819    3.418    0.000
  140.750    0.281    0.539  104.633    3.295    0.000
  141.000    0.285    0.543  110.825    3.237    0.000
  141.250    0.280    0.540  112.721    3.240    0.000
  141.500    0.273    0.528  104.772    3.183    0.000
  141.750    0.281    0.531  101.737    3.126    0.000
  142.000    0.290    0.550   99.936    3.072    0.000
  142.250    0.292    0.578  100.599    3.018    0.000
  142.500    0.284    0.555  102.488    3.020    0.000
  142.750    0.284    0.547  106.835    2.968    0.000
  143.000    0.293    0.559  103.811    2.916    0.000
  143.250    0.297    0.560  101.387    2.919    0.000
  143.500    0.296    0.557  102.663    2.920    0.000
  143.750    0.296    0.529  103.939    2.924    0.000
  144.000    0.297    0.523  105.209    2.872    0.000
  144.250    0.288    0.534  105.866    2.875    0.000
  144.500    0.287    0.545  107.154    2.825    0.000
  144.750    0.288    0.557  106.583    2.775    0.000
  145.000    0.298    0.549  106.620    2.727    0.000
  145.250    0.298    0.512  105.437    2.678    0.000
  145.500    0.293    0.520  102.399    2.680    0.000
  145.750    0.292    0.568  100.611    2.683    0.000
  146.000    0.300    0.594  104.334    2.636    0.000
  146.250    0.311    0.595  108.686    2.639    0.000
  146.500    0.317    0.580  109.340    2.642    0.000
  146.750    0.312    0.600  103.235    2.595    0.000
  147.000    0.296    0.610   99.591    2.598    0.000
  147.250    0.286    0.607  105.173    2.601    0.000
  147.500    0.286    0.586  107.054    2.603    0.000
  147.750    0.287    0.539  107.101    2.606    0.000
  148.000    0.284    0.535  105.302    2.659    0.000
  148.250    0.278    0.562  103.502    2.662    0.000
  148.500    0.278    0.569  102.934    2.664    0.000
  148.750    0.279    0.534  101.127    2.668    0.000
  149.000    0.274    0.518  101.791    2.670    0.000
  149.250    0.270    0.521  104.912    2.623    0.000
  149.500    0.265    0.525  101.266    2.675    0.000
  149.750    0.250    0.552  100.697    2.678    0.000
  150.000    0.241    0.589  103.193    2.733    0.000
  150.250    0.250    0.610  103.859    2.787    0.000
  150.500    0.260    0.611  101.450    2.843    0.000
  150.750    0.258    0.584  101.500    2.901    0.000
  151.000    0.252    0.538  102.758    2.903    0.000
  151.250    0.255    0.513  104.651    2.906    0.000
  151.500    0.258    0.541  104.697    2.911    0.000
  151.750    0.258    0.582  105.346    2.860    0.000
  152.000    0.258    0.571  107.237    2.916    0.000
  152.250    0.257    0.568  110.355    2.920    0.000
  152.500    0.262    0.570  106.093    2.978    0.000
  152.750    0.271    0.539   98.763    3.038    0.000
  153.000    0.274    0.503  110.486    3.099    0.000
  153.250    0.254    0.494  114.229    3.222    0.000
  153.500    0.239    0.531  113.039    3.350    0.000
  153.750    0.228    0.556  110.003    3.417    0.000
  154.000    0.228    0.562  106.361    3.486    0.000
  154.250    0.237    0.518  105.172    3.623    0.000
  154.500    0.244    0.491  110.137    3.767    0.000
  154.750    0.245    0.482  107.726    4.066    0.000
  155.000    0.236    0.444   94.857    4.473    0.000
  155.250    0.251    0.399   54.329    5.943    0.000
  155.500    0.268    0.376   35.316    8.842    0.000
  155.750    0.278    0.346   31.063   11.314    0.000
  156.000    0.289    0.338   37.876   13.171    0.000
  156.250    0.327    0.409   41.612   14.765    0.000
  156.500    0.428    0.446   45.329   14.234    0.000
  156.750    0.413    0.483   61.969   12.254    0.000
  157.000    0.356    0.505   92.135    8.899    0.000
  157.250    0.256    0.516  103.245    6.225    0.000
  157.500    0.239    0.523  105.139    5.357    0.000
  157.750    0.237    0.521  103.333    4.699    0.000
  158.000    0.250    0.512   95.388    4.617    0.000
  158.250    0.271    0.480   80.679    4.891    0.000
  158.500    0.219    0.457   90.559    5.181    0.000
  158.750    0.176    0.452   99.211    5.809    0.000
  159.000    0.175    0.447  104.787    6.512    0.000
  159.250    0.185    0.431  101.138    7.300    0.000
  159.500    0.197    0.421   87.658    8.663    0.000
  159.750    0.203    0.417   85.868    9.175    0.000
  160.000    0.211    0.415   93.285    9.905    0.000
  160.250    0.214    0.402   98.868   10.106    0.000
  160.500    0.207    0.377  100.130   10.311    0.000
  160.750    0.204    0.359  100.173   10.924    0.000
  161.000    0.209    0.361   93.454   11.140    0.000
  161.250    0.203    0.386   89.817   11.364    0.000
  161.500    0.190    0.388   94.787   11.166    0.000
  161.750    0.188    0.394   97.290   10.969    0.000
  162.000    0.201    0.405   97.955   10.776    0.000
  162.250    0.217    0.414   97.985   10.784    0.000
  162.500    0.242    0.411   99.267   11.004    0.000
  162.750    0.238    0.403  101.148   11.223    0.000
  163.000    0.245    0.394  103.036   11.669    0.000
  163.250    0.258    0.389  100.613   12.130    0.000
  163.500    0.265    0.389   82.831   12.373    0.000
  163.750    0.293    0.404   71.812   12.154    0.000
  164.000    0.302    0.411   86.617   11.499    0.000
  164.250    0.269    0.401   95.260   10.877    0.000
  164.500    0.242    0.397  100.223    9.722    0.000
  164.750    0.226    0.423  103.952    8.213    0.000
  165.000    0.225    0.460  108.916    7.624    0.000
  165.250    0.245    0.470   93.594    7.776    0.000
  165.500    0.272    0.449   81.957    8.396    0.000
  165.750    0.284    0.420   78.938    9.591    0.000
  166.000    0.270    0.397   78.970   11.167    0.000
  166.250    0.272    0.387   75.943   12.757    0.000
  166.500    0.271    0.382   76.600   14.034    0.000
  166.750    0.260    0.399   80.952   15.154    0.000
  167.000    0.247    0.396   83.456   15.749    0.000
  167.250    0.249    0.381   81.035   15.769    0.000
  167.500    0.261    0.375   82.927   16.082    0.000
  167.750    0.259    0.406   90.961   16.104    0.000
  168.000    0.233    0.422   95.305   16.119    0.000
  168.250    0.242    0.428   90.439   16.447    0.000
  168.500    0.271    0.420   92.945   16.777    0.000
  168.750    0.289    0.403   91.751   17.439    0.000
  169.000    0.284    0.393   80.728   17.790    0.000
  169.250    0.283    0.400   88.765   18.145    0.000
  169.500    0.285    0.394   98.644   18.866    0.000
  169.750    0.276    0.384   95.004   18.883    0.000
  170.000    0.274    0.380   88.899   19.271    0.000
  170.250    0.258    0.410   93.250   19.290    0.000
  170.500    0.235    0.397   93.292   19.677    0.000
  170.750    0.220    0.391   80.424   19.326    0.000
  171.000    0.228    0.412   66.946   19.346    0.000
  171.250    0.275    0.434   58.998   18.650    0.000
  171.500    0.292    0.418   85.475   17.980    0.000
  171.750    0.256    0.393  102.121   16.688    0.000
  172.000    0.234    0.382  111.996   15.491    0.000
  172.250    0.231    0.376  107.735   15.223    0.000
  172.500    0.237    0.374  107.782   15.239    0.000
  172.750    0.230    0.378  105.983   15.249    0.000
  173.000    0.235    0.385   86.354   16.155    0.000
  173.250    0.278    0.382   69.803   17.439    0.000
  173.500    0.297    0.375   63.702   19.190    0.000
  173.750    0.323    0.378   60.054   20.330    0.000
  174.000    0.344    0.389   61.947   20.353    0.000
  174.250    0.343    0.402   80.433   19.988    0.000
  174.500    0.314    0.412   89.078   17.871    0.000
  174.750    0.277    0.416   97.726   15.677    0.000
  175.000    0.254    0.414  101.459   13.750    0.000
  175.250    0.241    0.418  105.808   12.289    0.000
  175.500    0.232    0.425  109.540   10.578    0.000
  175.750    0.211    0.436  110.198    9.458    0.000
  176.000    0.179    0.450  102.256    8.945    0.000
  176.250    0.152    0.482   96.762    8.623    0.000
