~VERSION INFORMATION
 VERS.                 2.0:   CWLS LOG ASCII STANDARD -VERSION 2.0
 WRAP.                  NO:   ONE LINE PER DEPTH STEP
~WELL INFORMATION BLOCK
#MNEM.UNIT           DATA                    DESCRIPTION OF MNEMONIC
#---------    -------------------            -------------------------------
# Generated from Intellog Unique Number	CW_70_72/WELL/3013
NULL.         -999.25                        : NULL_VALUE
WELL.         MESA MEYER 06-33               : Well_name    - WELL              
LOC .         06-33-070-24W4                 : Location     - LOCATION          
UWI .         00/06-33-070-24W4/0            : Uwi          - UNIQUE WELL ID    
ENTR.         J                              : Entered      - ENTERED BY        
SRVC.         SCHLUMBERGER                   : Scn          - SERVICE COMPANY   
DATE.         20 FEB 76                      : Date         - LOG DATE          
STRT.M        390.144                        : top_depth    - START DEPTH       
STOP.M        606.644                        : bot_depth    - STOP DEPTH        
STEP.M        0.25                           : increment    - STEP LENGTH       
~CURVE INFORMATION BLOCK
#MNEM UNIT       ERCB CURVE CODE    CURVE DESCRIPTION
#-----------   ------------------   ----------------------------------
DEPT.M        00 001 00 00         : DEPTH        - DEPTH                       
ILD .OHMM     00 120 00 00         : RESD         - DEEP RESISTIVITY (DIL)      
CALI.MM       00 280 01 00         : CAL          - CALIPER                     
GR  .API      00 310 00 00         : GR           - GAMMA RAY                   
NPHI.V/V      00 330 00 00         : PHIN         - NEUTRON POROSITY (SANDSTONE)
DPHI.V/V      00 890 00 00         : PHID         - DENSITY POROSITY (SANDSTONE)
~PARAMETER INFORMATION       
#MNEM.UNIT           DATA             DESCRIPTION OF MNEMONIC
#---------         -----------     ------------------------------
GL  .M        601.98               : gl           - GROUND LEVEL ELEVATION      
EREF.M        605.638              : kb           - ELEVATION OF DEPTH REFERENCE
DATM.M        601.98               : datum        - DATUM ELEVATION             
TDD .M        624.84               : tdd          - TOTAL DEPTH DRILLER         
RUN .         ONE                  : Run          - RUN NUMBER                  
ENG .         SLUSARCHUK           : Engineer     - RECORDING ENGINEER          
WIT .         HOVER                : Witness      - WITNESSED BY                
BASE.         EDM                  : Branch       - HOME BASE OF LOGGING UNIT   
MUD .         GEL CHEM             : Mud_type     - MUD TYPE                    
MATR.         SANDSTONE            : Logunit      - NEUTRON MATRIX              
TMAX.C        28.3333              : BHT          - MAXIMUM RECORDED TEMPERATURE
BHTD.M        625.45               : BHTDEP       - MAXIMUM RECORDED TEMPERATURE
RMT .C        16.1111              : MDTP         - TEMPERATURE OF MUD          
MUDD.KG/M     1080                 : MWT          - MUD DENSITY                 
NEUT.         1                    : NEUTRON      - NEUTRON TYPE                
RESI.         0                    : RESIST       - RESISTIVITY TYPE            
RM  .OHMM     4.6                  : RM           - RESISTIVITY OF MUD          
RMC .OHMM     0.25                 : RMC          - RESISTIVITY OF MUD CAKE     
RMF .OHMM     4.22                 : RMF          - RESISTIVITY OF MUD FILTRATE 
SUFT.C        -17.7778             : SUFT         - SURFACE TEMPERATURE         
~A  DEPTH     RESD      CAL       GR     PHIN     PHID
# ...
  463.144    2.595  153.909   76.585    0.443    0.268
  463.394    2.676  154.036   74.860    0.430    0.279
  463.644    2.739  154.373   74.008    0.435    0.286
  463.894    2.792  154.708   73.643    0.435    0.265
  464.144    2.869  154.726   72.601    0.441    0.255
  464.394    2.942  154.960   71.437    0.451    0.256
  464.644    3.033  154.871   70.640    0.446    0.275
  464.894    3.223  154.477   69.659    0.422    0.297
  465.144    3.683  154.392   68.369    0.425    0.280
  465.394    4.109  155.256   66.894    0.417    0.254
  465.644    4.497  157.482   65.788    0.401    0.255
  465.894    4.997  159.708   65.179    0.384    0.240
  466.144    5.533  161.619   66.184    0.370    0.221
  466.394    5.856  163.853   67.686    0.279    0.181
  466.644    5.742  163.766   69.188    0.252    0.078
  466.894    5.127  163.766   71.624    0.251    0.101
  467.144    4.272  156.780   74.117    0.273    0.131
  467.394    3.608  155.844   79.406    0.300    0.201
  467.644    3.252  154.602   83.513    0.331    0.248
  467.894    3.048  153.781   86.444    0.361    0.268
  468.144    2.928  153.071   84.158    0.395    0.251
  468.394    2.854  152.879   82.433    0.437    0.241
  468.644    2.778  152.800   82.943    0.433    0.255
  468.894    2.541  152.922   85.064    0.424    0.266
  469.144    2.382  154.309   89.486    0.417    0.277
  469.394    2.402  161.896   93.778    0.429    0.263
  469.644    2.567  173.376   99.563    0.450    0.270
  469.894    2.783  185.270  102.368    0.517    0.313
  470.144    3.042  180.561  103.250    0.567    0.291
  470.394    3.349  166.503  102.208    0.474    0.250
  470.644    3.693  158.639  100.358    0.453    0.229
  470.894    3.990  157.087  100.868    0.441    0.232
  471.144    4.612  156.687  103.920    0.442    0.234
  471.394    5.260  156.815  100.271    0.445    0.234
  471.644    5.705  157.990   92.401    0.439    0.218
  471.894    5.349  159.797   82.609    0.418    0.174
  472.144    4.976  161.710   85.786    0.372    0.145
  472.394    4.976  163.414   92.627    0.350    0.168
  472.644    4.111  164.062  101.454    0.355    0.196
  472.894    3.949  163.989  107.300    0.377    0.236
  473.144    3.901  164.115  111.219    0.423    0.210
  473.394    3.949  164.236  114.522    0.429    0.194
  473.644    3.996  164.782  116.770    0.454    0.172
  473.894    4.082  164.907  118.893    0.445    0.177
  474.144    4.139  164.928  120.085    0.440    0.192
  474.394    4.190  164.948  120.344    0.445    0.203
  474.644    4.200  165.073  119.364    0.455    0.186
  474.894    4.219  164.995  118.942    0.457    0.177
  475.144    4.223  164.995  118.954    0.460    0.174
  475.394    4.163  164.995  120.455    0.470    0.170
  475.644    4.045  164.962  122.145    0.461    0.166
  475.894    4.002  165.187  117.998    0.454    0.150
  476.144    3.969  165.203  119.566    0.456    0.172
  476.394    3.942  165.760  122.368    0.456    0.167
  476.644    3.858  165.880  125.732    0.453    0.162
  476.894    3.818  166.002  124.814    0.447    0.170
  477.144    3.764  166.029  121.412    0.441    0.181
  477.394    3.732  166.166  119.190    0.438    0.185
  477.644    3.728  166.173  121.626    0.445    0.174
  477.894    3.731  166.295  119.962    0.441    0.161
  478.144    3.734  166.528  118.607    0.438    0.172
  478.394    3.681  166.760  114.776    0.444    0.179
  478.644    3.556  166.785  110.693    0.465    0.187
  478.894    3.358  166.174  108.157    0.475    0.196
  479.144    3.073  165.245  101.839    0.441    0.223
  479.394    2.891  158.227   93.721    0.421    0.255
  479.644    2.650  155.305   83.122    0.369    0.302
  479.894    2.466  154.805   77.735    0.388    0.314
  480.144    2.368  154.304   74.647    0.414    0.299
  480.394    2.275  153.803   73.850    0.450    0.265
  480.644    2.222  153.712   76.532    0.437    0.275
  480.894    2.366  153.415   80.330    0.427    0.281
  481.144    2.504  153.962   86.797    0.423    0.278
  481.394    2.814  157.975   91.215    0.419    0.259
  481.644    3.028  162.834   90.049    0.405    0.224
  481.894    3.353  166.110   93.414    0.382    0.168
  482.144    3.523  166.763   98.949    0.353    0.148
  482.394    3.247  165.734  102.562    0.383    0.170
  482.644    2.910  164.491   95.747    0.420    0.196
  482.894    2.780  162.201   87.505    0.429    0.253
  483.144    2.700  158.128   84.910    0.444    0.280
  483.394    2.764  156.255   92.124    0.445    0.297
  483.644    2.931  157.432   97.908    0.419    0.286
  483.894    3.137  160.294  100.153    0.411    0.279
  484.144    3.334  161.888   99.545    0.412    0.271
  484.394    3.470  162.645  103.344    0.430    0.262
  484.644    3.571  163.931  108.817    0.443    0.252
  484.894    3.594  163.953  115.160    0.452    0.230
  485.144    3.394  164.707  114.182    0.453    0.214
  485.394    3.146  164.413  110.656    0.446    0.197
  485.644    2.994  164.431  106.201    0.429    0.214
  485.894    3.002  157.622  102.551    0.413    0.226
  486.144    3.108  156.593   98.032    0.422    0.236
  486.394    3.247  159.242   86.377    0.432    0.180
  486.644    3.373  162.204   79.192    0.375    0.135
  486.894    3.407  163.171   75.478    0.336    0.092
  487.144    3.297  160.462   80.518    0.308    0.103
  487.394    3.102  158.173   89.282    0.320    0.182
  487.644    2.935  158.191   99.039    0.363    0.243
  487.894    2.799  159.265  102.279    0.406    0.261
  488.144    2.759  160.233  104.277    0.436    0.235
  488.394    2.809  161.202  106.896    0.411    0.205
  488.644    2.880  161.534  104.116    0.424    0.173
  488.894    2.980  161.878   95.439    0.416    0.176
  489.144    3.185  162.103   87.818    0.397    0.211
  489.394    3.359  163.175   91.120    0.386    0.246
  489.644    3.476  163.933   89.829    0.416    0.257
  489.894    3.578  161.853   81.960    0.414    0.235
  490.144    3.495  157.984   76.450    0.394    0.224
  490.394    3.337  156.114   73.051    0.417    0.228
  490.644    2.958  155.292   72.812    0.444    0.285
  490.894    2.677  154.266   76.241    0.435    0.265
  491.144    2.557  154.290   78.052    0.419    0.235
  491.394    2.451  154.725   73.408    0.405    0.242
  491.644    2.407  155.907   68.522    0.388    0.255
  491.894    2.295  156.661   68.034    0.372    0.222
  492.144    2.221  156.689   72.020    0.361    0.229
  492.394    2.137  156.492   75.073    0.420    0.241
  492.644    2.119  156.831   78.934    0.447    0.266
  492.894    2.157  157.698   79.131    0.447    0.298
  493.144    2.291  158.976   75.978    0.433    0.316
  493.394    2.556  160.889   73.198    0.429    0.303
  493.644    2.920  162.168   73.277    0.427    0.294
  493.894    3.638  163.037   73.658    0.442    0.302
  494.144    4.454  162.844   73.051    0.434    0.271
  494.394    6.114  162.658   70.582    0.415    0.226
  494.644    7.758  162.361   67.304    0.394    0.174
  494.894    9.187  162.490   63.530    0.334    0.119
  495.144   10.133  162.406   62.860    0.268    0.127
  495.394   10.545  162.113   64.423    0.265    0.157
  495.644    9.703  161.290   67.292    0.299    0.180
  495.894    8.331  159.627   68.669    0.312    0.211
  496.144    6.443  157.652   71.107    0.294    0.179
  496.394    5.181  155.573   73.103    0.285    0.178
  496.644    3.984  154.437   75.285    0.320    0.210
  496.894    3.192  154.037   82.126    0.417    0.263
  497.144    2.766  157.423   87.600    0.446    0.275
  497.394    2.503  161.229   86.561    0.440    0.269
  497.644    2.482  159.776   85.826    0.434    0.264
  497.894    2.483  154.125   85.153    0.438    0.257
  498.144    2.523  151.832   84.549    0.441    0.242
  498.394    2.641  152.488   84.064    0.442    0.268
  498.644    2.801  154.080   82.031    0.447    0.268
  498.894    2.970  157.260   80.118    0.462    0.258
  499.144    3.186  158.011   77.897    0.454    0.234
  499.394    3.248  159.089   74.870    0.442    0.240
