~VERSION INFORMATION
 VERS.                 2.0:   CWLS LOG ASCII STANDARD -VERSION 2.0
 WRAP.                  NO:   ONE LINE PER DEPTH STEP
~WELL INFORMATION BLOCK
#MNEM.UNIT           DATA                    DESCRIPTION OF MNEMONIC
#---------    -------------------            -------------------------------
# Generated from Intellog Unique Number	CS_67_68/WELL/2172
WELL.         MANNVILLE ET AL ATMORE         : Well_name    - WELL
LOC .         00/06-31-067-15W4/0            : Location     - LOCATION
UWI .         00/06-31-067-15W4/0            : Uwi          - UNIQUE WELL ID
ENTR.         SP                             : Entered      - ENTERED BY
SRVC.         SCHLUMBERGER                   : Scn          - SERVICE COMPANY
STRT.M        359.664                        : top_depth    - START DEPTH
STOP.M        536.914                        : bot_depth    - STOP DEPTH
STEP.M        0.25                           : increment    - STEP LENGTH
 NULL. -999.2500:NULL Value
~CURVE INFORMATION BLOCK
#MNEM UNIT       ERCB CURVE CODE    CURVE DESCRIPTION
#-----------   ------------------   ----------------------------------
DEPT.M        00 001 00 00         : DEPTH        - DEPTH
CALI.MM       00 280 01 00         : CAL          - CALIPER
GR  .API      00 310 00 00         : GR           - GAMMA RAY
DPHI.V/V      00 890 00 00         : PHID         - DENSITY POROSITY (SANDSTONE)
NPHI.V/V      00 330 00 00         : PHIN         - NEUTRON POROSITY (SANDSTONE)
ILD .OHMM     00 120 00 00         : RESD         - DEEP RESISTIVITY (DIL)
~PARAMETER INFORMATION
#MNEM.UNIT           DATA             DESCRIPTION OF MNEMONIC
#---------         -----------     ------------------------------
GL  .M        606.095              : gl           - GROUND LEVEL ELEVATION
EREF.M        607.162              : kb           - ELEVATION OF DEPTH REFERENCE
DATM.M        607.162              : datum        - DATUM ELEVATION
TDD .M        539.496              : tdd          - TOTAL DEPTH DRILLER
RUN .         ONE                  : Run          - RUN NUMBER
ENG .         BILL                 : Engineer     - RECORDING ENGINEER
WIT .         JIM                  : Witness      - WITNESSED BY
MUD .         GEL                  : Mud_type     - MUD TYPE
MATR.         SANDSTONE            : Logunit      - NEUTRON MATRIX
TMAX.C        17.7778              : BHT          - MAXIMUM RECORDED TEMPERATURE
BHTD.M        539.496              : BHTDEP       - MAXIMUM RECORDED TEMPERATURE
MATR.         1                    : LOGUNIT      - NEUTRON MATRIX
RMT .C        25                   : MDTP         - TEMPERATURE OF MUD
NEUT.         1                    : NEUTRON      - NEUTRON TYPE
RESI.         0                    : RESIST       - RESISTIVITY TYPE
RMC .OHMM     0.25                 : RMC          - RESISTIVITY OF MUD CAKE
RMF .OHMM     0.25                 : RMF          - RESISTIVITY OF MUD FILTRATE
SUFT.C        15                   : SUFT         - SURFACE TEMPERATURE
~A  DEPTH      CAL       GR     PHID     PHIN     RESD
# ...
  396.164  163.021  100.519    0.226    0.460    2.609
  396.414  162.775   96.725    0.229    0.451    2.639
  396.664  162.672   95.533    0.232    0.443    2.673
  396.914  162.672   94.531    0.226    0.434    2.773
  397.164  161.037   94.126    0.240    0.429    2.937
  397.414  160.235   94.424    0.253    0.427    3.123
  397.664  160.443   94.764    0.261    0.428    3.325
  397.914  160.944   93.895    0.262    0.443    3.475
  398.164  162.062   92.499    0.262    0.450    3.486
  398.414  163.266   88.555    0.253    0.456    3.375
  398.664  164.125   90.185    0.244    0.459    3.191
  398.914  165.115   93.074    0.245    0.459    2.954
  399.164  164.882   94.763    0.253    0.455    2.744
  399.414  163.574   95.139    0.264    0.446    2.635
  399.664  161.027   94.313    0.271    0.440    2.574
  399.914  158.522   93.246    0.264    0.438    2.542
  400.164  157.034   92.096    0.257    0.446    2.538
  400.414  157.425   91.331    0.248    0.450    2.547
  400.664  160.080   90.983    0.249    0.449    2.587
  400.914  161.394   91.492    0.251    0.446    2.721
  401.164  161.367   92.905    0.253    0.445    2.917
  401.414  160.840   92.568    0.263    0.450    3.171
  401.664  160.309   89.870    0.267    0.447    3.514
  401.914  159.850   83.044    0.247    0.434    3.801
  402.164  159.873   78.561    0.199    0.361    4.102
  402.414  163.107   73.505    0.071    0.295    4.347
  402.664  166.078   66.669    0.178    0.276    4.426
  402.914  166.427   66.208    0.203    0.257    3.777
  403.164  165.840   75.303    0.236    0.350    3.115
  403.414  165.279   83.446    0.260    0.395    2.794
  403.664  164.367   87.743    0.245    0.447    2.633
  403.914  163.378   90.875    0.266    0.467    2.538
  404.164  161.991   92.648    0.278    0.480    2.496
  404.414  160.538   94.048    0.278    0.472    2.466
  404.664  159.210   97.778    0.267    0.468    2.467
  404.914  157.878  101.355    0.259    0.469    2.484
  405.164  157.172  103.950    0.258    0.468    2.537
  405.414  156.914  105.844    0.258    0.463    2.629
  405.664  158.039  105.651    0.261    0.464    2.714
  405.914  159.737  105.462    0.247    0.461    2.806
  406.164  160.988  106.466    0.229    0.456    2.922
  406.414  163.892  112.782    0.216    0.452    3.039
  406.664  166.325  116.055    0.193    0.447    3.180
  406.914  168.598  116.654    0.215    0.454    3.301
  407.164  169.947  114.188    0.225    0.450    3.469
  407.414  170.633  113.907    0.215    0.459    3.583
  407.664  170.584  112.338    0.226    0.460    3.694
  407.914  169.408  108.702    0.229    0.461    3.787
  408.164  168.352  104.901    0.212    0.461    3.832
  408.414  165.812  103.153    0.203    0.454    3.862
  408.664  163.483  108.515    0.194    0.448    3.823
  408.914  162.003  112.378    0.206    0.449    3.783
  409.164  161.959  115.268    0.213    0.460    3.688
  409.414  163.619  117.026    0.201    0.472    3.616
  409.664  166.142  115.930    0.188    0.483    3.538
  409.914  168.465  113.655    0.186    0.477    3.502
  410.164  169.629  111.953    0.187    0.478    3.467
  410.414  169.663  117.007    0.194    0.483    3.462
  410.664  169.534  122.757    0.204    0.497    3.437
  410.914  170.438  126.358    0.208    0.526    3.438
  411.164  172.136  128.888    0.207    0.494    3.525
  411.414  171.605  130.415    0.165    0.444    3.793
  411.664  169.606  128.996    0.159    0.427    4.102
  411.914  167.537  122.709    0.180    0.423    4.310
  412.164  166.681  118.169    0.194    0.421    4.521
  412.414  166.260  118.529    0.203    0.428    4.659
  412.664  166.645  121.196    0.188    0.425    4.695
  412.914  167.522  121.906    0.180    0.415    4.704
  413.164  168.383  120.134    0.177    0.404    4.715
  413.414  169.581  118.774    0.167    0.399    4.700
  413.664  170.188  117.910    0.169    0.416    4.698
  413.914  170.655  117.974    0.180    0.427    4.697
  414.164  170.457  119.407    0.180    0.415    4.717
  414.414  170.166  122.359    0.175    0.417    4.716
  414.664  170.165  124.414    0.167    0.426    4.733
  414.914  170.602  126.479    0.175    0.429    4.746
  415.164  171.058  127.558    0.175    0.427    4.769
  415.414  171.998  127.667    0.172    0.422    4.789
  415.664  172.593  128.980    0.171    0.419    4.772
  415.914  173.448  130.183    0.187    0.442    4.748
  416.164  174.313  130.887    0.203    0.469    4.703
  416.414  174.593  129.862    0.222    0.473    4.662
  416.664  172.922  127.236    0.198    0.462    4.601
  416.914  168.565  125.452    0.187    0.461    4.536
  417.164  166.106  124.941    0.199    0.469    4.483
  417.414  164.763  126.116    0.186    0.474    4.442
  417.664  166.636  127.112    0.167    0.468    4.410
  417.914  168.266  123.510    0.156    0.452    4.379
  418.164  169.620  121.122    0.164    0.440    4.361
  418.414  169.333  121.512    0.171    0.447    4.322
  418.664  166.979  121.783    0.170    0.456    4.274
  418.914  163.613  121.535    0.173    0.456    4.258
  419.164  165.196  120.506    0.173    0.462    4.229
  419.414  166.870  118.950    0.189    0.470    4.181
  419.664  168.830  116.719    0.189    0.459    4.140
  419.914  170.878  115.367    0.174    0.448    4.072
  420.164  172.510  114.614    0.185    0.446    3.986
  420.414  172.615  112.534    0.178    0.445    3.860
  420.664  172.244  107.457    0.194    0.446    3.699
  420.914  169.425  105.117    0.206    0.449    3.515
  421.164  169.927  103.179    0.213    0.454    3.244
  421.414  168.290  100.805    0.231    0.462    2.998
  421.664  165.499   97.735    0.259    0.457    2.790
  421.914  163.725   94.172    0.234    0.472    2.631
  422.164  163.032   92.448    0.258    0.481    2.511
  422.414  163.199   91.378    0.271    0.441    2.395
  422.664  163.345   92.216    0.260    0.430    2.335
  422.914  163.321   94.431    0.249    0.425    2.301
  423.164  163.707   95.896    0.247    0.414    2.276
  423.414  164.031   93.019    0.253    0.408    2.285
  423.664  164.280   87.273    0.251    0.403    2.411
  423.914  164.385   84.893    0.230    0.387    2.677
  424.164  164.373   83.457    0.184    0.359    2.950
  424.414  164.632   82.717    0.149    0.330    3.195
  424.664  164.566   82.565    0.147    0.308    3.325
  424.914  163.353   83.922    0.221    0.357    3.354
  425.164  158.762   85.860    0.259    0.416    3.010
  425.414  154.725   88.487    0.269    0.441    2.757
  425.664  154.820   90.240    0.262    0.437    2.506
  425.914  157.237   91.045    0.214    0.415    2.468
  426.164  158.657   86.289    0.146    0.390    2.740
  426.414  160.505   82.651    0.115    0.337    3.136
  426.664  162.098   80.901    0.123    0.306    3.449
  426.914  162.023   82.865    0.183    0.342    3.603
  427.164  160.594   84.673    0.235    0.369    3.519
  427.414  158.108   84.263    0.259    0.406    3.181
  427.664  155.114   81.820    0.266    0.433    2.838
  427.914  152.959   80.612    0.270    0.451    2.592
  428.164  154.421   80.939    0.275    0.466    2.388
  428.414  156.384   81.513    0.271    0.464    2.270
  428.664  158.065   82.806    0.262    0.449    2.219
  428.914  159.288   84.929    0.254    0.455    2.212
  429.164  159.739   87.064    0.263    0.448    2.213
  429.414  159.066   87.990    0.281    0.439    2.229
  429.664  158.818   88.418    0.284    0.433    2.235
  429.914  157.677   87.118    0.284    0.429    2.262
  430.164  159.375   84.523    0.276    0.426    2.300
  430.414  161.865   83.211    0.267    0.427    2.361
  430.664  160.745   82.963    0.258    0.422    2.415
  430.914  159.025   83.348    0.251    0.420    2.475
  431.164  157.063   83.811    0.244    0.420    2.541
  431.414  155.230   84.908    0.234    0.419    2.586
  431.664  154.804   88.308    0.222    0.415    2.650
  431.914  156.702   93.312    0.204    0.407    2.679
  432.164  162.123   98.324    0.194    0.417    2.698
  432.414  168.982  104.842    0.208    0.434    2.687
