~VERSION INFORMATION
 VERS.                 2.0:   CWLS LOG ASCII STANDARD -VERSION 2.0
 WRAP.                  NO:   ONE LINE PER DEPTH STEP
~WELL INFORMATION BLOCK
#MNEM.UNIT           DATA                    DESCRIPTION OF MNEMONIC
#---------    -------------------            -------------------------------
# Generated from Intellog Unique Number	CC_80_83/WELL/1049
WELL.         GULF PONY                      : Well_name    - WELL
LOC .         00/04-15-081-09W4/0            : Location     - LOCATION
UWI .         00/04-15-081-09W400            : Uwi          - UNIQUE WELL ID
ENTR.         DW                             : Entered      - ENTERED BY
SRVC.         SCHLUMBERGER                   : Scn          - SERVICE COMPANY
STRT.M        243.84                         : top_depth    - START DEPTH
STOP.M        487.34                         : bot_depth    - STOP DEPTH
STEP.M        0.25                           : increment    - STEP LENGTH
 NULL. -999.2500:NULL Value
~CURVE INFORMATION BLOCK
#MNEM UNIT       ERCB CURVE CODE    CURVE DESCRIPTION
#-----------   ------------------   ----------------------------------
DEPT.M        00 001 00 00         : DEPTH        - DEPTH
GR  .API      00 310 00 00         : GR           - GAMMA RAY
DPHI.V/V      00 890 00 00         : PHID         - DENSITY POROSITY (SANDSTONE)
NPHI.V/V      00 330 00 00         : PHIN         - NEUTRON POROSITY (SANDSTONE)
ILD .OHMM     00 120 00 00         : RESD         - DEEP RESISTIVITY (DIL)
~PARAMETER INFORMATION
#MNEM.UNIT           DATA             DESCRIPTION OF MNEMONIC
#---------         -----------     ------------------------------
GL  .M        701.528              : gl           - GROUND LEVEL ELEVATION
EREF.M        705.338              : kb           - ELEVATION OF DEPTH REFERENCE
DATM.M        705.338              : datum        - DATUM ELEVATION
TDD .M        489.204              : tdd          - TOTAL DEPTH DRILLER
RUN .         ONE                  : Run          - RUN NUMBER
ENG .         BILL                 : Engineer     - RECORDING ENGINEER
WIT .         JIM                  : Witness      - WITNESSED BY
MUD .         GEL                  : Mud_type     - MUD TYPE
MATR.         SANDSTONE            : Logunit      - NEUTRON MATRIX
TMAX.C        23.8889              : BHT          - MAXIMUM RECORDED TEMPERATURE
BHTD.M        487.68               : BHTDEP       - MAXIMUM RECORDED TEMPERATURE
MATR.         1                    : LOGUNIT      - NEUTRON MATRIX
RMT .C        25                   : MDTP         - TEMPERATURE OF MUD
NEUT.         1                    : NEUTRON      - NEUTRON TYPE
RESI.         0                    : RESIST       - RESISTIVITY TYPE
RMC .OHMM     0.25                 : RMC          - RESISTIVITY OF MUD CAKE
RMF .OHMM     0.25                 : RMF          - RESISTIVITY OF MUD FILTRATE
SUFT.C        4                    : SUFT         - SURFACE TEMPERATURE
~A  DEPTH       GR     PHID     PHIN     RESD
  243.840  122.541    0.280    0.585    3.596
  244.090  124.197    0.286    0.581    3.660
  244.340  124.538    0.261    0.578    3.666
  244.590  123.954    0.258    0.579    3.665
  244.840  122.626    0.272    0.589    3.660
  245.090  122.025    0.274    0.604    3.669
  245.340  123.648    0.276    0.611    3.730
  245.590  123.933    0.291    0.609    3.738
  245.840  123.435    0.283    0.606    3.730
  246.090  122.875    0.275    0.612    3.740
  246.340  121.430    0.285    0.614    3.721
  246.590  118.177    0.291    0.601    3.663
  246.840  115.836    0.298    0.595    3.666
  247.090  123.234    0.280    0.596    3.619
  247.340  126.644    0.278    0.596    3.584
  247.590  123.150    0.282    0.606    3.608
  247.840  120.267    0.266    0.621    3.679
  248.090  117.237    0.269    0.617    3.797
  248.340  115.969    0.269    0.627    3.867
  248.590  115.666    0.270    0.631    3.881
  248.840  114.443    0.273    0.599    3.868
  249.090  112.203    0.279    0.575    3.890
  249.340  110.998    0.281    0.586    3.951
  249.590  112.040    0.273    0.561    3.951
  249.840  112.426    0.289    0.569    3.948
  250.090  111.651    0.304    0.581    3.946
  250.340  110.630    0.299    0.570    3.957
  250.590  110.492    0.285    0.568    3.934
  250.840  111.573    0.283    0.596    3.807
  251.090  112.488    0.300    0.618    3.702
  251.340  114.166    0.317    0.633    3.496
  251.590  114.393    0.323    0.639    3.334
  251.840  113.135    0.321    0.633    3.229
  252.090  111.356    0.316    0.622    3.083
  252.340  108.081    0.317    0.610    3.038
  252.590  110.129    0.313    0.603    2.987
  252.840  113.690    0.305    0.596    2.992
  253.090  113.144    0.302    0.585    3.070
  253.340  108.876    0.297    0.575    3.171
  253.590  104.965    0.275    0.573    3.269
  253.840  102.425    0.265    0.573    3.326
  254.090  100.682    0.251    0.572    3.338
  254.340  106.183    0.275    0.585    3.315
  254.590  112.705    0.305    0.601    3.236
  254.840  110.605    0.293    0.607    3.143
  255.090  106.988    0.291    0.618    3.145
  255.340  106.801    0.289    0.613    3.189
  255.590  108.645    0.288    0.602    3.260
  255.840  107.320    0.268    0.581    3.420
  256.090  106.950    0.253    0.556    3.639
  256.340  112.921    0.275    0.545    3.802
  256.590  113.356    0.270    0.548    3.923
  256.840  110.358    0.261    0.571    4.042
  257.090  105.936    0.252    0.588    4.176
  257.340  103.399    0.255    0.585    4.288
  257.590  106.270    0.268    0.572    4.338
  257.840  111.953    0.257    0.556    4.336
  258.090  113.649    0.245    0.553    4.334
  258.340  116.495    0.234    0.568    4.337
  258.590  119.336    0.236    0.577    4.329
  258.840  120.618    0.244    0.578    4.346
  259.090  120.030    0.242    0.588    4.420
  259.340  112.846    0.244    0.594    4.435
  259.590  109.046    0.247    0.575    4.251
  259.840  108.090    0.246    0.545    4.119
  260.090  108.432    0.252    0.537    4.073
  260.340  110.081    0.256    0.564    4.013
  260.590  110.497    0.237    0.585    4.018
  260.840  109.126    0.244    0.567    4.071
  261.090  107.753    0.254    0.563    4.181
  261.340  109.387    0.239    0.562    4.328
  261.590  113.476    0.227    0.547    4.438
  261.840  116.733    0.237    0.539    4.506
  262.090  117.053    0.225    0.540    4.647
  262.340  111.735    0.241    0.521    4.802
  262.590  108.832    0.254    0.491    4.912
  262.840  109.630    0.258    0.472    4.947
  263.090  110.751    0.272    0.490    4.944
  263.340  110.004    0.283    0.549    4.943
  263.590  102.381    0.272    0.558    4.875
  263.840   99.152    0.275    0.528    4.781
  264.090  102.159    0.270    0.499    4.773
  264.340  105.980    0.255    0.490    4.910
  264.590  108.264    0.262    0.505    5.407
  264.840  109.445    0.273    0.546    6.618
  265.090  105.215    0.256    0.561    8.257
  265.340   96.931    0.266    0.490    9.955
  265.590   92.634    0.266    0.426   11.050
  265.840   93.598    0.250    0.427   11.693
  266.090   94.038    0.280    0.423   12.904
  266.340   94.642    0.291    0.428   14.668
  266.590   88.371    0.277    0.457   15.734
  266.840   77.692    0.279    0.476   15.822
  267.090   74.545    0.307    0.464   15.415
  267.340   81.473    0.320    0.442   14.571
  267.590   87.332    0.291    0.441   13.049
  267.840   94.085    0.271    0.458   12.014
  268.090   98.156    0.265    0.468   12.423
  268.340   99.318    0.257    0.467   13.882
  268.590   99.507    0.252    0.459   15.272
  268.840   99.561    0.263    0.451   15.559
  269.090  101.376    0.270    0.454   14.262
  269.340  105.128    0.261    0.442   12.256
  269.590  109.259    0.238    0.434    9.020
  269.840  114.657    0.219    0.461    6.771
  270.090  120.236    0.219    0.511    6.989
  270.340  122.532    0.234    0.541    7.534
  270.590  124.696    0.272    0.562    9.357
  270.840  117.356    0.315    0.549   12.250
  271.090  101.851    0.337    0.553   17.412
  271.340   83.213    0.415    0.602   27.264
  271.590   64.600    0.539    0.651   39.704
  271.840   53.181    0.503    0.648   46.692
  272.090   48.569    0.469    0.583   48.254
  272.340   46.932    0.383    0.499   47.888
  272.590   49.703    0.310    0.436   46.516
  272.840   57.880    0.325    0.406   44.317
  273.090   65.251    0.329    0.406   43.041
  273.340   65.958    0.331    0.425   42.893
  273.590   63.817    0.332    0.441   43.526
  273.840   62.673    0.325    0.455   43.949
  274.090   64.638    0.328    0.457   43.699
  274.340   73.217    0.344    0.443   42.921
  274.590   88.259    0.325    0.443   41.614
  274.840   92.341    0.309    0.449   40.277
  275.090   81.555    0.323    0.448   39.272
  275.340   72.463    0.331    0.455   37.415
  275.590   71.973    0.326    0.472   35.400
  275.840   69.165    0.344    0.476   34.971
  276.090   66.620    0.349    0.471   33.449
  276.340   68.867    0.353    0.468   31.927
  276.590   71.206    0.356    0.466   30.178
  276.840   75.800    0.348    0.455   28.561
  277.090   84.402    0.331    0.439   27.814
  277.340   86.796    0.312    0.440   26.967
  277.590   86.377    0.295    0.443   26.027
  277.840   85.561    0.296    0.436   25.953
  278.090   79.204    0.307    0.428   26.814
  278.340   74.238    0.307    0.424   28.268
  278.590   80.756    0.302    0.426   30.076
  278.840   82.031    0.320    0.449   31.552
  279.090   77.077    0.325    0.468   32.647
  279.340   74.780    0.317    0.466   33.445
  279.590   77.914    0.314    0.457   33.591
  279.840   83.344    0.317    0.459   32.908
  280.090   90.355    0.320    0.472   31.899
  280.340   98.606    0.323    0.477   30.874
  280.590  100.948    0.311    0.475   30.259
  280.840   99.739    0.300    0.494   29.853
  281.090   97.466    0.301    0.509   29.365
  281.340   92.772    0.304    0.483   28.932
  281.590   89.721    0.300    0.469   28.873
  281.840   87.745    0.298    0.463   29.427
  282.090   90.476    0.300    0.461   29.090
  282.340   96.221    0.306    0.469   28.040
  282.590  100.086    0.310    0.483   27.208
  282.840  101.980    0.305    0.485   26.374
  283.090  103.576    0.298    0.471   25.999
  283.340  104.481    0.302    0.455   25.123
  283.590  106.321    0.302    0.451   23.677
  283.840  108.694    0.300    0.456   22.302
  284.090  110.128    0.307    0.466   20.897
  284.340  112.618    0.299    0.481   18.756
  284.590  115.515    0.273    0.480   16.899
  284.840  118.852    0.266    0.472   16.045
  285.090  120.789    0.264    0.472   15.693
  285.340  120.143    0.251    0.475   15.584
  285.590  115.794    0.262    0.473   16.122
  285.840  104.057    0.294    0.463   16.654
  286.090   97.904    0.306    0.448   16.932
  286.340   98.726    0.295    0.431   16.200
  286.590  102.085    0.280    0.427   14.882
  286.840  106.844    0.273    0.441   12.523
  287.090  115.027    0.268    0.468    7.662
