~VERSION INFORMATION
 VERS.                 2.0:   CWLS LOG ASCII STANDARD -VERSION 2.0
 WRAP.                  NO:   ONE LINE PER DEPTH STEP
~WELL INFORMATION BLOCK
#MNEM.UNIT           DATA                    DESCRIPTION OF MNEMONIC
#---------    -------------------            -------------------------------
# Generated from Intellog Unique Number	CW_76_78/WELL/2801
WELL.         07-25-077-24W4                 : Well_name    - WELL
LOC .         00/07-25-077-24W4/0            : Location     - LOCATION
UWI .         00/07-25-077-24W4/0            : Uwi          - UNIQUE WELL ID
ENTR.         JJ                             : Entered      - ENTERED BY
SRVC.         SCHLUMBERGER                   : Scn          - SERVICE COMPANY
DATE.         9 FEB 71                       : Date         - LOG DATE
STRT.M        487.68                         : top_depth    - START DEPTH
STOP.M        636.93                         : bot_depth    - STOP DEPTH
STEP.M        0.25                           : increment    - STEP LENGTH
 NULL. -999.2500:NULL Value
~CURVE INFORMATION BLOCK
#MNEM UNIT       ERCB CURVE CODE    CURVE DESCRIPTION
#-----------   ------------------   ----------------------------------
DEPT.M        00 001 00 00         : DEPTH        - DEPTH
ILD .OHMM     00 120 00 00         : RESD         - DEEP RESISTIVITY (DIL)
CALI.MM       00 280 01 00         : CAL          - CALIPER
GR  .API      00 310 00 00         : GR           - GAMMA RAY
NPHI.V/V      00 330 00 00         : PHIN         - NEUTRON POROSITY (SANDSTONE)
DELT.US/F     00 520 00 00         : DELT         - SONIC TRAVEL TIME
~PARAMETER INFORMATION
#MNEM.UNIT           DATA             DESCRIPTION OF MNEMONIC
#---------         -----------     ------------------------------
GL  .M        667.573              : gl           - GROUND LEVEL ELEVATION
EREF.M        670.865              : kb           - ELEVATION OF DEPTH REFERENCE
DATM.M        670.865              : datum        - DATUM ELEVATION
TDD .M        637.032              : tdd          - TOTAL DEPTH DRILLER
RUN .         ONE                  : Run          - RUN NUMBER
ENG .         KEOWN                : Engineer     - RECORDING ENGINEER
WIT .         KELLY                : Witness      - WITNESSED BY
BASE.         EDM                  : Branch       - HOME BASE OF LOGGING UNIT
MUD .         GEL                  : Mud_type     - MUD TYPE
MATR.         SANDSTONE            : Logunit      - NEUTRON MATRIX
TMAX.C        31.6667              : BHT          - MAXIMUM RECORDED TEMPERATURE
BHTD.M        637.946              : BHTDEP       - MAXIMUM RECORDED TEMPERATURE
RMT .C        21.1111              : MDTP         - TEMPERATURE OF MUD
MUDD.KG/M     1128                 : MWT          - MUD DENSITY
NEUT.         0                    : NEUTRON      - NEUTRON TYPE
RESI.         0                    : RESIST       - RESISTIVITY TYPE
RM  .OHMM     3.56                 : RM           - RESISTIVITY OF MUD
RMC .OHMM     0                    : RMC          - RESISTIVITY OF MUD CAKE
RMF .OHMM     3.51                 : RMF          - RESISTIVITY OF MUD FILTRATE
SUFT.C        5                    : SUFT         - SURFACE TEMPERATURE
~A  DEPTH     RESD      CAL       GR     PHIN     DELT
# ...
  597.180    7.891  221.082   71.825    0.289  339.255
  597.430    7.030  225.629   79.863    0.307  346.772
  597.680    6.710  226.672   87.117    0.320  359.746
  597.930    6.892  225.553   93.390    0.334  374.539
  598.180    7.314  225.569   79.467    0.367  389.656
  598.430    7.927  225.582   60.642    0.392  372.714
  598.680    8.804  225.081   50.641    0.321  366.562
  598.930    9.703  224.478   52.404    0.330  365.659
  599.180   10.619  223.150   59.266    0.307  361.278
  599.430    9.359  223.061   64.363    0.324  365.332
  599.680    8.569  223.075   67.891    0.309  361.221
  599.930    8.058  222.988   69.459    0.299  351.931
  600.180    7.483  223.104   70.830    0.281  346.303
  600.430    6.942  222.808   66.515    0.275  345.780
  600.680    6.726  223.131   73.965    0.273  343.434
  600.930    6.709  223.971   79.454    0.265  341.548
  601.180    6.844  224.294   81.805    0.251  340.503
  601.430    6.996  224.410   79.451    0.268  340.642
  601.680    7.089  224.630   79.254    0.304  351.372
  601.930    7.256  225.055   84.939    0.360  368.132
  602.180    7.470  225.380   87.879    0.339  368.920
  602.430    7.613  226.423   89.251    0.271  342.035
  602.680    7.589  227.675   79.838    0.245  329.145
  602.930    7.492  228.408   80.032    0.226  327.910
  603.180    7.197  228.834   84.541    0.242  332.355
  603.430    6.878  227.714   79.049    0.249  334.321
  603.680    6.694  223.299   72.382    0.266  336.351
  603.930    6.653  221.768   69.832    0.287  338.460
  604.180    6.754  220.649   61.987    0.285  341.145
  604.430    7.034  219.944   59.437    0.282  345.536
  604.680    7.271  219.235   58.847    0.304  347.811
  604.930    7.471  218.426   60.611    0.288  346.004
  605.180    7.494  219.161   61.394    0.295  342.273
  605.430    7.414  218.968   62.765    0.288  338.940
  605.680    7.053  219.188   65.705    0.286  335.803
  605.930    6.510  220.026   67.665    0.274  332.213
  606.180    5.720  221.276   69.428    0.260  328.414
  606.430    5.018  223.143   72.172    0.267  327.761
  606.680    5.081  226.557   79.034    0.259  329.793
  606.930    5.455  228.427   82.758    0.247  332.300
  607.180    5.990  229.779   85.306    0.245  340.017
  607.430    6.242  229.895   82.952    0.255  348.526
  607.680    6.506  230.012   86.676    0.277  359.989
  607.930    6.003  229.924   88.832    0.291  372.358
  608.180    4.941  230.041   90.007    0.308  383.952
  608.430    3.586  229.953   90.790    0.322  388.011
  608.680    2.366  229.964   92.750    0.336  374.862
  608.930    1.576  229.463   89.807    0.330  364.003
  609.180    1.424  228.346   87.061    0.363  358.905
  609.430    1.518  226.505   83.531    0.353  384.819
  609.680    1.926  223.738   82.911    0.329  376.838
  609.930    2.473  222.825   89.115    0.318  355.383
  610.180    4.274  221.194   89.104    0.308  335.956
  610.430    5.278  221.103   62.880    0.288  315.803
  610.680    6.081  220.909   32.578    0.279  315.877
  610.930    5.022  220.617   26.354    0.260  331.455
  611.180    4.231  220.834   28.090    0.284  339.831
  611.430    3.562  221.055   31.381    0.284  335.774
  611.680    3.337  221.275   33.894    0.288  335.915
  611.930    3.409  222.627   43.398    0.282  342.982
  612.180    3.670  224.495   47.660    0.286  341.082
  612.430    4.236  226.054   54.637    0.282  338.612
  612.680    4.762  226.995   63.754    0.282  335.007
  612.930    5.071  227.008   75.781    0.290  334.889
  613.180    5.550  226.817   87.229    0.282  340.913
  613.430    5.771  226.418   94.014    0.287  346.023
  613.680    5.788  225.610  100.605    0.274  347.460
  613.930    5.578  224.799   79.429    0.287  342.626
  614.180    5.123  223.886   69.516    0.296  342.500
  614.430    4.548  223.179   46.398    0.284  354.153
  614.680    3.775  223.399   41.145    0.288  366.391
  614.930    3.416  223.723   39.969    0.319  370.066
  615.180    3.359  223.632   45.395    0.321  363.522
  615.430    3.512  224.161   54.121    0.289  356.659
  615.680    3.788  224.385   62.073    0.284  351.750
  615.930    4.656  224.293   74.102    0.282  347.118
  616.180    4.982  223.998   72.149    0.273  336.851
  616.430    4.918  223.806   47.866    0.258  326.835
  616.680    4.558  223.407   39.700    0.258  339.732
  616.930    4.071  222.909   36.970    0.274  347.726
  617.180    3.711  222.920   43.368    0.295  346.159
  617.430    3.368  222.625   48.989    0.294  344.321
  617.680    3.168  221.712   51.500    0.286  349.563
  617.930    3.121  221.521   52.657    0.281  351.135
  618.180    3.079  221.021   54.974    0.289  348.993
  618.430    3.055  221.034   57.101    0.287  346.773
  618.680    3.102  220.532   59.227    0.287  346.249
  618.930    3.126  220.443   56.691    0.286  346.637
  619.180    3.204  220.458   51.826    0.285  347.304
  619.430    3.347  220.576   52.593    0.283  349.647
  619.680    3.536  220.382   61.320    0.286  350.198
  619.930    3.871  220.807   71.988    0.300  348.885
  620.180    4.173  222.574   59.162    0.295  343.858
  620.430    4.045  224.237   53.909    0.270  334.827
  620.680    3.877  224.971   48.461    0.250  326.070
  620.930    4.027  226.013   52.917    0.237  340.274
  621.180    4.362  226.955   64.943    0.259  350.418
  621.430    4.800  227.793   81.244    0.289  332.889
  621.680    5.173  228.014   88.224    0.241  322.880
  621.930    5.435  227.820   84.331    0.255  323.667
  622.180    5.219  225.363   51.504    0.287  333.621
  622.430    4.614  223.110   34.794    0.307  348.084
  622.680    4.302  221.785   27.793    0.298  348.742
  622.930    4.404  221.697   43.316    0.311  344.041
  623.180    5.034  221.710   53.015    0.358  393.248
  623.430    6.307  221.313   59.800    0.459  407.916
  623.680   13.966  220.711   60.566    0.530  431.019
  623.930   15.520  220.105   55.700    0.529  450.054
  624.180   16.252  219.502   53.360    0.528  451.439
  624.430   14.952  219.002   58.009    0.521  440.182
  624.680   14.027  219.014   62.271    0.401  428.548
  624.930   13.110  218.617   52.163    0.333  425.020
  625.180   12.623  218.629   45.938    0.393  444.002
  625.430   12.781  218.231   43.598    0.522  434.251
  625.680   14.374  219.173   47.470    0.524  419.077
  625.930   12.900  218.570   51.538    0.524  364.311
  626.180   11.170  218.273   53.275    0.516  340.042
  626.430    9.336  218.290   45.303    0.334  326.105
  626.680    6.991  218.612   42.185    0.274  323.756
  626.930    4.480  218.729   40.233    0.246  329.716
  627.180    4.479  218.845   40.610    0.253  337.947
  627.430    5.993  219.578   47.590    0.247  341.108
  627.680    6.854  220.829   53.404    0.273  340.200
  627.930    7.338  222.800   59.801    0.305  325.994
  628.180    7.665  226.112   59.209    0.304  323.587
  628.430    7.512  226.537   55.506    0.276  327.976
  628.680    7.027  225.829   56.662    0.258  319.339
  628.930    6.667  225.638   65.195    0.239  308.682
  629.180    6.052  225.753   74.700    0.218  286.696
  629.430    5.500  226.179   75.465    0.223  296.646
  629.680    4.966  226.605   70.406    0.224  303.134
  629.930    4.447  227.136   66.899    0.214  307.451
  630.180    4.016  227.251   64.560    0.234  320.350
  630.430    3.776  226.443   60.666    0.252  348.166
  630.680    3.513  223.676   45.704    0.267  357.264
  630.930    3.345  223.173   47.828    0.276  350.653
  631.180    3.170  222.363   57.138    0.299  348.900
  631.430    3.096  221.966   68.001    0.276  353.674
  631.680    2.992  221.979   63.524    0.271  357.085
  631.930    2.951  222.303   59.630    0.258  357.532
  632.180    2.999  222.729   56.901    0.288  355.841
  632.430    3.118  222.227   43.687    0.278  352.453
  632.680    3.251  221.421   36.685    0.267  345.905
  632.930    3.481  221.843   38.616    0.282  339.442
  633.180    3.832  221.138   40.936    0.270  325.053
  633.430    4.389  221.049   43.450    0.245  281.475
