~VERSION INFORMATION
 VERS.                 2.0:   CWLS LOG ASCII STANDARD -VERSION 2.0
 WRAP.                  NO:   ONE LINE PER DEPTH STEP
~WELL INFORMATION BLOCK
#MNEM.UNIT           DATA                    DESCRIPTION OF MNEMONIC
#---------    -------------------            -------------------------------
# Generated from Intellog Unique Number	CW_76_78/WELL/2572
WELL.         BAYSEL WILLOW R                : Well_name    - WELL
LOC .         00/07-10-078-03W5/0            : Location     - LOCATION
UWI .         00/07-10-078-03W5/0            : Uwi          - UNIQUE WELL ID
ENTR.         MAX                            : Entered      - ENTERED BY
SRVC.         SCHLUMBERGER                   : Scn          - SERVICE COMPANY
STRT.M        365.76                         : top_depth    - START DEPTH
STOP.M        640.01                         : bot_depth    - STOP DEPTH
STEP.M        0.25                           : increment    - STEP LENGTH
 NULL. -999.2500:NULL Value
~CURVE INFORMATION BLOCK
#MNEM UNIT       ERCB CURVE CODE    CURVE DESCRIPTION
#-----------   ------------------   ----------------------------------
DEPT.M        00 001 00 00         : DEPTH        - DEPTH
ILD .OHMM     00 120 00 00         : RESD         - DEEP RESISTIVITY (DIL)
NPHI.V/V      00 330 00 00         : PHIN         - NEUTRON POROSITY (SANDSTONE)
DPHI.V/V      00 890 00 00         : PHID         - DENSITY POROSITY (SANDSTONE)
CALI.MM       00 280 01 00         : CAL          - CALIPER
GR  .API      00 310 00 00         : GR           - GAMMA RAY
~PARAMETER INFORMATION
#MNEM.UNIT           DATA             DESCRIPTION OF MNEMONIC
#---------         -----------     ------------------------------
GL  .M        660.197              : gl           - GROUND LEVEL ELEVATION
EREF.M        664.403              : kb           - ELEVATION OF DEPTH REFERENCE
DATM.M        660.197              : datum        - DATUM ELEVATION
TDD .M        658.063              : tdd          - TOTAL DEPTH DRILLER
RUN .         ONE                  : Run          - RUN NUMBER
ENG .         BILL                 : Engineer     - RECORDING ENGINEER
WIT .         JIM                  : Witness      - WITNESSED BY
MUD .         GEL                  : Mud_type     - MUD TYPE
MATR.         SANDSTONE            : Logunit      - NEUTRON MATRIX
TMAX.C        26.6667              : BHT          - MAXIMUM RECORDED TEMPERATURE
BHTD.M        658.063              : BHTDEP       - MAXIMUM RECORDED TEMPERATURE
RMT .C        15                   : MDTP         - TEMPERATURE OF MUD
MUDD.KG/M     9300                 : MWT          - MUD DENSITY
NEUT.         1                    : NEUTRON      - NEUTRON TYPE
RESI.         0                    : RESIST       - RESISTIVITY TYPE
RM  .OHMM     0.25                 : RM           - RESISTIVITY OF MUD
RMC .OHMM     0.25                 : RMC          - RESISTIVITY OF MUD CAKE
RMF .OHMM     3.74                 : RMF          - RESISTIVITY OF MUD FILTRATE
SUFT.C        -15                  : SUFT         - SURFACE TEMPERATURE
~A  DEPTH     RESD     PHIN     PHID      CAL       GR
# ...
  548.260    7.861    0.431    0.158  176.644  102.904
  548.510    7.786    0.434    0.179  176.583  106.258
  548.760    7.786    0.436    0.186  177.063  106.846
  549.010    7.701    0.438    0.181  176.474  107.422
  549.260    7.615    0.445    0.176  175.370  105.854
  549.510    7.610    0.446    0.182  173.230  103.967
  549.760    7.604    0.440    0.187  172.133  103.631
  550.010    7.595    0.436    0.181  172.607  103.287
  550.260    7.585    0.441    0.174  174.103  102.023
  550.510    7.576    0.442    0.178  177.176   99.528
  550.760    7.638    0.447    0.191  178.171   94.875
  551.010    7.767    0.460    0.195  176.546   88.993
  551.260    8.045    0.435    0.188  172.314   79.722
  551.510    8.563    0.419    0.178  171.211   77.843
  551.760   10.155    0.398    0.142  173.763   77.499
  552.010   12.049    0.368    0.133  176.315   79.929
  552.260   12.711    0.380    0.145  176.775   89.440
  552.510   18.574    0.431    0.173  175.684   89.712
  552.760   18.548    0.450    0.189  175.684   90.296
  553.010   18.183    0.452    0.208  174.513   91.803
  553.260   17.373    0.457    0.200  173.422   91.151
  553.510   12.297    0.463    0.193  172.853   86.193
  553.760   11.017    0.450    0.188  172.257   79.680
  554.010   11.005    0.439    0.192  172.216   79.964
  554.260   11.195    0.441    0.185  172.676   82.398
  554.510   11.489    0.455    0.199  173.130   89.755
  554.760   11.684    0.441    0.183  173.082   96.495
  555.010   11.776    0.431    0.184  173.542  100.761
  555.260   11.346    0.428    0.182  173.494   99.193
  555.510   10.731    0.429    0.181  173.433   97.934
  555.760   10.246    0.433    0.177  173.338   96.354
  556.010    9.777    0.433    0.177  173.846   95.710
  556.260    9.777    0.434    0.176  174.299   93.823
  556.510    9.757    0.438    0.170  174.772   91.948
  556.760    9.745    0.425    0.166  175.239   90.369
  557.010   10.004    0.416    0.158  175.185   89.725
  557.260   10.549    0.410    0.163  175.117   91.228
  557.510   11.023    0.409    0.156  175.069   96.125
  557.760   11.213    0.421    0.169  175.008   98.856
  558.010   10.995    0.420    0.156  174.953  100.055
  558.260   10.995    0.410    0.131  175.413  101.870
  558.510   10.581    0.413    0.149  175.880  102.137
  558.760    9.744    0.421    0.159  176.340  101.806
  559.010    8.809    0.427    0.132  176.814  101.154
  559.260    8.334    0.430    0.119  176.753  101.729
  559.510    7.882    0.432    0.112  176.691  103.552
  559.760    7.524    0.419    0.119  176.637  104.136
  560.010    7.183    0.415    0.124  176.576  105.639
  560.260    6.614    0.402    0.118  176.521  110.532
  560.510    6.369    0.409    0.132  176.467  113.271
  560.760    6.369    0.412    0.154  176.934  112.315
  561.010    6.411    0.417    0.135  177.915  110.432
  561.260    6.464    0.423    0.119  179.424  110.395
  561.510    6.515    0.418    0.129  179.363  110.359
  561.760    6.515    0.411    0.137  177.752  110.635
  562.010    6.676    0.396    0.140  175.599  102.291
  562.260    6.980    0.377    0.143  173.980   96.718
  562.510    7.495    0.357    0.121  173.398   88.058
  562.760    7.907    0.331    0.090  173.336   84.028
  563.010    9.466    0.315    0.073  173.817   76.911
  563.260   10.447    0.294    0.053  175.841   69.794
  563.510   12.508    0.262    0.030  177.871   70.682
  563.760   15.809    0.230   -0.014  176.768   73.116
  564.010   20.910    0.246    0.002  172.529   81.080
  564.260   23.711    0.273    0.038  170.397   88.440
  564.510   24.775    0.298    0.080  170.349   95.493
  564.760   20.277    0.325    0.112  172.352   97.911
  565.010   16.446    0.357    0.134  172.833   97.579
  565.260   13.582    0.366    0.132  172.772   98.163
  565.510   11.842    0.370    0.137  172.196  100.277
  565.760   10.419    0.368    0.137  172.148  100.241
  566.010    9.420    0.369    0.155  172.080   99.901
  566.260    8.751    0.367    0.154  171.511  101.105
  566.510    8.585    0.364    0.157  169.886  101.380
  566.760    8.585    0.364    0.135  168.776  103.503
  567.010    8.560    0.368    0.121  171.341  108.392
  567.260    8.554    0.365    0.125  175.971  109.895
  567.510    8.699    0.366    0.135  176.438  112.018
  567.760    8.846    0.360    0.138  176.377  115.069
  568.010    8.846    0.354    0.133  176.282  118.419
  568.260    8.909    0.347    0.130  176.789  121.773
  568.510    9.310    0.351    0.127  178.292  125.435
  568.760    9.215    0.364    0.122  179.280  129.704
  569.010    8.878    0.380    0.115  180.268  130.288
  569.260    8.323    0.395    0.104  181.778  127.177
  569.510    7.523    0.417    0.119  183.802  112.984
  569.760    7.248    0.416    0.154  181.655  105.868
  570.010    7.248    0.391    0.165  176.902  104.296
  570.260    7.163    0.373    0.123  175.805  105.492
  570.510    7.222    0.373    0.120  175.805  105.148
  570.760    7.481    0.379    0.125  176.184  102.033
  571.010    7.889    0.376    0.129  177.206  100.466
  571.260    8.321    0.377    0.123  177.206  100.122
  571.510    8.540    0.382    0.150  177.618  100.397
  571.760    8.540    0.399    0.151  177.029  101.592
  572.010    8.439    0.406    0.134  176.453  101.560
  572.260    8.356    0.383    0.116  177.434  102.764
  572.510    8.348    0.377    0.094  178.429  100.876
  572.760    8.414    0.391    0.115  178.896   85.452
  573.010    8.404    0.398    0.136  178.314   70.639
  573.260    8.470    0.398    0.174  173.568   52.440
  573.510    8.614    0.403    0.201  166.716   42.861
  573.760    8.840    0.390    0.252  166.716   35.124
  574.010    9.157    0.378    0.263  165.023   34.481
  574.260    9.485    0.375    0.248  162.897   35.060
  574.510    9.560    0.377    0.253  162.856   36.871
  574.760    8.881    0.374    0.253  162.788   36.531
  575.010    7.203    0.367    0.264  162.720   35.579
  575.260    6.511    0.375    0.264  162.720   35.227
  575.510    5.995    0.371    0.262  162.611   35.511
  575.760    5.469    0.373    0.264  162.042   35.479
  576.010    5.126    0.379    0.261  161.467   35.435
  576.260    5.126    0.375    0.252  160.884   35.099
  576.510    4.887    0.376    0.267  160.301   35.066
  576.760    4.582    0.375    0.270  159.739   35.650
  577.010    4.414    0.368    0.277  160.199   35.922
  577.260    4.369    0.365    0.283  160.138   36.505
  577.510    4.322    0.372    0.283  160.084   38.316
  577.760    4.319    0.373    0.270  160.544   40.747
  578.010    4.315    0.370    0.261  161.004   43.181
  578.260    4.310    0.376    0.252  160.943   46.224
  578.510    4.345    0.386    0.244  160.943   48.958
  578.760    4.379    0.395    0.245  160.306   51.389
  579.010    4.453    0.399    0.243  159.737   52.896
  579.260    4.453    0.392    0.238  158.646   54.095
  579.510    4.524    0.390    0.241  158.057   56.829
  579.760    4.858    0.394    0.256  158.003   57.413
  580.010    4.943    0.392    0.248  158.003   57.069
  580.260    5.118    0.389    0.223  158.388   57.041
  580.510    5.301    0.390    0.216  158.361   55.461
  580.760    5.392    0.397    0.216  158.293   56.661
  581.010    5.386    0.417    0.209  158.238   59.711
  581.260    5.380    0.420    0.224  158.712   59.675
  581.510    5.325    0.416    0.243  158.644   61.794
  581.760    5.325    0.390    0.252  158.596   64.228
  582.010    5.311    0.385    0.248  159.063   65.731
  582.260    5.305    0.397    0.231  158.995   67.546
  582.510    5.295    0.404    0.224  159.468   66.279
  582.760    5.341    0.410    0.224  160.457   66.558
  583.010    5.384    0.409    0.231  161.959   67.142
  583.260    5.384    0.401    0.235  163.462   67.409
  583.510    5.418    0.405    0.232  164.450   67.989
  583.760    5.665    0.404    0.234  164.395   67.949
  584.010    6.139    0.392    0.217  164.334   67.001
  584.260    6.836    0.368    0.200  163.758   65.434
  584.510    7.751    0.356    0.188  162.655   63.858
