~VERSION INFORMATION
 VERS.                 2.0:   CWLS LOG ASCII STANDARD -VERSION 2.0
 WRAP.                  NO:   ONE LINE PER DEPTH STEP
~WELL INFORMATION BLOCK
#MNEM.UNIT           DATA                    DESCRIPTION OF MNEMONIC
#---------    -------------------            -------------------------------
# Generated from Intellog Unique Number	CX_WELLS/WELL/2588
NULL.         -999.25                        : NULL_VALUE
WELL.         SIEBENS PONY                   : Well_name    - WELL              
LOC .         06-08-080-09W4                 : Location     - LOCATION          
UWI .         00/06-08-080-09W400            : Uwi          - UNIQUE WELL ID    
ENTR.         T                              : Entered      - ENTERED BY        
SRVC.         SCHLUMBERGER                   : Scn          - SERVICE COMPANY   
STRT.F        800                            : top_depth    - START DEPTH       
STOP.F        1620.21                        : bot_depth    - STOP DEPTH        
STEP.F        0.82                           : increment    - STEP LENGTH       
~CURVE INFORMATION BLOCK
#MNEM UNIT       ERCB CURVE CODE    CURVE DESCRIPTION
#-----------   ------------------   ----------------------------------
DEPT.F        00 001 00 00         : DEPTH        - DEPTH                       
GR  .API      00 310 00 00         : GR           - GAMMA RAY                   
NPHI.V/V      00 330 00 00         : PHIN         - NEUTRON POROSITY (SANDSTONE)
DPHI.V/V      00 890 00 00         : PHID         - DENSITY POROSITY (SANDSTONE)
ILD .OHMM     00 120 00 00         : RESD         - DEEP RESISTIVITY (DIL)      
~PARAMETER INFORMATION       
#MNEM.UNIT           DATA             DESCRIPTION OF MNEMONIC
#---------         -----------     ------------------------------
GL  .F        2298                 : gl           - GROUND LEVEL ELEVATION      
EREF.F        2310                 : kb           - ELEVATION OF DEPTH REFERENCE
DATM.F        2310                 : datum        - DATUM ELEVATION             
TDD .F        1654                 : tdd          - TOTAL DEPTH DRILLER         
RUN .         ONE                  : Run          - RUN NUMBER                  
ENG .         BILL                 : Engineer     - RECORDING ENGINEER          
WIT .         JIM                  : Witness      - WITNESSED BY                
MUD .         GEL                  : Mud_type     - MUD TYPE                    
MATR.         SANDSTONE            : Logunit      - NEUTRON MATRIX              
TMAX.F        73                   : BHT          - MAXIMUM RECORDED TEMPERATURE
BHTD.F        1653                 : BHTDEP       - MAXIMUM RECORDED TEMPERATURE
MATR.         1                    : LOGUNIT      - NEUTRON MATRIX              
RMT .F        68                   : MDTP         - TEMPERATURE OF MUD          
NEUT.         1                    : NEUTRON      - NEUTRON TYPE                
RESI.         4.78                 : RESIST       - RESISTIVITY TYPE            
RMC .OHMM     4.8                  : RMC          - RESISTIVITY OF MUD CAKE     
RMF .OHMM     4.8                  : RMF          - RESISTIVITY OF MUD FILTRATE 
SUFT.F        37.4                 : SUFT         - SURFACE TEMPERATURE         
~A  DEPTH       GR     PHIN     PHID     RESD
# ...
 1513.580   52.339    0.374    0.266   16.476
 1514.400   52.980    0.391    0.230   15.643
 1515.220   60.271    0.409    0.187   14.882
 1516.040   67.561    0.437    0.215   14.413
 1516.860   75.456    0.442    0.267   15.254
 1517.680   62.824    0.435    0.281   22.743
 1518.500   58.639    0.425    0.288   26.831
 1519.320   52.053    0.418    0.283   31.090
 1520.140   49.678    0.416    0.274   33.565
 1520.960   52.745    0.412    0.253   32.446
 1521.780   57.019    0.412    0.251   27.744
 1522.600   64.310    0.427    0.255   26.819
 1523.430   68.584    0.428    0.258   25.513
 1524.250   64.399    0.402    0.260   25.133
 1525.070   62.023    0.399    0.259   25.230
 1525.890   59.661    0.392    0.230   24.854
 1526.710   56.079    0.391    0.225   24.507
 1527.530   55.526    0.428    0.233   23.314
 1528.350   60.404    0.439    0.253   22.558
 1529.170   71.315    0.435    0.256   22.222
 1529.990   69.543    0.429    0.264   21.912
 1530.810   65.974    0.423    0.269   23.213
 1531.630   62.404    0.417    0.277   25.037
 1532.450   59.426    0.408    0.281   30.616
 1533.270   57.051    0.404    0.290   34.846
 1534.090   54.675    0.408    0.284   31.981
 1534.910   49.309    0.430    0.268   30.365
 1535.730   49.334    0.440    0.277   28.401
 1536.550   54.212    0.434    0.284   27.950
 1537.370   54.275    0.428    0.284   29.083
 1538.190   52.503    0.417    0.282   34.311
 1539.010   50.128    0.405    0.276   41.210
 1539.830   47.150    0.398    0.271   48.617
 1540.650   45.403    0.394    0.266   52.436
 1541.470   47.251    0.420    0.262   38.080
 1542.290   49.703    0.444    0.260   31.921
 1543.110   54.580    0.450    0.260   28.265
 1543.930   60.061    0.420    0.255   26.411
 1544.750   62.512    0.407    0.252   25.555
 1545.570   59.559    0.451    0.238   23.059
 1546.390   62.010    0.476    0.226   22.290
 1547.210   68.082    0.481    0.226   21.164
 1548.030   68.736    0.482    0.251   18.407
 1548.850   54.897    0.480    0.273   16.593
 1549.670   49.506    0.465    0.280   15.214
 1550.490   42.920    0.454    0.285   14.202
 1551.310   40.557    0.435    0.291   13.742
 1552.130   40.621    0.423    0.293   13.309
 1552.950   41.853    0.413    0.294   13.111
 1553.770   42.494    0.408    0.289   12.497
 1554.590   45.587    0.411    0.287   12.299
 1555.410   46.819    0.415    0.267   11.688
 1556.230   52.287    0.419    0.226   10.717
 1557.050   59.578    0.416    0.214    9.652
 1557.870   69.885    0.419    0.219    7.947
 1558.690   79.589    0.428    0.211    6.782
 1559.510   81.450    0.442    0.202    6.114
 1560.330   77.881    0.454    0.227    5.713
 1561.150   72.489    0.446    0.257    5.238
 1561.980   58.047    0.431    0.295    4.812
 1562.800   49.639    0.417    0.305    4.569
 1563.620   41.834    0.399    0.305    4.425
 1564.440   40.678    0.405    0.302    4.434
 1565.260   42.538    0.417    0.295    4.380
 1566.080   46.222    0.430    0.285    4.393
 1566.900   48.057    0.434    0.271    4.406
 1567.720   50.509    0.428    0.271    4.503
 1568.540   53.576    0.422    0.266    4.516
 1569.360   53.627    0.415    0.260    4.612
 1570.180   54.884    0.415    0.251    4.634
 1571.000   57.952    0.417    0.233    4.727
 1571.820   61.610    0.419    0.218    4.745
 1572.640   67.694    0.419    0.217    4.860
 1573.460   69.542    0.416    0.224    4.869
 1574.280   71.403    0.412    0.234    4.976
 1575.100   70.247    0.412    0.242    4.986
 1575.920   69.682    0.409    0.246    5.015
 1576.740   69.129    0.408    0.244    5.116
 1577.560   69.167    0.410    0.237    5.131
 1578.380   72.235    0.416    0.231    5.151
 1579.200   79.525    0.421    0.224    5.171
 1580.020   82.593    0.429    0.221    5.191
 1580.840   82.644    0.430    0.219    5.211
 1581.660   81.475    0.434    0.225    5.316
 1582.480   78.509    0.434    0.232    5.337
 1583.300   76.147    0.433    0.234    5.368
 1584.120   76.172    0.429    0.238    5.383
 1584.940   75.016    0.423    0.242    5.399
 1585.760   72.050    0.425    0.245    5.420
 1586.580   69.675    0.426    0.248    5.436
 1587.400   66.093    0.424    0.256    5.462
 1588.220   60.714    0.413    0.264    5.478
 1589.040   58.339    0.408    0.267    5.494
 1589.860   57.183    0.408    0.269    5.516
 1590.680   57.221    0.415    0.272    5.532
 1591.500   59.698    0.418    0.273    5.548
 1592.320   61.533    0.420    0.267    5.471
 1593.140   65.808    0.417    0.246    5.497
 1593.960   69.478    0.417    0.238    5.508
 1594.780   70.736    0.417    0.235    5.529
 1595.600   73.187    0.417    0.229    5.545
 1596.420   76.254    0.417    0.219    5.567
 1597.240   77.525    0.418    0.208    5.583
 1598.060   71.517    0.412    0.202    5.810
 1598.880   44.405    0.406    0.161    6.155
 1599.700   39.617    0.398    0.136    6.520
 1600.520   36.047    0.384    0.106    6.778
 1601.350   32.478    0.299    0.003    7.715
 1602.170   30.706    0.122   -0.004    9.266
 1602.990   27.740    0.122   -0.003   11.744
 1603.810   26.559    0.122   -0.002   18.478
 1604.630   26.610    0.123   -0.002   34.816
 1605.450   26.661    0.126   -0.002   44.927
 1606.270   27.315    0.128   -0.001   46.008
 1607.090   27.956    0.130    0.000   46.977
 1607.910   28.610    0.131    0.000   47.068
 1608.730   28.648    0.131   -0.001   47.252
 1609.550   29.315    0.131   -0.002   47.435
 1610.370   29.341    0.133   -0.003   47.620
 1611.190   29.404    0.138   -0.000   47.806
 1612.010   29.430    0.141    0.001   47.898
 1612.830   29.493    0.144    0.001   48.085
 1613.650   29.531    0.145   -0.001   48.272
 1614.470   29.595    0.147   -0.002   48.460
 1615.290   30.223    0.147   -0.002   48.601
 1616.110   30.262    0.148   -0.002   49.625
 1616.930   31.519    0.148   -0.002   50.769
 1617.750   32.173    0.148   -0.002   50.917
 1618.570   31.620    0.148   -0.002   52.982
 1619.390   31.671    0.149   -0.001   54.151
 1620.210   31.697    0.154   -0.001   55.292
