~VERSION INFORMATION
 VERS.                 2.0:   CWLS LOG ASCII STANDARD -VERSION 2.0
 WRAP.                  NO:   ONE LINE PER DEPTH STEP
~WELL INFORMATION BLOCK
#MNEM.UNIT           DATA                    DESCRIPTION OF MNEMONIC
#---------    -------------------            -------------------------------
# Generated from Intellog Unique Number	CX_WELLS/WELL/3092
WELL.         CHEVRON CON-SUP ALGAR          : Well_name    - WELL
LOC .         00/06-32-082-16W4/0            : Location     - LOCATION
UWI .         00/06-32-082-16W400            : Uwi          - UNIQUE WELL ID
ENTR.         TIM                            : Entered      - ENTERED BY
SRVC.         SCHLUMBERGER                   : Scn          - SERVICE COMPANY
STRT.F        350                            : top_depth    - START DEPTH
STOP.F        914.304                        : bot_depth    - STOP DEPTH
STEP.F        0.82                           : increment    - STEP LENGTH
 NULL. -999.2500:NULL Value
~CURVE INFORMATION BLOCK
#MNEM UNIT       ERCB CURVE CODE    CURVE DESCRIPTION
#-----------   ------------------   ----------------------------------
DEPT.F        00 001 00 00         : DEPTH        - DEPTH
GR  .API      00 310 00 00         : GR           - GAMMA RAY
NPHI.V/V      00 330 00 00         : PHIN         - NEUTRON POROSITY (SANDSTONE)
DPHI.V/V      00 890 00 00         : PHID         - DENSITY POROSITY (SANDSTONE)
ILD .OHMM     00 120 00 00         : RESD         - DEEP RESISTIVITY (OTHER)
~PARAMETER INFORMATION
#MNEM.UNIT           DATA             DESCRIPTION OF MNEMONIC
#---------         -----------     ------------------------------
GL  .F        1760.9               : gl           - GROUND LEVEL ELEVATION
EREF.F        1771.5               : kb           - ELEVATION OF DEPTH REFERENCE
DATM.F        1771.5               : datum        - DATUM ELEVATION
TDD .F        925                  : tdd          - TOTAL DEPTH DRILLER
RUN .         ONE                  : Run          - RUN NUMBER
ENG .         BILL                 : Engineer     - RECORDING ENGINEER
WIT .         JIM                  : Witness      - WITNESSED BY
MUD .         GEL                  : Mud_type     - MUD TYPE
MATR.         SANDSTONE            : Logunit      - NEUTRON MATRIX
TMAX.F        71.6                 : BHT          - MAXIMUM RECORDED TEMPERATURE
BHTD.F        925                  : BHTDEP       - MAXIMUM RECORDED TEMPERATURE
MATR.         1                    : LOGUNIT      - NEUTRON MATRIX
RMT .F        77                   : MDTP         - TEMPERATURE OF MUD
NEUT.         1                    : NEUTRON      - NEUTRON TYPE
RESI.         3.07                 : RESIST       - RESISTIVITY TYPE
RMC .OHMM     3.07                 : RMC          - RESISTIVITY OF MUD CAKE
RMF .OHMM     3.07                 : RMF          - RESISTIVITY OF MUD FILTRATE
SUFT.F        32                   : SUFT         - SURFACE TEMPERATURE
~A  DEPTH       GR     PHIN     PHID     RESD
# ...
  778.150   91.738    0.485    0.235    8.309
  778.970   88.341    0.480    0.234    8.343
  779.790   83.267    0.476    0.234    8.389
  780.610   81.679    0.472    0.234    8.592
  781.430   80.680    0.470    0.232    8.978
  782.251   79.681    0.470    0.231    9.196
  783.071   76.916    0.473    0.236    9.595
  783.891   74.740    0.479    0.246    9.855
  784.711   73.652    0.483    0.257   10.080
  785.531   73.286    0.489    0.264   10.136
  786.352   72.875    0.491    0.260   10.191
  787.172   74.230    0.494    0.257   10.247
  787.992   76.172    0.497    0.248   10.304
  788.812   76.439    0.498    0.247   10.360
  789.633   76.528    0.501    0.254   10.240
  790.453   76.706    0.501    0.275   10.324
  791.273   77.605    0.497    0.278   10.353
  792.093   78.915    0.491    0.279   10.219
  792.913   80.858    0.483    0.275   10.275
  793.734   83.434    0.473    0.266   10.345
  794.554   84.200    0.476    0.251   10.197
  795.374   82.024    0.481    0.255   10.253
  796.194   79.848    0.485    0.260   10.323
  797.014   78.893    0.493    0.262   10.366
  797.835   79.570    0.501    0.266   10.246
  798.655   79.793    0.508    0.265   10.302
  799.475   80.559    0.514    0.265   10.196
  800.295   81.280    0.513    0.263   10.224
  801.115   80.958    0.508    0.262   10.120
  801.936   80.548    0.503    0.255    9.961
  802.756   80.092    0.502    0.254   10.016
  803.576   79.093    0.501    0.258    9.886
  804.396   78.138    0.501    0.263    9.592
  805.217   77.139    0.500    0.261    9.631
  806.037   77.272    0.495    0.256    9.507
  806.857   76.906    0.482    0.250    9.396
  807.677   77.039    0.475    0.252    9.262
  808.497   77.261    0.484    0.255    8.999
  809.318   77.439    0.490    0.259    8.882
  810.138   76.984    0.489    0.265    8.931
  810.958   75.985    0.482    0.269    8.803
  811.778   75.574    0.478    0.270    8.725
  812.598   75.163    0.482    0.269    8.577
  813.419   75.974    0.488    0.261    8.624
  814.239   76.196    0.496    0.252    8.512
  815.059   74.064    0.505    0.252    8.413
  815.879   73.021    0.513    0.254    8.448
  816.699   72.521    0.523    0.256    8.338
  817.520   73.376    0.526    0.262    8.079
  818.340   76.540    0.526    0.269    7.850
  819.160   80.837    0.518    0.272    7.738
  819.980   83.324    0.513    0.268    7.370
  820.801   88.842    0.516    0.263    7.254
  821.621   93.816    0.520    0.260    6.774
  822.441   95.759    0.525    0.254    6.452
  823.261   97.702    0.531    0.250    6.136
  824.081   99.057    0.539    0.249    5.632
  824.902  101.000    0.545    0.245    5.442
  825.722  102.399    0.550    0.242    5.184
  826.542  103.165    0.552    0.241    5.205
  827.362  102.210    0.549    0.239    5.241
  828.182   99.490    0.543    0.234    5.270
  829.003   98.402    0.531    0.230    5.698
  829.823   96.181    0.515    0.224    6.904
  830.643   84.546    0.496    0.215    8.681
  831.463   81.781    0.478    0.209   10.518
  832.283   78.384    0.466    0.199   12.511
  833.104   76.841    0.446    0.188   14.607
  833.924   80.549    0.416    0.178   15.817
  834.744   87.832    0.448    0.218   16.858
  835.564   93.983    0.470    0.227   16.927
  836.385   95.882    0.478    0.227   16.424
  837.205   93.117    0.477    0.224   15.914
  838.025   91.030    0.469    0.223   15.137
  838.845   91.752    0.464    0.221   14.378
  839.665   93.650    0.465    0.218   13.931
  840.486   99.757    0.472    0.214   14.008
  841.306  105.275    0.477    0.215   13.845
  842.126  105.497    0.476    0.217   13.647
  842.946   94.494    0.471    0.219   12.998
  843.766   92.818    0.464    0.221   12.595
  844.587   88.244    0.462    0.223   11.996
  845.407   78.373    0.462    0.228   11.808
  846.227   71.445    0.466    0.231   11.457
  847.047   59.221    0.466    0.234   11.954
  847.867   54.059    0.467    0.240   13.204
  848.688   51.294    0.467    0.243   14.277
  849.508   52.105    0.465    0.256   17.299
  850.328   54.680    0.464    0.288   18.757
  851.148   57.212    0.463    0.292   18.199
  851.969   60.376    0.462    0.293   17.287
  852.789   62.863    0.457    0.296   15.867
  853.609   64.307    0.453    0.289   15.071
  854.429   65.706    0.459    0.273   13.579
  855.249   68.781    0.463    0.259   12.881
  856.070   74.255    0.467    0.259   12.027
  856.890   75.698    0.475    0.259   11.230
  857.710   75.787    0.481    0.258   10.500
  858.530   80.173    0.480    0.258   10.146
  859.350   82.071    0.477    0.254    9.312
  860.171   87.045    0.473    0.249    8.998
  860.991   91.342    0.469    0.239    8.119
  861.811   95.683    0.467    0.229    7.701
  862.631   98.847    0.476    0.225    7.059
  863.451  100.202    0.482    0.227    6.591
  864.272  101.601    0.488    0.229    5.930
  865.092  102.956    0.493    0.230    5.738
  865.912  104.310    0.496    0.228    5.170
  866.732  103.855    0.501    0.226    5.003
  867.552  102.856    0.503    0.222    4.592
  868.373  100.724    0.505    0.219    4.443
  869.193   98.548    0.507    0.216    4.232
  870.013   96.960    0.508    0.212    4.095
  870.833   98.315    0.506    0.209    3.900
  871.654  100.302    0.503    0.204    3.784
  872.474  101.657    0.502    0.193    3.794
  873.294  101.202    0.505    0.206    3.745
  874.114  100.203    0.517    0.230    3.841
  874.934   97.482    0.524    0.241    3.857
  875.755   95.806    0.529    0.243    3.878
  876.575   91.909    0.525    0.237    3.828
  877.395   89.100    0.516    0.227    3.849
  878.215   85.159    0.504    0.218    3.804
  879.035   81.761    0.491    0.209    3.825
  879.856   75.466    0.480    0.205    4.142
  880.676   72.657    0.479    0.207    4.660
  881.496   68.127    0.483    0.216    5.536
  882.316   65.318    0.486    0.239    8.704
  883.136   63.730    0.494    0.245    9.450
  883.957   62.731    0.498    0.268   10.219
  884.777   65.940    0.495    0.277   12.613
  885.597   68.472    0.485    0.288   18.078
  886.417   72.768    0.471    0.297   24.935
  887.238   75.888    0.463    0.304   29.155
  888.058   79.641    0.451    0.307   27.185
  888.878   83.982    0.457    0.312   25.348
  889.698   86.514    0.467    0.311   23.234
  890.518   87.868    0.492    0.306   18.682
  891.339   87.502    0.521    0.299   12.254
  892.159   85.914    0.540    0.286    6.301
  892.979   83.694    0.553    0.271    4.882
  893.799   70.925    0.551    0.250    4.571
  894.619   69.926    0.534    0.235    4.769
  895.440   69.471    0.450    0.237    4.983
  896.260   69.649    0.440    0.241    5.185
  897.080   70.459    0.435    0.247    6.055
  897.900   71.270    0.425    0.244    8.666
  898.720   71.359    0.421    0.237   13.131
  899.541   72.214    0.442    0.231   20.267
  900.361   72.935    0.475    0.223   22.804
  901.181   73.746    0.493    0.220   22.509
  902.001   73.291    0.514    0.226   21.439
  902.822   72.292    0.528    0.244   21.161
  903.642   71.925    0.531    0.252   20.858
  904.462   72.103    0.531    0.262   20.973
  905.282   72.325    0.530    0.266   21.088
  906.102   72.503    0.534    0.243   22.476
  906.923   72.680    0.537    0.231   23.452
  907.743   72.270    0.538    0.224   24.021
  908.563   71.814    0.540    0.207   24.153
  909.383   70.815    0.542    0.191   24.286
  910.203   70.404    0.541    0.124   24.419
  911.024   70.626    0.542    0.095   24.587
  911.844   70.804    0.543    0.080   24.654
  912.664   70.982    0.544    0.069   24.401
  913.484   71.159    0.544    0.058   24.569
  914.304   71.337    0.543    0.051   24.636
