~VERSION INFORMATION
 VERS.                 2.0:   CWLS LOG ASCII STANDARD -VERSION 2.0
 WRAP.                  NO:   ONE LINE PER DEPTH STEP
~WELL INFORMATION BLOCK
#MNEM.UNIT           DATA                    DESCRIPTION OF MNEMONIC
#---------    -------------------            -------------------------------
# Generated from Intellog Unique Number	CW_70_72/WELL/993
NULL.         -999.25                        : NULL_VALUE
WELL.         NORCEN ET AL VICTOR 08-01      : Well_name    - WELL              
LOC .         08-01-071-02W5                 : Location     - LOCATION          
UWI .         00/08-01-071-02W5/0            : Uwi          - UNIQUE WELL ID    
ENTR.         JAYE                           : Entered      - ENTERED BY        
SRVC.         COMPUTALOG                     : Scn          - SERVICE COMPANY   
DATE.         7 JUNE 82                      : Date         - LOG DATE          
STRT.M        375                            : top_depth    - START DEPTH       
STOP.M        625                            : bot_depth    - STOP DEPTH        
STEP.M        0.25                           : increment    - STEP LENGTH       
~CURVE INFORMATION BLOCK
#MNEM UNIT       ERCB CURVE CODE    CURVE DESCRIPTION
#-----------   ------------------   ----------------------------------
DEPT.M        00 001 00 00         : DEPTH        - DEPTH                       
DPHI.V/V      00 890 00 00         : PHID         - DENSITY POROSITY (SANDSTONE)
NPHI.V/V      00 330 00 00         : PHIN         - NEUTRON POROSITY (SANDSTONE)
GR  .API      00 310 00 00         : GR           - GAMMA RAY                   
CALI.MM       00 280 01 00         : CAL          - CALIPER                     
ILD .OHMM     00 120 00 00         : RESD         - DEEP RESISTIVITY (DIL)      
~PARAMETER INFORMATION       
#MNEM.UNIT           DATA             DESCRIPTION OF MNEMONIC
#---------         -----------     ------------------------------
GL  .M        593.49               : gl           - GROUND LEVEL ELEVATION      
EREF.M        597.61               : kb           - ELEVATION OF DEPTH REFERENCE
DATM.M        593.49               : datum        - DATUM ELEVATION             
TDD .M        655                  : tdd          - TOTAL DEPTH DRILLER         
RUN .         ONE                  : Run          - RUN NUMBER                  
ENG .         SVRCEK               : Engineer     - RECORDING ENGINEER          
WIT .         BOGNER/MOORE         : Witness      - WITNESSED BY                
BASE.         EDM                  : Branch       - HOME BASE OF LOGGING UNIT   
MUD .         GEL CHEM             : Mud_type     - MUD TYPE                    
MATR.         SANDSTONE            : Logunit      - NEUTRON MATRIX              
TMAX.C        31                   : BHT          - MAXIMUM RECORDED TEMPERATURE
BHTD.M        654.7                : BHTDEP       - MAXIMUM RECORDED TEMPERATURE
RMT .C        15.5                 : MDTP         - TEMPERATURE OF MUD          
MUDD.KG/M     1130                 : MWT          - MUD DENSITY                 
NEUT.         1                    : NEUTRON      - NEUTRON TYPE                
RESI.         0                    : RESIST       - RESISTIVITY TYPE            
RM  .OHMM     2.4                  : RM           - RESISTIVITY OF MUD          
RMC .OHMM     2.1                  : RMC          - RESISTIVITY OF MUD CAKE     
RMF .OHMM     2.05                 : RMF          - RESISTIVITY OF MUD FILTRATE 
SUFT.C        0                    : SUFT         - SURFACE TEMPERATURE         
~A  DEPTH     PHID     PHIN       GR      CAL     RESD
  375.000    0.243    0.473  120.677  214.039    3.204
  375.250    0.231    0.470  119.995  218.306    3.274
  375.500    0.269    0.436  118.887  220.520    3.277
  375.750    0.291    0.423   96.975  220.515    3.274
  376.000    0.289    0.379   75.000  218.139    3.259
  376.250    0.274    0.334   36.026  208.390    3.251
  376.500    0.316    0.348   28.686  204.255    3.265
  376.750    0.442    0.359   22.405  203.526    3.301
  377.000    0.451    0.317   21.786  203.342    3.361
  377.250    0.437    0.297   30.198  203.550    3.378
  377.500    0.379    0.317   40.046  203.787    3.312
  377.750    0.357    0.351   51.324  204.525    3.192
  378.000    0.290    0.353   60.174  200.385    3.031
  378.250    0.267    0.357   62.050  194.168    2.889
  378.500    0.260    0.385   47.111  191.271    2.779
  378.750    0.268    0.402   38.962  191.186    2.725
  379.000    0.275    0.299   30.623  192.963    2.587
  379.250    0.273    0.271   22.976  196.082    2.485
  379.500    0.277    0.274   29.146  199.731    2.324
  379.750    0.275    0.322   40.052  202.749    2.224
  380.000    0.265    0.413   58.242  204.113    2.148
  380.250    0.270    0.340   35.769  203.920    2.106
  380.500    0.277    0.310   29.608  202.472    2.096
  380.750    0.283    0.334   30.117  201.142    2.098
  381.000    0.288    0.356   36.344  201.154    2.100
  381.250    0.290    0.348   37.228  199.398    2.114
  381.500    0.289    0.319   35.495  195.677    2.116
  381.750    0.286    0.331   37.177  194.854    2.126
  382.000    0.279    0.360   38.744  193.831    2.129
  382.250    0.276    0.349   38.752  192.808    2.147
  382.500    0.279    0.315   39.314  192.808    2.162
  382.750    0.273    0.334   39.306  193.543    2.189
  383.000    0.267    0.358   41.264  194.394    2.228
  383.250    0.263    0.342   47.935  195.139    2.321
  383.500    0.256    0.286   56.723  195.877    2.449
  383.750    0.299    0.263   64.017  196.923    2.580
  384.000    0.412    0.396   70.372  200.047    2.790
  384.250    0.404    0.404   77.230  204.424    3.030
  384.500    0.353    0.337   68.448  213.880    3.514
  384.750    0.302    0.315   63.299  218.242    3.909
  385.000    0.286    0.316   67.913  215.248    4.056
  385.250    0.293    0.375   74.517  214.434    3.902
  385.500    0.280    0.402   82.934  215.066    3.741
  385.750    0.292    0.404   89.605  213.526    3.552
  386.000    0.300    0.377   86.809  210.006    3.290
  386.250    0.289    0.352   69.190  205.548    3.078
  386.500    0.264    0.387   59.300  202.757    2.878
  386.750    0.258    0.391   51.401  201.519    2.744
  387.000    0.268    0.307   43.248  200.920    2.640
  387.250    0.269    0.262   39.646  201.040    2.569
  387.500    0.257    0.275   52.040  201.356    2.533
  387.750    0.235    0.391   58.339  201.978    2.517
  388.000    0.240    0.409   62.640  201.994    2.495
  388.250    0.263    0.379   65.264  202.230    2.488
  388.500    0.259    0.370   69.260  202.131    2.472
  388.750    0.245    0.421   71.816  201.626    2.466
  389.000    0.268    0.407   63.730  200.916    2.468
  389.250    0.277    0.365   64.291  200.303    2.466
  389.500    0.267    0.423   67.852  200.109    2.483
  389.750    0.253    0.423   71.411  196.490    2.537
  390.000    0.239    0.401   75.714  191.933    2.598
  390.250    0.231    0.375   81.826  192.881    2.691
  390.500    0.233    0.342   84.259  194.550    2.813
  390.750    0.265    0.330   79.967  192.178    2.969
  391.000    0.311    0.378   79.476  192.600    3.205
  391.250    0.352    0.403   80.718  196.975    3.376
  391.500    0.327    0.394   81.677  203.831    3.516
  391.750    0.293    0.375   83.428  212.146    3.586
  392.000    0.268    0.360   87.288  217.973    3.617
  392.250    0.242    0.347   91.475  217.466    3.573
  392.500    0.217    0.337   95.717  212.909    3.457
  392.750    0.201    0.330   93.100  208.458    3.346
  393.000    0.191    0.352   92.181  208.679    3.225
  393.250    0.190    0.421   93.367  216.169    3.115
  393.500    0.194    0.439   95.611  225.627    2.974
  393.750    0.219    0.419   98.298  229.168    2.873
  394.000    0.242    0.407  101.298  232.808    2.758
  394.250    0.253    0.407  102.798  238.112    2.694
  394.500    0.239    0.427  100.997  243.207    2.607
  394.750    0.222    0.440   96.709  243.329    2.571
  395.000    0.209    0.344   96.033  240.729    2.516
  395.250    0.209    0.387   99.282  238.053    2.505
  395.500    0.228    0.451  102.340  234.335    2.497
  395.750    0.250    0.411  101.400  230.197    2.477
  396.000    0.274    0.416  101.107  225.628    2.442
  396.250    0.357    0.471  101.238  223.992    2.385
  396.500    0.394    0.524  101.305  225.460    2.308
  396.750    0.389    0.475  100.691  231.279    2.208
  397.000    0.376    0.459  101.321  243.220    2.081
  397.250    0.353    0.434  102.577  244.584    1.991
  397.500    0.335    0.407  100.772  238.377    1.937
  397.750    0.357    0.458   96.490  232.466    1.914
  398.000    0.365    0.499   98.427  233.831    1.912
  398.250    0.357    0.533  101.734  241.102    1.925
  398.500    0.338    0.476   99.870  249.631    1.941
  398.750    0.323    0.378   97.570  239.677    1.947
  399.000    0.324    0.436   96.204  228.265    1.946
  399.250    0.365    0.498   95.159  230.358    1.933
  399.500    0.343    0.533   94.238  237.121    1.895
  399.750    0.340    0.552   93.118  245.123    1.854
  400.000    0.353    0.558   91.075  251.780    1.818
  400.250    0.363    0.528   88.401  251.172    1.796
  400.500    0.375    0.520   89.157  252.633    1.798
  400.750    0.384    0.513   91.334  251.711    1.834
  401.000    0.347    0.501   94.021  257.225    1.896
  401.250    0.364    0.476   97.396  259.411    1.960
  401.500    0.391    0.480  100.022  258.079    2.019
  401.750    0.423    0.484  100.529  257.258    2.059
  402.000    0.436    0.469   99.598  257.576    2.093
  402.250    0.424    0.449   97.609  257.904    2.159
  402.500    0.426    0.456   96.435  257.507    2.223
  402.750    0.421    0.521   95.578  256.687    2.289
  403.000    0.379    0.481   97.265  253.478    2.327
  403.250    0.304    0.423  101.005  241.870    2.360
  403.500    0.271    0.399  100.575  229.323    2.376
  403.750    0.259    0.457  101.831  233.693    2.401
  404.000    0.269    0.483  105.511  238.272    2.417
  404.250    0.271    0.479  106.138  240.044    2.415
  404.500    0.264    0.456  106.145  245.563    2.403
  404.750    0.265    0.460  105.596  250.870    2.397
  405.000    0.266    0.475  103.979  251.704    2.400
  405.250    0.248    0.461  102.935  247.772    2.398
  405.500    0.237    0.458  102.754  242.588    2.377
  405.750    0.232    0.479  103.260  242.300    2.371
  406.000    0.238    0.454  104.197  247.500    2.373
  406.250    0.258    0.421  104.706  249.068    2.376
  406.500    0.302    0.395  105.085  248.452    2.387
  406.750    0.328    0.428  105.032  246.396    2.394
  407.000    0.341    0.455  104.478  238.421    2.429
  407.250    0.370    0.454  102.557  227.632    2.483
  407.500    0.396    0.442   99.261  233.668    2.547
  407.750    0.374    0.487   97.590  247.483    2.583
  408.000    0.360    0.494   97.161  250.608    2.610
  408.250    0.387    0.478   97.542  243.661    2.598
  408.500    0.396    0.454  101.842  236.609    2.577
  408.750    0.390    0.422   96.932  232.474    2.536
  409.000    0.332    0.406   89.340  229.279    2.501
  409.250    0.277    0.405   84.614  218.291    2.489
  409.500    0.269    0.417   82.570  220.582    2.515
  409.750    0.263    0.396   84.500  219.450    2.600
  410.000    0.256    0.381   82.516  205.769    2.733
  410.250    0.243    0.378   79.599  199.654    2.962
  410.500    0.220    0.349   76.371  198.416    3.246
  410.750    0.188    0.314   72.268  198.538    3.531
  411.000    0.152    0.296   68.164  199.795    3.698
  411.250    0.190    0.338   75.023  200.943    3.653
