~VERSION INFORMATION
 VERS.                 2.0:   CWLS LOG ASCII STANDARD -VERSION 2.0
 WRAP.                  NO:   ONE LINE PER DEPTH STEP
~WELL INFORMATION BLOCK
#MNEM.UNIT           DATA                    DESCRIPTION OF MNEMONIC
#---------    -------------------            -------------------------------
# Generated from Intellog Unique Number	CN_91_93/WELL/2827
WELL.         PARAMOUNT RESOURCES LTD.       : Well_name    - WELL
LOC .         00/06-03-093-20W4/0            : Location     - LOCATION
UWI .         00/06-03-093-20W4/0            : Uwi          - UNIQUE WELL ID
ENTR.         JOETTE                         : Entered      - ENTERED BY
SRVC.         COMPUTALOG                     : Scn          - SERVICE COMPANY
DATE.         03/27/92                       : Date         - LOG DATE
STRT.M        180                            : top_depth    - START DEPTH
STOP.M        230                            : bot_depth    - STOP DEPTH
STEP.M        0.25                           : increment    - STEP LENGTH
 NULL. -999.2500:NULL Value
~CURVE INFORMATION BLOCK
#MNEM UNIT       ERCB CURVE CODE    CURVE DESCRIPTION
#-----------   ------------------   ----------------------------------
DEPT.M        00 001 00 00         : DEPTH        - DEPTH
CALI.MM       00 280 01 00         : CAL          - CALIPER
GR  .API      00 310 00 00         : GR           - GAMMA RAY
NPHI.V/V      00 330 00 00         : PHIN         - NEUTRON POROSITY (SANDSTONE)
DPHI.V/V      00 890 00 00         : PHID         - DENSITY POROSITY (SANDSTONE)
ILD .OHMM     00 120 00 00         : RESD         - DEEP RESISTIVITY (DIL)
~PARAMETER INFORMATION
#MNEM.UNIT           DATA             DESCRIPTION OF MNEMONIC
#---------         -----------     ------------------------------
GL  .M        525.7                : gl           - GROUND LEVEL ELEVATION
EREF.M        529                  : kb           - ELEVATION OF DEPTH REFERENCE
DATM.M        529                  : datum        - DATUM ELEVATION
TDD .M        230                  : tdd          - TOTAL DEPTH DRILLER
RUN .         ONE                  : Run          - RUN NUMBER
ENG .         JO                   : Engineer     - RECORDING ENGINEER
WIT .         TIM                  : Witness      - WITNESSED BY
MUD .         GEL                  : Mud_type     - MUD TYPE
MATR.         SANDSTONE            : Logunit      - NEUTRON MATRIX
TMAX.C        17.8                 : BHT          - MAXIMUM RECORDED TEMPERATURE
BHTD.M        230                  : BHTDEP       - MAXIMUM RECORDED TEMPERATURE
RMT .C        9.2                  : MDTP         - TEMPERATURE OF MUD
MUDD.KG/M     1102                 : MWT          - MUD DENSITY
NEUT.         1                    : NEUTRON      - NEUTRON TYPE
RESI.         0                    : RESIST       - RESISTIVITY TYPE
RM  .OHMM     3.5                  : RM           - RESISTIVITY OF MUD
RMC .OHMM     3.5                  : RMC          - RESISTIVITY OF MUD CAKE
RMF .OHMM     3.5                  : RMF          - RESISTIVITY OF MUD FILTRATE
SUFT.C        4                    : SUFT         - SURFACE TEMPERATURE
~A  DEPTH      CAL       GR     PHIN     PHID     RESD
  180.000  158.675   70.326    0.258    0.152    1.248
  180.250  165.233   78.184    0.284    0.194    1.146
  180.500  168.264   77.588    0.298    0.199    4.438
  180.750  170.293   83.030    0.275    0.205    6.232
  181.000  171.310   73.380    0.281    0.207    6.978
  181.250  171.830   92.405    0.279    0.197    7.225
  181.500  169.832   89.395    0.254    0.202    7.672
  181.750  170.354   76.727    0.257    0.189    8.119
  182.000  171.874   70.398    0.259    0.096    8.665
  182.250  173.400   68.899    0.197    0.073    9.211
  182.500  174.419   76.454    0.203    0.124    9.359
  182.750  174.434   84.611    0.235    0.149    9.156
  183.000  173.948   82.811    0.294    0.105    8.554
  183.250  172.954   76.179    0.269    0.101    8.053
  183.500  171.460   74.376    0.314    0.134    7.551
  183.750  170.976   70.764    0.342    0.149    6.051
  184.000  171.492   68.659    0.334    0.134    5.998
  184.250  172.011   72.894    0.293    0.146    6.096
  184.500  172.024   81.054    0.315    0.170    5.793
  184.750  172.544   85.287    0.324    0.181    5.542
  185.000  172.056   84.994    0.331    0.186    5.339
  185.250  170.561   72.025    0.246    0.141    5.336
  185.500  169.065   67.808    0.206    0.125    5.583
  185.750  168.074   65.402    0.219    0.157    5.981
  186.000  168.093   61.792    0.239    0.184    6.677
  186.250  168.105   60.592    0.259    0.186    7.323
  186.500  166.615   66.636    0.227    0.075    8.219
  186.750  165.622   70.569    0.185    0.028    9.015
  187.000  165.132   57.901    0.143    0.113    8.813
  187.250  165.651   69.079    0.199    0.169    8.610
  187.500  167.678   74.522    0.255    0.198    8.757
  187.750  169.200   71.813    0.287    0.188    8.406
  188.000  171.229   80.273    0.303    0.189    7.654
  188.250  173.759   80.283    0.300    0.183    7.253
  188.500  177.295   81.801    0.310    0.178    7.000
  188.750  178.819   86.036    0.291    0.180    7.047
  189.000  180.345   82.423    0.307    0.177    7.095
  189.250  181.869   73.980    0.293    0.172    6.892
  189.500  182.888   69.462    0.295    0.174    6.840
  189.750  183.406   67.358    0.307    0.173    6.887
  190.000  182.919   77.930    0.292    0.177    6.935
  190.250  180.924   85.485    0.300    0.186    6.832
  190.500  178.925   86.399    0.299    0.172    6.431
  190.750  176.931   81.277    0.315    0.171    6.128
  191.000  175.437   91.851    0.321    0.172    5.726
  191.250  174.442   84.616    0.306    0.161    5.774
  191.500  172.949   73.458    0.241    0.098    6.071
  191.750  171.457   64.715    0.181    0.052    6.617
  192.000  169.963   64.421    0.203    0.112    7.114
  192.250  168.465   77.408    0.284    0.149    7.111
  192.500  166.473   82.548    0.333    0.179    7.508
  192.750  165.478   84.971    0.344    0.168    7.705
  193.000  163.986   68.078    0.293    0.159    7.153
  193.250  162.996   60.240    0.252    0.168    6.002
  193.500  164.518   74.133    0.301    0.192    4.852
  193.750  170.568   87.422    0.358    0.204    4.300
  194.000  174.609   88.035    0.420    0.183    3.798
  194.250  175.629   86.233    0.378    0.177    3.496
  194.500  176.650   75.980    0.297    0.153    3.494
  194.750  178.176   65.123    0.256    0.116    3.690
  195.000  178.696   58.492    0.287    0.130    4.237
  195.250  179.715   66.952    0.314    0.118    4.933
  195.500  179.728   72.998    0.327    0.093    4.831
  195.750  179.743   63.350    0.320    0.096    5.877
  196.000  178.753   70.300    0.311    0.131    5.674
  196.250  178.267   74.836    0.293    0.134    5.372
  196.500  178.278   74.241    0.319    0.163    5.320
  196.750  177.792   79.381    0.349    0.183    5.517
  197.000  177.806   77.881    0.368    0.187    5.614
  197.250  176.817   79.399    0.388    0.167    5.511
  197.500  175.323   80.013    0.367    0.138    5.459
  197.750  173.325   65.836    0.216    0.116    5.606
  198.000  171.326   68.259    0.200    0.111    6.153
  198.250  168.325   75.815    0.183    0.068    7.748
  198.500  166.325   65.259    0.146   -0.006    8.494
  198.750  163.324   55.609    0.095    0.027    9.939
  199.000  161.327   70.107    0.147    0.091   10.436
  199.250  160.335   78.567    0.214    0.148   10.083
  199.500  159.344   86.121    0.279    0.172    9.881
  199.750  157.852   79.490    0.261    0.186    9.579
  200.000  155.852   88.252    0.260    0.181    8.628
  200.250  153.857   89.468    0.278    0.187    7.926
  200.500  152.864   88.873    0.280    0.182    7.824
  200.750  152.377   85.562    0.281    0.163    8.071
  201.000  151.889   78.931    0.262    0.136    8.069
  201.250  151.889   83.769    0.231    0.126    7.966
  201.500  151.921   91.929    0.239    0.137    7.914
  201.750  151.434   88.617    0.249    0.152    7.861
  202.000  150.944   78.062    0.169    0.100    7.858
  202.250  150.957   69.318    0.113    0.020    8.256
  202.500  151.477   61.178    0.096   -0.009    9.451
  202.750  152.498   60.885    0.139    0.053   10.996
  203.000  153.519   67.232    0.224    0.138   12.441
  203.250  154.037   79.917    0.252    0.203   13.286
  203.500  154.055   75.701    0.274    0.185   13.035
  203.750  154.066   73.295    0.297    0.181   11.983
  204.000  154.094   79.643    0.295    0.185   11.033
  204.250  154.603   69.088    0.284    0.130   10.331
  204.500  154.603   66.683    0.263    0.073    9.780
  204.750  153.632   64.277    0.135    0.043   10.177
  205.000  152.635   58.551    0.129    0.058   12.570
  205.250  151.640   53.429    0.164    0.178   13.566
  205.500  151.655   55.250    0.236    0.197   14.362
  205.750  152.679   64.011    0.258    0.194   14.110
  206.000  154.201   70.057    0.269    0.173   13.159
  206.250  155.226   74.594    0.225    0.151   11.858
  206.500  155.742   68.264    0.248    0.143   10.558
  206.750  155.755   62.236    0.278    0.144    9.906
  207.000  155.772   74.923    0.216    0.106    9.404
  207.250  155.786   68.291    0.191    0.016    9.002
  207.500  154.294   62.867    0.243    0.108    8.500
  207.750  150.787   72.836    0.285    0.151    8.049
  208.000  149.794   80.692    0.307    0.183    7.247
  208.250  153.835   77.685    0.285    0.175    6.795
  208.500  155.860   80.107    0.270    0.171    6.942
  208.750  156.883   86.756    0.307    0.175    6.540
  209.000  157.399   81.937    0.336    0.178    6.039
  209.250  156.913   82.248    0.330    0.101    5.786
  209.500  156.426   65.052    0.286    0.064    5.934
  209.750  156.438   72.606    0.271    0.140    6.381
  210.000  156.454   76.238    0.279    0.134    6.478
  210.250  156.454   78.963    0.283    0.151    6.275
  210.500  156.493   85.612    0.307    0.155    6.123
  210.750  156.500   85.923    0.315    0.139    6.121
  211.000  156.517   81.406    0.314    0.140    6.168
  211.250  156.528   89.261    0.317    0.156    6.265
  211.500  156.545   82.630    0.303    0.138    6.163
  211.750  156.055   82.638    0.290    0.130    5.960
  212.000  153.556   95.929    0.276    0.113    5.958
  212.250  150.555   72.394    0.251    0.134    6.155
  212.500  150.570   67.876    0.277    0.155    6.052
  212.750  153.601   86.297    0.304    0.150    5.750
  213.000  156.133   87.213    0.316    0.110    5.648
  213.250  156.649   80.580    0.295    0.132    5.596
  213.500  157.166   81.495    0.313    0.162    5.443
  213.750  157.183   88.747    0.323    0.168    5.141
  214.000  157.198   98.717    0.320    0.165    5.039
  214.250  157.216   98.123    0.296    0.162    5.236
  214.500  157.231   98.735    0.313    0.158    5.283
  214.750  157.246   84.558    0.300    0.158    5.081
  215.000  156.756   90.001    0.306    0.142    5.527
  215.250  154.761   85.783    0.269    0.106    6.374
  215.500  154.270   79.454    0.217    0.123    6.969
  215.750  154.788   92.743    0.313    0.155    6.917
  216.000  156.312   99.392    0.323    0.147    6.765
  216.250  156.828   87.932    0.275    0.237    6.663
