~VERSION INFORMATION
 VERS.                 2.0:   CWLS LOG ASCII STANDARD -VERSION 2.0
 WRAP.                  NO:   ONE LINE PER DEPTH STEP
~WELL INFORMATION BLOCK
#MNEM.UNIT           DATA                    DESCRIPTION OF MNEMONIC
#---------    -------------------            -------------------------------
# Generated from Intellog Unique Number	CS_73_76/WELL/1999
WELL.         HOME OIL COMPANY LIMITED       : Well_name    - WELL
LOC .         00/06-36-075-06W4/0            : Location     - LOCATION
UWI .         00/06-36-075-06W4/0            : Uwi          - UNIQUE WELL ID
ENTR.         SP                             : Entered      - ENTERED BY
SRVC.         SCHLUMBERGER                   : Scn          - SERVICE COMPANY
STRT.M        195                            : top_depth    - START DEPTH
STOP.M        425                            : bot_depth    - STOP DEPTH
STEP.M        0.25                           : increment    - STEP LENGTH
 NULL. -999.2500:NULL Value
~CURVE INFORMATION BLOCK
#MNEM UNIT       ERCB CURVE CODE    CURVE DESCRIPTION
#-----------   ------------------   ----------------------------------
DEPT.M        00 001 00 00         : DEPTH        - DEPTH
ILD .OHMM     00 120 00 00         : RESD         - DEEP RESISTIVITY (DIL)
DPHI.V/V      00 890 00 00         : PHID         - DENSITY POROSITY (LIMESTONE)
NPHI.V/V      00 330 00 00         : PHIN         - NEUTRON POROSITY (LIMESTONE)
GR  .API      00 310 00 00         : GR           - GAMMA RAY
~PARAMETER INFORMATION
#MNEM.UNIT           DATA             DESCRIPTION OF MNEMONIC
#---------         -----------     ------------------------------
GL  .M        608.8                : gl           - GROUND LEVEL ELEVATION
EREF.M        612.3                : kb           - ELEVATION OF DEPTH REFERENCE
DATM.M        608.8                : datum        - DATUM ELEVATION
TDD .M        440                  : tdd          - TOTAL DEPTH DRILLER
RUN .         ONE                  : Run          - RUN NUMBER
ENG .         BILL                 : Engineer     - RECORDING ENGINEER
WIT .         JIM                  : Witness      - WITNESSED BY
MUD .         GEL                  : Mud_type     - MUD TYPE
MATR.         LIMESTONE            : Logunit      - NEUTRON MATRIX
TMAX.C        18                   : BHT          - MAXIMUM RECORDED TEMPERATURE
BHTD.M        440                  : BHTDEP       - MAXIMUM RECORDED TEMPERATURE
MATR.         1                    : LOGUNIT      - NEUTRON MATRIX
RMT .C        25                   : MDTP         - TEMPERATURE OF MUD
NEUT.         1                    : NEUTRON      - NEUTRON TYPE
RESI.         0                    : RESIST       - RESISTIVITY TYPE
RMC .OHMM     0.25                 : RMC          - RESISTIVITY OF MUD CAKE
RMF .OHMM     0.25                 : RMF          - RESISTIVITY OF MUD FILTRATE
SUFT.C        15                   : SUFT         - SURFACE TEMPERATURE
~A  DEPTH     RESD     PHID     PHIN       GR
# ...
  238.500   17.139    0.283    0.411   90.144
  238.750   16.213    0.272    0.403   91.350
  239.000   15.917    0.245    0.413   93.762
  239.250   15.338    0.247    0.417   97.379
  239.500   14.781    0.254    0.414   99.790
  239.750   13.727    0.242    0.413  102.805
  240.000   12.747    0.226    0.413  107.024
  240.250   11.620    0.212    0.419  113.050
  240.500   10.791    0.206    0.434  115.461
  240.750   10.021    0.223    0.449  119.681
  241.000    9.306    0.250    0.454  120.285
  241.250    8.968    0.231    0.470  112.458
  241.500    8.642    0.224    0.477  109.448
  241.750    8.484    0.232    0.479  107.642
  242.000    8.329    0.230    0.470  107.042
  242.250    8.329    0.240    0.467  107.044
  242.500    8.970    0.249    0.460  107.045
  242.750    9.483    0.234    0.450  105.843
  243.000   10.403    0.244    0.440  103.436
  243.250   11.204    0.248    0.425   98.619
  243.500   11.844    0.252    0.415   96.813
  243.750   12.522    0.262    0.411   99.225
  244.000   12.756    0.268    0.420  102.843
  244.250   12.757    0.255    0.432  105.254
  244.500   12.757    0.250    0.444  105.859
  244.750   12.524    0.258    0.437  104.657
  245.000   12.069    0.255    0.432  104.659
  245.250   11.848    0.231    0.432  105.263
  245.500   11.849    0.217    0.435  105.265
  245.750   11.849    0.208    0.443  102.255
  246.000   12.071    0.241    0.449   95.632
  246.250   12.762    0.259    0.402   92.018
  246.500   13.244    0.282    0.366   85.394
  246.750   14.529    0.294    0.364   75.758
  247.000   15.647    0.283    0.379   70.941
  247.250   16.851    0.260    0.389   67.328
  247.500   17.487    0.248    0.383   63.716
  247.750   16.852    0.272    0.393   63.718
  248.000   15.650    0.256    0.405   72.757
  248.250   15.082    0.256    0.426   75.771
  248.500   14.805    0.279    0.439   72.762
  248.750   15.652    0.288    0.420   69.751
  249.000   15.945    0.303    0.400   67.343
  249.250   16.857    0.278    0.394   64.936
  249.500   17.173    0.285    0.415   68.554
  249.750   17.174    0.298    0.409   69.760
  250.000   16.859    0.294    0.395   70.365
  250.250   16.550    0.274    0.388   76.993
  250.500   15.370    0.259    0.383   84.225
  250.750   13.754    0.242    0.394   87.841
  251.000   13.011    0.230    0.411   88.445
  251.250   11.643    0.238    0.423   87.846
  251.500   10.812    0.248    0.423   86.642
  251.750   10.229    0.258    0.427   81.826
  252.000   10.041    0.262    0.427   80.623
  252.250    9.858    0.247    0.413   80.023
  252.500   10.042    0.265    0.400   80.025
  252.750   10.230    0.265    0.391   79.425
  253.000   10.231    0.251    0.391   78.824
  253.250   10.231    0.278    0.408   77.622
  253.500   10.044    0.288    0.417   75.818
  253.750    9.679    0.304    0.429   74.615
  254.000    9.680    0.309    0.439   74.014
  254.250    9.503    0.313    0.436   73.414
  254.500    9.329    0.312    0.435   73.417
  254.750    9.329    0.297    0.439   74.021
  255.000    9.329    0.271    0.444   73.421
  255.250    9.330    0.229    0.421   69.809
  255.500    9.159    0.215    0.409   66.798
  255.750    9.159    0.254    0.425   60.776
  256.000    9.160    0.316    0.432   58.369
  256.250    9.160    0.331    0.443   58.973
  256.500    9.161    0.336    0.447   59.578
  256.750    9.161    0.330    0.437   59.581
  257.000    9.162    0.324    0.429   60.186
  257.250    9.162    0.325    0.436   60.789
  257.500    9.162    0.334    0.435   61.394
  257.750    9.163    0.338    0.433   61.397
  258.000    9.163    0.342    0.429   61.398
  258.250    8.996    0.338    0.426   62.003
  258.500    8.831    0.321    0.425   61.404
  258.750    8.831    0.325    0.437   59.599
  259.000    8.832    0.324    0.442   58.998
  259.250    8.832    0.327    0.431   57.193
  259.500    8.833    0.334    0.424   58.400
  259.750    8.671    0.344    0.433   60.813
  260.000    8.671    0.340    0.436   61.417
  260.250    8.672    0.332    0.428   60.214
  260.500    8.513    0.332    0.424   58.409
  260.750    8.513    0.340    0.412   57.206
  261.000    8.514    0.333    0.406   57.810
  261.250    8.514    0.333    0.413   59.620
  261.500    8.358    0.336    0.420   60.224
  261.750    8.358    0.338    0.433   60.830
  262.000    8.359    0.340    0.445   60.831
  262.250    8.206    0.350    0.451   58.424
  262.500    8.206    0.349    0.439   57.221
  262.750    8.207    0.350    0.432   57.826
  263.000    8.207    0.356    0.436   58.430
  263.250    8.207    0.347    0.443   59.638
  263.500    8.208    0.333    0.450   59.640
  263.750    8.058    0.325    0.453   59.643
  264.000    8.058    0.337    0.443   59.042
  264.250    8.058    0.346    0.434   57.839
  264.500    8.059    0.356    0.432   55.432
  264.750    8.059    0.341    0.431   54.831
  265.000    8.059    0.329    0.432   54.835
  265.250    8.060    0.331    0.437   55.439
  265.500    8.060    0.337    0.443   56.646
  265.750    8.060    0.344    0.442   57.250
  266.000    8.061    0.358    0.433   58.457
  266.250    8.061    0.349    0.446   58.460
  266.500    8.062    0.334    0.455   58.461
  266.750    8.062    0.332    0.461   56.656
  267.000    8.062    0.344    0.451   55.454
  267.250    8.063    0.340    0.431   55.457
  267.500    8.063    0.326    0.418   55.459
  267.750    8.063    0.335    0.415   55.461
  268.000    8.064    0.344    0.418   56.065
  268.250    8.525    0.338    0.420   56.067
  268.500    8.369    0.320    0.419   54.262
  268.750    8.369    0.307    0.418   53.060
  269.000    8.216    0.325    0.416   52.461
  269.250    8.216    0.332    0.412   52.462
  269.500    8.217    0.331    0.419   52.463
  269.750    8.217    0.320    0.427   54.273
  270.000    8.067    0.315    0.422   55.481
  270.250    8.067    0.314    0.403   55.483
  270.500    8.067    0.310    0.398   54.882
  270.750    8.068    0.320    0.413   54.884
  271.000    8.068    0.325    0.424   54.284
  271.250    8.068    0.312    0.432   55.492
  271.500    8.069    0.309    0.422   56.096
  271.750    8.069    0.316    0.432   57.304
  272.000    8.070    0.318    0.437   57.908
  272.250    8.070    0.318    0.444   58.512
  272.500    7.922    0.333    0.449   59.117
  272.750    8.071    0.333    0.450   59.721
  273.000    8.222    0.338    0.461   60.326
  273.250    8.071    0.318    0.455   59.123
  273.500    8.072    0.314    0.463   57.921
  273.750    8.072    0.320    0.456   57.320
  274.000    8.223    0.335    0.451   57.322
  274.250    8.224    0.328    0.450   56.120
  274.500    8.224    0.324    0.445   56.122
  274.750    7.925    0.330    0.452   61.547
  275.000    7.497    0.338    0.460   66.971
  275.250    6.834    0.317    0.470   70.586
  275.500    6.230    0.296    0.476   79.023
  275.750    5.575    0.269    0.445   86.254
  276.000    4.989    0.237    0.450   88.666
  276.250    4.633    0.222    0.452   89.873
  276.500    4.548    0.232    0.460   91.682
  276.750    4.383    0.220    0.473   95.299
  277.000    4.303    0.227    0.484   96.506
  277.250    4.147    0.237    0.472   96.508
  277.500    4.147    0.246    0.473   95.908
  277.750    4.071    0.246    0.482   97.718
  278.000    4.071    0.226    0.481   98.924
  278.250    4.071    0.237    0.479  100.734
  278.500    4.072    0.241    0.479  100.736
  278.750    3.924    0.253    0.490   97.726
  279.000    3.781    0.258    0.504   96.523
  279.250    3.511    0.259    0.517   97.128
  279.500    3.322    0.238    0.533   98.937
  279.750    3.142    0.228    0.541   99.542
  280.000    2.918    0.231    0.547   97.738
  280.250    2.918    0.249    0.559   95.932
  280.500    3.261    0.264    0.552   93.525
  280.750    4.227    0.262    0.504   92.322
  281.000    5.182    0.247    0.458   89.915
  281.250    6.237    0.249    0.426   89.314
  281.500    6.842    0.232    0.428   89.919
  281.750    7.234    0.246    0.445   89.921
