~VERSION INFORMATION
 VERS.                 2.0:   CWLS LOG ASCII STANDARD -VERSION 2.0
 WRAP.                  NO:   ONE LINE PER DEPTH STEP
~WELL INFORMATION BLOCK
#MNEM.UNIT           DATA                    DESCRIPTION OF MNEMONIC
#---------    -------------------            -------------------------------
# Generated from Intellog Unique Number	CW_76_78/WELL/185
WELL.         AMOCO 78 MARTEN HILLS 02-05    : Well_name    - WELL
LOC .         00/02-05-076-26W4/0            : Location     - LOCATION
UWI .         00/02-05-076-26W4/0            : Uwi          - UNIQUE WELL ID
ENTR.         JAYE                           : Entered      - ENTERED BY
SRVC.         SCHLUMBERGER                   : Scn          - SERVICE COMPANY
DATE.         23 FEB 76                      : Date         - LOG DATE
STRT.M        612.648                        : top_depth    - START DEPTH
STOP.M        804.148                        : bot_depth    - STOP DEPTH
STEP.M        0.25                           : increment    - STEP LENGTH
 NULL. -999.2500:NULL Value
~CURVE INFORMATION BLOCK
#MNEM UNIT       ERCB CURVE CODE    CURVE DESCRIPTION
#-----------   ------------------   ----------------------------------
DEPT.M        00 001 00 00         : DEPTH        - DEPTH
CALI.MM       00 280 01 00         : CAL          - CALIPER
ILD .OHMM     00 120 00 00         : RESD         - DEEP RESISTIVITY (DIL)
NPHI.V/V      00 330 00 00         : PHIN         - NEUTRON POROSITY (SANDSTONE)
DPHI.V/V      00 890 00 00         : PHID         - DENSITY POROSITY (SANDSTONE)
GR  .API      00 310 00 00         : GR           - GAMMA RAY
~PARAMETER INFORMATION
#MNEM.UNIT           DATA             DESCRIPTION OF MNEMONIC
#---------         -----------     ------------------------------
GL  .M        899.77               : gl           - GROUND LEVEL ELEVATION
EREF.M        903.427              : kb           - ELEVATION OF DEPTH REFERENCE
DATM.M        899.77               : datum        - DATUM ELEVATION
TDD .M        806.196              : tdd          - TOTAL DEPTH DRILLER
RUN .         ONE                  : Run          - RUN NUMBER
ENG .         LAZOR                : Engineer     - RECORDING ENGINEER
WIT .         HUCULAK              : Witness      - WITNESSED BY
MUD .         GEL                  : Mud_type     - MUD TYPE
MATR.         SANDSTONE            : Logunit      - NEUTRON MATRIX
TMAX.C        29.4444              : BHT          - MAXIMUM RECORDED TEMPERATURE
BHTD.M        805.282              : BHTDEP       - MAXIMUM RECORDED TEMPERATURE
RMT .C        15.5556              : MDTP         - TEMPERATURE OF MUD
MUDD.KG/M     1080                 : MWT          - MUD DENSITY
NEUT.         1                    : NEUTRON      - NEUTRON TYPE
RESI.         0                    : RESIST       - RESISTIVITY TYPE
RM  .OHMM     5.07                 : RM           - RESISTIVITY OF MUD
RMC .OHMM     0                    : RMC          - RESISTIVITY OF MUD CAKE
RMF .OHMM     7.19                 : RMF          - RESISTIVITY OF MUD FILTRATE
SUFT.C        -17.7778             : SUFT         - SURFACE TEMPERATURE
~A  DEPTH      CAL     RESD     PHIN     PHID       GR
# ...
  722.148  224.041    5.217    0.413    0.136   97.692
  722.398  224.111    5.079    0.416    0.146   97.734
  722.648  225.515    5.530    0.425    0.161   99.172
  722.898  227.028    6.339    0.434    0.156   99.577
  723.148  229.576    7.981    0.446    0.180   99.741
  723.398  223.648    9.422    0.455    0.213   99.595
  723.648  222.068   12.580    0.446    0.218   94.327
  723.898  221.931   16.705    0.424    0.208   88.146
  724.148  221.570   20.235    0.407    0.182   82.080
  724.398  221.121   23.539    0.397    0.156   80.839
  724.648  220.979   27.133    0.391    0.174   77.461
  724.898  220.755   30.425    0.374    0.179   71.520
  725.148  220.695   31.469    0.350    0.156   70.156
  725.398  220.256   31.088    0.334    0.121   75.386
  725.648  219.696   30.038    0.363    0.175   81.032
  725.898  219.250   28.340    0.378    0.202   82.050
  726.148  219.419   26.691    0.377    0.196   78.913
  726.398  219.585   25.650    0.376    0.165   76.269
  726.648  219.555   24.694    0.392    0.183   72.587
  726.898  219.718   23.386    0.381    0.178   68.170
  727.148  219.787   22.308    0.350    0.108   65.952
  727.398  219.742   21.556    0.328    0.077   65.443
  727.648  219.708   21.490    0.346    0.094   65.851
  727.898  220.075   21.861    0.372    0.127   68.204
  728.148  220.351   22.861    0.373    0.153   73.124
  728.398  220.520   24.085    0.374    0.143   75.423
  728.648  219.962   24.817    0.395    0.142   75.518
  728.898  217.759   24.880    0.421    0.199   74.948
  729.148  217.520   24.173    0.433    0.221   76.816
  729.398  218.309   22.433    0.423    0.190   78.810
  729.648  218.882   19.097    0.391    0.175   79.275
  729.898  219.573   16.741    0.337    0.149   79.494
  730.148  220.357   14.675    0.326    0.052   78.010
  730.398  220.635   12.379    0.351    0.033   77.867
  730.648  220.183   10.557    0.362    0.083   80.468
  730.898  220.456    9.357    0.364    0.118   83.313
  731.148  221.040    8.416    0.376    0.129   88.229
  731.398  221.837    7.710    0.413    0.146   93.758
  731.648  222.617    7.182    0.433    0.186   93.738
  731.898  223.088    6.864    0.419    0.168   91.152
  732.148  223.682    6.731    0.413    0.161   88.691
  732.398  223.951    6.924    0.416    0.155   87.385
  732.648  224.013    7.511    0.411    0.159   88.952
  732.898  223.882    8.330    0.402    0.165   91.978
  733.148  223.735    9.462    0.406    0.149   93.908
  733.398  223.484    9.696    0.408    0.124   84.797
  733.648  223.548    9.421    0.381    0.106   77.515
  733.898  223.939    8.759    0.357    0.060   79.565
  734.148  224.203    8.114    0.386    0.119   83.143
  734.398  224.263    7.502    0.418    0.182   86.538
  734.648  224.329    7.001    0.454    0.197   88.103
  734.898  224.186    7.174    0.443    0.187   89.910
  735.148  224.267    7.713    0.435    0.180   92.328
  735.398  224.015    8.321    0.422    0.157   91.938
  735.648  223.673    8.994    0.411    0.143   84.780
  735.898  223.639    9.457    0.389    0.124   82.989
  736.148  223.696    9.308    0.368    0.087   84.430
  736.398  223.754    8.830    0.350    0.079   85.748
  736.648  223.939    8.165    0.347    0.038   86.095
  736.898  224.196    7.661    0.374    0.071   93.270
  737.148  224.782    7.162    0.411    0.117  100.750
  737.398  225.053    6.883    0.421    0.115   96.824
  737.648  225.750    6.964    0.419    0.107   95.521
  737.898  226.320    7.136    0.412    0.117   97.511
  738.148  227.110    7.274    0.415    0.108   99.259
  738.398  227.691    7.345    0.412    0.098   95.880
  738.648  227.651    7.582    0.419    0.113   92.201
  738.898  227.104    8.062    0.425    0.128   92.912
  739.148  225.621    8.681    0.425    0.138   93.007
  739.398  224.134    9.079    0.419    0.133   87.801
  739.648  223.059    8.952    0.391    0.083   82.288
  739.898  221.783    8.369    0.363    0.058   75.616
  740.148  220.818    7.709    0.356    0.035   85.049
  740.398  220.167    6.948    0.393    0.083   91.921
  740.648  220.122    6.543    0.439    0.147   93.728
  740.898  220.185    6.253    0.439    0.121   91.266
  741.148  220.466    6.291    0.422    0.097   92.219
  741.398  220.731    6.354    0.423    0.080   94.823
  741.648  220.797    6.451    0.440    0.154   97.606
  741.898  220.565    6.575    0.449    0.161   96.000
  742.148  220.411    6.714    0.441    0.132   94.329
  742.398  221.094    6.792    0.420    0.114   93.027
  742.648  221.891    6.961    0.399    0.086   93.367
  742.898  223.090    7.134    0.412    0.079   95.419
  743.148  224.192    7.311    0.438    0.112   94.361
  743.398  223.941    7.479    0.454    0.109   91.412
  743.648  222.671    7.706    0.447    0.109   93.950
  743.898  221.385    8.059    0.436    0.139   98.014
  744.148  220.631    8.427    0.424    0.153   96.528
  744.398  220.597    8.845    0.417    0.150   96.692
  744.648  220.964    9.301    0.412    0.142   98.986
  744.898  221.245    9.690    0.406    0.152  100.670
  745.148  220.893    9.876    0.400    0.158   96.930
  745.398  220.849    9.631    0.411    0.109   95.808
  745.648  220.816    8.506    0.408    0.114   95.236
  745.898  220.879    7.498    0.388    0.049   93.749
  746.148  222.499    6.682    0.393    0.042   97.755
  746.398  224.211    5.945    0.409    0.078  104.991
  746.648  226.859    5.640    0.410    0.137  105.277
  746.898  228.271    5.440    0.408    0.146  108.302
  747.148  228.545    5.334    0.410    0.141  111.330
  747.398  229.126    5.338    0.426    0.143  106.917
  747.648  230.641    5.470    0.441    0.135  100.793
  747.898  231.427    5.826    0.441    0.153   96.808
  748.148  229.527    6.415    0.437    0.159   97.149
  748.398  228.145    7.489    0.432    0.136   94.991
  748.648  228.521    8.665    0.435    0.136   90.640
  748.898  228.278    9.788    0.409    0.119   88.420
  749.148  222.661   11.241    0.385    0.174   88.642
  749.398  220.051   12.559    0.366    0.128   93.990
  749.648  219.087   13.183    0.388    0.157   98.729
  749.898  219.359   13.913    0.403    0.203   97.668
  750.148  219.517   14.736    0.411    0.214   93.433
  750.398  219.590   16.104    0.410    0.223   87.741
  750.648  219.542   17.471    0.414    0.220   83.513
  750.898  219.101   18.817    0.404    0.213   80.252
  751.148  218.856   19.933    0.413    0.197   76.084
  751.398  218.604   21.074    0.424    0.176   72.582
  751.648  219.295   22.653    0.431    0.178   68.044
  751.898  216.266   24.351    0.428    0.177   65.520
  752.148  216.341   25.699    0.419    0.164   65.319
  752.398  215.989   27.126    0.407    0.156   67.247
  752.648  215.836   27.797    0.410    0.150   69.480
  752.898  216.105   28.331    0.422    0.159   68.178
  753.148  215.963   28.556    0.410    0.163   65.898
  753.398  216.136   28.471    0.398    0.167   65.085
  753.648  216.099   28.228    0.396    0.149   65.978
  753.898  215.647   27.578    0.411    0.156   67.361
  754.148  216.333   26.069    0.431    0.179   68.984
  754.398  217.532   24.870    0.421    0.193   70.729
  754.648  216.885   24.251    0.407    0.192   72.296
  754.898  217.059   23.351    0.399    0.196   73.433
  755.148  216.596   22.853    0.400    0.211   73.833
  755.398  216.554   22.287    0.409    0.241   73.997
  755.648  215.593   21.536    0.431    0.230   73.605
  755.898  215.756   20.281    0.455    0.222   70.474
  756.148  216.763   18.960    0.441    0.204   67.034
  756.398  217.444   17.758    0.431    0.191   64.390
  756.648  218.554   16.973    0.426    0.212   62.048
  756.898  219.123   17.139    0.427    0.204   63.431
  757.148  220.116   17.989    0.426    0.203   66.397
  757.398  220.913   18.845    0.425    0.209   69.060
  757.648  221.492   19.889    0.419    0.204   66.903
  757.898  221.549   21.145    0.410    0.194   64.318
  758.148  221.622   22.814    0.400    0.182   62.952
  758.398  221.578   24.615    0.394    0.161   59.270
