~VERSION INFORMATION
 VERS.                 2.0:   CWLS LOG ASCII STANDARD -VERSION 2.0
 WRAP.                  NO:   ONE LINE PER DEPTH STEP
~WELL INFORMATION BLOCK
#MNEM.UNIT           DATA                    DESCRIPTION OF MNEMONIC
#---------    -------------------            -------------------------------
# Generated from Intellog Unique Number	CW_73_75/WELL/2727
WELL.         CAVALIER ET AL CALL 06-13      : Well_name    - WELL
LOC .         00/06-13-073-22W4/0            : Location     - LOCATION
UWI .         00/06-13-073-22W4/0            : Uwi          - UNIQUE WELL ID
ENTR.         JAYE                           : Entered      - ENTERED BY
SRVC.         SCHLUMBERGER                   : Scn          - SERVICE COMPANY
DATE.         25 JAN 75                      : Date         - LOG DATE
STRT.M        335.28                         : top_depth    - START DEPTH
STOP.M        533.28                         : bot_depth    - STOP DEPTH
STEP.M        0.25                           : increment    - STEP LENGTH
 NULL. -999.2500:NULL Value
~CURVE INFORMATION BLOCK
#MNEM UNIT       ERCB CURVE CODE    CURVE DESCRIPTION
#-----------   ------------------   ----------------------------------
DEPT.M        00 001 00 00         : DEPTH        - DEPTH
ILD .OHMM     00 120 00 00         : RESD         - DEEP RESISTIVITY (DIL)
NPHI.V/V      00 330 00 00         : PHIN         - NEUTRON POROSITY (SANDSTONE)
DPHI.V/V      00 890 00 00         : PHID         - DENSITY POROSITY (SANDSTONE)
GR  .API      00 310 00 00         : GR           - GAMMA RAY
CALI.MM       00 280 01 00         : CAL          - CALIPER
~PARAMETER INFORMATION
#MNEM.UNIT           DATA             DESCRIPTION OF MNEMONIC
#---------         -----------     ------------------------------
GL  .M        634.136              : gl           - GROUND LEVEL ELEVATION
EREF.M        637.184              : kb           - ELEVATION OF DEPTH REFERENCE
DATM.M        634.136              : datum        - DATUM ELEVATION
TDD .M        562.356              : tdd          - TOTAL DEPTH DRILLER
RUN .         ONE                  : Run          - RUN NUMBER
ENG .         EARLEY               : Engineer     - RECORDING ENGINEER
WIT .         CONNELLY             : Witness      - WITNESSED BY
BASE.         EDM                  : Branch       - HOME BASE OF LOGGING UNIT
MUD .         GEL CHEM & LCM DIESL : Mud_type     - MUD TYPE
MATR.         SANDSTONE            : Logunit      - NEUTRON MATRIX
TMAX.C        27.7778              : BHT          - MAXIMUM RECORDED TEMPERATURE
BHTD.M        541.325              : BHTDEP       - MAXIMUM RECORDED TEMPERATURE
RMT .C        13.3333              : MDTP         - TEMPERATURE OF MUD
MUDD.KG/M     960                  : MWT          - MUD DENSITY
NEUT.         1                    : NEUTRON      - NEUTRON TYPE
RESI.         0                    : RESIST       - RESISTIVITY TYPE
RM  .OHMM     2.5                  : RM           - RESISTIVITY OF MUD
RMC .OHMM     1.25                 : RMC          - RESISTIVITY OF MUD CAKE
RMF .OHMM     2.7                  : RMF          - RESISTIVITY OF MUD FILTRATE
SUFT.C        -17.7778             : SUFT         - SURFACE TEMPERATURE
~A  DEPTH     RESD     PHIN     PHID       GR      CAL
# ...
  371.780    5.796    0.502    0.409   97.117  431.432
  372.030    5.799    0.554    0.493   98.552  451.547
  372.280    5.841    0.577    0.516   99.676  483.776
  372.530    5.924    0.585    0.459  102.210  538.139
  372.780    6.007    0.548    0.407  103.884  527.214
  373.030    6.007    0.509    0.344  108.555  489.496
  373.280    6.052    0.484    0.292  109.376  418.459
  373.530    6.135    0.485    0.301  110.076  412.297
  373.780    6.138    0.487    0.283  112.607  412.345
  374.030    6.141    0.476    0.294  112.755  412.693
  374.280    6.183    0.488    0.276  111.438  420.394
  374.530    6.305    0.501    0.288  102.787  432.960
  374.780    6.428    0.520    0.295   92.365  439.109
  375.030    6.551    0.504    0.277   81.882  414.219
  375.280    6.633    0.486    0.286   71.888  418.095
  375.530    6.556    0.483    0.307   70.998  422.486
  375.780    6.479    0.480    0.300   72.063  423.875
  376.030    6.403    0.475    0.293   73.740  421.123
  376.280    6.644    0.469    0.280   75.965  415.376
  376.530    7.284    0.457    0.290   79.232  417.498
  376.780    8.204    0.474    0.308   83.961  421.571
  377.030    8.924    0.498    0.303   90.099  427.615
  377.280   10.042    0.514    0.296   92.631  429.004
  377.530   11.360    0.484    0.314   87.402  425.428
  377.780   12.519    0.480    0.298   82.478  424.027
  378.030   13.318    0.484    0.253   80.061  421.591
  378.280   14.038    0.481    0.251   78.560  412.007
  378.530   14.838    0.474    0.256   82.496  420.126
  378.780   16.315    0.464    0.269   80.751  423.378
  379.030   17.035    0.444    0.279   74.485  422.287
  379.280   17.994    0.405    0.224   70.784  421.401
  379.530   19.192    0.351    0.164   67.817  420.821
  379.780   20.590    0.335    0.130   63.628  418.798
  380.030   22.226    0.366    0.153   66.281  417.912
  380.280   24.221    0.377    0.182   66.552  418.375
  380.530   24.702    0.161    0.103   61.322  419.146
  380.780   24.466    0.128   -0.005   57.806  418.982
  381.030   23.154    0.137   -0.019   56.426  419.025
  381.280   20.049    0.151    0.013   62.077  419.898
  381.530   12.721    0.166    0.026   67.115  421.393
  381.780   10.851    0.225    0.058   71.416  421.333
  382.030    9.619    0.352    0.102   76.211  419.718
  382.280    9.103    0.436    0.285   78.678  416.559
  382.530    8.309    0.463    0.284   79.136  423.532
  382.780    7.595    0.476    0.279   79.648  418.404
  383.030    6.881    0.487    0.263   80.592  413.793
  383.280    6.405    0.495    0.277   81.536  422.115
  383.530    5.970    0.504    0.270   82.907  425.160
  383.780    5.654    0.512    0.263   84.889  421.790
  384.030    5.457    0.523    0.311   89.130  403.314
  384.280    5.301    0.545    0.335   92.579  410.503
  384.530    5.424    0.563    0.358   88.572  426.892
  384.780    5.586    0.688    0.586   81.756  456.322
  385.030    5.788    0.680    0.607   82.335  489.373
  385.280    6.030    0.667    0.550   85.842  607.994
  385.530    6.192    0.705    0.407   92.406  583.000
  385.780    6.474    0.609    0.343   96.406  504.925
  386.030    6.397    0.514    0.243   98.635  422.611
  386.280    6.201    0.502    0.225  100.309  421.516
  386.530    5.925    0.510    0.207  101.922  422.397
  386.780    5.728    0.514    0.215  103.904  423.784
  387.030    5.492    0.494    0.229  105.397  425.382
  387.280    5.415    0.467    0.225  103.590  426.352
  387.530    5.418    0.471    0.206  105.879  428.882
  387.780    5.500    0.484    0.211  105.539  432.239
  388.030    5.703    0.502    0.234  103.121  434.040
  388.280    5.905    0.525    0.267  102.722  436.260
  388.530    6.146    0.555    0.370  102.563  439.509
  388.780    6.388    0.601    0.383  101.551  446.591
  389.030    7.148    0.536    0.359   96.443  453.878
  389.280    7.908    0.497    0.315   91.400  435.402
  389.530    7.911    0.482    0.279   87.452  420.444
  389.780    7.635    0.458    0.269   84.487  418.733
  390.030    7.718    0.440    0.270   85.733  420.741
  390.280    7.920    0.428    0.280   86.189  423.374
  390.530    8.202    0.437    0.295   87.926  424.970
  390.780    8.363    0.466    0.304   87.955  424.292
  391.030    8.566    0.478    0.316   80.340  420.926
  391.280    8.729    0.479    0.328   78.411  420.138
  391.530    8.731    0.473    0.320   85.160  422.773
  391.780    8.813    0.460    0.303   96.979  424.064
  392.030    9.016    0.505    0.288   97.372  424.204
  392.280    9.297    0.523    0.273   91.168  423.943
  392.530    9.898    0.517    0.294   84.104  423.472
  392.780   10.379    0.499    0.298   89.325  424.352
  393.030   10.899    0.475    0.293  105.117  425.531
  393.280   10.862    0.482    0.276  120.664  425.475
  393.530   10.546    0.499    0.254  142.198  424.373
  393.780   10.152    0.497    0.235  157.379  422.139
  394.030    9.796    0.471    0.223  160.704  427.470
  394.280    9.520    0.469    0.187  148.878  427.609
  394.530    9.323    0.545    0.200  142.548  421.139
  394.780    9.286    0.540    0.225  128.157  421.916
  395.030    9.449    0.471    0.242  103.251  424.231
  395.280    9.650    0.430    0.256   87.576  427.996
  395.530    9.893    0.401    0.278   70.127  432.806
  395.780    9.935    0.364    0.239   53.349  435.332
  396.030    9.778    0.345    0.224   49.037  427.409
  396.280    9.622    0.357    0.216   49.982  421.765
  396.530    9.266    0.334    0.204   50.006  423.051
  396.780    8.671    0.345    0.206   48.994  425.475
  397.030    8.156    0.390    0.257   50.613  425.210
  397.280    7.800    0.421    0.298   53.024  420.601
  397.530    7.405    0.464    0.322   55.124  422.813
  397.780    7.169    0.463    0.319   56.312  423.791
  398.030    7.052    0.451    0.301   56.889  413.696
  398.280    7.055    0.456    0.296   59.052  414.055
  398.530    7.098    0.460    0.308   58.285  415.651
  398.780    7.140    0.441    0.303   56.478  417.968
  399.030    7.143    0.419    0.287   55.404  421.015
  399.280    6.987    0.404    0.276   54.456  425.102
  399.530    6.790    0.428    0.276   54.052  426.902
  399.780    6.674    0.423    0.293   53.772  426.634
  400.030    6.517    0.427    0.281   53.985  423.470
  400.280    6.517    0.435    0.277   54.743  420.720
  400.530    6.483    0.443    0.293   56.176  421.599
  400.780    6.327    0.445    0.299   57.180  421.958
  401.030    6.210    0.444    0.295   57.145  421.373
  401.280    6.133    0.444    0.301   56.743  419.763
  401.530    6.096    0.431    0.314   57.566  422.085
  401.780    6.058    0.441    0.315   58.754  424.822
  402.030    5.983    0.452    0.313   61.101  425.384
  402.280    5.945    0.461    0.322   66.747  421.597
  402.530    5.948    0.469    0.321   66.651  414.918
  402.780    5.991    0.483    0.337   64.970  411.445
  403.030    6.074    0.474    0.331   63.469  415.214
  403.280    6.118    0.468    0.330   62.638  419.917
  403.530    6.239    0.480    0.324   62.911  426.273
  403.780    6.440    0.526    0.299   63.303  426.419
  404.030    6.682    0.520    0.307   63.146  424.087
  404.280    6.964    0.468    0.339   62.316  424.036
  404.530    7.206    0.436    0.298   60.816  425.009
  404.780    7.328    0.413    0.263   59.133  425.059
  405.030    7.331    0.384    0.256   57.938  424.160
  405.280    7.215    0.369    0.249   55.944  423.482
  405.530    7.058    0.384    0.236   54.077  425.082
  405.780    6.782    0.403    0.234   53.617  426.368
  406.030    6.506    0.433    0.270   53.764  427.755
  406.280    6.309    0.466    0.276   54.892  426.249
  406.530    6.153    0.505    0.281   56.445  421.224
  406.780    5.997    0.536    0.291   58.181  419.309
  407.030    5.880    0.517    0.318   61.447  419.149
  407.280    5.803    0.492    0.349   60.192  420.016
  407.530    5.806    0.473    0.347   58.753  421.197
  407.780    5.808    0.468    0.341   57.680  422.999
  408.030    5.891    0.467    0.338   56.849  427.702
