~VERSION INFORMATION
 VERS.                 2.0:   CWLS LOG ASCII STANDARD -VERSION 2.0
 WRAP.                  NO:   ONE LINE PER DEPTH STEP
~WELL INFORMATION BLOCK
#MNEM.UNIT           DATA                    DESCRIPTION OF MNEMONIC
#---------    -------------------            -------------------------------
# Generated from Intellog Unique Number	CW_82_90/WELL/693
WELL.         08-34-083-24W4                 : Well_name    - WELL
LOC .         00/08-34-083-24W4/0            : Location     - LOCATION
UWI .         00/08-34-083-24W4/0            : Uwi          - UNIQUE WELL ID
ENTR.         JAYE                           : Entered      - ENTERED BY
SRVC.         SCHLUMBERGER                   : Scn          - SERVICE COMPANY
DATE.         01 MAR 86                      : Date         - LOG DATE
STRT.M        180                            : top_depth    - START DEPTH
STOP.M        395                            : bot_depth    - STOP DEPTH
STEP.M        0.25                           : increment    - STEP LENGTH
 NULL. -999.2500:NULL Value
~CURVE INFORMATION BLOCK
#MNEM UNIT       ERCB CURVE CODE    CURVE DESCRIPTION
#-----------   ------------------   ----------------------------------
DEPT.M        00 001 00 00         : DEPTH        - DEPTH
CALI.MM       00 280 01 00         : CAL          - CALIPER
GR  .API      00 310 00 00         : GR           - GAMMA RAY
NPHI.V/V      00 330 00 00         : PHIN         - NEUTRON POROSITY (SANDSTONE)
DPHI.V/V      00 890 00 00         : PHID         - DENSITY POROSITY (SANDSTONE)
ILD .OHMM     00 120 00 00         : RESD         - DEEP RESISTIVITY (DIL)
~PARAMETER INFORMATION
#MNEM.UNIT           DATA             DESCRIPTION OF MNEMONIC
#---------         -----------     ------------------------------
GL  .M        564.16               : gl           - GROUND LEVEL ELEVATION
EREF.M        567.76               : kb           - ELEVATION OF DEPTH REFERENCE
DATM.M        564.16               : datum        - DATUM ELEVATION
TDD .M        398                  : tdd          - TOTAL DEPTH DRILLER
RUN .         ONE                  : Run          - RUN NUMBER
ENG .         MILROSS              : Engineer     - RECORDING ENGINEER
WIT .         DZIUBA               : Witness      - WITNESSED BY
BASE.         SL                   : Branch       - HOME BASE OF LOGGING UNIT
MUD .         GEL CHEM             : Mud_type     - MUD TYPE
MATR.         SANDSTONE            : Logunit      - NEUTRON MATRIX
TMAX.C        21                   : BHT          - MAXIMUM RECORDED TEMPERATURE
BHTD.M        398                  : BHTDEP       - MAXIMUM RECORDED TEMPERATURE
RMT .C        18                   : MDTP         - TEMPERATURE OF MUD
MUDD.KG/M     1130                 : MWT          - MUD DENSITY
NEUT.         1                    : NEUTRON      - NEUTRON TYPE
RESI.         0                    : RESIST       - RESISTIVITY TYPE
RM  .OHMM     4.99                 : RM           - RESISTIVITY OF MUD
RMC .OHMM     0                    : RMC          - RESISTIVITY OF MUD CAKE
RMF .OHMM     4.75                 : RMF          - RESISTIVITY OF MUD FILTRATE
SUFT.C        0                    : SUFT         - SURFACE TEMPERATURE
~A  DEPTH      CAL       GR     PHIN     PHID     RESD
# ...
  289.500  267.522   73.206    0.431    0.279   14.199
  289.750  268.523   72.240    0.425    0.267   15.228
  290.000  268.796   63.924    0.413    0.220   17.604
  290.250  268.654   60.596    0.285    0.136   21.047
  290.500  267.823   61.322    0.289    0.111   22.489
  290.750  267.956   65.978    0.296    0.125   23.147
  291.000  268.957   70.255    0.305    0.140   21.860
  291.250  271.118   76.533    0.318    0.159   18.342
  291.500  272.521   83.061    0.416    0.191   12.550
  291.750  274.079   85.160    0.413    0.224   11.182
  292.000  273.999   85.443    0.424    0.226   10.900
  292.250  271.575   83.803    0.459    0.223   10.686
  292.500  266.456   82.472    0.451    0.230   10.535
  292.750  263.721   81.073    0.431    0.222   10.503
  293.000  262.663   77.561    0.413    0.212   10.709
  293.250  262.611   72.985    0.419    0.206   11.044
  293.500  262.278   71.780    0.432    0.218   11.260
  293.750  261.908   71.759    0.408    0.253   11.523
  294.000  261.677   70.993    0.398    0.250   11.664
  294.250  261.734   70.216    0.397    0.251   11.694
  294.500  261.799   70.377    0.391    0.274   11.679
  294.750  261.799   69.792    0.416    0.282   11.579
  295.000  261.540   68.023    0.432    0.275   11.566
  295.250  261.277   66.196    0.443    0.259   11.551
  295.500  260.932   65.733    0.430    0.250   11.496
  295.750  260.932   64.773    0.417    0.245   11.397
  296.000  260.989   64.941    0.425    0.242   11.299
  296.250  260.920   63.864    0.444    0.252   11.264
  296.500  261.660   63.273    0.461    0.257   11.272
  296.750  262.199   62.254    0.474    0.251   11.451
  297.000  264.282   61.117    0.457    0.267   11.546
  297.250  264.824   60.646    0.433    0.290   11.749
  297.500  266.087   60.878    0.429    0.291   12.210
  297.750  266.207   62.791    0.428    0.280   12.470
  298.000  266.194   65.193    0.437    0.291   12.621
  298.250  266.239   69.853    0.433    0.294   12.512
  298.500  266.239   73.507    0.421    0.289   12.153
  298.750  266.735   75.858    0.418    0.287   11.934
  299.000  267.061   73.400    0.461    0.279   11.700
  299.250  267.579   71.004    0.452    0.256   11.535
  299.500  267.512   69.611    0.420    0.236   11.434
  299.750  267.677   68.964    0.416    0.246   11.232
  300.000  268.273   71.998    0.437    0.267   10.969
  300.250  269.799   76.714    0.434    0.275   10.652
  300.500  270.893   83.429    0.450    0.253   10.172
  300.750  270.960   82.784    0.472    0.241    9.713
  301.000  269.785   78.334    0.479    0.230    9.399
  301.250  269.223   74.627    0.466    0.227    9.197
  301.500  268.979   71.112    0.435    0.215    9.360
  301.750  269.355   68.411    0.408    0.197    9.633
  302.000  269.113   66.957    0.380    0.173   10.007
  302.250  268.563   67.871    0.345    0.140   10.998
  302.500  268.783   69.213    0.322    0.122   11.974
  302.750  269.012   69.316    0.299    0.114   13.208
  303.000  270.352   70.981    0.328    0.115   13.672
  303.250  270.800   75.881    0.429    0.173   13.206
  303.500  271.180   79.789    0.442    0.211   12.400
  303.750  271.043   82.884    0.444    0.217   11.816
  304.000  269.649   84.231    0.440    0.218   10.769
  304.250  266.290   85.019    0.436    0.217    9.487
  304.500  264.180   83.377    0.474    0.215    8.759
  304.750  263.625   80.299    0.468    0.221    8.318
  305.000  264.210   76.219    0.463    0.236    8.292
  305.250  266.582   69.401    0.472    0.173    8.712
  305.500  267.781   59.525    0.407    0.139    9.756
  305.750  268.874   55.638    0.270    0.100   11.193
  306.000  271.433   58.358    0.260    0.079   12.487
  306.250  275.565   66.565    0.303    0.107   13.168
  306.500  279.563   69.226    0.409    0.163   12.388
  306.750  282.953   71.137    0.437    0.213   10.553
  307.000  285.301   72.859    0.481    0.220    9.006
  307.250  287.866   70.528    0.478    0.223    7.614
  307.500  290.216   68.699    0.471    0.211    7.097
  307.750  292.465   71.176    0.459    0.205    6.866
  308.000  295.594   74.827    0.426    0.205    6.656
  308.250  295.816   77.360    0.420    0.205    6.574
  308.500  297.030   76.590    0.442    0.203    6.641
  308.750  297.608   75.632    0.454    0.205    6.784
  309.000  297.710   76.859    0.459    0.207    7.115
  309.250  297.745   75.653    0.449    0.208    7.405
  309.500  296.511   77.063    0.439    0.212    7.987
  309.750  296.217   79.414    0.445    0.216    8.599
  310.000  296.811   80.758    0.449    0.222    9.153
  310.250  297.288   82.109    0.454    0.217    9.780
  310.500  298.078   82.894    0.462    0.202   10.123
  310.750  295.880   82.309    0.464    0.199   10.283
  311.000  293.652   83.104    0.457    0.207   10.253
  311.250  290.523   84.448    0.448    0.203   10.165
  311.500  288.297   87.856    0.442    0.195   10.076
  311.750  282.907   89.888    0.452    0.194    9.805
  312.000  282.498   87.683    0.473    0.200    9.648
  312.250  276.559   82.047    0.469    0.205    9.564
  312.500  273.596   79.657    0.455    0.210    9.715
  312.750  270.134   82.067    0.438    0.209   10.189
  313.000  267.203   82.297    0.425    0.205   10.825
  313.250  265.596   82.085    0.411    0.206   11.352
  313.500  264.317   82.882    0.396    0.217   11.841
  313.750  262.629   83.036    0.387    0.238   12.116
  314.000  258.260   81.078    0.388    0.250   12.355
  314.250  256.939   78.315    0.404    0.257   13.104
  314.500  253.893   75.549    0.431    0.260   13.793
  314.750  252.433   75.211    0.412    0.256   15.131
  315.000  254.661   80.928    0.379    0.252   16.045
  315.250  257.828   86.019    0.398    0.260   17.146
  315.500  261.531   89.494    0.420    0.252   17.548
  315.750  269.324   91.773    0.452    0.243   17.106
  316.000  270.283   89.941    0.472    0.244   16.427
  316.250  272.540   81.936    0.463    0.244   14.499
  316.500  274.263   70.063    0.458    0.234   13.262
  316.750  275.055   61.310    0.473    0.216   13.397
  317.000  275.545   56.364    0.487    0.180   14.315
  317.250  276.119   60.023    0.464    0.093   15.732
  317.500  277.335   64.993    0.301    0.114   16.811
  317.750  278.441   69.080    0.322    0.157   17.335
  318.000  279.643   76.164    0.383    0.175   17.446
  318.250  279.503   72.464    0.416    0.171   17.328
  318.500  276.669   66.639    0.395    0.127   17.338
  318.750  274.139   61.255    0.207    0.039   18.806
  319.000  272.455   58.864    0.181    0.030   22.867
  319.250  271.473   59.026    0.235    0.041   28.922
  319.500  270.518   62.624    0.261    0.054   34.258
  319.750  270.259   66.532    0.286    0.079   39.013
  320.000  270.639   67.877    0.313    0.107   38.173
  320.250  271.369   68.040    0.329    0.115   31.496
  320.500  271.910   71.701    0.320    0.131   26.581
  320.750  273.535   74.732    0.337    0.180   23.026
  321.000  276.716   74.211    0.379    0.198   20.250
  321.250  281.279   73.561    0.368    0.182   18.453
  321.500  282.977   75.165    0.364    0.170   17.327
  321.750  284.495   74.891    0.392    0.163   16.671
  322.000  284.671   73.379    0.373    0.153   16.282
  322.250  284.010   73.787    0.357    0.138   16.111
  322.500  284.179   77.255    0.371    0.163   15.883
  322.750  285.644   80.291    0.398    0.188   15.689
  323.000  285.868   81.639    0.404    0.187   15.493
  323.250  286.381   82.426    0.402    0.187   15.332
  323.500  286.419   83.273    0.395    0.189   15.172
  323.750  286.382   82.757    0.446    0.183   15.013
  324.000  286.382   82.487    0.431    0.173   14.995
  324.250  284.859   81.084    0.411    0.162   15.119
  324.500  284.859   79.253    0.397    0.155   15.503
  324.750  281.581   77.923    0.407    0.149   16.350
  325.000  280.801   77.588    0.419    0.145   17.210
  325.250  280.143   77.382    0.410    0.145   18.286
  325.500  280.135   77.362    0.394    0.147   19.286
  325.750  280.277   76.957    0.391    0.152   19.701
