~VERSION INFORMATION
 VERS.                 2.0:   CWLS LOG ASCII STANDARD -VERSION 2.0
 WRAP.                  NO:   ONE LINE PER DEPTH STEP
~WELL INFORMATION BLOCK
#MNEM.UNIT           DATA                    DESCRIPTION OF MNEMONIC
#---------    -------------------            -------------------------------
# Generated from Intellog Unique Number	CS_73_76/WELL/785
WELL.         AMOCO KIRBY                    : Well_name    - WELL
LOC .         00/09-25-073-05W4/0            : Location     - LOCATION
UWI .         00/09-25-073-05W4/0            : Uwi          - UNIQUE WELL ID
ENTR.         SP                             : Entered      - ENTERED BY
SRVC.         SCHLUMBERGER                   : Scn          - SERVICE COMPANY
STRT.M        285                            : top_depth    - START DEPTH
STOP.M        500                            : bot_depth    - STOP DEPTH
STEP.M        0.25                           : increment    - STEP LENGTH
 NULL. -999.2500:NULL Value
~CURVE INFORMATION BLOCK
#MNEM UNIT       ERCB CURVE CODE    CURVE DESCRIPTION
#-----------   ------------------   ----------------------------------
DEPT.M        00 001 00 00         : DEPTH        - DEPTH
ILD .OHMM     00 120 00 00         : RESD         - DEEP RESISTIVITY (DIL)
DPHI.V/V      00 890 00 00         : PHID         - DENSITY POROSITY (LIMESTONE)
NPHI.V/V      00 330 00 00         : PHIN         - NEUTRON POROSITY (LIMESTONE)
GR  .API      00 310 00 00         : GR           - GAMMA RAY
~PARAMETER INFORMATION
#MNEM.UNIT           DATA             DESCRIPTION OF MNEMONIC
#---------         -----------     ------------------------------
GL  .M        682.7                : gl           - GROUND LEVEL ELEVATION
EREF.M        686.9                : kb           - ELEVATION OF DEPTH REFERENCE
DATM.M        682.7                : datum        - DATUM ELEVATION
TDD .M        845.3                : tdd          - TOTAL DEPTH DRILLER
RUN .         ONE                  : Run          - RUN NUMBER
ENG .         BILL                 : Engineer     - RECORDING ENGINEER
WIT .         JIM                  : Witness      - WITNESSED BY
MUD .         GEL                  : Mud_type     - MUD TYPE
MATR.         LIMESTONE            : Logunit      - NEUTRON MATRIX
TMAX.C        18                   : BHT          - MAXIMUM RECORDED TEMPERATURE
BHTD.M        845.3                : BHTDEP       - MAXIMUM RECORDED TEMPERATURE
MATR.         1                    : LOGUNIT      - NEUTRON MATRIX
RMT .C        25                   : MDTP         - TEMPERATURE OF MUD
NEUT.         1                    : NEUTRON      - NEUTRON TYPE
RESI.         0                    : RESIST       - RESISTIVITY TYPE
RMC .OHMM     0.25                 : RMC          - RESISTIVITY OF MUD CAKE
RMF .OHMM     0.25                 : RMF          - RESISTIVITY OF MUD FILTRATE
SUFT.C        15                   : SUFT         - SURFACE TEMPERATURE
~A  DEPTH     RESD     PHID     PHIN       GR
# ...
  372.000    1.737    0.272    0.443   79.864
  372.250    1.803    0.280    0.443   76.847
  372.500    1.837    0.288    0.447   73.229
  372.750    1.873    0.300    0.462   70.212
  373.000    1.908    0.304    0.484   72.015
  373.250    1.909    0.299    0.514   73.819
  373.500    1.910    0.269    0.488   72.005
  373.750    1.911    0.260    0.471   71.400
  374.000    2.021    0.248    0.443   70.190
  374.250    2.177    0.266    0.436   71.391
  374.500    2.218    0.270    0.447   69.580
  374.750    2.261    0.290    0.461   68.372
  375.000    2.221    0.339    0.472   62.399
  375.250    2.102    0.361    0.506   61.196
  375.500    2.027    0.392    0.538   65.391
  375.750    1.954    0.422    0.536   66.589
  376.000    1.991    0.434    0.512   66.587
  376.250    2.106    0.440    0.494   65.983
  376.500    2.227    0.440    0.440   67.181
  376.750    2.228    0.450    0.472   68.978
  377.000    2.229    0.461    0.502   73.774
  377.250    2.190    0.408    0.544   75.572
  377.500    2.111    0.418    0.575   75.569
  377.750    2.112    0.403    0.562   74.365
  378.000    2.074    0.369    0.556   73.762
  378.250    2.153    0.344    0.480   73.760
  378.500    2.320    0.313    0.437   68.357
  378.750    2.499    0.280    0.416   70.153
  379.000    2.546    0.278    0.424   71.350
  379.250    2.595    0.284    0.436   71.948
  379.500    2.645    0.291    0.453   71.944
  379.750    2.646    0.297    0.471   72.542
  380.000    2.647    0.316    0.488   72.538
  380.250    2.648    0.295    0.482   71.935
  380.500    2.649    0.285    0.495   71.933
  380.750    2.651    0.298    0.489   70.730
  381.000    2.556    0.360    0.485   69.527
  381.250    2.375    0.374    0.506   67.724
  381.500    2.207    0.328    0.521   67.121
  381.750    2.128    0.350    0.529   68.918
  382.000    2.169    0.362    0.534   69.515
  382.250    2.170    0.390    0.548   69.512
  382.500    2.171    0.415    0.535   71.909
  382.750    2.212    0.369    0.526   74.306
  383.000    2.213    0.365    0.536   73.703
  383.250    2.174    0.385    0.549   72.500
  383.500    2.058    0.408    0.567   68.297
  383.750    1.984    0.413    0.579   66.495
  384.000    1.913    0.415    0.554   67.692
  384.250    1.844    0.402    0.538   66.488
  384.500    1.879    0.419    0.546   67.085
  384.750    1.880    0.418    0.528   70.082
  385.000    1.881    0.414    0.541   72.479
  385.250    1.848    0.424    0.576   76.076
  385.500    1.781    0.431    0.593   76.673
  385.750    1.850    0.428    0.554   74.870
  386.000    1.920    0.408    0.488   74.867
  386.250    2.068    0.386    0.465   73.664
  386.500    2.312    0.366    0.456   71.861
  386.750    2.490    0.325    0.475   68.858
  387.000    2.585    0.302    0.483   66.456
  387.250    2.402    0.332    0.437   64.653
  387.500    2.273    0.327    0.388   63.450
  387.750    2.074    0.315    0.407   64.046
  388.000    1.927    0.320    0.438   65.844
  388.250    1.824    0.307    0.434   64.641
  388.500    1.792    0.309    0.426   65.238
  388.750    1.792    0.293    0.451   68.234
  389.000    1.895    0.296    0.468   70.032
  389.250    2.005    0.340    0.471   72.429
  389.500    2.081    0.308    0.468   74.225
  389.750    2.006    0.284    0.453   74.823
  390.000    1.899    0.277    0.457   74.220
  390.250    1.900    0.281    0.477   73.017
  390.500    2.047    0.311    0.495   68.214
  390.750    2.125    0.317    0.517   64.611
  391.000    2.205    0.330    0.466   62.208
  391.250    2.088    0.352    0.433   61.606
  391.500    2.050    0.362    0.459   63.402
  391.750    1.977    0.364    0.481   65.199
  392.000    1.978    0.328    0.493   66.996
  392.250    1.873    0.307    0.452   68.794
  392.500    1.839    0.313    0.476   69.990
  392.750    1.709    0.317    0.498   70.588
  393.000    1.774    0.300    0.457   70.584
  393.250    1.911    0.286    0.433   65.781
  393.500    1.680    0.276    0.416   60.978
  393.750    1.477    0.292    0.424   59.176
  394.000    1.162    0.282    0.431   59.172
  394.250    1.163    0.253    0.426   59.770
  394.500    1.276    0.226    0.421   60.367
  394.750    1.374    0.238    0.421   60.363
  395.000    1.508    0.258    0.421   60.960
  395.250    1.565    0.280    0.429   62.158
  395.500    1.302    0.295    0.438   64.555
  395.750    1.232    0.289    0.440   68.151
  396.000    1.188    0.271    0.449   71.148
  396.250    1.211    0.269    0.468   73.545
  396.500    1.234    0.279    0.492   75.343
  396.750    1.305    0.271    0.511   77.140
  397.000    1.406    0.262    0.490   75.937
  397.250    1.514    0.253    0.468   74.734
  397.500    1.602    0.255    0.443   77.130
  397.750    1.632    0.258    0.415   80.727
  398.000    1.694    0.269    0.422   81.925
  398.250    1.695    0.262    0.426   78.322
  398.500    1.728    0.263    0.419   74.119
  398.750    1.728    0.298    0.435   70.516
  399.000    1.636    0.312    0.486   68.113
  399.250    1.577    0.420    0.505   65.110
  399.500    1.549    0.435    0.522   62.108
  399.750    1.550    0.442    0.529   61.504
  400.000    1.580    0.418    0.533   62.701
  400.250    1.580    0.413    0.545   61.498
  400.500    1.610    0.436    0.558   59.696
  400.750    1.611    0.458    0.568   59.093
  401.000    1.582    0.473    0.580   59.689
  401.250    1.526    0.443    0.592   59.687
  401.500    1.499    0.452    0.582   60.283
  401.750    1.472    0.463    0.573   61.481
  402.000    1.446    0.469    0.581   62.078
  402.250    1.446    0.465    0.582   61.474
  402.500    1.447    0.478    0.577   62.672
  402.750    1.559    0.488    0.582   64.469
  403.000    1.808    0.446    0.575   63.266
  403.250    2.020    0.412    0.451   59.663
  403.500    2.343    0.379    0.362   56.660
  403.750    2.619    0.356    0.353   54.857
  404.000    2.874    0.353    0.351   55.454
  404.250    3.153    0.345    0.351   54.851
  404.500    3.335    0.333    0.341   52.447
  404.750    3.336    0.339    0.337   51.845
  405.000    3.277    0.337    0.337   51.243
  405.250    3.102    0.334    0.356   51.839
  405.500    2.882    0.328    0.367   53.036
  405.750    2.831    0.319    0.362   51.233
  406.000    2.938    0.307    0.341   50.631
  406.250    3.107    0.276    0.349   49.427
  406.500    3.226    0.332    0.360   50.024
  406.750    3.288    0.346    0.360   51.821
  407.000    3.289    0.356    0.359   53.018
  407.250    3.352    0.356    0.355   54.815
  407.500    3.480    0.361    0.340   55.413
  407.750    3.680    0.361    0.324   55.409
  408.000    3.681    0.366    0.364   53.606
  408.250    3.684    0.368    0.342   52.404
  408.500    3.618    0.363    0.365   52.401
  408.750    3.488    0.373    0.373   55.397
  409.000    3.489    0.362    0.364   55.995
  409.250    3.364    0.352    0.355   53.592
  409.500    3.127    0.352    0.359   53.588
  409.750    3.015    0.361    0.370   54.785
  410.000    2.907    0.364    0.389   54.782
  410.250    2.855    0.364    0.375   54.180
  410.500    2.856    0.363    0.353   52.976
  410.750    2.805    0.362    0.343   52.972
  411.000    2.755    0.358    0.352   52.971
  411.250    2.756    0.362    0.360   54.768
  411.500    2.708    0.362    0.366   55.965
  411.750    2.659    0.360    0.373   57.162
  412.000    2.564    0.356    0.381   56.559
  412.250    2.427    0.354    0.378   54.156
  412.500    2.255    0.357    0.365   52.353
  412.750    2.174    0.354    0.354   54.150
  413.000    2.096    0.354    0.342   56.546
  413.250    2.137    0.359    0.339   54.744
  413.500    2.177    0.355    0.353   51.141
  413.750    2.219    0.349    0.378   52.938
  414.000    2.220    0.342    0.391   54.734
  414.250    2.101    0.344    0.399   55.333
  414.500    1.847    0.336    0.404   55.329
  414.750    1.685    0.324    0.410   54.126
  415.000    1.537    0.317    0.420   52.323
  415.250    1.482    0.312    0.435   51.120
