~VERSION INFORMATION
 VERS.                 2.0:   CWLS LOG ASCII STANDARD -VERSION 2.0
 WRAP.                  NO:   ONE LINE PER DEPTH STEP
~WELL INFORMATION BLOCK
#MNEM.UNIT           DATA                    DESCRIPTION OF MNEMONIC
#---------    -------------------            -------------------------------
# Generated from Intellog Unique Number	CS_69_70/WELL/608
WELL.         08-11-069-08W4                 : Well_name    - WELL
LOC .         00/08-11-069-08W4/0            : Location     - LOCATION
UWI .         00/08-11-069-08W4/0            : Uwi          - UNIQUE WELL ID
ENTR.         ANDERSEN                       : Entered      - ENTERED BY
SRVC.         SCHLUMBERGER                   : Scn          - SERVICE COMPANY
STRT.M        345                            : top_depth    - START DEPTH
STOP.M        505                            : bot_depth    - STOP DEPTH
STEP.M        0.25                           : increment    - STEP LENGTH
 NULL. -999.2500:NULL Value
~CURVE INFORMATION BLOCK
#MNEM UNIT       ERCB CURVE CODE    CURVE DESCRIPTION
#-----------   ------------------   ----------------------------------
DEPT.M        00 001 00 00         : DEPTH        - DEPTH
GR  .API      00 310 00 00         : GR           - GAMMA RAY
CALI.MM       00 280 01 00         : CAL          - CALIPER
NPHI.V/V      00 330 00 00         : PHIN         - NEUTRON POROSITY (SANDSTONE)
DPHI.V/V      00 890 00 00         : PHID         - DENSITY POROSITY (SANDSTONE)
ILD .OHMM     00 120 00 00         : RESD         - DEEP RESISTIVITY (DIL)
~PARAMETER INFORMATION
#MNEM.UNIT           DATA             DESCRIPTION OF MNEMONIC
#---------         -----------     ------------------------------
GL  .M        615.3                : gl           - GROUND LEVEL ELEVATION
EREF.M        618                  : kb           - ELEVATION OF DEPTH REFERENCE
DATM.M        618                  : datum        - DATUM ELEVATION
TDD .M        511                  : tdd          - TOTAL DEPTH DRILLER
RUN .         ONE                  : Run          - RUN NUMBER
ENG .         BILL                 : Engineer     - RECORDING ENGINEER
WIT .         JIM                  : Witness      - WITNESSED BY
MUD .         GEL                  : Mud_type     - MUD TYPE
MATR.         SANDSTONE            : Logunit      - NEUTRON MATRIX
TMAX.C        24                   : BHT          - MAXIMUM RECORDED TEMPERATURE
BHTD.M        511                  : BHTDEP       - MAXIMUM RECORDED TEMPERATURE
RMT .C        17                   : MDTP         - TEMPERATURE OF MUD
MUDD.KG/M     1100                 : MWT          - MUD DENSITY
NEUT.         1                    : NEUTRON      - NEUTRON TYPE
RESI.         0                    : RESIST       - RESISTIVITY TYPE
RM  .OHMM     4.64                 : RM           - RESISTIVITY OF MUD
RMC .OHMM     0                    : RMC          - RESISTIVITY OF MUD CAKE
RMF .OHMM     6.14                 : RMF          - RESISTIVITY OF MUD FILTRATE
SUFT.C        15                   : SUFT         - SURFACE TEMPERATURE
~A  DEPTH       GR      CAL     PHIN     PHID     RESD
# ...
  454.500  100.551  150.320    0.358    0.228    8.024
  454.750  105.704  150.318    0.360    0.223    9.491
  455.000  102.265  150.314    0.354    0.219   11.017
  455.250   91.952  151.266    0.333    0.198   12.554
  455.500   70.754  154.127    0.339    0.204   13.291
  455.750   65.023  156.034    0.365    0.250   13.065
  456.000   60.438  156.986    0.377    0.283   12.839
  456.250   56.999  156.980    0.387    0.307   11.511
  456.500   55.851  156.979    0.382    0.320   10.506
  456.750   58.141  156.976    0.385    0.318    9.247
  457.000   60.430  156.972    0.384    0.325    8.442
  457.250   66.157  156.969    0.377    0.293    7.851
  457.500   75.321  156.965    0.385    0.255    7.718
  457.750   89.641  156.963    0.388    0.182   10.005
  458.000   97.659  156.959    0.398    0.097   14.496
  458.250   98.803  156.954    0.504    0.128   21.800
  458.500   96.509  156.952    0.527    0.256   27.754
  458.750   87.915  156.950    0.437    0.308   31.058
  459.000   75.309  156.946    0.407    0.329   27.828
  459.250   54.684  156.943    0.398    0.347   23.165
  459.500   52.963  156.939    0.401    0.349   16.031
  459.750   51.816  156.937    0.408    0.342   14.110
  460.000   52.960  156.934    0.414    0.324   12.183
  460.250   58.114  156.929    0.406    0.316    9.956
  460.500   59.257  156.927    0.391    0.309    8.597
  460.750   60.974  155.969    0.362    0.293    7.295
  461.000   65.555  155.966    0.331    0.276    6.658
  461.250   79.875  155.962    0.333    0.260    6.192
  461.500   89.039  154.050    0.348    0.246    6.087
  461.750   95.912  152.137    0.362    0.237    6.097
  462.000   96.483  154.044    0.373    0.245    6.214
  462.250   91.897  157.858    0.354    0.245    6.341
  462.500   92.468  158.810    0.347    0.236    6.467
  462.750   96.477  157.851    0.371    0.223    6.597
  463.000   99.912  157.850    0.388    0.216    6.856
  463.250  100.482  156.892    0.397    0.217    6.991
  463.500   98.763  155.934    0.379    0.214    7.266
  463.750   94.178  154.975    0.333    0.206    7.414
  464.000   90.738  154.972    0.342    0.203    7.419
  464.250   88.445  154.013    0.329    0.208    7.429
  464.500   85.006  154.010    0.329    0.222    7.441
  464.750   85.003  154.008    0.346    0.215    7.312
  465.000   86.720  154.005    0.353    0.201    7.192
  465.250   91.874  154.001    0.363    0.192    7.197
  465.500   87.862  153.999    0.363    0.206    6.948
  465.750   82.704  153.995    0.354    0.229    6.832
  466.000   83.849  153.038    0.348    0.245    6.711
  466.250   93.013  151.123    0.355    0.235    6.720
  466.500  107.332  151.121    0.368    0.216    6.857
  466.750  113.058  152.073    0.378    0.212    6.994
  467.000  110.193  152.069    0.370    0.207    7.269
  467.250   91.859  152.066    0.366    0.219    7.412
  467.500   83.264  152.063    0.368    0.228    7.706
  467.750   78.106  152.059    0.355    0.235    7.857
  468.000   80.969  153.011    0.327    0.220    8.012
  468.250   90.705  153.963    0.338    0.196    8.023
  468.500   90.703  154.914    0.355    0.201    7.886
  468.750   95.857  156.820    0.361    0.186    7.337
  469.000   85.544  156.818    0.345    0.170    6.950
  469.250   75.803  156.814    0.324    0.180    6.830
  469.500   72.937  156.811    0.318    0.225    6.716
  469.750   72.934  155.853    0.326    0.239    6.723
  470.000   74.651  155.850    0.324    0.246    6.861
  470.250   76.368  155.847    0.317    0.251    6.866
  470.500   74.647  153.933    0.312    0.248    7.139
  470.750   73.499  153.929    0.325    0.233    7.417
  471.000   73.497  153.927    0.332    0.185    7.706
  471.250   73.496  153.924    0.325    0.117    7.858
  471.500   74.640  153.920    0.314    0.122    8.477
  471.750   78.075  153.917    0.315    0.141    8.641
  472.000   84.375  154.869    0.320    0.163    8.814
  472.250   91.820  156.775    0.318    0.189    8.511
  472.500   91.819  158.681    0.319    0.199    8.361
  472.750   87.806  159.632    0.348    0.194    7.775
  473.000   89.523  159.630    0.370    0.178    7.503
  473.250   94.104  159.626    0.353    0.167    7.241
  473.500   92.956  159.623    0.333    0.160    7.118
  473.750   90.090  159.621    0.331    0.163    6.999
  474.000   82.641  159.618    0.346    0.187    7.141
  474.250   79.201  159.612    0.338    0.202    7.148
  474.500   82.637  159.610    0.318    0.218    7.289
  474.750   80.916  159.608    0.317    0.212    7.165
  475.000   74.040  159.603    0.327    0.196    7.045
  475.250   66.591  159.601    0.347    0.205    6.799
  475.500   65.442  159.597    0.353    0.232    6.810
  475.750   70.024  159.595    0.328    0.238    6.819
  476.000   75.751  159.591    0.312    0.208    6.830
  476.250   74.603  158.633    0.307    0.198    6.835
  476.500   75.747  157.675    0.313    0.198    6.844
  476.750   75.745  157.672    0.329    0.189    6.983
  477.000   75.170  157.668    0.329    0.186    6.992
  477.250   74.595  157.665    0.325    0.181    6.999
  477.500   76.885  156.708    0.319    0.168    7.277
  477.750   82.039  156.705    0.321    0.156    7.284
  478.000   87.765  155.746    0.326    0.159    7.427
  478.250   88.336  155.742    0.327    0.169    7.437
  478.500   86.616  154.785    0.332    0.180    7.311
  478.750   80.885  154.782    0.330    0.188    6.804
  479.000   74.009  153.824    0.329    0.202    6.563
  479.250   67.705  152.866    0.347    0.228    6.106
  479.500   54.528  151.908    0.370    0.258    5.573
  479.750   41.349  150.949    0.390    0.283    5.183
  480.000   34.473  150.947    0.390    0.309    4.818
  480.250   33.898  150.943    0.377    0.342    4.481
  480.500   35.041  151.895    0.382    0.346    4.167
  480.750   35.039  152.847    0.388    0.345    3.876
  481.000   35.038  152.844    0.395    0.349    3.673
  481.250   33.318  152.840    0.395    0.360    3.609
  481.500   29.878  152.837    0.391    0.363    3.548
  481.750   29.303  152.833    0.384    0.364    3.424
  482.000   30.447  152.830    0.385    0.365    3.367
  482.250   31.018  152.828    0.382    0.366    3.370
  482.500   31.016  152.823    0.369    0.366    3.314
  482.750   29.868  152.821    0.363    0.366    3.317
  483.000   29.293  152.818    0.376    0.365    3.324
  483.250   31.010  153.769    0.389    0.364    3.327
  483.500   32.727  153.765    0.396    0.368    3.331
  483.750   33.871  153.762    0.399    0.372    3.399
  484.000   33.869  153.759    0.395    0.376    3.404
  484.250   33.867  153.755    0.385    0.378    3.409
  484.500   34.438  153.753    0.373    0.373    3.411
  484.750   34.436  153.748    0.377    0.366    3.481
  485.000   36.153  153.747    0.381    0.362    3.552
  485.250   39.588  153.742    0.383    0.357    3.554
  485.500   44.169  153.741    0.375    0.344    3.625
  485.750   47.031  153.737    0.376    0.336    3.566
  486.000   47.029  153.734    0.385    0.349    3.504
  486.250   43.018  153.731    0.383    0.362    3.507
  486.500   36.714  153.726    0.376    0.369    3.385
  486.750   33.275  153.723    0.381    0.375    3.327
  487.000   31.554  154.676    0.382    0.376    3.213
  487.250   30.980  154.672    0.382    0.373    3.216
  487.500   32.123  154.669    0.391    0.371    3.160
  487.750   33.840  153.711    0.403    0.372    3.165
  488.000   34.411  152.753    0.405    0.371    3.112
  488.250   34.409  152.751    0.389    0.368    3.117
  488.500   34.407  152.747    0.370    0.358    3.121
  488.750   33.259  152.744    0.370    0.361    3.125
  489.000   32.685  152.740    0.356    0.362    3.129
  489.250   33.256  152.736    0.328    0.359    3.077
  489.500   34.972  152.733    0.352    0.358    3.079
  489.750   35.543  151.776    0.375    0.358    3.027
  490.000   33.823  151.772    0.369    0.357    3.032
  490.250   32.675  151.769    0.362    0.355    3.035
  490.500   30.382  151.766    0.375    0.352    3.041
  490.750   29.807  151.762    0.382    0.355    3.044
