~VERSION INFORMATION
 VERS.                 2.0:   CWLS LOG ASCII STANDARD -VERSION 2.0
 WRAP.                  NO:   ONE LINE PER DEPTH STEP
~WELL INFORMATION BLOCK
#MNEM.UNIT           DATA                    DESCRIPTION OF MNEMONIC
#---------    -------------------            -------------------------------
# Generated from Intellog Unique Number	CS_73_76/WELL/2105
WELL.         PEX KIRBY                      : Well_name    - WELL
LOC .         00/07-09-075-06W4/0            : Location     - LOCATION
UWI .         00/07-09-075-06W4/0            : Uwi          - UNIQUE WELL ID
ENTR.         SP                             : Entered      - ENTERED BY
SRVC.         SCHLUMBERGER                   : Scn          - SERVICE COMPANY
STRT.M        250                            : top_depth    - START DEPTH
STOP.M        490                            : bot_depth    - STOP DEPTH
STEP.M        0.25                           : increment    - STEP LENGTH
 NULL. -999.2500:NULL Value
~CURVE INFORMATION BLOCK
#MNEM UNIT       ERCB CURVE CODE    CURVE DESCRIPTION
#-----------   ------------------   ----------------------------------
DEPT.M        00 001 00 00         : DEPTH        - DEPTH
ILD .OHMM     00 120 00 00         : RESD         - DEEP RESISTIVITY (DIL)
DPHI.V/V      00 890 00 00         : PHID         - DENSITY POROSITY (LIMESTONE)
NPHI.V/V      00 330 00 00         : PHIN         - NEUTRON POROSITY (LIMESTONE)
GR  .API      00 310 00 00         : GR           - GAMMA RAY
~PARAMETER INFORMATION
#MNEM.UNIT           DATA             DESCRIPTION OF MNEMONIC
#---------         -----------     ------------------------------
GL  .M        648.36               : gl           - GROUND LEVEL ELEVATION
EREF.M        651.64               : kb           - ELEVATION OF DEPTH REFERENCE
DATM.M        648.36               : datum        - DATUM ELEVATION
TDD .M        497                  : tdd          - TOTAL DEPTH DRILLER
RUN .         ONE                  : Run          - RUN NUMBER
ENG .         BILL                 : Engineer     - RECORDING ENGINEER
WIT .         JIM                  : Witness      - WITNESSED BY
MUD .         GEL                  : Mud_type     - MUD TYPE
MATR.         LIMESTONE            : Logunit      - NEUTRON MATRIX
TMAX.C        21                   : BHT          - MAXIMUM RECORDED TEMPERATURE
BHTD.M        497                  : BHTDEP       - MAXIMUM RECORDED TEMPERATURE
MATR.         1                    : LOGUNIT      - NEUTRON MATRIX
RMT .C        25                   : MDTP         - TEMPERATURE OF MUD
NEUT.         1                    : NEUTRON      - NEUTRON TYPE
RESI.         0                    : RESIST       - RESISTIVITY TYPE
RMC .OHMM     0.25                 : RMC          - RESISTIVITY OF MUD CAKE
RMF .OHMM     0.25                 : RMF          - RESISTIVITY OF MUD FILTRATE
SUFT.C        15                   : SUFT         - SURFACE TEMPERATURE
~A  DEPTH     RESD     PHID     PHIN       GR
# ...
  337.000    4.337    0.251    0.386   89.731
  337.250    5.139    0.232    0.359   89.123
  337.500    5.976    0.207    0.353   85.467
  337.750    6.207    0.215    0.370   86.078
  338.000    5.869    0.207    0.359   83.642
  338.250    4.958    0.207    0.385   82.424
  338.500    4.188    0.237    0.407   84.255
  338.750    3.538    0.270    0.420   87.916
  339.000    3.345    0.278    0.445   90.966
  339.250    3.047    0.234    0.441   92.798
  339.500    2.881    0.216    0.441   90.971
  339.750    2.937    0.247    0.432   90.973
  340.000    3.352    0.267    0.419   88.535
  340.250    3.753    0.281    0.401   80.001
  340.500    4.365    0.292    0.386   76.954
  340.750    4.619    0.263    0.382   77.566
  341.000    5.077    0.247    0.381   78.178
  341.250    5.175    0.268    0.377   71.473
  341.500    5.376    0.289    0.374   72.084
  341.750    5.278    0.305    0.372   66.599
  342.000    5.280    0.319    0.392   70.869
  342.250    5.184    0.311    0.404   67.823
  342.500    5.090    0.312    0.413   67.824
  342.750    4.997    0.323    0.397   70.875
  343.000    4.906    0.301    0.381   69.657
  343.250    4.728    0.272    0.369   72.099
  343.500    4.642    0.240    0.379   76.370
  343.750    4.472    0.229    0.392   76.981
  344.000    4.391    0.241    0.416   76.373
  344.250    4.231    0.256    0.404   77.594
  344.500    4.154    0.275    0.411   81.256
  344.750    4.078    0.246    0.421   81.867
  345.000    4.005    0.227    0.410   83.088
  345.250    4.007    0.252    0.419   84.311
  345.500    4.008    0.260    0.418   87.361
  345.750    4.085    0.262    0.430   92.850
  346.000    4.325    0.262    0.416   94.682
  346.250    4.408    0.265    0.403   87.367
  346.500    4.579    0.260    0.405   78.222
  346.750    4.757    0.243    0.410   75.176
  347.000    4.758    0.235    0.408   74.568
  347.250    4.761    0.249    0.408   75.180
  347.500    4.588    0.265    0.405   78.841
  347.750    4.419    0.273    0.411   83.111
  348.000    4.340    0.236    0.404   83.722
  348.250    4.341    0.235    0.405   83.724
  348.500    4.511    0.232    0.397   83.727
  348.750    4.598    0.214    0.402   89.216
  349.000    4.775    0.225    0.397   84.950
  349.250    5.152    0.230    0.377   82.513
  349.500    5.251    0.215    0.372   82.515
  349.750    5.353    0.224    0.366   79.469
  350.000    5.666    0.225    0.355   75.812
  350.250    5.775    0.218    0.328   69.717
  350.500    6.113    0.022    0.289   66.670
  350.750    6.351    0.000    0.304   61.184
  351.000    6.352    0.031    0.350   56.917
  351.250    6.007    0.167    0.386   83.139
  351.500    5.370    0.180    0.394   84.970
  351.750    5.173    0.205    0.410   83.143
  352.000    4.891    0.233    0.428   82.535
  352.250    4.803    0.251    0.422   79.489
  352.500    4.805    0.258    0.408   84.978
  352.750    4.807    0.254    0.408   89.249
  353.000    4.720    0.220    0.411   89.861
  353.250    4.633    0.220    0.422   89.863
  353.500    4.381    0.206    0.437   88.645
  353.750    3.990    0.209    0.433   85.598
  354.000    3.500    0.243    0.450   84.381
  354.250    3.309    0.265    0.459   83.773
  354.500    3.014    0.290    0.446   89.263
  354.750    2.904    0.285    0.444   94.753
  355.000    2.746    0.273    0.436   97.804
  355.250    2.799    0.255    0.438   98.415
  355.500    2.853    0.255    0.436   95.979
  355.750    2.909    0.254    0.424   98.419
  356.000    3.022    0.270    0.416   97.812
  356.250    3.139    0.297    0.411   94.155
  356.500    3.261    0.313    0.399   92.328
  356.750    3.387    0.304    0.400   92.331
  357.000    3.518    0.314    0.406   91.722
  357.250    3.587    0.302    0.394   86.236
  357.500    3.656    0.270    0.394   85.019
  357.750    3.727    0.279    0.417   84.411
  358.000    3.872    0.286    0.410   84.413
  358.250    4.022    0.288    0.399   84.416
  358.500    4.257    0.277    0.376   84.418
  358.750    4.421    0.261    0.354   83.809
  359.000    4.424    0.244    0.343   82.593
  359.250    4.105    0.329    0.329   70.399
  359.500    3.468    0.377    0.321   66.133
  359.750    3.042    0.415    0.367   64.915
  360.000    2.876    0.372    0.395   56.991
  360.250    2.571    0.350    0.379   50.285
  360.500    2.431    0.352    0.379   48.458
  360.750    2.342    0.350    0.394   46.631
  361.000    2.299    0.337    0.395   46.023
  361.250    2.301    0.328    0.386   47.245
  361.500    2.345    0.339    0.379   47.856
  361.750    2.391    0.346    0.392   49.078
  362.000    2.392    0.329    0.384   51.520
  362.250    2.438    0.326    0.390   52.741
  362.500    2.439    0.336    0.404   51.523
  362.750    2.440    0.334    0.412   46.037
  363.000    2.488    0.342    0.400   46.040
  363.250    2.442    0.339    0.383   46.651
  363.500    2.444    0.328    0.371   47.873
  363.750    2.445    0.332    0.383   49.094
  364.000    2.446    0.325    0.387   49.706
  364.250    2.447    0.320    0.400   46.659
  364.500    2.447    0.328    0.414   49.711
  364.750    2.404    0.335    0.399   52.152
  365.000    2.405    0.352    0.389   54.593
  365.250    2.406    0.356    0.382   56.423
  365.500    2.407    0.363    0.378   57.645
  365.750    2.408    0.369    0.378   57.037
  366.000    2.409    0.378    0.388   56.429
  366.250    2.410    0.368    0.395   54.602
  366.500    2.411    0.352    0.399   55.214
  366.750    2.412    0.352    0.401   57.045
  367.000    2.412    0.345    0.387   59.487
  367.250    2.413    0.359    0.373   60.708
  367.500    2.415    0.370    0.372   57.661
  367.750    2.416    0.369    0.382   54.614
  368.000    2.463    0.365    0.381   57.055
  368.250    2.511    0.361    0.384   60.106
  368.500    2.559    0.363    0.377   63.157
  368.750    2.659    0.376    0.371   61.331
  369.000    2.711    0.376    0.351   60.722
  369.250    2.763    0.358    0.365   65.603
  369.500    2.870    0.348    0.360   64.385
  369.750    2.981    0.329    0.361   61.948
  370.000    3.216    0.329    0.367   65.608
  370.250    3.340    0.327    0.373   68.049
  370.500    3.602    0.304    0.381   72.320
  370.750    3.742    0.292    0.387   73.541
  371.000    3.887    0.281    0.405   77.202
  371.250    4.039    0.274    0.423   75.985
  371.500    4.117    0.288    0.404   74.157
  371.750    4.197    0.309    0.411   71.110
  372.000    4.198    0.299    0.428   69.283
  372.250    4.200    0.259    0.402   70.504
  372.500    4.046    0.251    0.393   71.726
  372.750    3.826    0.238    0.384   74.168
  373.000    3.293    0.234    0.389   80.267
  373.250    2.349    0.225    0.394   78.439
  373.500    2.022    0.210    0.391   82.100
  373.750    1.807    0.207    0.409   82.712
  374.000    1.877    0.185    0.431   81.494
  374.250    2.025    0.187    0.444   85.155
  374.500    2.267    0.180    0.439   80.889
  374.750    2.738    0.172    0.426   79.061
  375.000    2.952    0.188    0.420   79.673
  375.250    3.499    0.210    0.445   82.115
  375.500    3.703    0.236    0.443   81.507
  375.750    3.846    0.262    0.457   76.021
  376.000    3.638    0.282    0.470   78.462
  376.250    3.571    0.284    0.457   75.415
  376.500    3.709    0.305    0.443   78.466
  376.750    4.001    0.371    0.428   78.468
  377.000    4.566    0.447    0.398   77.250
  377.250    4.924    0.468    0.366   77.252
  377.500    5.212    0.338    0.349   72.987
  377.750    5.728    0.386    0.336   68.721
  378.000    6.064    0.423    0.328   64.454
  378.250    5.841    0.408    0.339   58.358
  378.500    5.221    0.396    0.358   58.360
  378.750    4.755    0.379    0.378   57.142
  379.000    4.496    0.355    0.394   56.535
  379.250    4.251    0.360    0.378   58.367
  379.500    4.096    0.344    0.373   58.978
  379.750    4.022    0.338    0.368   58.370
  380.000    3.949    0.330    0.357   57.153
  380.250    4.102    0.341    0.373   57.155
