~VERSION INFORMATION
 VERS.                 2.0:   CWLS LOG ASCII STANDARD -VERSION 2.0
 WRAP.                  NO:   ONE LINE PER DEPTH STEP
~WELL INFORMATION BLOCK
#MNEM.UNIT           DATA                    DESCRIPTION OF MNEMONIC
#---------    -------------------            -------------------------------
# Generated from Intellog Unique Number	CC_80_83/WELL/1170
NULL.         -999.25                        : NULL_VALUE
WELL.         CHEVRON CDN-SUP ALGAR          : Well_name    - WELL
LOC .         06-36-082-16W4                 : Location     - LOCATION          
UWI .         00/06-36-082-16W400            : Uwi          - UNIQUE WELL ID    
ENTR.         DW                             : Entered      - ENTERED BY        
SRVC.         SCHLUMBERGER                   : Scn          - SERVICE COMPANY   
DATE.         17 MAR 74                      : Date         - LOG DATE
STRT.M        97.536                         : top_depth    - START DEPTH       
STOP.M        289.559                        : bot_depth    - STOP DEPTH        
STEP.M        0.3048                         : increment    - STEP LENGTH       
~CURVE INFORMATION BLOCK
#MNEM UNIT       ERCB CURVE CODE    CURVE DESCRIPTION
#-----------   ------------------   ----------------------------------
DEPT.M        00 001 00 00         : DEPTH        - DEPTH                       
DPHI.V/V      00 890 00 00         : PHID         - DENSITY POROSITY (LIMESTONE)
NPHI.V/V      00 330 00 00         : PHIN         - NEUTRON POROSITY (LIMESTONE)
GR  .API      00 310 00 00         : GR           - GAMMA RAY                   
ILD .OHMM     00 120 00 00         : RESD         - DEEP RESISTIVITY (DIL)      
~PARAMETER INFORMATION       
#MNEM.UNIT           DATA             DESCRIPTION OF MNEMONIC
#---------         -----------     ------------------------------
GL  .M        545.592              : gl           - GROUND LEVEL ELEVATION      
EREF.M        549.25               : kb           - ELEVATION OF DEPTH REFERENCE
DATM.M        549.25               : datum        - DATUM ELEVATION             
TDD .M        289.56               : tdd          - TOTAL DEPTH DRILLER         
RUN .         ONE                  : Run          - RUN NUMBER                  
ENG .         BILL                 : Engineer     - RECORDING ENGINEER          
WIT .         JIM                  : Witness      - WITNESSED BY                
MUD .         GEL                  : Mud_type     - MUD TYPE                    
MATR.         LIMESTONE            : Logunit      - NEUTRON MATRIX              
TMAX.C        23.3333              : BHT          - MAXIMUM RECORDED TEMPERATURE
BHTD.M        289.56               : BHTDEP       - MAXIMUM RECORDED TEMPERATURE
MATR.         1                    : LOGUNIT      - NEUTRON MATRIX              
RMT .C        25                   : MDTP         - TEMPERATURE OF MUD          
NEUT.         1                    : NEUTRON      - NEUTRON TYPE                
RESI.         0                    : RESIST       - RESISTIVITY TYPE            
RMC .OHMM     0.25                 : RMC          - RESISTIVITY OF MUD CAKE     
RMF .OHMM     0.25                 : RMF          - RESISTIVITY OF MUD FILTRATE 
SUFT.C        15                   : SUFT         - SURFACE TEMPERATURE         
~A  DEPTH     PHID     PHIN       GR     RESD
# ...
  150.571    0.244    0.448   77.976   10.929
  150.876    0.271    0.479   75.595   10.154
  151.181    0.294    0.490   63.691   10.158
  151.485    0.287    0.491   64.286   10.356
  151.790    0.278    0.487   70.238   10.173
  152.095    0.277    0.485   77.976    9.450
  152.400    0.270    0.490   82.143    8.618
  152.705    0.263    0.501   84.524    7.436
  153.009    0.256    0.496   84.524    6.907
  153.314    0.244    0.490   85.119    6.183
  153.619    0.232    0.490   85.119    5.960
  153.924    0.229    0.483   85.119    6.192
  154.229    0.253    0.472   92.262    6.429
  154.533    0.264    0.462  100.000    7.325
  154.838    0.263    0.466  101.190    8.345
  155.143    0.282    0.484  100.595    9.509
  155.448    0.290    0.469   97.024   10.439
  155.752    0.306    0.456   91.667   11.250
  156.057    0.294    0.452   88.691   11.258
  156.362    0.284    0.473   88.095   11.059
  156.667    0.269    0.466   89.286   10.665
  156.972    0.256    0.460   89.286   10.474
  157.276    0.256    0.458   88.095   10.478
  157.581    0.284    0.462   85.119   12.163
  157.886    0.322    0.461   74.405   15.784
  158.191    0.323    0.460   62.500   16.387
  158.496    0.305    0.456   57.143   17.341
  158.800    0.293    0.456   55.952   17.351
  159.105    0.298    0.458   58.929   17.040
  159.410    0.323    0.468   64.881   16.744
  159.715    0.323    0.462   61.905   16.444
  160.020    0.316    0.457   60.119   16.149
  160.324    0.333    0.462   61.309   16.159
  160.629    0.345    0.472   63.691   16.477
  160.934    0.346    0.466   64.881   17.108
  161.239    0.330    0.461   64.286   17.117
  161.544    0.339    0.450   65.476   17.450
  161.848    0.311    0.443   66.667   17.458
  162.153    0.289    0.446   65.476   17.151
  162.458    0.306    0.450   59.524   17.158
  162.763    0.327    0.456   62.500   17.176
  163.068    0.328    0.463   63.691   17.185
  163.372    0.327    0.481   66.071   17.517
  163.677    0.333    0.469   68.452   17.523
  163.982    0.327    0.506   66.071   17.215
  164.287    0.321    0.489   64.881   17.222
  164.592    0.347    0.473   64.881   16.920
  164.896    0.338    0.466   65.476   16.927
  165.201    0.328    0.472   65.476   16.631
  165.506    0.324    0.472   64.286   16.334
  165.811    0.323    0.481   61.905   16.041
  166.115    0.327    0.481   61.905   15.471
  166.420    0.340    0.477   63.095   14.915
  166.725    0.339    0.469   65.476   14.646
  167.030    0.330    0.463   67.857   13.358
  167.335    0.310    0.467   70.238   11.312
  167.639    0.273    0.454   76.786    9.755
  167.944    0.253    0.462   87.500    7.121
  168.249    0.213    0.490   97.619    5.395
  168.554    0.210    0.496   97.024    5.201
  168.859    0.192    0.501   99.405    5.108
  169.163    0.203    0.515  101.190    5.017
  169.468    0.215    0.513  102.381    5.310
  169.773    0.223    0.491  102.381    5.411
  170.078    0.208    0.484  101.786    5.726
  170.383    0.206    0.512  102.976    5.836
  170.687    0.214    0.537  104.762    5.948
  170.992    0.218    0.533  105.952    6.064
  171.297    0.226    0.530  103.571    6.068
  171.602    0.236    0.524  101.786    5.961
  171.907    0.195    0.508  102.381    5.853
  172.211    0.210    0.518  103.571    5.858
  172.516    0.212    0.519  106.548    5.971
  172.821    0.195    0.514  110.714    5.974
  173.126    0.217    0.507  114.286    5.980
  173.431    0.226    0.484  110.119    5.873
  173.735    0.207    0.491  105.357    5.663
  174.040    0.198    0.515  104.167    5.562
  174.345    0.210    0.503  107.738    5.462
  174.650    0.215    0.500  111.905    5.570
  174.955    0.208    0.502  111.310    5.572
  175.259    0.196    0.508  105.952    5.576
  175.564    0.215    0.525  106.548    5.683
  175.869    0.220    0.532  106.548    5.901
  176.174    0.174    0.527  104.167    6.243
  176.478    0.162    0.422   88.095    6.365
  176.783    0.134    0.439   89.286    6.251
  177.088    0.242    0.533   98.214    5.493
  177.393    0.235    0.548  108.333    5.200
  177.698    0.233    0.550  110.714    5.399
  178.002    0.282    0.527  113.095    6.038
  178.307    0.273    0.502  118.452    8.596
  178.612    0.232    0.485  135.119   12.237
  178.917    0.218    0.483  148.810   15.017
  179.222    0.183    0.485  155.357   16.487
  179.526    0.186    0.487  148.214   16.809
  179.831    0.233    0.473  109.524   16.514
  180.136    0.240    0.465   92.262   16.217
  180.441    0.235    0.500   84.524   14.793
  180.746    0.236    0.486   75.595   14.260
  181.050    0.261    0.480   71.429   13.751
  181.355    0.288    0.508   72.024   13.505
  181.660    0.308    0.502   74.405   13.514
  181.965    0.317    0.487   75.000   13.029
  182.270    0.323    0.484   74.405   12.330
  182.574    0.323    0.483   73.214   11.457
  182.879    0.317    0.490   73.214   11.045
  183.184    0.312    0.484   75.000   10.850
  183.489    0.312    0.465   75.000   10.856
  183.794    0.307    0.468   74.405   11.064
  184.098    0.325    0.468   70.238   11.281
  184.403    0.339    0.483   69.048   11.287
  184.708    0.346    0.502   67.857   11.089
  185.013    0.333    0.512   67.262   10.691
  185.318    0.322    0.520   67.262   10.696
  185.622    0.307    0.515   69.643   10.906
  185.927    0.279    0.481   72.024   11.115
  186.232    0.281    0.469   72.619   11.120
  186.537    0.299    0.484   71.429   10.926
  186.841    0.311    0.504   70.238   10.931
  187.146    0.317    0.501   69.643   10.541
  187.451    0.324    0.502   70.238   10.544
  187.756    0.325    0.515   70.833   10.551
  188.061    0.323    0.520   72.619   10.366
  188.365    0.306    0.524   74.405    9.628
  188.670    0.282    0.537   75.595    8.780
  188.975    0.307    0.533   75.000    8.951
  189.280    0.315    0.518   69.643    9.294
  189.585    0.295    0.489   71.429    9.131
  189.889    0.271    0.492   75.000    8.804
  190.194    0.254    0.508   80.952    8.178
  190.499    0.241    0.506   85.714    7.459
  190.804    0.244    0.490   89.881    7.326
  191.109    0.261    0.498   90.476    7.198
  191.413    0.264    0.491   89.286    7.201
  191.718    0.253    0.484   86.905    7.205
  192.023    0.254    0.486   85.714    7.212
  192.328    0.272    0.496   83.929    7.083
  192.633    0.284    0.495   80.952    7.086
  192.937    0.282    0.497   79.167    7.089
  193.242    0.270    0.481   81.548    6.965
  193.547    0.248    0.478   82.143    6.840
  193.852    0.232    0.480   82.143    6.597
  194.157    0.232    0.491   81.548    6.723
  194.461    0.235    0.487   80.357    7.114
  194.766    0.254    0.484   78.571    7.249
  195.071    0.281    0.485   79.762    7.529
  195.376    0.305    0.491   82.143    7.396
  195.681    0.318    0.518   77.976    6.870
  195.985    0.336    0.517   75.595    6.624
  196.290    0.347    0.506   69.048    6.879
  196.595    0.354    0.502   61.309    7.694
  196.900    0.350    0.501   60.714    8.931
  197.204    0.339    0.506   60.714    9.626
  197.509    0.350    0.510   62.500    9.633
  197.814    0.359    0.501   63.691    9.639
  198.119    0.339    0.496   65.476    9.643
  198.424    0.321    0.498   65.476    9.297
  198.728    0.334    0.498   63.691    8.967
  199.033    0.342    0.498   61.905    8.806
  199.338    0.347    0.504   61.905    8.648
  199.643    0.336    0.508   63.691    8.495
  199.948    0.342    0.513   67.262    8.661
  200.252    0.348    0.510   69.643    8.827
  200.557    0.341    0.509   67.857    8.673
  200.862    0.328    0.492   66.071    8.677
  201.167    0.329    0.474   67.262    8.846
  201.472    0.331    0.477   67.857    8.850
  201.776    0.315    0.504   65.476    8.856
  202.081    0.308    0.527   64.286    8.860
  202.386    0.308    0.515   64.881    8.868
  202.691    0.308    0.502   67.262    8.873
  202.996    0.311    0.497   69.048    8.878
  203.300    0.313    0.501   69.048    8.884
