~VERSION INFORMATION
 VERS.                 2.0:   CWLS LOG ASCII STANDARD -VERSION 2.0
 WRAP.                  NO:   ONE LINE PER DEPTH STEP
~WELL INFORMATION BLOCK
#MNEM.UNIT           DATA                    DESCRIPTION OF MNEMONIC
#---------    -------------------            -------------------------------
# Generated from Intellog Unique Number	CS_67_68/WELL/2181
WELL.         07-34-067-08W4                 : Well_name    - WELL
LOC .         00/07-34-067-08W4/0            : Location     - LOCATION
UWI .         00/07-34-067-08W4/0            : Uwi          - UNIQUE WELL ID
ENTR.         SP                             : Entered      - ENTERED BY
SRVC.         SCHLUMBERGER                   : Scn          - SERVICE COMPANY
STRT.M        340                            : top_depth    - START DEPTH
STOP.M        563                            : bot_depth    - STOP DEPTH
STEP.M        0.25                           : increment    - STEP LENGTH
 NULL. -999.2500:NULL Value
~CURVE INFORMATION BLOCK
#MNEM UNIT       ERCB CURVE CODE    CURVE DESCRIPTION
#-----------   ------------------   ----------------------------------
DEPT.M        00 001 00 00         : DEPTH        - DEPTH
ILD .OHMM     00 120 00 00         : RESD         - DEEP RESISTIVITY (DIL)
DPHI.V/V      00 890 00 00         : PHID         - DENSITY POROSITY (LIMESTONE)
NPHI.V/V      00 330 00 00         : PHIN         - NEUTRON POROSITY (LIMESTONE)
GR  .API      00 310 00 00         : GR           - GAMMA RAY
CALI.MM       00 280 01 00         : CAL          - CALIPER
~PARAMETER INFORMATION
#MNEM.UNIT           DATA             DESCRIPTION OF MNEMONIC
#---------         -----------     ------------------------------
GL  .M        644.13               : gl           - GROUND LEVEL ELEVATION
EREF.M        648.68               : kb           - ELEVATION OF DEPTH REFERENCE
DATM.M        648.68               : datum        - DATUM ELEVATION
TDD .M        572                  : tdd          - TOTAL DEPTH DRILLER
RUN .         ONE                  : Run          - RUN NUMBER
ENG .         BILL                 : Engineer     - RECORDING ENGINEER
WIT .         JIM                  : Witness      - WITNESSED BY
MUD .         GEL                  : Mud_type     - MUD TYPE
MATR.         LIMESTONE            : Logunit      - NEUTRON MATRIX
TMAX.C        23                   : BHT          - MAXIMUM RECORDED TEMPERATURE
BHTD.M        571                  : BHTDEP       - MAXIMUM RECORDED TEMPERATURE
MATR.         1                    : LOGUNIT      - NEUTRON MATRIX
RMT .C        25                   : MDTP         - TEMPERATURE OF MUD
NEUT.         1                    : NEUTRON      - NEUTRON TYPE
RESI.         0                    : RESIST       - RESISTIVITY TYPE
RMC .OHMM     0.25                 : RMC          - RESISTIVITY OF MUD CAKE
RMF .OHMM     0.25                 : RMF          - RESISTIVITY OF MUD FILTRATE
SUFT.C        15                   : SUFT         - SURFACE TEMPERATURE
~A  DEPTH     RESD     PHID     PHIN       GR      CAL
  340.000    2.797    0.406    0.540   85.590  254.449
  340.250    2.689    0.424    0.540   86.381  238.165
  340.500    2.561    0.394    0.554   88.278  227.512
  340.750    2.402    0.348    0.559   89.314  218.189
  341.000    2.403    0.307    0.549   86.114  212.548
  341.250    2.515    0.292    0.553   85.493  225.837
  341.500    2.647    0.281    0.546   87.758  233.094
  341.750    2.683    0.297    0.540   83.820  234.923
  342.000    2.633    0.338    0.549   87.866  233.786
  342.250    2.560    0.266    0.528   94.614  226.508
  342.500    2.447    0.241    0.490   98.413  222.812
  342.750    2.425    0.266    0.506   91.898  221.981
  343.000    2.500    0.296    0.523   83.110  225.245
  343.250    2.524    0.303    0.547   83.963  229.019
  343.500    2.496    0.270    0.575   84.999  230.849
  343.750    2.526    0.239    0.522   84.072  230.325
  344.000    2.750    0.226    0.474   79.521  229.087
  344.250    3.011    0.215    0.470   77.734  227.846
  344.500    3.336    0.230    0.467   81.348  225.481
  344.750    3.510    0.221    0.454   84.287  225.879
  345.000    3.716    0.238    0.445   85.387  225.353
  345.250    3.867    0.250    0.448   85.809  223.910
  345.500    3.817    0.251    0.442   86.294  221.853
  345.750    3.768    0.248    0.431   86.655  219.692
  346.000    3.783    0.240    0.424   85.297  223.466
  346.250    3.907    0.233    0.438   83.448  225.604
  346.500    4.043    0.228    0.435   80.187  224.466
  346.750    4.232    0.219    0.441   76.558  220.053
  347.000    4.379    0.214    0.462   74.647  222.805
  347.250    4.355    0.236    0.478   76.234  230.978
  347.500    4.291    0.264    0.476   77.948  235.369
  347.750    4.180    0.236    0.454   80.090  237.711
  348.000    4.087    0.215    0.444   83.337  227.258
  348.250    3.959    0.225    0.436   80.874  220.086
  348.500    3.923    0.268    0.420   77.797  212.297
  348.750    3.872    0.269    0.407   75.886  209.214
  349.000    3.822    0.237    0.413   74.591  210.840
  349.250    3.809    0.225    0.427   81.520  217.480
  349.500    3.875    0.215    0.440   85.505  220.333
  349.750    3.950    0.204    0.433   83.042  220.322
  350.000    3.996    0.220    0.407   78.736  219.491
  350.250    3.863    0.240    0.402   77.011  220.195
  350.500    3.785    0.223    0.440   76.205  222.845
  350.750    3.843    0.208    0.458   80.864  225.903
  351.000    3.969    0.212    0.457   84.296  225.992
  351.250    4.031    0.223    0.421   84.472  225.163
  351.500    3.964    0.227    0.402   83.730  222.593
  351.750    3.796    0.225    0.406   81.942  222.169
  352.000    3.691    0.222    0.403   80.523  223.489
  352.250    3.657    0.232    0.398   80.761  224.910
  352.500    3.603    0.218    0.407   82.657  225.616
  352.750    3.517    0.208    0.421   82.098  226.012
  353.000    3.485    0.203    0.436   81.537  224.671
  353.250    3.420    0.216    0.450   83.741  222.204
  353.500    3.486    0.223    0.431   74.218  221.577
  353.750    3.527    0.272    0.385   63.343  222.793
  354.000    3.378    0.293    0.415   77.150  223.601
  354.250    3.080    0.244    0.456   82.730  223.588
  354.500    2.884    0.225    0.462   72.040  221.939
  354.750    2.715    0.269    0.423   62.577  220.392
  355.000    2.538    0.333    0.398   52.255  220.379
  355.250    2.349    0.324    0.389   45.371  220.676
  355.500    2.204    0.318    0.404   42.970  222.197
  355.750    2.259    0.312    0.443   48.733  222.596
  356.000    2.307    0.298    0.482   48.911  221.971
  356.250    2.325    0.297    0.427   42.395  220.833
  356.500    2.352    0.308    0.403   36.617  220.208
  356.750    2.330    0.313    0.402   31.576  218.864
  357.000    2.270    0.309    0.411   32.304  218.445
  357.250    2.224    0.301    0.424   36.658  217.102
  357.500    2.220    0.300    0.438   40.456  216.065
  357.750    2.229    0.300    0.435   40.327  216.056
  358.000    2.226    0.296    0.425   38.970  215.632
  358.250    2.176    0.291    0.426   43.629  215.827
  358.500    2.096    0.290    0.399   45.217  215.814
  358.750    2.019    0.313    0.378   41.526  215.801
  359.000    1.997    0.326    0.421   37.591  216.201
  359.250    1.990    0.326    0.441   34.943  215.778
  359.500    2.047    0.318    0.419   37.392  215.155
  359.750    2.122    0.309    0.405   36.709  215.039
  360.000    2.151    0.308    0.394   35.105  214.722
  360.250    2.193    0.309    0.403   34.977  214.198
  360.500    2.260    0.304    0.410   40.249  212.855
  360.750    2.265    0.289    0.402   41.962  212.435
  361.000    2.261    0.297    0.407   41.279  210.581
  361.250    2.262    0.317    0.408   39.307  208.727
  361.500    2.271    0.327    0.410   37.765  206.565
  361.750    2.255    0.324    0.423   36.469  205.122
  362.000    2.221    0.324    0.432   37.567  204.701
  362.250    2.205    0.324    0.423   36.393  205.099
  362.500    2.197    0.319    0.418   36.569  206.825
  362.750    2.214    0.310    0.420   37.728  208.248
  363.000    2.232    0.313    0.418   37.846  210.281
  363.250    2.249    0.326    0.407   37.409  211.806
  363.500    2.284    0.311    0.411   35.867  213.839
  363.750    2.346    0.292    0.429   33.343  215.055
  364.000    2.423    0.281    0.441   30.940  215.453
  364.250    2.507    0.287    0.434   30.442  215.646
  364.500    2.614    0.292    0.413   32.645  215.736
  364.750    2.746    0.274    0.427   42.831  217.260
  365.000    2.868    0.263    0.454   52.279  220.216
  365.250    3.053    0.281    0.471   64.613  229.925
  365.500    3.214    0.305    0.488   72.220  242.194
  365.750    3.428    0.290    0.477   85.843  251.392
  366.000    3.587    0.258    0.466   93.204  252.402
  366.250    3.719    0.247    0.514   90.004  248.705
  366.500    3.820    0.252    0.563   89.138  245.932
  366.750    3.857    0.220    0.528   91.525  243.260
  367.000    3.843    0.225    0.497   93.176  240.381
  367.250    3.716    0.250    0.504   94.703  238.121
  367.500    3.592    0.263    0.515   98.135  233.708
  367.750    3.641    0.274    0.519  100.154  230.013
  368.000    3.746    0.280    0.520   99.594  227.237
  368.250    3.899    0.277    0.509   97.009  226.203
  368.500    3.996    0.249    0.493   93.317  225.373
  368.750    4.097    0.232    0.488   90.609  224.745
  369.000    4.121    0.220    0.495   89.558  224.632
  369.250    4.099    0.225    0.491   90.471  225.232
  369.500    4.046    0.239    0.498   95.008  226.143
  369.750    4.001    0.249    0.502   98.685  227.258
  370.000    3.987    0.229    0.505   95.731  228.472
  370.250    3.936    0.233    0.498   91.487  229.178
  370.500    4.004    0.234    0.481   87.366  229.269
  370.750    4.097    0.226    0.482   84.105  229.358
  371.000    4.090    0.226    0.500   84.651  229.450
  371.250    4.153    0.235    0.497   90.906  227.493
  371.500    4.209    0.238    0.472   98.451  225.230
  371.750    4.298    0.238    0.449   99.980  227.982
  372.000    4.275    0.240    0.471   94.692  232.779
  372.250    4.228    0.225    0.494   89.159  236.963
  372.500    4.213    0.232    0.519   90.318  240.124
  372.750    4.230    0.269    0.531   94.240  242.875
  373.000    4.255    0.269    0.500   92.514  241.430
  373.250    4.321    0.241    0.513   90.972  233.744
  373.500    4.454    0.239    0.497   89.799  226.467
  373.750    4.636    0.246    0.457   91.879  225.226
  374.000    4.806    0.232    0.443   92.055  226.135
  374.250    4.889    0.225    0.435   90.268  225.408
  374.500    4.946    0.220    0.438   85.964  224.577
  374.750    5.013    0.213    0.478   82.396  223.133
  375.000    5.043    0.224    0.506   81.713  226.292
  375.250    5.006    0.223    0.502   82.872  228.121
  375.500    4.776    0.214    0.488   85.506  228.418
  375.750    4.566    0.236    0.474   92.375  228.816
  376.000    4.431    0.256    0.468   96.544  230.032
  376.250    4.292    0.264    0.474   94.755  229.713
