~VERSION INFORMATION
 VERS.                 2.0:   CWLS LOG ASCII STANDARD -VERSION 2.0
 WRAP.                  NO:   ONE LINE PER DEPTH STEP
~WELL INFORMATION BLOCK
#MNEM.UNIT           DATA                    DESCRIPTION OF MNEMONIC
#---------    -------------------            -------------------------------
# Generated from Intellog Unique Number	CN_94_101/WELL/3368
WELL.         SHELL CANADA LTD.              : Well_name    - WELL
LOC .         00/08-07-095-15W4/0            : Location     - LOCATION
UWI .         00/08-07-095-15W400            : Uwi          - UNIQUE WELL ID
ENTR.         JOETTE                         : Entered      - ENTERED BY
SRVC.         SCHLUMBERGER                   : Scn          - SERVICE COMPANY
DATE.         07/24/92                       : Date         - LOG DATE
STRT.F        300                            : top_depth    - START DEPTH
STOP.F        1049.67                        : bot_depth    - STOP DEPTH
STEP.F        0.82                           : increment    - STEP LENGTH
 NULL. -999.2500:NULL Value
~CURVE INFORMATION BLOCK
#MNEM UNIT       ERCB CURVE CODE    CURVE DESCRIPTION
#-----------   ------------------   ----------------------------------
DEPT.F        00 001 00 00         : DEPTH        - DEPTH
ILD .OHMM     00 120 00 00         : RESD         - DEEP RESISTIVITY (DIL)
GR  .API      00 310 00 00         : GR           - GAMMA RAY
DPHI.V/V      00 890 00 00         : PHID         - DENSITY POROSITY (SANDSTONE)
NPHI.V/V      00 330 00 00         : PHIN         - NEUTRON POROSITY (SANDSTONE)
~PARAMETER INFORMATION
#MNEM.UNIT           DATA             DESCRIPTION OF MNEMONIC
#---------         -----------     ------------------------------
GL  .F        1870.5               : gl           - GROUND LEVEL ELEVATION
EREF.F        1880.7               : kb           - ELEVATION OF DEPTH REFERENCE
DATM.F        1880.7               : datum        - DATUM ELEVATION
TDD .F        1063                 : tdd          - TOTAL DEPTH DRILLER
RUN .         ONE                  : Run          - RUN NUMBER
ENG .         JO                   : Engineer     - RECORDING ENGINEER
WIT .         TIM                  : Witness      - WITNESSED BY
MUD .         GEL                  : Mud_type     - MUD TYPE
MATR.         SANDSTONE            : Logunit      - NEUTRON MATRIX
TMAX.F        55                   : BHT          - MAXIMUM RECORDED TEMPERATURE
BHTD.F        1063                 : BHTDEP       - MAXIMUM RECORDED TEMPERATURE
RMT .F        50                   : MDTP         - TEMPERATURE OF MUD
MUDD.LB/G     9.6                  : MWT          - MUD DENSITY
NEUT.         1                    : NEUTRON      - NEUTRON TYPE
RESI.         0                    : RESIST       - RESISTIVITY TYPE
RM  .OHMM     1.5                  : RM           - RESISTIVITY OF MUD
RMC .OHMM     1.5                  : RMC          - RESISTIVITY OF MUD CAKE
RMF .OHMM     1.5                  : RMF          - RESISTIVITY OF MUD FILTRATE
SUFT.F        39.2                 : SUFT         - SURFACE TEMPERATURE
~A  DEPTH     RESD       GR     PHID     PHIN
# ...
  870.866   26.870   44.322    0.358    0.250
  871.686   28.390   52.243    0.331    0.195
  872.507   27.397   57.124    0.310    0.170
  873.327   25.977   59.576    0.305    0.149
  874.147   49.681   60.207    0.324    0.205
  874.967   83.760   59.018    0.331    0.225
  875.787   96.793   59.649    0.341    0.291
  876.608   90.171   55.431    0.353    0.306
  877.428   76.749   49.992    0.363    0.303
  878.248   65.314   46.374    0.374    0.288
  879.068   49.016   44.578    0.381    0.289
  879.888   44.840   46.429    0.373    0.293
  880.709   40.275   50.709    0.371    0.291
  881.529   33.675   53.762    0.375    0.264
  882.349   30.795   55.620    0.378    0.253
  883.169   25.290   56.846    0.379    0.256
  883.990   22.310   58.691    0.379    0.291
  884.810   20.406   62.363    0.377    0.313
  885.630   19.007   64.822    0.372    0.340
  886.450   18.352   66.060    0.368    0.374
  887.270   17.716   68.506    0.362    0.366
  888.091   17.105   72.173    0.354    0.352
  888.911   17.425   72.810    0.351    0.350
  889.731   19.774   72.228    0.344    0.361
  890.551   23.688   69.824    0.328    0.361
  891.371   25.940   68.033    0.312    0.361
  892.192   23.303   66.237    0.310    0.371
  893.012   23.743   65.654    0.301    0.363
  893.832   25.996   76.598    0.290    0.345
  894.652   28.980   77.236    0.289    0.339
  895.472   30.608   76.040    0.295    0.342
  896.293   27.996   73.035    0.302    0.359
  897.113   26.076   70.638    0.342    0.362
  897.933   48.973   68.234    0.350    0.359
  898.753   29.095   65.230    0.347    0.362
  899.573   18.905   63.421    0.343    0.366
  900.394   14.974   61.017    0.339    0.353
  901.214   17.938   55.579    0.337    0.347
  902.034   29.174   51.354    0.341    0.339
  902.854   78.526   48.951    0.353    0.339
  903.675   82.940   50.808    0.358    0.349
  904.495   71.876   52.648    0.352    0.362
  905.315   75.930   47.816    0.344    0.381
  906.135   83.135   41.776    0.345    0.358
  906.955   80.255   40.587    0.353    0.351
  907.776   35.749   36.963    0.359    0.355
  908.596   20.115   33.959    0.363    0.339
  909.416   28.336   37.012    0.362    0.328
  910.236   39.909   44.933    0.357    0.351
  911.056   38.527   45.571    0.359    0.371
  911.877   37.192   40.132    0.363    0.375
  912.697   31.656   36.508    0.361    0.397
  913.517   17.819   35.926    0.357    0.369
  914.337   20.965   36.557    0.359    0.370
  915.157   25.115   37.802    0.361    0.372
  915.978   29.555   40.861    0.358    0.372
  916.798   29.043   47.562    0.351    0.359
  917.618   26.569   52.443    0.344    0.355
  918.438   24.297   57.323    0.336    0.356
  919.259   28.598   63.423    0.340    0.366
  920.079   33.041   59.199    0.348    0.378
  920.899   33.065   61.651    0.350    0.418
  921.719   30.243   62.288    0.346    0.420
  922.539   26.214   62.920    0.339    0.420
  923.360   27.188   58.689    0.331    0.420
  924.180   26.733   53.864    0.334    0.420
  925.000   24.451   55.102    0.346    0.419
  925.820   24.032   61.202    0.349    0.419
  926.640   24.931   64.869    0.345    0.419
  927.461   24.500   66.113    0.348    0.419
  928.281   18.058   65.518    0.347    0.417
  929.101   19.419   58.872    0.343    0.417
  929.921   23.263   56.468    0.342    0.416
  930.741   23.284   61.956    0.347    0.416
  931.562   21.297   65.622    0.356    0.415
  932.382   19.132   69.288    0.347    0.414
  933.202   17.820   72.954    0.312    0.414
  934.022   17.202   76.020    0.344    0.416
  934.843   21.746   74.223    0.345    0.415
  935.663   22.164   76.682    0.336    0.417
  936.483   22.184   79.735    0.330    0.000
  937.303   23.848   84.008    0.322    0.000
  938.123   29.614   86.473    0.320    0.000
  938.944   29.636   82.861    0.320    0.000
  939.764   21.844   81.052    0.323    0.000
  940.584   17.616   78.042    0.329    0.000
  941.404   16.703   73.817    0.336    0.000
  942.224   19.308   70.206    0.330    0.000
  943.045   21.911   72.652    0.306    0.000
  943.865   25.784   86.042    0.279    0.000
  944.685   23.579   87.882    0.276    0.000
  945.505   21.958   89.120    0.294    0.000
  946.325   24.042   82.473    0.310    0.000
  947.146   29.334   80.070    0.324    0.000
  947.966   29.888   77.059    0.326    0.000
  948.786   26.845   75.864    0.322    0.000
  949.606   23.686   71.657    0.300    0.000
  950.427   25.017   69.848    0.305    0.000
  951.247   25.035   66.231    0.317    0.000
  952.067   21.696   64.434    0.322    0.000
  952.887   31.117   74.778    0.305    0.000
  953.707   49.706   71.767    0.331    0.000
  954.528   85.354   66.935    0.337    0.000
  955.348   96.877   43.894    0.343    0.000
  956.168  106.069   36.027    0.351    0.000
  956.988  114.064   33.624    0.339    0.000
  957.808  122.662   38.504    0.330    0.000
  958.629  134.301   40.963    0.345    0.000
  959.449  152.431   40.386    0.348    0.000
  960.269  179.346   39.797    0.352    0.000
  961.089  222.711   39.221    0.359    0.000
  961.909  114.579   36.811    0.357    0.000
  962.730  118.840   31.980    0.350    0.000
  963.550  114.745   28.374    0.354    0.000
  964.370   86.111   27.184    0.358    0.000
  965.190   83.144   31.452    0.355    0.000
  966.010   68.255   34.517    0.356    0.000
  966.831   60.224   35.154    0.356    0.000
  967.651   77.525   35.774    0.354    0.000
  968.471   68.403   37.012    0.352    0.000
  969.291   79.046   41.291    0.354    0.000
  970.112   71.011   40.102    0.360    0.000
  970.932   33.391   40.132    0.364    0.000
  971.752   30.541   43.799    0.363    0.000
  972.572   25.527   41.389    0.359    0.000
  973.392   23.772   49.310    0.358    0.000
  974.213   39.379   60.867    0.360    0.000
  975.033   42.340   60.285    0.366    0.000
  975.853   51.640   57.286    0.357    0.000
  976.673   76.777   54.270    0.351    0.000
  977.493   88.723   52.473    0.350    0.000
  978.314   58.717   56.139    0.352    0.000
  979.134   64.277   59.205    0.347    0.000
  979.954   71.654   59.229    0.346    0.000
  980.774   81.341   56.826    0.350    0.000
  981.594   77.124   54.416    0.354    0.000
  982.415   51.957   55.660    0.355    0.000
  983.235   48.385   53.864    0.352    0.000
  984.055   56.929   47.223    0.329    0.000
  984.875   58.014   49.670    0.297    0.000
  985.696   62.387   52.723    0.292    0.000
  986.516   63.565   56.389    0.296    0.000
  987.336   63.611   57.627    0.331    0.000
  988.156   64.812   54.010    0.342    0.000
  988.976   67.259   49.797    0.339    0.000
  989.797   66.084   48.007    0.339    0.000
  990.617   75.005   47.412    0.338    0.000
  991.437  119.834   45.622    0.334    0.000
  992.257  109.606   45.640    0.335    0.000
  993.077  113.703   45.063    0.337    0.000
  993.898  124.492   45.094    0.341    0.000
  994.718  129.145   45.106    0.340    0.000
  995.538  129.238   45.136    0.339    0.000
  996.358  129.378   42.739    0.338    0.000
  997.178  131.821   40.936    0.340    0.000
  997.999  136.773   37.325    0.340    0.000
  998.819  141.859   40.384    0.338    0.000
  999.639  144.512   40.408    0.332    0.000
 1000.460  110.419   38.011    0.334    0.000
 1001.280   99.195   35.000    0.337    0.000
 1002.100  167.329   34.412    0.341    0.000
 1002.920  176.670   38.685    0.343    0.000
 1003.740  127.922   44.172    0.346    0.000
 1004.560  119.128   44.804    0.347    0.000
 1005.380  105.091   41.186    0.346    0.000
 1006.200   87.855   36.361    0.342    0.000
 1007.020   77.517   34.564    0.345    0.000
 1007.840  109.196   29.125    0.346    0.000
 1008.660  107.327   31.578    0.344    0.000
 1009.480  103.628   36.458    0.341    0.000
 1010.300  111.419   40.130    0.336    0.000
 1011.120  126.482   38.328    0.344    0.000
 1011.940   76.479   41.393    0.350    0.000
 1012.760   67.480   45.666    0.346    0.000
