~VERSION INFORMATION
 VERS.                 2.0:   CWLS LOG ASCII STANDARD -VERSION 2.0
 WRAP.                  NO:   ONE LINE PER DEPTH STEP
~WELL INFORMATION BLOCK
#MNEM.UNIT           DATA                    DESCRIPTION OF MNEMONIC
#---------    -------------------            -------------------------------
# Generated from Intellog Unique Number	CC_84_87/WELL/1069
NULL.         -999.25                        : NULL_VALUE
WELL.         PARA ET AL SALESKI             : Well_name    - WELL
LOC .         06-19-086-18W4                 : Location     - LOCATION          
UWI .         00/06-19-086-18W400            : Uwi          - UNIQUE WELL ID    
ENTR.         DW                             : Entered      - ENTERED BY        
SRVC.         SCHLUMBERGER                   : Scn          - SERVICE COMPANY   
DATE.         26 JAN 86                      : Date         - LOG DATE
STRT.M        85                             : top_depth    - START DEPTH       
STOP.M        237.102                        : bot_depth    - STOP DEPTH        
STEP.M        0.3                            : increment    - STEP LENGTH       
~CURVE INFORMATION BLOCK
#MNEM UNIT       ERCB CURVE CODE    CURVE DESCRIPTION
#-----------   ------------------   ----------------------------------
DEPT.M        00 001 00 00         : DEPTH        - DEPTH                       
DPHI.V/V      00 890 00 00         : PHID         - DENSITY POROSITY (LIMESTONE)
NPHI.V/V      00 330 00 00         : PHIN         - NEUTRON POROSITY (LIMESTONE)
GR  .API      00 310 00 00         : GR           - GAMMA RAY                   
ILD .OHMM     00 120 00 00         : RESD         - DEEP RESISTIVITY (DIL)      
~PARAMETER INFORMATION       
#MNEM.UNIT           DATA             DESCRIPTION OF MNEMONIC
#---------         -----------     ------------------------------
GL  .M        522.5                : gl           - GROUND LEVEL ELEVATION      
EREF.M        526.2                : kb           - ELEVATION OF DEPTH REFERENCE
DATM.M        526.2                : datum        - DATUM ELEVATION             
TDD .M        239                  : tdd          - TOTAL DEPTH DRILLER         
RUN .         ONE                  : Run          - RUN NUMBER                  
ENG .         BILL                 : Engineer     - RECORDING ENGINEER          
WIT .         JIM                  : Witness      - WITNESSED BY                
MUD .         GEL                  : Mud_type     - MUD TYPE                    
MATR.         LIMESTONE            : Logunit      - NEUTRON MATRIX              
TMAX.C        20                   : BHT          - MAXIMUM RECORDED TEMPERATURE
BHTD.M        239                  : BHTDEP       - MAXIMUM RECORDED TEMPERATURE
MATR.         1                    : LOGUNIT      - NEUTRON MATRIX              
RMT .C        25                   : MDTP         - TEMPERATURE OF MUD          
NEUT.         1                    : NEUTRON      - NEUTRON TYPE                
RESI.         0                    : RESIST       - RESISTIVITY TYPE            
RMC .OHMM     0.25                 : RMC          - RESISTIVITY OF MUD CAKE     
RMF .OHMM     0.25                 : RMF          - RESISTIVITY OF MUD FILTRATE 
SUFT.C        15                   : SUFT         - SURFACE TEMPERATURE         
~A  DEPTH     PHID     PHIN       GR     RESD
# ...
  189.401    0.240    0.393  104.677   11.099
  189.701    0.245    0.389  110.940   10.264
  190.001    0.255    0.406  103.446   10.260
  190.301    0.283    0.420   90.323   10.865
  190.601    0.296    0.401   81.581   11.961
  190.901    0.300    0.380   79.089   18.649
  191.201    0.307    0.365   72.849   20.138
  191.501    0.296    0.349   75.356   19.739
  191.801    0.260    0.353   92.873   17.906
  192.101    0.224    0.382  106.642   16.249
  192.401    0.221    0.401  106.028   13.639
  192.701    0.230    0.406  108.539   13.371
  193.001    0.225    0.413  111.675   13.109
  193.301    0.171    0.422  111.683   12.846
  193.601    0.126    0.433   95.433   13.092
  193.901    0.100    0.442   87.313   14.410
  194.201    0.157    0.411   90.453   15.264
  194.501    0.173    0.406   89.209   17.805
  194.801    0.154    0.331   74.836   20.372
  195.101    0.044    0.250   58.590   21.997
  195.401    0.093    0.249   59.224   21.563
  195.701    0.146    0.293   90.498   20.734
  196.001    0.181    0.362   91.136   18.449
  196.301    0.180    0.379   91.143   16.094
  196.601    0.184    0.386   96.782   15.179
  196.901    0.186    0.395   97.415   14.041
  197.201    0.184    0.407  103.057   13.501
  197.501    0.211    0.432  103.692   12.734
  197.801    0.202    0.403   98.697   12.480
  198.101    0.164    0.386   94.957   12.235
  198.401    0.158    0.386   98.091   12.225
  198.701    0.190    0.443  102.480   12.218
  199.001    0.198    0.446  104.993   12.447
  199.301    0.202    0.429  106.249   12.204
  199.601    0.203    0.420  106.259   12.195
  199.901    0.199    0.429  101.268   11.499
  200.201    0.183    0.443   99.399   10.841
  200.501    0.166    0.422   98.784   10.837
  200.801    0.159    0.410  100.669   11.256
  201.101    0.173    0.439  104.433   11.470
  201.401    0.197    0.452  107.569   11.462
  201.701    0.200    0.430  109.452   11.905
  202.001    0.190    0.425  110.086   11.899
  202.301    0.193    0.409  106.344   12.844
  202.601    0.214    0.387   96.978   13.343
  202.901    0.218    0.375   98.861   13.597
  203.201    0.217    0.400  105.752   14.126
  203.501    0.210    0.413  108.265   13.845
  203.801    0.198    0.418  108.269   12.805
  204.101    0.190    0.420  108.282   12.313
  204.401    0.222    0.404  105.164   12.305
  204.701    0.232    0.389  102.050   12.779
  205.001    0.229    0.378  102.682   13.538
  205.301    0.198    0.362  103.940   15.793
  205.601    0.146    0.345  104.576   17.387
  205.901    0.061    0.321   80.825   19.515
  206.201    0.002    0.261   82.710   24.127
  206.501    0.080    0.285   93.975   28.142
  206.801    0.126    0.304  102.738   28.127
  207.101    0.170    0.340  109.002   23.616
  207.401    0.189    0.390  110.261   19.453
  207.701    0.200    0.376  102.772   16.653
  208.001    0.210    0.366  100.905   15.403
  208.301    0.219    0.368  100.285   15.997
  208.601    0.213    0.406  108.428   16.943
  208.901    0.206    0.397  109.061   17.942
  209.201    0.199    0.376  106.571   18.282
  209.501    0.191    0.368  105.954   18.267
  209.801    0.199    0.371  106.589   17.228
  210.101    0.202    0.387  109.103   16.568
  210.401    0.201    0.402  112.236   13.911
  210.701    0.200    0.411  117.247   11.457
  211.001    0.204    0.411  122.884    9.253
  211.301    0.211    0.411  127.271    8.235
  211.601    0.212    0.432  121.028    7.764
  211.901    0.211    0.436  106.655    8.067
  212.201    0.202    0.408   89.781   10.366
  212.501    0.138    0.380   85.415   13.323
  212.801    0.171    0.330   90.429   18.498
  213.101    0.197    0.358   97.943   19.973
  213.401    0.200    0.398  105.456   19.201
  213.701    0.202    0.433  111.090   14.637
  214.001    0.195    0.452  112.976   10.529
  214.301    0.161    0.455  104.861    9.012
  214.601    0.125    0.436  102.365    8.662
  214.901    0.139    0.427  107.379    8.659
  215.201    0.191    0.419  114.890    8.996
  215.501    0.192    0.427  121.784    9.164
  215.801    0.193    0.441  119.917    8.984
  216.101    0.191    0.414  118.671    8.805
  216.401    0.192    0.392  117.434    8.802
  216.701    0.207    0.398  117.442    8.966
  217.001    0.213    0.429  113.074    9.137
  217.301    0.145    0.429  105.579    9.676
  217.601    0.068    0.419  104.965   10.861
  217.901    0.139    0.409  112.479   14.229
  218.201    0.174    0.380  116.242   15.968
  218.501    0.188    0.373  117.498   16.590
  218.801    0.194    0.365  120.635   16.902
  219.101    0.183    0.352  125.649   16.250
  219.401    0.178    0.343  121.280   15.621
  219.701    0.192    0.367  110.660   15.919
  220.001    0.179    0.400  108.167   15.903
  220.301    0.178    0.403  101.925   16.524
  220.601    0.033    0.302   88.803   17.841
  220.901    0.057    0.289   80.059   19.642
  221.201    0.142    0.289  100.703   23.818
  221.501    0.183    0.302  105.715   24.268
  221.801    0.201    0.346  105.100   22.881
  222.101    0.203    0.360  100.735   21.581
  222.401    0.208    0.341   98.242   21.155
  222.701    0.213    0.326   93.249   21.554
  223.001    0.208    0.309   87.632   24.662
  223.301    0.168    0.283   88.891   28.770
  223.601    0.133    0.264   91.402   34.881
  223.901    0.104    0.289   90.787   36.243
  224.201    0.120    0.310   92.046   36.215
  224.501    0.151    0.337   97.058   32.854
  224.801    0.154    0.348   97.693   28.122
  225.101    0.162    0.357   94.576   25.522
  225.401    0.184    0.363  100.214   20.221
  225.701    0.195    0.378  104.601   16.976
  226.001    0.194    0.382  105.861   16.008
  226.301    0.169    0.363   98.368   16.001
  226.601    0.118    0.338   90.250   17.956
  226.901    0.057    0.313   87.757   18.655
  227.201    0.131    0.329  102.148   19.005
  227.501    0.148    0.352  106.535   18.992
  227.801    0.108    0.367   97.164   18.259
  228.101    0.083    0.378   94.048   16.889
  228.401    0.148    0.399  109.690   15.623
  228.701    0.193    0.405  109.702   14.175
  229.001    0.206    0.407  109.712   11.902
  229.301    0.189    0.426  117.222    9.616
  229.601    0.177    0.430  124.111    8.074
  229.901    0.177    0.422  121.619    6.780
  230.201    0.180    0.425  129.132    5.804
  230.501    0.180    0.434  136.648    5.579
  230.801    0.161    0.444  134.154    6.142
  231.101    0.153    0.426  118.532    7.305
  231.401    0.172    0.402   80.397   10.342
  231.701    0.266    0.392   59.147   16.127
  232.001    0.281    0.384   42.273   27.699
  232.301    0.291    0.369   46.036   37.725
  232.602    0.291    0.368   49.802   42.335
  232.902    0.282    0.364   51.686   43.140
  233.202    0.287    0.359   52.942   41.467
  233.502    0.293    0.365   53.579   39.875
  233.802    0.282    0.363   54.842   36.173
  234.102    0.249    0.348   54.849   32.816
  234.402    0.142    0.329   56.111   25.014
  234.702    0.159    0.329   56.119   20.209
  235.002    0.180    0.349   54.252   13.984
  235.302    0.205    0.393   53.641    9.132
  235.602    0.230    0.441   54.897    5.309
  235.902    0.222    0.492   56.157    4.817
  236.202    0.201    0.504   58.045    4.124
  236.502    0.185    0.499   59.304    3.669
  236.802    0.185    0.502   60.566    3.461
  237.102    0.184    0.502   63.075    3.391
