~VERSION INFORMATION
 VERS.                 2.0:   CWLS LOG ASCII STANDARD -VERSION 2.0
 WRAP.                  NO:   ONE LINE PER DEPTH STEP
~WELL INFORMATION BLOCK
#MNEM.UNIT           DATA                    DESCRIPTION OF MNEMONIC
#---------    -------------------            -------------------------------
# Generated from Intellog Unique Number	CS_67_68/WELL/954
WELL.         NOVALTA TWEEDIE                : Well_name    - WELL
LOC .         00/05-04-068-11W4/0            : Location     - LOCATION
UWI .         00/05-04-068-11W4/0            : Uwi          - UNIQUE WELL ID
ENTR.         T                              : Entered      - ENTERED BY
SRVC.         SCHLUMBERGER                   : Scn          - SERVICE COMPANY
STRT.M        300                            : top_depth    - START DEPTH
STOP.M        515                            : bot_depth    - STOP DEPTH
STEP.M        0.25                           : increment    - STEP LENGTH
 NULL. -999.2500:NULL Value
~CURVE INFORMATION BLOCK
#MNEM UNIT       ERCB CURVE CODE    CURVE DESCRIPTION
#-----------   ------------------   ----------------------------------
DEPT.M        00 001 00 00         : DEPTH        - DEPTH
GR  .API      00 310 00 00         : GR           - GAMMA RAY
CALI.MM       00 280 01 00         : CAL          - CALIPER
NPHI.V/V      00 330 00 00         : PHIN         - NEUTRON POROSITY (SANDSTONE)
DPHI.V/V      00 890 00 00         : PHID         - DENSITY POROSITY (SANDSTONE)
ILD .OHMM     00 120 00 00         : RESD         - DEEP RESISTIVITY (DLL)
~PARAMETER INFORMATION
#MNEM.UNIT           DATA             DESCRIPTION OF MNEMONIC
#---------         -----------     ------------------------------
GL  .M        613.7                : gl           - GROUND LEVEL ELEVATION
EREF.M        617                  : kb           - ELEVATION OF DEPTH REFERENCE
DATM.M        617                  : datum        - DATUM ELEVATION
TDD .M        515                  : tdd          - TOTAL DEPTH DRILLER
RUN .         ONE                  : Run          - RUN NUMBER
ENG .         BILL                 : Engineer     - RECORDING ENGINEER
WIT .         JIM                  : Witness      - WITNESSED BY
MUD .         GEL                  : Mud_type     - MUD TYPE
MATR.         SANDSTONE            : Logunit      - NEUTRON MATRIX
TMAX.C        5                    : BHT          - MAXIMUM RECORDED TEMPERATURE
BHTD.M        25                   : BHTDEP       - MAXIMUM RECORDED TEMPERATURE
RMT .C        515                  : MDTP         - TEMPERATURE OF MUD
MUDD.KG/M     17                   : MWT          - MUD DENSITY
NEUT.         1100                 : NEUTRON      - NEUTRON TYPE
RESI.         1                    : RESIST       - RESISTIVITY TYPE
RM  .OHMM     0                    : RM           - RESISTIVITY OF MUD
RMC .OHMM     2.6                  : RMC          - RESISTIVITY OF MUD CAKE
RMF .OHMM     2.6                  : RMF          - RESISTIVITY OF MUD FILTRATE
SUFT.C        2.7                  : SUFT         - SURFACE TEMPERATURE
SUFT.C        15                   : SUFT         - SURFACE TEMPERATURE
~A  DEPTH       GR      CAL     PHIN     PHID     RESD
  300.000   96.711  173.177    0.529    0.243    2.242
  300.250   96.722  174.165    0.534    0.231    2.287
  300.500   96.150  174.168    0.541    0.222    2.290
  300.750   96.159  174.172    0.534    0.214    2.293
  301.000   96.176  174.176    0.511    0.216    2.297
  301.250   96.770  174.179    0.499    0.227    2.302
  301.500   97.365  174.182    0.502    0.239    2.304
  301.750   98.554  174.187    0.510    0.251    2.266
  302.000   99.732  174.191    0.519    0.255    2.268
  302.250  100.915  174.193    0.524    0.252    2.230
  302.500  101.513  174.197    0.519    0.253    2.234
  302.750   99.180  174.201    0.515    0.258    2.238
  303.000   95.680  173.222    0.499    0.264    2.241
  303.250   94.514  172.243    0.483    0.262    2.203
  303.500   93.945  172.246    0.467    0.253    2.167
  303.750   93.950  171.268    0.459    0.256    2.169
  304.000   93.381  170.288    0.463    0.258    2.133
  304.250   91.045  169.309    0.481    0.226    2.097
  304.500   89.887  169.311    0.512    0.202    2.062
  304.750   91.068  168.333    0.528    0.218    2.027
  305.000   93.426  167.353    0.520    0.242    1.994
  305.250   94.610  166.373    0.520    0.246    1.998
  305.500   95.793  166.376    0.522    0.236    2.000
  305.750   95.802  166.382    0.516    0.229    2.040
  306.000   94.644  167.370    0.505    0.227    2.080
  306.250   94.655  167.371    0.511    0.225    2.162
  306.500   94.663  168.359    0.521    0.230    2.165
  306.750   94.089  169.345    0.531    0.216    2.167
  307.000   91.758  170.333    0.507    0.191    2.211
  307.250   91.184  170.337    0.472    0.171    2.214
  307.500   93.539  171.323    0.489    0.179    2.178
  307.750   95.895  171.327    0.507    0.187    2.140
  308.000   98.251  171.331    0.509    0.198    2.067
  308.250   98.262  171.334    0.507    0.208    2.032
  308.500   95.929  171.337    0.514    0.219    1.997
  308.750   94.182  171.342    0.531    0.218    2.001
  309.000   90.093  171.345    0.533    0.180    2.041
  309.250   84.241  170.366    0.504    0.070    2.082
  309.500   81.911  170.370    0.464    0.082    2.203
  309.750   84.263  170.373    0.495    0.097    2.246
  310.000   98.344  169.395    0.515    0.144    2.333
  310.250  102.458  169.398    0.515    0.193    2.379
  310.500  101.300  169.401    0.499    0.229    2.427
  310.750   99.553  169.405    0.481    0.218    2.476
  311.000  101.320  169.408    0.462    0.209    2.524
  311.250  106.020  169.413    0.442    0.230    2.575
  311.500  106.031  169.418    0.451    0.243    2.676
  311.750  101.940  168.439    0.445    0.232    2.730
  312.000  100.782  168.441    0.448    0.231    2.784
  312.250   99.621  168.446    0.471    0.237    2.788
  312.500   97.288  167.465    0.478    0.232    2.791
  312.750   92.021  167.470    0.457    0.228    2.795
  313.000   88.516  166.489    0.437    0.226    2.800
  313.250   96.738  165.510    0.436    0.225    2.754
  313.500   98.505  164.531    0.497    0.224    2.707
  313.750   97.933  163.551    0.488    0.223    2.614
  314.000   96.769  163.554    0.479    0.223    2.570
  314.250   96.195  162.576    0.466    0.222    2.526
  314.500   95.623  163.562    0.461    0.220    2.484
  314.750   96.809  166.516    0.469    0.220    2.489
  315.000   97.990  169.471    0.476    0.220    2.448
  315.250   99.170  170.457    0.483    0.222    2.450
  315.500   99.768  172.426    0.498    0.227    2.454
  315.750   99.196  173.414    0.512    0.236    2.457
  316.000   98.038  172.435    0.515    0.241    2.461
  316.250   95.704  170.471    0.455    0.244    2.510
  316.500   95.130  167.526    0.447    0.234    2.608
  316.750   92.794  167.528    0.457    0.221    2.610
  317.000   88.116  166.550    0.471    0.203    2.614
  317.250   80.508  167.535    0.488    0.180    2.618
  317.500   74.076  167.541    0.439    0.157    2.671
  317.750   73.498  167.545    0.353    0.167    2.878
  318.000   81.715  163.616    0.386    0.207    3.100
  318.250   88.759  161.652    0.400    0.251    3.402
  318.500   89.945  157.725    0.399    0.264    3.803
  318.750   91.715  157.727    0.398    0.254    4.490
  319.000   93.484  157.732    0.405    0.241    4.752
  319.250   95.840  157.735    0.399    0.229    4.846
  319.500   97.610  159.707    0.397    0.240    4.857
  319.750  100.557  160.692    0.404    0.259    4.860
  320.000  101.149  161.678    0.403    0.254    4.694
  320.250  102.332  161.682    0.405    0.244    4.532
  320.500  102.930  162.669    0.412    0.234    4.456
  320.750  104.113  162.674    0.417    0.226    4.380
  321.000  102.366  161.694    0.427    0.224    4.388
  321.250   97.106  160.715    0.419    0.224    4.904
  321.500   91.253  159.735    0.405    0.230    5.000
  321.750   84.817  158.755    0.391    0.251    5.007
  322.000   80.729  155.810    0.386    0.279    4.923
  322.250   80.740  155.812    0.395    0.292    4.842
  322.500   84.851  154.835    0.399    0.280    4.760
  322.750   91.313  154.837    0.407    0.287    4.768
  323.000   86.635  154.841    0.399    0.291    4.865
  323.250   74.925  154.846    0.364    0.298    5.051
  323.500   64.972  155.833    0.333    0.305    5.445
  323.750   57.364  155.836    0.293    0.318    5.656
  324.000   50.929  156.824    0.228    0.332    5.666
  324.250   40.390  156.826    0.284    0.354    5.270
  324.500   43.918  156.829    0.341    0.359    4.476
  324.750   63.857  157.817    0.414    0.290    4.018
  325.000   66.212  157.821    0.423    0.301    3.671
  325.250   68.568  158.808    0.433    0.318    3.295
  325.500   76.198  158.812    0.451    0.335    3.179
  325.750   85.004  158.814    0.473    0.337    2.855
  326.000   96.737  162.751    0.504    0.311    2.705
  326.250  104.368  163.739    0.535    0.274    2.611
  326.500  107.896  164.727    0.537    0.246    2.475
  326.750  107.321  165.713    0.527    0.226    2.263
  327.000  104.988  165.716    0.527    0.232    2.224
  327.250  101.482  165.719    0.524    0.239    2.227
  327.500   97.977  166.707    0.513    0.246    2.444
  327.750   95.058  166.711    0.467    0.264    2.782
  328.000   90.381  165.731    0.422    0.277    3.226
  328.250   85.117  164.752    0.306    0.295    3.740
  328.500   79.854  162.788    0.258    0.319    4.582
  328.750   74.590  159.843    0.263    0.386    5.214
  329.000   70.499  155.914    0.311    0.437    5.416
  329.250   63.483  154.935    0.373    0.435    4.860
  329.500   60.561  155.921    0.414    0.421    4.282
  329.750   58.227  156.909    0.435    0.362    3.843
  330.000   55.897  157.896    0.430    0.345    3.512
  330.250   56.492  158.883    0.430    0.341    3.209
  330.500   57.675  158.887    0.436    0.343    2.933
  330.750   59.448  157.907    0.444    0.345    2.730
  331.000   60.628  156.927    0.446    0.348    2.683
  331.250   61.226  156.930    0.436    0.350    2.638
  331.500   61.237  156.935    0.426    0.354    2.594
  331.750   60.662  157.922    0.424    0.358    2.598
  332.000   59.504  157.925    0.434    0.363    2.602
  332.250   58.929  157.929    0.434    0.361    2.608
  332.500   58.358  157.934    0.427    0.357    2.658
  332.750   57.780  158.920    0.425    0.355    2.711
  333.000   56.625  160.890    0.434    0.351    2.765
  333.250   56.047  160.893    0.446    0.347    2.820
  333.500   54.300  161.882    0.448    0.344    2.876
  333.750   51.381  162.868    0.428    0.337    2.935
  334.000   48.462  162.871    0.408    0.220    2.938
  334.250   47.298  161.891    0.193    0.158    2.997
  334.500   48.482  160.913    0.285    0.182    3.002
  334.750   53.182  160.915    0.372    0.275    3.005
  335.000   57.296  158.955    0.417    0.322    3.011
  335.250   59.651  157.975    0.428    0.360    2.907
  335.500   59.085  157.978    0.436    0.335    2.857
  335.750   58.505  156.999    0.443    0.334    2.812
  336.000   58.516  157.004    0.451    0.339    2.816
  336.250   58.530  156.022    0.466    0.357    2.819
