~VERSION INFORMATION
 VERS.                 2.0:   CWLS LOG ASCII STANDARD -VERSION 2.0
 WRAP.                  NO:   ONE LINE PER DEPTH STEP
~WELL INFORMATION BLOCK
#MNEM.UNIT           DATA                    DESCRIPTION OF MNEMONIC
#---------    -------------------            -------------------------------
# Generated from Intellog Unique Number	CS_71_72/WELL/644
WELL.         AMOCO AEC IPIATIK              : Well_name    - WELL
LOC .         00/05-05-072-04W4/0            : Location     - LOCATION
UWI .         00/05-05-072-04W4/0            : Uwi          - UNIQUE WELL ID
ENTR.         SP                             : Entered      - ENTERED BY
SRVC.         SCHLUMBERGER                   : Scn          - SERVICE COMPANY
STRT.M        295                            : top_depth    - START DEPTH
STOP.M        500                            : bot_depth    - STOP DEPTH
STEP.M        0.25                           : increment    - STEP LENGTH
 NULL. -999.2500:NULL Value
~CURVE INFORMATION BLOCK
#MNEM UNIT       ERCB CURVE CODE    CURVE DESCRIPTION
#-----------   ------------------   ----------------------------------
DEPT.M        00 001 00 00         : DEPTH        - DEPTH
DPHI.V/V      00 890 00 00         : PHID         - DENSITY POROSITY (LIMESTONE)
NPHI.V/V      00 330 00 00         : PHIN         - NEUTRON POROSITY (LIMESTONE)
GR  .API      00 310 00 00         : GR           - GAMMA RAY
ILD .OHMM     00 120 00 00         : RESD         - DEEP RESISTIVITY (DIL)
~PARAMETER INFORMATION
#MNEM.UNIT           DATA             DESCRIPTION OF MNEMONIC
#---------         -----------     ------------------------------
GL  .M        673.5                : gl           - GROUND LEVEL ELEVATION
EREF.M        677.76               : kb           - ELEVATION OF DEPTH REFERENCE
DATM.M        673.5                : datum        - DATUM ELEVATION
TDD .M        519                  : tdd          - TOTAL DEPTH DRILLER
RUN .         ONE                  : Run          - RUN NUMBER
ENG .         BILL                 : Engineer     - RECORDING ENGINEER
WIT .         JIM                  : Witness      - WITNESSED BY
MUD .         GEL                  : Mud_type     - MUD TYPE
MATR.         LIMESTONE            : Logunit      - NEUTRON MATRIX
TMAX.C        19.5                 : BHT          - MAXIMUM RECORDED TEMPERATURE
BHTD.M        549                  : BHTDEP       - MAXIMUM RECORDED TEMPERATURE
MATR.         1                    : LOGUNIT      - NEUTRON MATRIX
RMT .C        25                   : MDTP         - TEMPERATURE OF MUD
NEUT.         1                    : NEUTRON      - NEUTRON TYPE
RESI.         0                    : RESIST       - RESISTIVITY TYPE
RMC .OHMM     0.25                 : RMC          - RESISTIVITY OF MUD CAKE
RMF .OHMM     0.25                 : RMF          - RESISTIVITY OF MUD FILTRATE
SUFT.C        15                   : SUFT         - SURFACE TEMPERATURE
~A  DEPTH     PHID     PHIN       GR     RESD
# ...
  425.500    0.234    0.466   87.588    5.547
  425.750    0.236    0.460   88.209    5.450
  426.000    0.250    0.459   87.012    5.258
  426.250    0.233    0.458   85.813    5.261
  426.500    0.221    0.459   84.010    5.561
  426.750    0.227    0.472   82.207    5.465
  427.000    0.234    0.482   80.408    5.468
  427.250    0.231    0.488   78.602    5.374
  427.500    0.257    0.461   74.388    5.476
  427.750    0.263    0.465   73.185    5.481
  428.000    0.235    0.467   72.594    5.485
  428.250    0.216    0.461   73.816    5.295
  428.500    0.199    0.459   76.852    5.108
  428.750    0.209    0.468   80.493    5.018
  429.000    0.241    0.488   82.318    4.584
  429.250    0.278    0.491   82.937    3.966
  429.500    0.246    0.483   82.953    3.557
  429.750    0.257    0.507   84.177    3.134
  430.000    0.274    0.569   85.998    2.811
  430.250    0.275    0.560   89.040    2.663
  430.500    0.260    0.564   90.259    2.764
  430.750    0.254    0.549   90.271    3.086
  431.000    0.264    0.483   83.027    3.445
  431.250    0.258    0.468   78.199    3.917
  431.500    0.254    0.464   79.424    4.140
  431.750    0.247    0.471   81.251    4.456
  432.000    0.237    0.482   81.863    4.711
  432.250    0.248    0.477   81.877    4.801
  432.500    0.236    0.462   79.472    4.804
  432.750    0.236    0.455   78.272    4.896
  433.000    0.222    0.472   78.289    5.082
  433.250    0.220    0.478   78.902    5.472
  433.500    0.234    0.461   81.939    5.781
  433.750    0.242    0.431   83.161    6.338
  434.000    0.263    0.405   74.706    7.205
  434.250    0.296    0.390   67.464    8.496
  434.500    0.307    0.375   65.059   10.776
  434.750    0.299    0.328   63.860   14.172
  435.000    0.261    0.255   62.661   17.979
  435.250    0.119    0.232   57.230   19.348
  435.500    0.052    0.328   53.007   20.452
  435.750    0.033    0.410   51.207   21.227
  436.000    0.063    0.437   53.034   18.029
  436.250    0.139    0.454   57.280   14.496
  436.500    0.187    0.466   63.342   10.262
  436.750    0.224    0.471   70.012    8.252
  437.000    0.250    0.472   72.440    7.538
  437.250    0.248    0.465   74.263    6.641
  437.500    0.248    0.463   77.907    5.744
  437.750    0.248    0.500   81.552    4.968
  438.000    0.242    0.519   83.376    4.220
  438.250    0.234    0.532   87.624    3.785
  438.500    0.231    0.530   91.267    3.396
  438.750    0.233    0.530   93.698    3.276
  439.000    0.237    0.516   94.919    3.161
  439.250    0.223    0.512   93.118    3.107
  439.500    0.208    0.525   91.917    3.053
  439.750    0.205    0.509   94.956    3.111
  440.000    0.209    0.507   94.966    3.172
  440.250    0.216    0.505   93.168    3.292
  440.500    0.209    0.515   92.572    3.355
  440.750    0.218    0.520   91.983    3.546
  441.000    0.212    0.510   89.577    3.679
  441.250    0.204    0.502   87.167    4.107
  441.500    0.204    0.503   83.552    4.755
  441.750    0.207    0.479   79.330    5.816
  442.000    0.215    0.421   75.716    7.243
  442.250    0.221    0.376   74.518    8.857
  442.500    0.217    0.306   73.922   10.830
  442.750    0.085    0.272   72.123   13.736
  443.000    0.038    0.272   69.714   14.786
  443.250    0.012    0.329   63.072   14.535
  443.500    0.061    0.353   57.647   14.023
  443.750    0.143    0.366   59.471   12.812
  444.000    0.246    0.385   63.724   12.137
  444.250    0.258    0.389   64.945   11.712
  444.500    0.255    0.383   65.559   11.934
  444.750    0.237    0.355   65.568   12.614
  445.000    0.096    0.320   64.370   13.830
  445.250    0.042    0.341   62.571   14.887
  445.500    0.195    0.376   63.789   14.629
  445.750    0.219    0.385   67.434   14.118
  446.000    0.232    0.349   71.078   13.868
  446.250    0.241    0.237   71.085   15.486
  446.500    0.279    0.201   65.654   18.592
  446.750    0.319    0.193   59.620   24.905
  447.000    0.360    0.240   56.003   28.839
  447.250    0.378    0.274   54.200   31.044
  447.500    0.369    0.319   56.031   28.888
  447.750    0.355    0.341   58.459   27.363
  448.000    0.342    0.367   63.316   24.547
  448.250    0.323    0.390   66.349   22.423
  448.500    0.300    0.417   69.991   18.707
  448.750    0.286    0.436   73.031   17.399
  449.000    0.280    0.441   74.856   15.613
  449.250    0.274    0.445   76.075   15.061
  449.500    0.271    0.431   77.297   14.534
  449.750    0.267    0.417   77.309   13.771
  450.000    0.256    0.412   77.323   12.815
  450.250    0.238    0.412   81.574   12.363
  450.500    0.213    0.415   83.395   11.929
  450.750    0.197    0.425   86.433   11.509
  451.000    0.208    0.432   86.445   11.308
  451.250    0.221    0.425   82.829   10.720
  451.500    0.234    0.413   82.235   10.530
  451.750    0.229    0.392   84.064    9.977
  452.000    0.211    0.378   82.261    9.283
  452.250    0.198    0.375   81.668    8.956
  452.500    0.193    0.395   85.917    8.802
  452.750    0.198    0.416   85.928    8.807
  453.000    0.208    0.427   79.892    9.140
  453.250    0.210    0.424   78.699   10.206
  453.500    0.204    0.420   80.522   10.786
  453.750    0.200    0.413   79.323   11.610
  454.000    0.218    0.431   67.845   12.499
  454.250    0.236    0.430   56.365   12.737
  454.500    0.257    0.385   60.011   12.290
  454.750    0.233    0.361   74.535   11.862
  455.000    0.209    0.385   81.201   11.653
  455.250    0.213    0.410   81.215   11.449
  455.500    0.231    0.435   63.686   11.050
  455.750    0.240    0.413   61.279   10.661
  456.000    0.236    0.406   58.269   10.289
  456.250    0.242    0.393   51.630   10.108
  456.500    0.253    0.365   52.851    9.579
  456.750    0.264    0.357   59.517    9.242
  457.000    0.246    0.379   63.158    8.599
  457.250    0.255    0.379   72.245    8.296
  457.500    0.260    0.400   80.119    7.861
  457.750    0.171    0.421   85.572    7.724
  458.000    0.182    0.426   81.957    8.783
  458.250    0.225    0.445   64.432    9.626
  458.500    0.270    0.450   57.182   11.993
  458.750    0.299    0.395   41.471   13.386
  459.000    0.330    0.364   34.223   15.216
  459.250    0.319    0.374   31.213   18.610
  459.500    0.317    0.401   34.856   21.944
  459.750    0.324    0.415   36.681   25.875
  460.000    0.326    0.393   33.670   30.506
  460.250    0.320    0.395   31.872   36.631
  460.500    0.302    0.398   32.486   42.420
  460.750    0.294    0.391   33.102   44.833
  461.000    0.289    0.410   33.117   44.064
  461.250    0.300    0.412   35.552   41.740
  461.500    0.288    0.388   39.193   38.845
  461.750    0.279    0.395   40.411   37.474
  462.000    0.271    0.413   41.030   38.893
  462.250    0.271    0.393   36.204   45.039
  462.500    0.269    0.385   34.401   54.093
  462.750    0.275    0.400   32.602   58.210
  463.000    0.287    0.403   31.399   66.185
  463.250    0.295    0.395   30.204   68.680
  463.500    0.295    0.390   35.664   65.073
  463.750    0.292    0.383   38.695   53.285
  464.000    0.290    0.397   45.969   47.805
  464.250    0.280    0.407   41.141   49.613
  464.500    0.269    0.419   33.292   55.387
  464.750    0.305    0.402   30.278   67.756
  465.000    0.317    0.401   32.109   72.917
  465.250    0.313    0.420   33.932   81.412
  465.500    0.310    0.430   35.761   86.054
  465.750    0.329    0.445   33.356   87.676
  466.000    0.323    0.439   32.158   89.362
  466.250    0.323    0.436   33.385   89.431
  466.500    0.327    0.433   34.604   84.728
  466.750    0.331    0.432   36.428   66.899
  467.000    0.334    0.426   40.071   44.025
  467.250    0.327    0.417   44.921   30.047
  467.500    0.282    0.408   51.586   20.885
  467.750    0.248    0.417   60.672   16.794
  468.000    0.229    0.412   71.571   15.341
  468.250    0.210    0.406   77.026   14.804
  468.500    0.192    0.404   72.808   17.786
  468.750    0.214    0.416   68.585   19.853
