~VERSION INFORMATION
 VERS.                 2.0:   CWLS LOG ASCII STANDARD -VERSION 2.0
 WRAP.                  NO:   ONE LINE PER DEPTH STEP
~WELL INFORMATION BLOCK
#MNEM.UNIT           DATA                    DESCRIPTION OF MNEMONIC
#---------    -------------------            -------------------------------
# Generated from Intellog Unique Number	CX_WELLS/WELL/3997
WELL.         BRALORNE                       : Well_name    - WELL
LOC .         00/06-23-077-15W4/0            : Location     - LOCATION
UWI .         00/06-23-077-15W4/0            : Uwi          - UNIQUE WELL ID
ENTR.         T                              : Entered      - ENTERED BY
SRVC.         SCHLUMBERGER                   : Scn          - SERVICE COMPANY
DATE.         03/04/92                       : Date         - LOG DATE
STRT.M        275                            : top_depth    - START DEPTH
STOP.M        515                            : bot_depth    - STOP DEPTH
STEP.M        0.25                           : increment    - STEP LENGTH
 NULL. -999.2500:NULL Value
~CURVE INFORMATION BLOCK
#MNEM UNIT       ERCB CURVE CODE    CURVE DESCRIPTION
#-----------   ------------------   ----------------------------------
DEPT.M        00 001 00 00         : DEPTH        - DEPTH
GR  .API      00 310 00 00         : GR           - GAMMA RAY
NPHI.V/V      00 330 00 00         : PHIN         - NEUTRON POROSITY (SANDSTONE)
DPHI.V/V      00 890 00 00         : PHID         - DENSITY POROSITY (SANDSTONE)
ILD .OHMM     00 120 00 00         : RESD         - DEEP RESISTIVITY (DIL)
~PARAMETER INFORMATION
#MNEM.UNIT           DATA             DESCRIPTION OF MNEMONIC
#---------         -----------     ------------------------------
GL  .M        673                  : gl           - GROUND LEVEL ELEVATION
EREF.M        676.9                : kb           - ELEVATION OF DEPTH REFERENCE
DATM.M        676.9                : datum        - DATUM ELEVATION
TDD .M        520                  : tdd          - TOTAL DEPTH DRILLER
RUN .         ONE                  : Run          - RUN NUMBER
ENG .         JO                   : Engineer     - RECORDING ENGINEER
WIT .         TIM                  : Witness      - WITNESSED BY
MUD .         GEL                  : Mud_type     - MUD TYPE
MATR.         SANDSTONE            : Logunit      - NEUTRON MATRIX
TMAX.C        21                   : BHT          - MAXIMUM RECORDED TEMPERATURE
BHTD.M        520                  : BHTDEP       - MAXIMUM RECORDED TEMPERATURE
RMT .C        18                   : MDTP         - TEMPERATURE OF MUD
MUDD.KG/M     1                    : MWT          - MUD DENSITY
NEUT.         1                    : NEUTRON      - NEUTRON TYPE
RESI.         0                    : RESIST       - RESISTIVITY TYPE
RM  .OHMM     4                    : RM           - RESISTIVITY OF MUD
RMC .OHMM     3.8                  : RMC          - RESISTIVITY OF MUD CAKE
RMF .OHMM     4.1                  : RMF          - RESISTIVITY OF MUD FILTRATE
SUFT.C        4                    : SUFT         - SURFACE TEMPERATURE
~A  DEPTH       GR     PHIN     PHID     RESD
# ...
  405.500   72.400    0.372    0.254    7.129
  405.750   73.065    0.380    0.249    7.022
  406.000   73.096    0.375    0.241    6.902
  406.250   73.771    0.369    0.224    6.791
  406.500   75.694    0.379    0.221    6.564
  406.750   78.231    0.390    0.219    6.456
  407.000   80.758    0.401    0.223    6.237
  407.250   84.543    0.395    0.226    6.250
  407.500   82.712    0.387    0.231    6.497
  407.750   77.770    0.376    0.232    6.510
  408.000   74.690    0.371    0.232    6.649
  408.250   73.493    0.375    0.233    6.778
  408.500   72.889    0.379    0.234    6.552
  408.750   72.941    0.392    0.234    5.994
  409.000   72.991    0.382    0.233    5.684
  409.250   73.666    0.368    0.232    6.129
  409.500   73.697    0.352    0.229    6.601
  409.750   73.738    0.346    0.227    7.113
  410.000   71.906    0.353    0.230    7.806
  410.250   69.451    0.353    0.244    8.119
  410.500   68.233    0.353    0.251    7.993
  410.750   65.778    0.352    0.268    8.001
  411.000   63.956    0.354    0.281    8.021
  411.250   61.501    0.361    0.297    8.040
  411.500   58.421    0.364    0.296    8.048
  411.750   55.955    0.362    0.286    8.064
  412.000   53.510    0.362    0.277    8.084
  412.250   52.292    0.361    0.286    8.104
  412.500   51.709    0.361    0.297    8.116
  412.750   50.501    0.359    0.298    8.137
  413.000   49.918    0.359    0.298    8.145
  413.250   50.603    0.357    0.295    8.173
  413.500   51.902    0.351    0.293    8.185
  413.750   52.567    0.346    0.289    8.197
  414.000   53.212    0.337    0.283    8.073
  414.250   53.252    0.337    0.279    8.081
  414.500   50.193    0.343    0.285    8.105
  414.750   48.965    0.350    0.290    8.117
  415.000   48.402    0.360    0.289    8.133
  415.250   48.433    0.371    0.284    7.999
  415.500   49.088    0.372    0.276    8.019
  415.750   51.021    0.366    0.276    8.030
  416.000   52.310    0.360    0.280    8.050
  416.250   53.589    0.357    0.280    8.062
  416.500   54.254    0.353    0.280    7.937
  416.750   54.305    0.338    0.274    7.956
  417.000   54.346    0.330    0.277    7.832
  417.250   54.386    0.328    0.283    7.702
  417.500   53.179    0.328    0.291    7.718
  417.750   51.347    0.334    0.293    7.590
  418.000   49.506    0.344    0.291    7.471
  418.250   52.677    0.348    0.291    7.222
  418.500   55.214    0.353    0.291    7.233
  418.750   56.514    0.350    0.293    7.244
  419.000   54.058    0.343    0.291    7.244
  419.250   51.602    0.338    0.282    7.280
  419.500   49.771    0.339    0.275    7.030
  419.750   48.563    0.345    0.273    7.041
  420.000   48.604    0.348    0.272    7.058
  420.250   50.527    0.354    0.277    7.198
  420.500   51.172    0.357    0.284    7.483
  420.750   53.115    0.359    0.292    7.780
  421.000   53.770    0.362    0.290    7.935
  421.250   53.821    0.361    0.286    8.104
  421.500   52.603    0.355    0.289    8.261
  421.750   50.148    0.351    0.296    8.434
  422.000   49.554    0.354    0.287    8.298
  422.250   50.229    0.355    0.281    8.161
  422.500   50.280    0.355    0.287    7.892
  422.750   50.301    0.354    0.282    7.622
  423.000   49.718    0.360    0.281    7.360
  423.250   50.403    0.366    0.288    6.857
  423.500   52.950    0.374    0.281    6.629
  423.750   53.595    0.370    0.277    6.519
  424.000   54.884    0.353    0.285    6.417
  424.250   52.428    0.354    0.285    6.427
  424.500   49.369    0.354    0.280    6.685
  424.750   50.647    0.354    0.231    6.943
  425.000   53.819    0.331    0.209    7.485
  425.250   55.712    0.289    0.190    8.066
  425.500   57.635    0.291    0.174    8.692
  425.750   55.814    0.314    0.205    9.028
  426.000   53.982    0.322    0.231    9.562
  426.250   52.151    0.330    0.244    9.752
  426.500   51.567    0.340    0.258    9.956
  426.750   51.598    0.346    0.278    9.976
  427.000   51.649    0.355    0.294    9.995
  427.250   50.441    0.357    0.309   10.010
  427.500   50.482    0.357    0.321   10.030
  427.750   51.147    0.357    0.321   10.050
  428.000   51.188    0.357    0.310    9.535
  428.250   49.366    0.354    0.296    9.213
  428.500   47.535    0.353    0.301    8.901
  428.750   47.576    0.353    0.316    8.600
  429.000   48.855    0.354    0.301    7.450
  429.250   52.026    0.354    0.293    6.572
  429.500   51.443    0.355    0.296    6.353
  429.750   51.473    0.355    0.290    6.366
  430.000   50.890    0.355    0.285    6.492
  430.250   50.931    0.355    0.299    6.625
  430.500   52.844    0.354    0.305    6.887
  430.750   52.895    0.353    0.304    7.163
  431.000   52.311    0.347    0.303    7.302
  431.250   51.748    0.342    0.301    7.599
  431.500   51.769    0.343    0.300    7.746
  431.750   51.186    0.345    0.299    7.758
  432.000   51.226    0.347    0.294    7.773
  432.250   50.653    0.348    0.287    7.788
  432.500   50.684    0.349    0.279    7.808
  432.750   51.359    0.351    0.275    7.819
  433.000   51.410    0.355    0.277    7.555
  433.250   52.075    0.358    0.275    7.570
  433.500   52.105    0.360    0.266    7.456
  433.750   52.780    0.362    0.278    7.467
  434.000   52.811    0.364    0.297    7.350
  434.250   53.486    0.365    0.297    7.232
  434.500   54.151    0.370    0.296    7.116
  434.750   54.181    0.362    0.299    7.130
  435.000   54.243    0.348    0.301    7.015
  435.250   54.897    0.341    0.302    6.906
  435.500   55.572    0.337    0.294    6.791
  435.750   54.989    0.343    0.286    6.685
  436.000   53.158    0.345    0.286    6.571
  436.250   53.198    0.341    0.282    6.469
  436.500   51.991    0.334    0.277    6.482
  436.750   52.022    0.338    0.281    6.378
  437.000   51.459    0.339    0.283    6.387
  437.250   51.479    0.331    0.281    6.400
  437.500   50.896    0.327    0.282    6.416
  437.750   50.312    0.329    0.287    6.428
  438.000   51.601    0.330    0.293    6.569
  438.250   54.149    0.330    0.291    6.575
  438.500   56.696    0.337    0.288    6.588
  438.750   57.351    0.350    0.288    6.605
  439.000   58.640    0.361    0.294    6.495
  439.250   59.305    0.365    0.301    6.505
  439.500   56.849    0.364    0.307    6.400
  439.750   55.017    0.357    0.311    6.413
  440.000   53.810    0.356    0.268    6.426
  440.250   53.851    0.357    0.260    6.560
  440.500   53.892    0.357    0.267    6.570
  440.750   57.073    0.350    0.273    6.707
  441.000   59.611    0.348    0.268    6.720
  441.250   59.661    0.353    0.262    6.737
  441.500   60.306    0.356    0.261    6.747
  441.750   61.615    0.363    0.268    6.642
  442.000   62.270    0.369    0.277    6.532
  442.250   64.193    0.366    0.277    6.427
  442.500   64.858    0.363    0.269    6.323
  442.750   64.275    0.356    0.258    6.222
  443.000   62.454    0.357    0.244    6.234
  443.250   62.474    0.360    0.250    6.249
  443.500   63.149    0.363    0.254    6.262
  443.750   65.062    0.367    0.260    6.158
  444.000   65.717    0.369    0.251    6.173
  444.250   67.640    0.372    0.239    6.074
  444.500   68.305    0.374    0.245    5.766
  444.750   69.594    0.375    0.247    5.565
  445.000   72.131    0.376    0.250    5.280
  445.250   74.044    0.369    0.239    5.492
  445.500   77.216    0.361    0.222    5.814
  445.750   79.753    0.356    0.222    6.036
  446.000   79.794    0.351    0.225    6.387
  446.250   77.962    0.350    0.227    6.637
  446.500   75.517    0.350    0.218    6.775
  446.750   73.685    0.350    0.207    6.785
  447.000   73.102    0.350    0.181    6.802
  447.250   72.508    0.353    0.197    6.816
  447.500   71.301    0.357    0.205    6.954
  447.750   70.728    0.347    0.177    7.100
  448.000   70.134    0.330    0.154    7.377
  448.250   69.561    0.298    0.119    7.950
  448.500   68.968    0.319    0.111    8.257
  448.750   68.384    0.327    0.127    8.737
