~VERSION INFORMATION
 VERS.                 2.0:   CWLS LOG ASCII STANDARD -VERSION 2.0
 WRAP.                  NO:   ONE LINE PER DEPTH STEP
~WELL INFORMATION BLOCK
#MNEM.UNIT           DATA                    DESCRIPTION OF MNEMONIC
#---------    -------------------            -------------------------------
# Generated from Intellog Unique Number	CC_84_87/WELL/1076
NULL.         -999.25                        : NULL_VALUE
WELL.         BP SALESKI                     : Well_name    - WELL              
LOC .         07-08-085-18W4                 : Location     - LOCATION          
UWI .         00/07-08-085-18W400            : Uwi          - UNIQUE WELL ID    
ENTR.         DW                             : Entered      - ENTERED BY        
SRVC.         SCHLUMBERGER                   : Scn          - SERVICE COMPANY   
DATE.         05 FEB 81                      : Date         - LOG DATE
STRT.M        80                             : top_depth    - START DEPTH       
STOP.M        295.1                          : bot_depth    - STOP DEPTH        
STEP.M        0.3                            : increment    - STEP LENGTH       
~CURVE INFORMATION BLOCK
#MNEM UNIT       ERCB CURVE CODE    CURVE DESCRIPTION
#-----------   ------------------   ----------------------------------
DEPT.M        00 001 00 00         : DEPTH        - DEPTH                       
DPHI.V/V      00 890 00 00         : PHID         - DENSITY POROSITY (LIMESTONE)
NPHI.V/V      00 330 00 00         : PHIN         - NEUTRON POROSITY (LIMESTONE)
GR  .API      00 310 00 00         : GR           - GAMMA RAY                   
ILD .OHMM     00 120 00 00         : RESD         - DEEP RESISTIVITY (DIL)      
~PARAMETER INFORMATION       
#MNEM.UNIT           DATA             DESCRIPTION OF MNEMONIC
#---------         -----------     ------------------------------
GL  .M        566.3                : gl           - GROUND LEVEL ELEVATION      
EREF.M        570                  : kb           - ELEVATION OF DEPTH REFERENCE
DATM.M        570                  : datum        - DATUM ELEVATION             
TDD .M        295                  : tdd          - TOTAL DEPTH DRILLER         
RUN .         ONE                  : Run          - RUN NUMBER                  
ENG .         BILL                 : Engineer     - RECORDING ENGINEER          
WIT .         JIM                  : Witness      - WITNESSED BY                
MUD .         GEL                  : Mud_type     - MUD TYPE                    
MATR.         LIMESTONE            : Logunit      - NEUTRON MATRIX              
TMAX.C        31                   : BHT          - MAXIMUM RECORDED TEMPERATURE
BHTD.M        295                  : BHTDEP       - MAXIMUM RECORDED TEMPERATURE
MATR.         1                    : LOGUNIT      - NEUTRON MATRIX              
RMT .C        25                   : MDTP         - TEMPERATURE OF MUD          
NEUT.         1                    : NEUTRON      - NEUTRON TYPE                
RESI.         0                    : RESIST       - RESISTIVITY TYPE            
RMC .OHMM     0.25                 : RMC          - RESISTIVITY OF MUD CAKE     
RMF .OHMM     0.25                 : RMF          - RESISTIVITY OF MUD FILTRATE 
SUFT.C        4                    : SUFT         - SURFACE TEMPERATURE         
~A  DEPTH     PHID     PHIN       GR     RESD
   80.000    0.259    0.525   95.141    3.346
   80.300    0.256    0.523   96.341    3.403
   80.600    0.270    0.538   96.931    3.464
   80.900    0.259    0.531   95.694    3.590
   81.200    0.275    0.538   94.454    3.724
   81.500    0.279    0.543   95.656    3.789
   81.800    0.264    0.521   96.246    3.929
   82.100    0.261    0.500   94.396    3.998
   82.400    0.252    0.478   91.323    3.991
   82.700    0.255    0.490   92.522    3.984
   83.000    0.261    0.504   96.775    3.899
   83.300    0.270    0.521   99.200    3.820
   83.600    0.266    0.535   99.785    3.740
   83.900    0.255    0.534   99.158    3.733
   84.200    0.245    0.525   97.310    3.798
   84.500    0.235    0.515   95.455    3.863
   84.800    0.224    0.507   94.218    4.008
   85.100    0.231    0.509   94.197    4.000
   85.400    0.251    0.525   96.010    3.916
   85.700    0.259    0.543  100.262    3.833
   86.000    0.261    0.551  100.242    3.753
   86.300    0.254    0.539   97.779    3.747
   86.600    0.256    0.529   97.762    3.813
   86.900    0.250    0.524   94.080    3.954
   87.200    0.250    0.516   92.838    4.100
   87.500    0.252    0.511   95.869    4.095
   87.800    0.234    0.511   98.905    3.857
   88.100    0.248    0.499   98.273    3.851
   88.400    0.249    0.483   91.540    3.993
   88.700    0.223    0.460   89.689    4.064
   89.000    0.241    0.435   86.617    4.638
   89.300    0.249    0.437   76.221    5.941
   89.600    0.238    0.442   65.824    8.211
   89.900    0.223    0.425   56.647    8.850
   90.200    0.225    0.414   61.512    8.500
   90.500    0.266    0.467   70.647    6.489
   90.800    0.271    0.479   73.681    5.347
   91.100    0.259    0.502   74.882    4.848
   91.400    0.242    0.529   71.199    4.569
   91.700    0.218    0.515   66.297    5.315
   92.000    0.258    0.458   57.117    5.729
   92.300    0.284    0.478   61.368    5.830
   92.600    0.288    0.477   66.235    5.599
   92.900    0.268    0.492   72.319    4.525
   93.200    0.262    0.513   80.236    4.104
   93.500    0.271    0.481   83.271    3.794
   93.800    0.281    0.477   83.248    3.508
   94.100    0.276    0.483   84.452    3.370
   94.400    0.267    0.503   89.313    3.236
   94.700    0.258    0.525   90.517    3.049
   95.000    0.261    0.526   85.611    2.986
   95.300    0.266    0.533   84.978    2.980
   95.600    0.285    0.553   87.400    3.149
   95.900    0.286    0.558   87.384    3.146
   96.200    0.266    0.545   86.139    3.198
   96.500    0.261    0.537   86.126    3.194
   96.800    0.270    0.505   85.493    3.127
   97.100    0.276    0.486   84.865    3.122
   97.400    0.274    0.516   80.571    3.174
   97.700    0.299    0.528   70.785    3.229
   98.000    0.312    0.519   59.780    3.351
   98.300    0.307    0.440   45.109    3.900
   98.600    0.289    0.447   38.376    7.912
   98.900    0.275    0.451   32.859   11.812
   99.200    0.146    0.421   30.394   16.967
   99.500    0.177    0.393   29.157   18.643
   99.800    0.324    0.421   29.748   18.251
  100.100    0.342    0.456   35.223   17.192
  100.400    0.335    0.463   35.203   16.522
  100.700    0.332    0.432   32.127   17.134
  101.000    0.311    0.414   33.942   15.534
  101.300    0.287    0.418   39.419   14.094
  101.600    0.240    0.421   45.501   11.838
  101.900    0.246    0.414   46.700    9.938
  102.200    0.308    0.402   44.851    9.192
  102.500    0.313    0.410   43.000    8.495
  102.800    0.323    0.434   44.200    8.006
  103.100    0.333    0.455   46.622    7.692
  103.400    0.323    0.459   50.875    7.388
  103.700    0.316    0.479   53.298    7.371
  104.000    0.316    0.471   54.498    7.793
  104.300    0.322    0.445   53.263    8.400
  104.600    0.270    0.431   50.800    9.054
  104.900    0.263    0.429   48.946    9.390
  105.200    0.266    0.422   48.929    9.019
  105.500    0.278    0.426   50.739    9.000
  105.800    0.305    0.434   50.717    8.982
  106.100    0.323    0.432   48.870    9.680
  106.400    0.299    0.433   45.189   10.040
  106.700    0.293    0.442   44.556   10.219
  107.000    0.281    0.442   45.758   10.394
  107.300    0.279    0.425   50.011   10.570
  107.600    0.279    0.422   48.161   10.552
  107.900    0.268    0.430   46.918   10.138
  108.200    0.270    0.429   48.729    9.374
  108.500    0.263    0.426   51.765    8.665
  108.800    0.245    0.422   54.187    8.166
  109.100    0.256    0.439   56.605    7.546
  109.400    0.266    0.451   59.025    7.251
  109.700    0.272    0.458   61.453    6.833
  110.000    0.279    0.465   64.485    6.316
  110.300    0.274    0.483   67.514    5.954
  110.600    0.278    0.492   68.718    5.502
  110.900    0.282    0.477   69.310    4.988
  111.200    0.273    0.466   69.902    4.611
  111.500    0.265    0.478   72.318    4.516
  111.800    0.266    0.496   74.130    4.509
  112.100    0.276    0.507   74.723    4.499
  112.400    0.264    0.492   75.927    4.492
  112.700    0.240    0.488   77.118    4.314
  113.000    0.250    0.508   77.719    4.223
  113.300    0.265    0.518   76.477    4.137
  113.600    0.269    0.517   73.403    4.208
  113.900    0.253    0.487   72.772    3.966
  114.200    0.275    0.478   77.031    3.736
  114.500    0.312    0.495   80.671    3.453
  114.800    0.331    0.500   81.872    3.319
  115.100    0.365    0.523   80.631    3.188
  115.400    0.388    0.556   80.001    3.004
  115.700    0.326    0.579   78.152    2.830
  116.000    0.326    0.596   75.081    2.668
  116.300    0.340    0.603   74.446    2.562
  116.600    0.320    0.611   75.041    2.509
  116.900    0.340    0.599   73.800    2.552
  117.200    0.330    0.568   71.942    2.647
  117.500    0.334    0.582   71.929    2.746
  117.800    0.315    0.613   72.522    2.902
  118.100    0.230    0.616   74.332    2.953
  118.400    0.284    0.611   78.582    3.004
  118.700    0.287    0.583   81.007    2.941
  119.000    0.276    0.555   81.599    2.936
  119.300    0.268    0.515   80.965    2.931
  119.600    0.262    0.496   83.386    3.040
  119.900    0.257    0.501   85.812    3.213
  120.200    0.261    0.535   85.182    3.462
  120.500    0.267    0.528   84.550    3.591
  120.800    0.265    0.512   86.363    3.655
  121.100    0.266    0.501   87.564    3.578
  121.400    0.267    0.513   85.712    3.640
  121.700    0.267    0.503   82.640    3.705
  122.000    0.266    0.485   81.401    3.842
  122.300    0.260    0.480   80.162    3.985
  122.600    0.263    0.480   78.921    4.212
  122.900    0.253    0.476   77.068    4.454
  123.200    0.231    0.476   75.219    4.709
  123.500    0.248    0.478   69.093    5.074
  123.800    0.273    0.448   63.580    5.362
  124.100    0.287    0.401   59.898    5.672
  124.400    0.311    0.353   58.048    6.726
  124.700    0.343    0.302   54.977    8.291
  125.000    0.354    0.307   51.294   32.272
  125.300    0.352    0.322   50.054   34.773
  125.600    0.367    0.325   48.812   34.043
  125.900    0.354    0.351   47.570   32.714
  126.200    0.340    0.359   47.548   29.651
  126.500    0.334    0.367   47.531   28.477
  126.800    0.342    0.377   46.903   27.901
  127.100    0.351    0.387   46.274   26.285
  127.400    0.347    0.392   46.254   24.768
  127.700    0.337    0.395   45.624   23.341
  128.000    0.331    0.399   44.995   22.419
  128.300    0.331    0.420   44.973   21.953
  128.600    0.340    0.433   46.176   22.338
  128.900    0.345    0.439   50.427   23.169
  129.201    0.354    0.448   52.847   24.035
  129.501    0.364    0.464   53.440   23.536
  129.801    0.362    0.478   52.809   23.483
  130.101    0.334    0.469   52.790   24.830
  130.401    0.338    0.460   52.771   26.761
  130.701    0.350    0.475   52.751   27.745
  131.001    0.359    0.455   53.341   26.646
  131.301    0.359    0.427   52.101   26.593
  131.601    0.356    0.454   50.248   26.564
  131.901    0.344    0.458   49.619   27.535
