~VERSION INFORMATION
 VERS.                 2.0:   CWLS LOG ASCII STANDARD -VERSION 2.0
 WRAP.                  NO:   ONE LINE PER DEPTH STEP
~WELL INFORMATION BLOCK
#MNEM.UNIT           DATA                    DESCRIPTION OF MNEMONIC
#---------    -------------------            -------------------------------
# Generated from Intellog Unique Number	CN_94_101/WELL/2640
WELL.         07-28-094-19W4                 : Well_name    - WELL
LOC .         00/07-28-094-19W4/0            : Location     - LOCATION
UWI .         00/07-28-094-19W4/0            : Uwi          - UNIQUE WELL ID
ENTR.         JOETTE                         : Entered      - ENTERED BY
SRVC.         SCHLUMBERGER                   : Scn          - SERVICE COMPANY
DATE.         07\03\92                       : Date         - LOG DATE
STRT.F        500                            : top_depth    - START DEPTH
STOP.F        1195.54                        : bot_depth    - STOP DEPTH
STEP.F        0.82                           : increment    - STEP LENGTH
 NULL. -999.2500:NULL Value
~CURVE INFORMATION BLOCK
#MNEM UNIT       ERCB CURVE CODE    CURVE DESCRIPTION
#-----------   ------------------   ----------------------------------
DEPT.F        00 001 00 00         : DEPTH        - DEPTH
CALI.IN       00 280 01 00         : CAL          - CALIPER
GR  .API      00 310 00 00         : GR           - GAMMA RAY
NPHI.V/V      00 330 00 00         : PHIN         - NEUTRON POROSITY (SANDSTONE)
ILD .OHMM     00 120 00 00         : RESD         - DEEP RESISTIVITY (DIL)
~PARAMETER INFORMATION
#MNEM.UNIT           DATA             DESCRIPTION OF MNEMONIC
#---------         -----------     ------------------------------
GL  .M        639.775              : gl           - GROUND LEVEL ELEVATION
EREF.M        641.909              : kb           - ELEVATION OF DEPTH REFERENCE
DATM.M        641.909              : datum        - DATUM ELEVATION
TDD .M        368.198              : tdd          - TOTAL DEPTH DRILLER
RUN .         ONE                  : Run          - RUN NUMBER
ENG .         JO                   : Engineer     - RECORDING ENGINEER
WIT .         TIM                  : Witness      - WITNESSED BY
MUD .         GEL                  : Mud_type     - MUD TYPE
MATR.         SANDSTONE            : Logunit      - NEUTRON MATRIX
TMAX.F        60                   : BHT          - MAXIMUM RECORDED TEMPERATURE
BHTD.F        1208                 : BHTDEP       - MAXIMUM RECORDED TEMPERATURE
RMT .F        60                   : MDTP         - TEMPERATURE OF MUD
MUDD.LB/G     1.06                 : MWT          - MUD DENSITY
NEUT.         1                    : NEUTRON      - NEUTRON TYPE
RESI.         0                    : RESIST       - RESISTIVITY TYPE
RM  .OHMM     5.7                  : RM           - RESISTIVITY OF MUD
RMC .OHMM     5.7                  : RMC          - RESISTIVITY OF MUD CAKE
RMF .OHMM     5.7                  : RMF          - RESISTIVITY OF MUD FILTRATE
SUFT.F        39.2                 : SUFT         - SURFACE TEMPERATURE
~A  DEPTH      CAL       GR     PHIN     RESD
# ...
  642.717    6.385   78.916    0.372    4.638
  643.537    6.384   89.307    0.351    4.635
  644.357    6.505  100.311    0.368    4.463
  645.177    6.627   99.073    0.415    4.140
  645.997    6.789   99.671    0.454    3.988
  646.818    6.869   99.657    0.430    3.699
  647.638    6.868   98.416    0.418    3.698
  648.458    6.826   98.402    0.424    3.764
  649.278    6.744   98.391    0.415    3.903
  650.098    6.661   94.702    0.429    4.200
  650.919    6.620   89.791    0.414    4.604
  651.739    6.578   84.881    0.425    4.953
  652.559    6.577   83.643    0.380    4.595
  653.379    6.617   91.586    0.361    4.264
  654.199    6.779   98.305    0.403    4.183
  655.020    6.860  101.963    0.426    4.029
  655.840    6.818   97.658    0.426    3.951
  656.660    6.817   95.196    0.417    4.097
  657.480    6.776   95.182    0.422    4.329
  658.301    6.856   96.392    0.416    4.832
  659.121    6.773   95.763    0.398    5.298
  659.941    6.691   93.917    0.378    5.914
  660.761    6.649   94.515    0.360    6.603
  661.581    6.607   93.885    0.362    6.849
  662.402    6.607   92.651    0.365    7.235
  663.222    6.646   89.573    0.368    7.229
  664.042    6.686   90.171    0.361    7.223
  664.862    6.726   92.606    0.358    7.218
  665.682    6.766   93.816    0.361    7.486
  666.503    6.806   91.970    0.364    7.206
  667.323    6.805   86.444    0.367    7.201
  668.143    6.804   81.533    0.353    7.895
  668.963    6.762   80.907    0.350    8.979
  669.783    6.639   80.281    0.340    9.309
  670.604    6.556   79.652    0.338    9.305
  671.424    6.555   78.414    0.330    8.796
  672.244    6.554   80.240    0.323    7.863
  673.064    6.553   84.507    0.336    7.033
  673.885    6.552   83.266    0.361    6.772
  674.705    6.551   82.031    0.377    6.766
  675.525    6.510   79.569    0.388    6.759
  676.345    6.427   75.879    0.357    6.631
  677.165    6.426   80.153    0.360    6.506
  677.986    6.506   86.872    0.359    6.151
  678.806    6.710   92.364    0.371    5.602
  679.626    6.791   89.290    0.407    5.103
  680.446    6.912   86.827    0.383    4.736
  681.266    6.952   88.643    0.399    4.395
  682.087    6.910   91.084    0.408    4.003
  682.907    6.950   92.907    0.412    3.926
  683.727    7.031   92.281    0.414    3.852
  684.547    6.948   92.876    0.415    3.993
  685.367    7.028   84.905    0.415    4.219
  686.188    7.068   81.831    0.410    4.888
  687.008    6.945   82.425    0.415    5.987
  687.828    6.617   86.699    0.367    6.325
  688.648    6.535   90.355    0.343    6.804
  689.469    6.534   91.568    0.342    6.927
  690.289    6.533   86.658    0.352    7.183
  691.109    6.532   78.684    0.364    7.312
  691.929    6.491   72.549    0.354    7.305
  692.749    6.490   74.984    0.358    7.034
  693.570    6.530   81.090    0.363    6.407
  694.390    6.610   84.137    0.351    5.947
  695.210    6.772   82.899    0.355    5.417
  696.030    6.975   82.885    0.378    5.121
  696.850    7.219   84.708    0.401    4.665
  697.671    7.218   81.630    0.386    4.328
  698.491    6.850   87.125    0.366    4.167
  699.311    6.931   90.780    0.407    4.165
  700.131    6.889   86.485    0.425    4.400
  700.951    6.766   82.799    0.435    5.004
  701.772    6.846   79.725    0.426    5.486
  702.592    6.967   77.262    0.420    6.013
  703.412    6.967   74.181    0.417    6.713
  704.232    6.925   73.552    0.413    7.093
  705.052    6.842   73.545    0.405    7.629
  705.873    6.678   74.143    0.385    7.211
  706.693    6.473   77.190    0.343    6.818
  707.513    6.676   80.848    0.363    6.566
  708.333    6.961   82.667    0.388    6.092
  709.154    7.042   75.308    0.422    5.865
  709.974    7.000   66.114    0.423    5.863
  710.794    6.836   67.324    0.424    6.425
  711.614    6.345   74.651    0.347    6.913
  712.434    6.385   80.146    0.354    7.036
  713.255    6.384   85.032    0.369    6.530
  714.075    6.546   86.243    0.378    5.950
  714.895    6.586   84.393    0.387    5.222
  715.715    6.422   84.376    0.401    5.029
  716.535    6.299   78.241    0.391    5.118
  717.356    6.379   76.387    0.394    5.211
  718.176    6.664   77.598    0.416    5.304
  718.996    6.989   79.424    0.441    4.742
  719.816    6.948   78.798    0.410    4.242
  720.636    6.947   76.948    0.403    3.792
  721.457    7.027   81.215    0.402    3.519
  722.277    7.190   83.037    0.410    3.717
  723.097    7.556   83.023    0.455    4.075
  723.917    7.392   80.561    0.466    4.721
  724.738    7.146   79.320    0.455    5.371
  725.558    7.023   77.470    0.456    6.339
  726.378    6.817   76.232    0.456    7.764
  727.198    6.735   74.382    0.401    8.201
  728.018    6.489   71.307    0.366    7.897
  728.839    6.407   65.785    0.368    7.330
  729.659    6.488   58.426    0.350    6.676
  730.479    6.650   55.349    0.304    6.081
  731.299    6.894   65.131    0.292    5.437
  732.119    7.219   74.299    0.422    5.141
  732.940    7.341   75.502    0.453    4.859
  733.760    7.176   79.776    0.475    4.767
  734.580    7.012   79.150    0.443    4.851
  735.400    6.807   77.300    0.418    5.030
  736.220    7.092   77.286    0.418    5.121
  737.041    7.131   77.269    0.390    5.211
  737.861    6.845   79.095    0.385    5.208
  738.681    6.803   82.141    0.391    5.302
  739.501    6.680   85.797    0.382    5.396
  740.322    6.598   89.455    0.353    5.394
  741.142    6.719   86.990    0.347    5.490
  741.962    6.881   86.364    0.347    5.485
  742.782    6.962   90.022    0.349    5.480
  743.602    6.838   93.072    0.354    5.475
  744.423    7.001   97.340    0.360    5.373
  745.243    7.204   95.490    0.365    5.368
  746.063    7.285   98.536    0.372    5.365
  746.883    7.243   99.743    0.383    5.262
  747.703    7.119   96.672    0.417    5.161
  748.524    6.996   97.882    0.389    5.157
  749.344    6.954   99.093    0.380    5.059
  750.164    7.035   95.406    0.380    4.962
  750.984    7.034   90.496    0.376    4.959
  751.804    6.992   95.375    0.391    4.862
  752.625    7.277   99.031    0.415    4.860
  753.445    7.235  100.244    0.427    4.768
  754.265    7.234   92.886    0.393    4.590
  755.085    7.560   92.872    0.398    4.503
  755.906    7.885   96.527    0.393    4.500
  756.726    7.843   98.353    0.386    4.333
  757.546    7.720   96.503    0.373    4.172
  758.366    7.637   89.752    0.392    4.169
  759.186    7.555   87.903    0.408    4.167
  760.007    7.391   91.561    0.414    4.163
  760.827    7.063   93.996    0.426    4.238
  761.647    6.940   95.202    0.422    4.313
  762.467    6.857   92.128    0.410    4.391
  763.287    6.775   88.445    0.414    4.553
  764.108    6.733   82.919    0.419    4.634
  764.928    6.732   79.233    0.416    4.718
  765.748    6.731   81.664    0.414    4.714
  766.568    6.771   81.042    0.422    4.711
  767.388    6.974   77.967    0.427    4.619
  768.209    7.095   77.954    0.416    4.449
  769.029    6.972   82.221    0.426    4.446
  769.849    6.849   82.207    0.438    4.442
  770.669    6.807   82.805    0.398    4.523
  771.490    6.888   86.460    0.371    4.518
  772.310    7.009   85.835    0.359    4.516
  773.130    7.049   85.209    0.371    4.429
  773.950    7.048   86.419    0.397    4.110
  774.770    7.088   85.793    0.438    3.814
  775.591    7.169   85.779    0.425    3.474
  776.411    7.290   79.032    0.428    3.345
  777.231    7.003   82.688    0.428    3.405
  778.051    6.798   85.738    0.426    3.531
  778.871    6.838   89.396    0.434    3.870
  779.692    7.000   88.158    0.418    4.088
  780.512    6.918   83.860    0.413    4.319
  781.332    6.672   78.331    0.402    4.477
  782.152    6.630   76.484    0.360    4.559
  782.972    6.589   80.751    0.323    4.554
  783.793    6.588   83.801    0.335    4.469
  784.613    6.546   87.460    0.375    4.223
