~VERSION INFORMATION
 VERS.                 2.0:   CWLS LOG ASCII STANDARD -VERSION 2.0
 WRAP.                  NO:   ONE LINE PER DEPTH STEP
~WELL INFORMATION BLOCK
#MNEM.UNIT           DATA                    DESCRIPTION OF MNEMONIC
#---------    -------------------            -------------------------------
# Generated from Intellog Unique Number	CW_70_72/WELL/913
NULL.         -999.25                        : NULL_VALUE
WELL.         SUNDANCE CANAL 07-24           : Well_name    - WELL              
LOC .         07-24-071-23W4                 : Location     - LOCATION          
UWI .         00/07-24-071-23W4/0            : Uwi          - UNIQUE WELL ID    
ENTR.         JAYE                           : Entered      - ENTERED BY        
SRVC.         SCHLUMBERGER                   : Scn          - SERVICE COMPANY   
DATE.         21 FEB 77                      : Date         - LOG DATE          
STRT.M        432.816                        : top_depth    - START DEPTH       
STOP.M        658.316                        : bot_depth    - STOP DEPTH        
STEP.M        0.25                           : increment    - STEP LENGTH       
~CURVE INFORMATION BLOCK
#MNEM UNIT       ERCB CURVE CODE    CURVE DESCRIPTION
#-----------   ------------------   ----------------------------------
DEPT.M        00 001 00 00         : DEPTH        - DEPTH                       
DPHI.V/V      00 890 00 00         : PHID         - DENSITY POROSITY (SANDSTONE)
NPHI.V/V      00 330 00 00         : PHIN         - NEUTRON POROSITY (SANDSTONE)
GR  .API      00 310 00 00         : GR           - GAMMA RAY                   
CALI.MM       00 280 01 00         : CAL          - CALIPER                     
ILD .OHMM     00 120 00 00         : RESD         - DEEP RESISTIVITY (DIL)      
~PARAMETER INFORMATION       
#MNEM.UNIT           DATA             DESCRIPTION OF MNEMONIC
#---------         -----------     ------------------------------
GL  .M        641.909              : gl           - GROUND LEVEL ELEVATION      
EREF.M        645.566              : kb           - ELEVATION OF DEPTH REFERENCE
DATM.M        641.909              : datum        - DATUM ELEVATION             
TDD .M        669.036              : tdd          - TOTAL DEPTH DRILLER         
RUN .         ONE                  : Run          - RUN NUMBER                  
ENG .         BIGG/LEDUC           : Engineer     - RECORDING ENGINEER          
WIT .         CHRISTENSEN          : Witness      - WITNESSED BY                
BASE.         EDM                  : Branch       - HOME BASE OF LOGGING UNIT   
MUD .         GEL CHEN             : Mud_type     - MUD TYPE                    
MATR.         SANDSTONE            : Logunit      - NEUTRON MATRIX              
TMAX.C        -17.7778             : BHT          - MAXIMUM RECORDED TEMPERATURE
BHTD.M        669.95               : BHTDEP       - MAXIMUM RECORDED TEMPERATURE
RMT .C        15.5556              : MDTP         - TEMPERATURE OF MUD          
MUDD.KG/M     1104                 : MWT          - MUD DENSITY                 
NEUT.         1                    : NEUTRON      - NEUTRON TYPE                
RESI.         0                    : RESIST       - RESISTIVITY TYPE            
RM  .OHMM     2.18                 : RM           - RESISTIVITY OF MUD          
RMC .OHMM     0                    : RMC          - RESISTIVITY OF MUD CAKE     
RMF .OHMM     4.77                 : RMF          - RESISTIVITY OF MUD FILTRATE 
SUFT.C        0                    : SUFT         - SURFACE TEMPERATURE         
~A  DEPTH     PHID     PHIN       GR      CAL     RESD
# ...
  542.316    0.226    0.453  116.385  166.698    4.790
  542.566    0.253    0.447  116.236  167.064    4.364
  542.816    0.265    0.449  121.384  167.027    3.983
  543.066    0.274    0.467  125.496  166.765    3.669
  543.316    0.251    0.477  125.285  167.225    3.392
  543.566    0.250    0.455  126.719  167.277    3.159
  543.816    0.244    0.435  128.150  167.640    3.071
  544.066    0.219    0.445  128.855  169.246    3.293
  544.316    0.219    0.482  129.616  171.464    3.774
  544.566    0.232    0.518  123.683  176.882    4.472
  544.816    0.247    0.342  112.565  181.476    5.644
  545.066    0.228    0.318  102.062  167.609    7.572
  545.316    0.150    0.296   90.887  160.852    9.125
  545.566    0.085    0.268   86.594  157.922   10.954
  545.816    0.056    0.253   89.610  157.764   13.151
  546.066    0.072    0.239   91.108  158.859   14.826
  546.316    0.097    0.223   91.567  160.359   15.748
  546.566    0.095    0.232   95.322  161.640   14.945
  546.816    0.100    0.296   98.575  162.836   12.949
  547.066    0.136    0.347  104.939  163.617    9.445
  547.316    0.179    0.381  112.827  164.083    7.176
  547.566    0.220    0.392  119.073  164.340    5.959
  547.816    0.223    0.404  120.383  164.803    5.571
  548.066    0.218    0.415  120.662  164.450    5.682
  548.316    0.213    0.425  120.815  165.020    5.871
  548.566    0.205    0.423  119.207  165.484    6.111
  548.816    0.200    0.413  116.918  166.264    6.256
  549.066    0.203    0.390  114.216  166.621    6.276
  549.316    0.204    0.396  112.966  167.097    6.214
  549.566    0.203    0.405  112.935  167.871    6.096
  549.816    0.212    0.409  115.831  168.038    6.059
  550.066    0.216    0.409  118.241  167.977    6.033
  550.316    0.203    0.402  119.243  167.412    6.006
  550.566    0.188    0.392  119.948  167.161    6.025
  550.816    0.194    0.387  119.798  167.216    6.021
  551.066    0.193    0.382  119.767  167.058    6.096
  551.316    0.193    0.381  121.326  166.906    6.105
  551.566    0.199    0.377  124.096  166.463    6.032
  551.816    0.193    0.373  127.964  166.719    5.918
  552.066    0.179    0.376  131.467  166.771    5.805
  552.316    0.191    0.389  130.956  166.820    5.674
  552.566    0.205    0.398  129.827  166.665    5.557
  552.816    0.210    0.412  132.114  166.425    5.452
  553.066    0.210    0.411  132.633  166.375    5.368
  553.316    0.201    0.396  127.734  166.012    5.296
  553.566    0.193    0.390  126.243  165.645    5.253
  553.816    0.197    0.395  127.616  165.808    5.210
  554.066    0.208    0.403  129.960  165.857    5.140
  554.316    0.218    0.407  134.439  166.325    5.070
  554.566    0.224    0.416  130.028  165.454    4.993
  554.816    0.231    0.419  124.636  163.443    4.936
  555.066    0.225    0.410  119.004  161.232    4.950
  555.316    0.219    0.419  113.799  160.157    4.947
  555.566    0.217    0.424  106.890  160.214    4.953
  555.816    0.228    0.403  101.072  160.979    4.896
  556.066    0.219    0.376  102.932  161.665    4.838
  556.316    0.235    0.361  109.054  162.331    4.764
  556.566    0.222    0.370  117.918  163.637    4.725
  556.816    0.203    0.379  123.797  164.705    4.768
  557.066    0.196    0.393  129.253  166.002    4.825
  557.316    0.198    0.409  128.372  166.474    4.995
  557.566    0.195    0.413  122.615  166.317    5.229
  557.816    0.192    0.394  114.485  166.172    5.702
  558.066    0.176    0.364  106.967  165.599    6.090
  558.316    0.147    0.323   96.156  165.041    6.317
  558.566    0.121    0.286   86.200  165.090    6.072
  558.816    0.123    0.316   98.780  165.868    5.815
  559.066    0.170    0.374  114.527  166.850    5.548
  559.316    0.205    0.388  122.110  168.253    5.314
  559.566    0.197    0.388  125.492  168.822    5.128
  559.816    0.192    0.392  122.235  168.974    5.022
  560.066    0.185    0.397  117.457  168.822    4.936
  560.316    0.173    0.392  113.225  168.679    4.904
  560.566    0.170    0.384  109.115  168.732    4.846
  560.816    0.170    0.376  112.196  168.987    4.799
  561.066    0.184    0.368  115.150  168.935    4.804
  561.316    0.217    0.378  117.009  168.886    4.837
  561.566    0.218    0.394  119.417  168.528    4.870
  561.816    0.215    0.397  122.679  168.281    4.967
  562.066    0.205    0.395  124.783  168.447    4.983
  562.316    0.197    0.398  124.750  168.588    4.989
  562.566    0.186    0.401  123.689  168.859    5.004
  562.816    0.177    0.395  122.622  169.217    5.038
  563.066    0.192    0.385  120.279  169.269    5.073
  563.316    0.192    0.379  118.182  169.224    5.144
  563.566    0.170    0.379  115.471  169.080    5.385
  563.816    0.165    0.373  109.050  168.924    5.828
  564.066    0.157    0.350   95.741  168.663    6.485
  564.316    0.074    0.298   82.983  168.005    7.990
  564.566    0.026    0.200   72.298  167.856    9.698
  564.816    0.017    0.184   68.493  167.598   12.332
  565.066    0.035    0.206   72.178  167.552   14.266
  565.316    0.064    0.224   81.407  167.295   13.687
  565.566    0.089    0.246   91.550  167.141   10.342
  565.816    0.109    0.363   97.672  167.089    8.033
  566.066    0.165    0.406  102.153  166.828    7.013
  566.316    0.206    0.334  101.695  166.783    6.497
  566.566    0.191    0.288   93.445  166.639    6.108
  566.816    0.164    0.254   85.377  166.167    5.893
  567.066    0.128    0.284   74.445  165.301    5.591
  567.316    0.185    0.320   76.860  164.317    5.208
  567.566    0.245    0.353   78.714  159.423    4.914
  567.816    0.272    0.395   80.876  156.277    4.777
  568.066    0.311    0.428   83.227  157.054    4.835
  568.316    0.339    0.417   84.293  159.692    5.025
  568.566    0.314    0.401   84.444  161.603    5.260
  568.816    0.270    0.381   82.892  163.524    5.640
  569.066    0.237    0.370   80.797  164.085    6.103
  569.316    0.211    0.329   78.086  164.140    6.364
  569.566    0.175    0.306   75.254  163.888    6.373
  569.816    0.198    0.335   77.662  162.916    5.881
  570.066    0.257    0.378   82.446  161.724    5.347
  570.316    0.288    0.409   85.949  160.021    4.863
  570.566    0.309    0.434   89.820  159.151    4.470
  570.816    0.279    0.413   95.090  159.515    4.149
  571.066    0.259    0.392  100.790  161.531    4.108
  571.316    0.235    0.369  108.065  163.969    4.285
  571.566    0.200    0.356  119.183  165.558    4.451
  571.816    0.221    0.386  121.106  167.677    4.540
  572.066    0.237    0.391  117.483  168.759    4.580
  572.316    0.254    0.385  117.148  167.265    4.568
  572.566    0.252    0.382  113.528  163.922    4.607
  572.816    0.234    0.393  112.280  164.282    4.648
  573.066    0.242    0.402  121.268  167.429    4.654
  573.316    0.229    0.413  129.824  163.780    4.633
  573.566    0.210    0.423  137.957  162.800    4.537
  573.816    0.196    0.439  138.841  165.014    4.353
  574.066    0.210    0.449  139.241  168.372    4.169
  574.316    0.222    0.450  141.042  171.104    3.986
  574.566    0.232    0.447  143.264  173.533    3.896
  574.816    0.224    0.447  142.687  175.132    3.878
  575.066    0.205    0.452  139.003  175.603    4.052
  575.316    0.208    0.432  133.678  175.966    4.297
  575.566    0.240    0.416  126.277  174.267    4.498
  575.816    0.234    0.406  123.570  169.271    4.708
  576.066    0.197    0.401  128.228  168.604    4.901
  576.316    0.190    0.398  130.940  168.861    4.970
  576.566    0.178    0.394  129.574  168.917    4.959
  576.816    0.173    0.395  124.915  168.252    4.883
  577.066    0.182    0.394  128.115  168.096    4.879
  577.316    0.167    0.390  120.720  167.638    4.903
  577.566    0.140    0.381  114.535  167.383    4.955
  577.816    0.138    0.375  121.755  167.448    5.063
  578.066    0.163    0.375  124.040  167.495    5.154
  578.316    0.166    0.388  125.905  167.439    5.210
  578.566    0.147    0.393  127.090  167.392    5.264
