~VERSION INFORMATION
 VERS.                 2.0:   CWLS LOG ASCII STANDARD -VERSION 2.0
 WRAP.                  NO:   ONE LINE PER DEPTH STEP
~WELL INFORMATION BLOCK
#MNEM.UNIT           DATA                    DESCRIPTION OF MNEMONIC
#---------    -------------------            -------------------------------
# Generated from Intellog Unique Number	CS_73_76/WELL/2014
WELL.         EAGLE RESOURCES LTD.           : Well_name    - WELL
LOC .         00/08-22-076-18W4/0            : Location     - LOCATION
UWI .         00/08-22-076-18W4/0            : Uwi          - UNIQUE WELL ID
ENTR.         JO                             : Entered      - ENTERED BY
SRVC.         SCHLUMBERGER                   : Scn          - SERVICE COMPANY
DATE.         05/22/92                       : Date         - LOG DATE
STRT.M        200                            : top_depth    - START DEPTH
STOP.M        450                            : bot_depth    - STOP DEPTH
STEP.M        0.25                           : increment    - STEP LENGTH
 NULL. -999.2500:NULL Value
~CURVE INFORMATION BLOCK
#MNEM UNIT       ERCB CURVE CODE    CURVE DESCRIPTION
#-----------   ------------------   ----------------------------------
DEPT.M        00 001 00 00         : DEPTH        - DEPTH
GR  .API      00 310 00 00         : GR           - GAMMA RAY
NPHI.V/V      00 330 00 00         : PHIN         - NEUTRON POROSITY (SANDSTONE)
DPHI.V/V      00 890 00 00         : PHID         - DENSITY POROSITY (SANDSTONE)
ILD .OHMM     00 120 00 00         : RESD         - DEEP RESISTIVITY (DIL)
~PARAMETER INFORMATION
#MNEM.UNIT           DATA             DESCRIPTION OF MNEMONIC
#---------         -----------     ------------------------------
GL  .M        606.6                : gl           - GROUND LEVEL ELEVATION
EREF.M        610.2                : kb           - ELEVATION OF DEPTH REFERENCE
DATM.M        610.2                : datum        - DATUM ELEVATION
TDD .M        446                  : tdd          - TOTAL DEPTH DRILLER
RUN .         ONE                  : Run          - RUN NUMBER
ENG .         BILL                 : Engineer     - RECORDING ENGINEER
WIT .         JIM                  : Witness      - WITNESSED BY
MUD .         GEL                  : Mud_type     - MUD TYPE
MATR.         SANDSTONE            : Logunit      - NEUTRON MATRIX
TMAX.C        29                   : BHT          - MAXIMUM RECORDED TEMPERATURE
BHTD.M        446                  : BHTDEP       - MAXIMUM RECORDED TEMPERATURE
RMT .C        16.7                 : MDTP         - TEMPERATURE OF MUD
MUDD.KG/M     1100                 : MWT          - MUD DENSITY
NEUT.         1                    : NEUTRON      - NEUTRON TYPE
RESI.         0                    : RESIST       - RESISTIVITY TYPE
RM  .OHMM     3.6                  : RM           - RESISTIVITY OF MUD
RMC .OHMM     3.2                  : RMC          - RESISTIVITY OF MUD CAKE
RMF .OHMM     3.6                  : RMF          - RESISTIVITY OF MUD FILTRATE
SUFT.C        15                   : SUFT         - SURFACE TEMPERATURE
~A  DEPTH       GR     PHIN     PHID     RESD
# ...
  330.500   55.856    0.429    0.324   10.024
  330.750   55.896    0.438    0.318   10.435
  331.000   54.811    0.426    0.315   10.650
  331.250   52.561    0.421    0.310   10.869
  331.500   56.134    0.424    0.315   11.315
  331.750   53.302    0.412    0.277   11.339
  332.000   48.724    0.397    0.246   11.147
  332.250   51.714    0.385    0.314   10.772
  332.500   54.705    0.387    0.325   10.589
  332.750   55.386    0.400    0.334   10.409
  333.000   56.650    0.420    0.327   10.244
  333.250   57.292    0.417    0.326   10.075
  333.500   58.536    0.412    0.331   10.103
  333.750   58.033    0.410    0.335   10.119
  334.000   56.366    0.407    0.333   10.147
  334.250   56.465    0.401    0.324   10.169
  334.500   56.524    0.396    0.324   10.191
  334.750   57.226    0.399    0.322   10.213
  335.000   57.266    0.403    0.317   10.039
  335.250   59.714    0.409    0.315    9.880
  335.500   61.540    0.420    0.318    9.907
  335.750   63.366    0.428    0.327    9.739
  336.000   65.212    0.419    0.329    9.236
  336.250   66.416    0.399    0.329    9.080
  336.500   71.193    0.397    0.325    8.607
  336.750   71.252    0.414    0.312    8.304
  337.000   69.605    0.425    0.295    8.163
  337.250   74.342    0.408    0.284    8.029
  337.500   76.731    0.408    0.281    7.897
  337.750   72.735    0.412    0.286    7.767
  338.000   77.492    0.427    0.286    7.643
  338.250   83.996    0.450    0.269    7.664
  338.500   84.055    0.450    0.288    7.542
  338.750   79.477    0.443    0.305    7.414
  339.000   75.481    0.430    0.317    7.285
  339.250   73.813    0.440    0.312    6.655
  339.500   76.222    0.451    0.301    6.417
  339.750   79.212    0.464    0.258    5.856
  340.000   82.825    0.472    0.248    5.344
  340.250   85.815    0.469    0.236    5.460
  340.500   88.786    0.458    0.224    5.897
  340.750   91.234    0.463    0.216    6.022
  341.000   91.294    0.473    0.210    6.038
  341.250   91.975    0.479    0.210    6.048
  341.500   90.910    0.475    0.210    5.730
  341.750   90.367    0.468    0.210    5.636
  342.000   89.282    0.458    0.212    5.978
  342.250   87.033    0.471    0.226    6.216
  342.500   83.639    0.475    0.253    6.471
  342.750   83.698    0.470    0.258    6.611
  343.000   84.942    0.464    0.252    6.267
  343.250   86.768    0.471    0.246    6.046
  343.500   86.848    0.472    0.245    5.833
  343.750   87.509    0.446    0.246    5.526
  344.000   89.335    0.466    0.249    5.238
  344.250   91.764    0.469    0.253    5.150
  344.500   93.007    0.462    0.254    5.065
  344.750   92.505    0.476    0.244    5.172
  345.000   90.837    0.470    0.239    5.284
  345.250   88.588    0.451    0.232    5.707
  345.500   85.756    0.447    0.232    6.285
  345.750   82.924    0.451    0.232    6.917
  346.000   82.421    0.472    0.234    6.673
  346.250   87.159    0.467    0.237    5.242
  346.500   90.732    0.457    0.245    4.194
  346.750   96.673    0.445    0.263    3.173
  347.000   99.644    0.493    0.271    2.687
  347.250  103.799    0.525    0.263    2.362
  347.500  106.247    0.536    0.265    2.457
  347.750  103.395    0.541    0.260    2.654
  348.000   99.981    0.554    0.247    3.033
  348.250   98.876    0.567    0.238    3.599
  348.500   98.413    0.558    0.267    4.112
  348.750   95.582    0.503    0.284    5.064
  349.000   92.710    0.476    0.276    6.124
  349.250   87.007    0.457    0.253    6.867
  349.500   89.395    0.430    0.227    5.395
  349.750   92.988    0.441    0.233    2.805
  350.000   95.978    0.450    0.244    1.279
  350.250   97.785    0.443    0.245    0.986
  350.500   99.631    0.438    0.237    0.850
  350.750  100.273    0.441    0.237    0.694
  351.000   95.112    0.449    0.231    0.722
  351.250   96.376    0.453    0.218    1.223
  351.500   97.600    0.442    0.205    1.593
  351.750  100.610    0.443    0.206    2.323
  352.000  100.107    0.450    0.234    2.862
  352.250   92.055    0.444    0.254    3.524
  352.500   89.184    0.443    0.257    5.336
  352.750   82.859    0.439    0.251    6.571
  353.000   78.280    0.434    0.239    8.097
  353.250   76.030    0.421    0.238    9.256
  353.500   79.021    0.407    0.237    9.446
  353.750   80.847    0.398    0.229    9.129
  354.000   79.762    0.380    0.226    8.802
  354.250   79.881    0.381    0.227    8.988
  354.500   81.105    0.372    0.226   10.275
  354.750   78.836    0.326    0.217   11.523
  355.000   69.599    0.307    0.207   11.772
  355.250   60.945    0.310    0.277   11.364
  355.500   68.012    0.319    0.298   10.566
  355.750   75.098    0.340    0.287   10.194
  356.000   79.253    0.362    0.268    9.484
  356.250   81.661    0.391    0.237    9.323
  356.500   85.274    0.411    0.227    8.674
  356.750   84.751    0.401    0.221    8.222
  357.000   82.482    0.410    0.227    8.078
  357.250   81.416    0.413    0.237    7.798
  357.500   82.078    0.417    0.236    7.670
  357.750   82.157    0.433    0.230    7.408
  358.000   77.579    0.446    0.235    7.286
  358.250   77.658    0.447    0.248    7.166
  358.500   78.922    0.443    0.265    7.052
  358.750   79.564    0.438    0.274    7.064
  359.000   80.808    0.431    0.266    7.079
  359.250   81.469    0.421    0.259    7.229
  359.500   77.473    0.409    0.249    7.244
  359.750   71.730    0.409    0.247    7.129
  360.000   75.343    0.449    0.252    6.885
  360.250   78.333    0.457    0.258    6.897
  360.500   80.722    0.466    0.254    6.912
  360.750   78.472    0.449    0.267    6.927
  361.000   77.407    0.445    0.286    7.210
  361.250   81.000    0.450    0.299    7.498
  361.500   82.806    0.445    0.295    8.099
  361.750   85.797    0.433    0.289    9.254
  362.000   87.040    0.418    0.279   10.982
  362.250   76.620    0.403    0.258   12.548
  362.500   67.364    0.342    0.191   13.056
  362.750   66.881    0.293    0.055   12.152
  363.000   75.111    0.338    0.084   11.501
  363.250   82.217    0.362    0.126   10.694
  363.500   84.024    0.403    0.185    9.943
  363.750   76.514    0.389    0.150    9.079
  364.000   70.209    0.359    0.082    9.986
  364.250   73.762    0.333    0.134   12.551
  364.500   79.703    0.321    0.166   11.657
  364.750   82.092    0.359    0.202    9.687
  365.000   86.247    0.391    0.210    8.202
  365.250   89.879    0.414    0.203    7.206
  365.500   90.501    0.421    0.199    6.956
  365.750   92.347    0.416    0.191    6.849
  366.000   91.262    0.412    0.185    6.860
  366.250   89.012    0.411    0.178    7.012
  366.500   90.256    0.417    0.178    7.157
  366.750   92.082    0.429    0.182    7.168
  367.000   92.182    0.429    0.190    7.191
  367.250   91.659    0.418    0.191    7.199
  367.500   90.594    0.412    0.186    7.219
  367.750   91.236    0.416    0.182    7.230
  368.000   91.897    0.423    0.180    7.250
  368.250   91.414    0.414    0.179    7.270
  368.500   92.076    0.399    0.185    7.270
  368.750   93.320    0.407    0.190    7.878
  369.000   95.728    0.416    0.189    7.744
  369.250   96.390    0.409    0.183    7.753
  369.500   95.305    0.398    0.172    7.774
  369.750   91.891    0.389    0.180    7.642
  370.000   90.786    0.407    0.189    7.248
  370.250   93.214    0.427    0.199    6.996
  370.500   95.622    0.436    0.205    6.874
  370.750   96.886    0.445    0.205    6.761
  371.000   96.966    0.447    0.201    6.530
  371.250   97.045    0.442    0.200    6.423
  371.500   95.960    0.436    0.203    6.320
  371.750   94.875    0.429    0.208    6.213
  372.000   94.974    0.425    0.212    6.004
  372.250   95.014    0.436    0.208    6.014
  372.500   96.900    0.452    0.211    5.915
  372.750   97.541    0.458    0.212    5.707
  373.000   98.223    0.447    0.207    5.613
  373.250   98.263    0.438    0.198    5.524
  373.500   98.342    0.446    0.196    5.536
  373.750   97.277    0.459    0.196    5.545
