~VERSION INFORMATION
 VERS.                 2.0:   CWLS LOG ASCII STANDARD -VERSION 2.0
 WRAP.                  NO:   ONE LINE PER DEPTH STEP
~WELL INFORMATION BLOCK
#MNEM.UNIT           DATA                    DESCRIPTION OF MNEMONIC
#---------    -------------------            -------------------------------
# Generated from Intellog Unique Number	CS_69_70/WELL/783
WELL.         PARAMOUNT RESOURCES            : Well_name    - WELL
LOC .         00/06-30-069-17W4/0            : Location     - LOCATION
UWI .         00/06-30-069-17W4/0            : Uwi          - UNIQUE WELL ID
ENTR.         SP                             : Entered      - ENTERED BY
SRVC.         SCHLUMBERGER                   : Scn          - SERVICE COMPANY
STRT.M        300                            : top_depth    - START DEPTH
STOP.M        495                            : bot_depth    - STOP DEPTH
STEP.M        0.25                           : increment    - STEP LENGTH
 NULL. -999.2500:NULL Value
~CURVE INFORMATION BLOCK
#MNEM UNIT       ERCB CURVE CODE    CURVE DESCRIPTION
#-----------   ------------------   ----------------------------------
DEPT.M        00 001 00 00         : DEPTH        - DEPTH
ILD .OHMM     00 120 00 00         : RESD         - DEEP RESISTIVITY (DIL)
DPHI.V/V      00 890 00 00         : PHID         - DENSITY POROSITY (LIMESTONE)
NPHI.V/V      00 330 00 00         : PHIN         - NEUTRON POROSITY (LIMESTONE)
GR  .API      00 310 00 00         : GR           - GAMMA RAY
~PARAMETER INFORMATION
#MNEM.UNIT           DATA             DESCRIPTION OF MNEMONIC
#---------         -----------     ------------------------------
GL  .M        564.5                : gl           - GROUND LEVEL ELEVATION
EREF.M        567.5                : kb           - ELEVATION OF DEPTH REFERENCE
DATM.M        564.5                : datum        - DATUM ELEVATION
TDD .M        497                  : tdd          - TOTAL DEPTH DRILLER
RUN .         ONE                  : Run          - RUN NUMBER
ENG .         BILL                 : Engineer     - RECORDING ENGINEER
WIT .         JIM                  : Witness      - WITNESSED BY
MUD .         GEL                  : Mud_type     - MUD TYPE
MATR.         LIMESTONE            : Logunit      - NEUTRON MATRIX
TMAX.C        28                   : BHT          - MAXIMUM RECORDED TEMPERATURE
BHTD.M        597                  : BHTDEP       - MAXIMUM RECORDED TEMPERATURE
MATR.         1                    : LOGUNIT      - NEUTRON MATRIX
RMT .C        25                   : MDTP         - TEMPERATURE OF MUD
NEUT.         1                    : NEUTRON      - NEUTRON TYPE
RESI.         0                    : RESIST       - RESISTIVITY TYPE
RMC .OHMM     0.25                 : RMC          - RESISTIVITY OF MUD CAKE
RMF .OHMM     0.25                 : RMF          - RESISTIVITY OF MUD FILTRATE
SUFT.C        15                   : SUFT         - SURFACE TEMPERATURE
~A  DEPTH     RESD     PHID     PHIN       GR
  300.000    2.641    0.250    0.366   81.481
  300.250    2.595    0.269    0.373   78.707
  300.500    2.573    0.285    0.381   78.734
  300.750    2.551    0.293    0.384   82.039
  301.000    2.550    0.295    0.384   76.602
  301.250    2.551    0.293    0.386   74.621
  301.500    2.572    0.292    0.363   79.991
  301.750    2.594    0.293    0.360   88.940
  302.000    2.625    0.279    0.376   87.874
  302.250    2.672    0.280    0.385   85.409
  302.500    2.685    0.283    0.394   88.534
  302.750    2.692    0.269    0.388   83.641
  303.000    2.690    0.262    0.382   84.394
  303.250    2.693    0.292    0.382   88.307
  303.500    2.694    0.313    0.373   86.149
  303.750    2.677    0.330    0.365   82.108
  304.000    2.689    0.341    0.348   83.163
  304.250    2.753    0.368    0.351   81.853
  304.500    2.844    0.467    0.364   81.515
  304.750    2.910    0.528    0.375   76.320
  305.000    3.013    0.243    0.381   81.751
  305.250    3.038    0.207    0.347   71.518
  305.500    2.957    0.272    0.370   69.172
  305.750    2.905    0.375    0.386   79.582
  306.000    2.979    0.356    0.377   87.741
  306.250    3.124    0.313    0.372   72.589
  306.500    3.350    0.280    0.374   64.480
  306.750    3.646    0.268    0.367   64.325
  307.000    3.759    0.254    0.347   63.317
  307.250    3.884    0.244    0.329   64.863
  307.500    3.909    0.233    0.320   72.057
  307.750    3.770    0.235    0.340   76.751
  308.000    3.581    0.260    0.359   78.598
  308.250    3.371    0.273    0.353   71.769
  308.500    3.167    0.283    0.337   71.487
  308.750    2.998    0.294    0.331   67.688
  309.000    2.939    0.287    0.322   66.013
  309.250    2.981    0.265    0.315   70.471
  309.500    3.079    0.249    0.305   74.930
  309.750    3.253    0.277    0.302   82.059
  310.000    3.476    0.302    0.322   88.156
  310.250    3.672    0.341    0.360   83.993
  310.500    3.807    0.380    0.366   82.378
  310.750    4.023    0.346    0.352   74.147
  311.000    4.234    0.301    0.340   62.699
  311.250    4.532    0.279    0.341   50.523
  311.500    4.788    0.283    0.349   49.212
  311.750    4.938    0.287    0.348   51.000
  312.000    4.951    0.310    0.335   49.750
  312.250    4.747    0.327    0.331   55.182
  312.500    4.202    0.314    0.335   60.002
  312.750    3.810    0.305    0.337   60.876
  313.000    3.586    0.303    0.334   60.479
  313.250    3.407    0.297    0.329   66.999
  313.500    3.329    0.275    0.327   72.734
  313.750    3.301    0.251    0.329   64.926
  314.000    3.237    0.251    0.334   69.506
  314.250    3.210    0.277    0.346   71.657
  314.500    3.200    0.293    0.350   64.336
  314.750    3.191    0.300    0.331   58.475
  315.000    3.165    0.289    0.323   56.678
  315.250    3.179    0.297    0.338   57.068
  315.500    3.321    0.325    0.345   62.924
  315.750    3.548    0.348    0.347   63.859
  316.000    3.855    0.285    0.339   54.413
  316.250    4.268    0.270    0.343   50.432
  316.500    4.499    0.291    0.366   45.480
  316.750    4.807    0.309    0.366   53.278
  317.000    5.098    0.323    0.339   41.768
  317.250    5.326    0.310    0.324   35.361
  317.500    5.482    0.353    0.349   36.541
  317.750    5.102    0.454    0.360   48.041
  318.000    4.223    0.399    0.350   58.811
  318.250    3.786    0.283    0.355   69.156
  318.500    3.544    0.271    0.366   62.990
  318.750    3.342    0.282    0.374   57.187
  319.000    3.234    0.281    0.362   58.797
  319.250    3.136    0.270    0.349   63.796
  319.500    3.093    0.259    0.344   59.755
  319.750    3.091    0.250    0.353   62.269
  320.000    3.122    0.244    0.344   62.173
  320.250    3.166    0.240    0.341   60.561
  320.500    3.205    0.238    0.359   58.886
  320.750    3.213    0.236    0.355   65.833
  321.000    3.234    0.233    0.344   70.472
  321.250    3.255    0.229    0.337   74.262
  321.500    3.276    0.222    0.340   77.749
  321.750    3.323    0.214    0.356   78.141
  322.000    3.382    0.205    0.344   81.262
  322.250    3.416    0.196    0.335   85.052
  322.500    3.445    0.191    0.340   87.023
  322.750    3.474    0.184    0.345   81.157
  323.000    3.503    0.187    0.363   74.568
  323.250    3.532    0.213    0.381   70.585
  323.500    3.522    0.229    0.394   68.424
  323.750    3.467    0.233    0.369   70.273
  324.000    3.387    0.220    0.355   74.853
  324.250    3.333    0.231    0.341   73.300
  324.500    3.263    0.264    0.330   78.545
  324.750    3.205    0.312    0.340   81.181
  325.000    3.156    0.371    0.379   80.601
  325.250    3.135    0.300    0.362   69.943
  325.500    3.137    0.255    0.349   64.139
  325.750    3.199    0.218    0.337   57.669
  326.000    3.287    0.183    0.329   51.260
  326.250    3.327    0.172    0.338   81.581
  326.500    3.367    0.204    0.353   87.678
  326.750    3.401    0.227    0.359   77.746
  327.000    3.424    0.249    0.341   69.880
  327.250    3.446    0.278    0.334   76.707
  327.500    3.476    0.248    0.352   84.079
  327.750    3.518    0.233    0.371   78.274
  328.000    3.614    0.269    0.356   87.650
  328.250    3.631    0.299    0.339   82.760
  328.500    3.573    0.341    0.333   78.595
  328.750    3.484    0.362    0.351   86.943
  329.000    3.417    0.399    0.348   92.550
  329.250    3.491    0.433    0.369   92.453
  329.500    3.613    0.248    0.352   86.349
  329.750    3.810    0.228    0.336   82.366
  330.000    3.929    0.220    0.323   75.959
  330.250    4.014    0.214    0.338   77.257
  330.500    4.063    0.209    0.350   88.515
  330.750    4.089    0.214    0.352   90.666
  331.000    4.132    0.218    0.321   81.527
  331.250    4.197    0.204    0.314   75.057
  331.500    4.296    0.197    0.336   91.107
  331.750    4.372    0.219    0.344  101.212
  332.000    4.450    0.208    0.338   90.615
  332.250    4.513    0.197    0.358   88.515
  332.500    4.526    0.191    0.354   88.177
  332.750    4.495    0.192    0.347   82.924
  333.000    4.425    0.196    0.334   82.703
  333.250    4.339    0.211    0.322   84.854
  333.500    4.247    0.234    0.330   92.470
  333.750    4.188    0.257    0.344   90.856
  334.000    4.100    0.243    0.337   89.727
  334.250    4.065    0.202    0.319   85.200
  334.500    4.038    0.231    0.313  103.985
  334.750    4.019    0.262    0.333  108.564
  335.000    4.046    0.295    0.348   98.270
  335.250    4.079    0.222    0.341   89.432
  335.500    4.137    0.200    0.339   81.384
  335.750    4.179    0.187    0.348   91.001
  336.000    4.168    0.174    0.339   95.463
  336.250    4.125    0.193    0.338   86.986
  336.500    4.037    0.240    0.351   82.214
  336.750    3.808    0.260    0.357   89.344
  337.000    3.590    0.279    0.365   93.073
  337.250    3.292    0.306    0.357   93.403
  337.500    2.926    0.319    0.346   99.686
  337.750    3.067    0.242    0.332  102.803
  338.000    3.030    0.227    0.331   98.460
  338.250    3.009    0.247    0.335   86.525
  338.500    2.968    0.192    0.334   76.959
  338.750    2.970    0.152    0.337   67.270
  339.000    2.962    0.180    0.357   69.056
  339.250    2.954    0.214    0.376   75.275
  339.500    2.946    0.241    0.386   71.417
  339.750    2.921    0.256    0.382   65.431
  340.000    2.870    0.263    0.365   70.922
  340.250    2.851    0.275    0.354   74.588
  340.500    2.853    0.289    0.343   70.367
  340.750    2.888    0.300    0.361   73.126
  341.000    2.962    0.303    0.379   70.538
  341.250    2.981    0.298    0.360   57.150
  341.500    2.934    0.286    0.358   49.888
  341.750    2.808    0.288    0.366   45.482
  342.000    2.713    0.298    0.375   43.990
  342.250    2.626    0.303    0.364   49.176
  342.500    2.556    0.307    0.356   55.395
  342.750    2.497    0.300    0.346   54.449
  343.000    2.476    0.296    0.344   58.117
  343.250    2.475    0.298    0.344   65.793
