~VERSION INFORMATION
 VERS.                 2.0:   CWLS LOG ASCII STANDARD -VERSION 2.0
 WRAP.                  NO:   ONE LINE PER DEPTH STEP
~WELL INFORMATION BLOCK
#MNEM.UNIT           DATA                    DESCRIPTION OF MNEMONIC
#---------    -------------------            -------------------------------
# Generated from Intellog Unique Number	CS_69_70/WELL/851
WELL.         BOW VALLEY INDUSTRIES LTD      : Well_name    - WELL
LOC .         00/07-35-070-17W4/0            : Location     - LOCATION
UWI .         00/07-35-070-17W4/0            : Uwi          - UNIQUE WELL ID
ENTR.         SP                             : Entered      - ENTERED BY
SRVC.         SCHLUMBERGER                   : Scn          - SERVICE COMPANY
STRT.M        280                            : top_depth    - START DEPTH
STOP.M        473                            : bot_depth    - STOP DEPTH
STEP.M        0.25                           : increment    - STEP LENGTH
 NULL. -999.2500:NULL Value
~CURVE INFORMATION BLOCK
#MNEM UNIT       ERCB CURVE CODE    CURVE DESCRIPTION
#-----------   ------------------   ----------------------------------
DEPT.M        00 001 00 00         : DEPTH        - DEPTH
DPHI.V/V      00 890 00 00         : PHID         - DENSITY POROSITY (LIMESTONE)
NPHI.V/V      00 330 00 00         : PHIN         - NEUTRON POROSITY (LIMESTONE)
GR  .API      00 310 00 00         : GR           - GAMMA RAY
ILD .OHMM     00 120 00 00         : RESD         - DEEP RESISTIVITY (DIL)
~PARAMETER INFORMATION
#MNEM.UNIT           DATA             DESCRIPTION OF MNEMONIC
#---------         -----------     ------------------------------
GL  .M        520.17               : gl           - GROUND LEVEL ELEVATION
EREF.M        524.67               : kb           - ELEVATION OF DEPTH REFERENCE
DATM.M        520.17               : datum        - DATUM ELEVATION
TDD .M        476                  : tdd          - TOTAL DEPTH DRILLER
RUN .         ONE                  : Run          - RUN NUMBER
ENG .         BILL                 : Engineer     - RECORDING ENGINEER
WIT .         JIM                  : Witness      - WITNESSED BY
MUD .         GEL                  : Mud_type     - MUD TYPE
MATR.         LIMESTONE            : Logunit      - NEUTRON MATRIX
TMAX.C        221                  : BHT          - MAXIMUM RECORDED TEMPERATURE
BHTD.M        476                  : BHTDEP       - MAXIMUM RECORDED TEMPERATURE
MATR.         1                    : LOGUNIT      - NEUTRON MATRIX
RMT .C        25                   : MDTP         - TEMPERATURE OF MUD
NEUT.         1                    : NEUTRON      - NEUTRON TYPE
RESI.         0                    : RESIST       - RESISTIVITY TYPE
RMC .OHMM     0.25                 : RMC          - RESISTIVITY OF MUD CAKE
RMF .OHMM     0.25                 : RMF          - RESISTIVITY OF MUD FILTRATE
SUFT.C        15                   : SUFT         - SURFACE TEMPERATURE
~A  DEPTH     PHID     PHIN       GR     RESD
# ...
  410.500    0.206    0.370   85.647    4.869
  410.750    0.206    0.370   84.622    4.962
  411.000    0.208    0.371   83.960    5.058
  411.250    0.215    0.374   83.296    5.155
  411.500    0.228    0.376   83.711    5.225
  411.750    0.233    0.376   84.129    5.266
  412.000    0.237    0.374   85.204    5.297
  412.250    0.225    0.373   85.682    5.338
  412.500    0.206    0.373   86.279    4.971
  412.750    0.200    0.375   86.934    4.889
  413.000    0.201    0.380   87.590    4.720
  413.250    0.200    0.382   87.047    4.659
  413.500    0.192    0.388   85.002    4.380
  413.750    0.185    0.391   81.398    3.951
  414.000    0.182    0.395   81.093    3.673
  414.250    0.205    0.401   82.650    3.428
  414.500    0.238    0.419   84.448    3.247
  414.750    0.274    0.443   89.426    3.134
  415.000    0.308    0.465   94.644    3.071
  415.250    0.317    0.487   98.661    3.071
  415.500    0.281    0.493   99.858    3.090
  415.750    0.258    0.486  100.154    3.143
  416.000    0.253    0.484   99.250    3.168
  416.250    0.262    0.486   97.566    3.204
  416.500    0.267    0.493   98.883    3.247
  416.750    0.263    0.496  100.019    3.260
  417.000    0.261    0.492  101.034    3.292
  417.250    0.263    0.488  101.511    3.293
  417.500    0.265    0.486  102.048    3.282
  417.750    0.259    0.485  102.285    3.246
  418.000    0.256    0.486  102.701    3.057
  418.250    0.251    0.484  103.237    3.041
  418.500    0.237    0.479  103.534    3.093
  418.750    0.234    0.468  104.788    3.182
  419.000    0.244    0.459  105.267    3.381
  419.250    0.259    0.452  107.003    3.497
  419.500    0.270    0.446  107.541    3.771
  419.750    0.276    0.440  107.417    4.359
  420.000    0.264    0.434  106.152    4.916
  420.250    0.245    0.417  104.408    5.320
  420.500    0.224    0.390  101.283    6.361
  420.750    0.186    0.363   94.256    7.068
  421.000    0.185    0.341   88.070    8.047
  421.250    0.199    0.324   82.964    8.824
  421.500    0.134    0.312   78.098    9.515
  421.750    0.093    0.305   74.913    9.697
  422.000    0.082    0.301   79.050    8.781
  422.250    0.108    0.314   83.368    7.377
  422.500    0.130    0.363   87.627    6.507
  422.750    0.164    0.409   97.464    5.914
  423.000    0.259    0.422   98.903    5.719
  423.250    0.321    0.424  101.661    5.646
  423.500    0.334    0.419  100.757    5.690
  423.750    0.317    0.409   98.352    5.832
  424.000    0.272    0.399   95.767    6.045
  424.250    0.216    0.394   93.783    6.196
  424.500    0.163    0.390   91.258    6.174
  424.750    0.128    0.391   90.474    5.960
  425.000    0.153    0.397   93.111    5.677
  425.250    0.176    0.401   95.508    5.490
  425.500    0.195    0.401   97.604    5.481
  425.750    0.206    0.392   98.082    5.513
  426.000    0.209    0.388   98.737    5.640
  426.250    0.210    0.381   98.314    5.814
  426.500    0.205    0.377   95.069    6.015
  426.750    0.178    0.372   95.185    6.131
  427.000    0.167    0.369   96.802    6.273
  427.250    0.156    0.366   98.239    6.321
  427.500    0.150    0.366   99.974    6.323
  427.750    0.151    0.366  100.512    6.300
  428.000    0.156    0.369  100.687    6.173
  428.250    0.158    0.374  100.625    5.958
  428.500    0.166    0.380  100.199    5.816
  428.750    0.181    0.383  100.136    5.950
  429.000    0.205    0.383  100.013    6.296
  429.250    0.216    0.339   98.567    6.944
  429.500    0.201    0.296   96.284    7.501
  429.750    0.150    0.275   90.758    8.801
  430.000    0.128    0.267   86.252    9.579
  430.250    0.121    0.258   82.407   10.485
  430.500    0.120    0.248   81.203   10.991
  430.750    0.111    0.248   80.058   10.911
  431.000    0.105    0.262   76.753    9.788
  431.250    0.097    0.281   73.628    8.442
  431.500    0.087    0.302   76.565    7.432
  431.750    0.081    0.320   80.823    6.629
  432.000    0.102    0.338   83.821    6.105
  432.250    0.123    0.353   87.658    5.509
  432.500    0.163    0.369   90.835    5.356
  432.750    0.214    0.384   92.632    4.971
  433.000    0.234    0.404   93.889    4.788
  433.250    0.250    0.416   95.206    4.263
  433.500    0.291    0.424   96.342    3.635
  433.750    0.344    0.433   96.759    3.159
  434.000    0.396    0.451   96.395    2.887
  434.250    0.419    0.482   95.611    2.720
  434.500    0.427    0.501   94.106    2.620
  434.750    0.399    0.519   93.141    2.841
  435.000    0.358    0.470   93.017    3.223
  435.250    0.323    0.432   93.015    3.788
  435.500    0.295    0.403   92.830    4.615
  435.750    0.220    0.383   92.587    5.284
  436.000    0.271    0.396   92.103    5.644
  436.250    0.308    0.406   91.319    5.840
  436.500    0.343    0.412   89.634    5.787
  436.750    0.379    0.398   87.410    5.745
  437.000    0.312    0.382   83.565    5.725
  437.250    0.243    0.372   83.141    5.835
  437.500    0.204    0.365   84.697    6.026
  437.750    0.253    0.385   86.615    6.257
  438.000    0.272    0.397   89.552    6.523
  438.250    0.280    0.395   90.148    6.800
  438.500    0.254    0.372   85.703    7.062
  438.750    0.213    0.358   86.299    7.403
  439.000    0.174    0.344   85.275    7.717
  439.250    0.158    0.328   85.091    7.895
  439.500    0.137    0.305   87.308    7.972
  439.750    0.117    0.308   91.025    7.869
  440.000    0.216    0.328   94.083    6.941
  440.250    0.267    0.371   97.140    6.465
  440.500    0.393    0.405   98.637    5.745
  440.750    0.447    0.428   98.093    5.401
  441.000    0.482    0.451   93.588    4.984
  441.250    0.484    0.473   90.763    4.757
  441.500    0.436    0.495   92.439    4.583
  441.750    0.408    0.467   93.936    4.490
  442.000    0.378    0.453   95.553    4.326
  442.250    0.389    0.476   96.150    4.294
  442.500    0.384    0.487   95.966    4.184
  442.750    0.368    0.486   94.701    4.115
  443.000    0.357    0.475   93.977    4.055
  443.250    0.378    0.466   93.553    3.996
  443.500    0.406    0.463   93.126    3.945
  443.750    0.465    0.469   93.303    3.916
  444.000    0.498    0.475   93.479    3.932
  444.250    0.492    0.482   93.478    3.947
  444.500    0.469    0.487   93.595    4.001
  444.750    0.457    0.479   92.810    3.949
  445.000    0.448    0.480   92.866    3.995
  445.250    0.457    0.499   94.363    4.133
  445.500    0.470    0.514   95.200    4.300
  445.750    0.465    0.496   92.195    4.441
  446.000    0.452    0.478   88.410    4.518
  446.250    0.417    0.474   85.224    4.544
  446.500    0.397    0.473   84.080    4.486
  446.750    0.398    0.477   85.577    4.429
  447.000    0.399    0.499   89.114    4.364
  447.250    0.381    0.519   93.073    4.228
  447.500    0.359    0.456   96.250    4.197
  447.750    0.355    0.433   97.807    4.270
  448.000    0.371    0.409   97.863    4.303
  448.250    0.330    0.408   95.578    4.240
  448.500    0.320    0.419   93.474    4.062
  448.750    0.333    0.437   90.589    3.855
  449.000    0.353    0.469   90.645    3.631
  449.250    0.372    0.491   91.542    3.472
  449.500    0.355    0.504   93.637    3.421
  449.750    0.326    0.484   94.415    3.461
  450.000    0.324    0.455   95.551    3.824
  450.250    0.366    0.431   96.748    4.728
  450.500    0.390    0.406   96.925    5.642
  450.750    0.341    0.361   92.119    7.649
  451.000    0.248    0.322   84.852   10.312
  451.250    0.163    0.305   77.945   12.421
  451.500    0.154    0.314   70.199   13.853
  451.750    0.182    0.320   61.191   14.881
  452.000    0.205    0.323   61.907   14.802
  452.250    0.218    0.324   64.245   14.394
  452.500    0.225    0.325   66.522   13.636
  452.750    0.222    0.325   68.319   12.965
  453.000    0.216    0.325   69.035   12.443
  453.250    0.196    0.320   69.452   11.743
  453.500    0.177    0.317   68.788   10.917
  453.750    0.163    0.313   72.145   10.092
