~VERSION INFORMATION
 VERS.                 2.0:   CWLS LOG ASCII STANDARD -VERSION 2.0
 WRAP.                  NO:   ONE LINE PER DEPTH STEP
~WELL INFORMATION BLOCK
#MNEM.UNIT           DATA                    DESCRIPTION OF MNEMONIC
#---------    -------------------            -------------------------------
# Generated from Intellog Unique Number	CX_WELLS/WELL/3803
WELL.         06-26-086-18W4                 : Well_name    - WELL
LOC .         00/06-26-086-18W4/0            : Location     - LOCATION
UWI .         00/06-26-086-18W400            : Uwi          - UNIQUE WELL ID
ENTR.         T                              : Entered      - ENTERED BY
SRVC.         SCHLUMBERGER                   : Scn          - SERVICE COMPANY
DATE.         03/04/92                       : Date         - LOG DATE
STRT.M        75                             : top_depth    - START DEPTH
STOP.M        230                            : bot_depth    - STOP DEPTH
STEP.M        0.25                           : increment    - STEP LENGTH
 NULL. -999.2500:NULL Value
~CURVE INFORMATION BLOCK
#MNEM UNIT       ERCB CURVE CODE    CURVE DESCRIPTION
#-----------   ------------------   ----------------------------------
DEPT.M        00 001 00 00         : DEPTH        - DEPTH
GR  .API      00 310 00 00         : GR           - GAMMA RAY
NPHI.V/V      00 330 00 00         : PHIN         - NEUTRON POROSITY (SANDSTONE)
DPHI.V/V      00 890 00 00         : PHID         - DENSITY POROSITY (SANDSTONE)
ILD .OHMM     00 120 00 00         : RESD         - DEEP RESISTIVITY (DIL)
~PARAMETER INFORMATION
#MNEM.UNIT           DATA             DESCRIPTION OF MNEMONIC
#---------         -----------     ------------------------------
GL  .M        510.9                : gl           - GROUND LEVEL ELEVATION
EREF.M        510.9                : kb           - ELEVATION OF DEPTH REFERENCE
DATM.M        510.9                : datum        - DATUM ELEVATION
TDD .M        245                  : tdd          - TOTAL DEPTH DRILLER
RUN .         ONE                  : Run          - RUN NUMBER
ENG .         JO                   : Engineer     - RECORDING ENGINEER
WIT .         TIM                  : Witness      - WITNESSED BY
MUD .         GEL                  : Mud_type     - MUD TYPE
MATR.         SANDSTONE            : Logunit      - NEUTRON MATRIX
TMAX.C        22                   : BHT          - MAXIMUM RECORDED TEMPERATURE
BHTD.M        245                  : BHTDEP       - MAXIMUM RECORDED TEMPERATURE
RMT .C        20                   : MDTP         - TEMPERATURE OF MUD
MUDD.KG/M     1                    : MWT          - MUD DENSITY
NEUT.         1                    : NEUTRON      - NEUTRON TYPE
RESI.         0                    : RESIST       - RESISTIVITY TYPE
RM  .OHMM     5                    : RM           - RESISTIVITY OF MUD
RMC .OHMM     4.5                  : RMC          - RESISTIVITY OF MUD CAKE
RMF .OHMM     4.5                  : RMF          - RESISTIVITY OF MUD FILTRATE
SUFT.C        4                    : SUFT         - SURFACE TEMPERATURE
~A  DEPTH       GR     PHIN     PHID     RESD
# ...
  205.500  100.486    0.366    0.184   15.836
  205.750   98.214    0.358    0.177   16.782
  206.000   97.084    0.365    0.117   17.109
  206.250   95.382    0.390    0.095   17.460
  206.500   93.693    0.397    0.137   17.818
  206.750   92.586    0.406    0.181   17.835
  207.000   92.050    0.418    0.191   17.522
  207.250   93.844    0.424    0.201   16.594
  207.500   97.386    0.436    0.207   16.001
  207.750  100.927    0.443    0.211   15.154
  208.000  105.040    0.448    0.210   14.081
  208.250  109.758    0.451    0.209   13.578
  208.500  110.970    0.456    0.215   12.384
  208.750  112.182    0.465    0.220   11.294
  209.000  112.811    0.466    0.228   10.301
  209.250  111.109    0.435    0.221    9.224
  209.500  107.661    0.426    0.215    8.257
  209.750  102.464    0.415    0.215    7.389
  210.000   96.103    0.401    0.266    6.254
  210.250   83.916    0.391    0.293    6.747
  210.500   81.621    0.391    0.303    9.637
  210.750   70.599    0.390    0.304   15.681
  211.000   57.247    0.387    0.306   49.074
  211.250   49.709    0.387    0.308   67.520
  211.500   46.260    0.394    0.307   61.580
  211.750   45.724    0.402    0.309   55.124
  212.000   49.871    0.409    0.310   49.344
  212.250   52.842    0.418    0.306   44.171
  212.500   54.613    0.425    0.305   41.044
  212.750   57.013    0.427    0.306   37.434
  213.000   57.630    0.431    0.313   34.784
  213.250   58.259    0.436    0.318   33.552
  213.500   59.471    0.437    0.320   34.908
  213.750   60.694    0.434    0.324   36.260
  214.000   62.488    0.431    0.325   36.296
  214.250   65.447    0.423    0.324   34.362
  214.500   67.812    0.420    0.321   29.632
  214.750   71.354    0.419    0.317   25.553
  215.000   76.655    0.418    0.311   21.634
  215.250   80.197    0.418    0.285   19.002
  215.500   84.321    0.420    0.230   16.077
  215.750   89.610    0.432    0.204   12.866
  216.000  100.736    0.465    0.199   10.106
  216.250  109.521    0.529    0.210    8.240
  216.500  114.810    0.539    0.222    6.006
  216.750  116.604    0.542    0.228    5.376
  217.000  117.816    0.537    0.238    4.725
  217.250  117.886    0.526    0.243    4.075
  217.500  116.185    0.512    0.228    3.856
  217.750  113.318    0.489    0.217    4.161
  218.000  111.023    0.474    0.208    4.660
  218.250  109.333    0.467    0.202    5.221
  218.500  108.809    0.470    0.201    5.327
  218.750  108.844    0.472    0.208    5.233
  219.000  108.890    0.470    0.216    4.956
  219.250  109.519    0.457    0.225    4.871
  219.500  107.236    0.442    0.232    5.356
  219.750  103.775    0.418    0.241    5.886
  220.000   99.744    0.380    0.251    8.565
  220.250   96.295    0.370    0.264    9.771
  220.500   92.264    0.376    0.275   13.444
  220.750   87.067    0.377    0.272   18.491
  221.000   82.442    0.384    0.211   42.126
  221.250   72.585    0.382    0.141   55.818
  221.500   58.651    0.342    0.078   68.658
  221.750   45.299    0.289    0.070   75.476
  222.000   37.761    0.290    0.071   84.535
  222.250   30.817    0.291    0.081   94.712
  222.500   26.785    0.293    0.102  100.300
  222.750   25.667    0.294    0.128  104.252
  223.000   26.901    0.296    0.138  112.484
  223.250   27.507    0.290    0.153  123.693
  223.500   27.554    0.282    0.150  138.539
  223.750   27.600    0.268    0.139  158.041
  224.000   25.922    0.255    0.145  183.747
  224.250   25.375    0.252    0.157  213.633
  224.500   23.091    0.246    0.185  267.732
  224.750   22.555    0.241    0.213  305.618
  225.000   22.625    0.238    0.219  317.764
  225.250   23.230    0.244    0.223  324.068
  225.500   23.288    0.254    0.224  336.838
  225.750   23.917    0.260    0.225  363.435
  226.000   23.964    0.266    0.222  384.752
  226.250   24.010    0.269    0.219  364.377
  226.500   24.068    0.259    0.209  338.806
  226.750   23.521    0.253    0.212  320.554
  227.000   23.555    0.252    0.213  286.945
  227.250   23.602    0.253    0.216  256.777
  227.500   23.648    0.255    0.216  221.427
  227.750   23.706    0.263    0.202  170.704
  228.000   23.765    0.275    0.189  139.183
  228.250   23.811    0.290    0.186  126.980
  228.500   24.452    0.316    0.185  131.941
  228.750   24.475    0.323    0.184  150.563
  229.000   23.962    0.320    0.184  192.247
  229.250   23.414    0.320    0.195  240.853
  229.500   23.449    0.322    0.205  301.846
  229.750   22.925    0.325    0.199  319.654
  230.000   22.971    0.328    0.149  325.996
