~VERSION INFORMATION
 VERS.                 2.0:   CWLS LOG ASCII STANDARD -VERSION 2.0
 WRAP.                  NO:   ONE LINE PER DEPTH STEP
~WELL INFORMATION BLOCK
#MNEM.UNIT           DATA                    DESCRIPTION OF MNEMONIC
#---------    -------------------            -------------------------------
# Generated from Intellog Unique Number	CS_67_68/WELL/2175
WELL.         MURPHY ET AL SANDHILL          : Well_name    - WELL
LOC .         00/07-07-067-16W4/0            : Location     - LOCATION
UWI .         00/07-07-067-16W4/0            : Uwi          - UNIQUE WELL ID
ENTR.         SP                             : Entered      - ENTERED BY
SRVC.         SCHLUMBERGER                   : Scn          - SERVICE COMPANY
STRT.M        384.048                        : top_depth    - START DEPTH
STOP.M        550.298                        : bot_depth    - STOP DEPTH
STEP.M        0.25                           : increment    - STEP LENGTH
 NULL. -999.2500:NULL Value
~CURVE INFORMATION BLOCK
#MNEM UNIT       ERCB CURVE CODE    CURVE DESCRIPTION
#-----------   ------------------   ----------------------------------
DEPT.M        00 001 00 00         : DEPTH        - DEPTH
CALI.MM       00 280 01 00         : CAL          - CALIPER
GR  .API      00 310 00 00         : GR           - GAMMA RAY
DPHI.V/V      00 890 00 00         : PHID         - DENSITY POROSITY (SANDSTONE)
NPHI.V/V      00 330 00 00         : PHIN         - NEUTRON POROSITY (SANDSTONE)
ILD .OHMM     00 120 00 00         : RESD         - DEEP RESISTIVITY (DIL)
~PARAMETER INFORMATION
#MNEM.UNIT           DATA             DESCRIPTION OF MNEMONIC
#---------         -----------     ------------------------------
GL  .M        609.905              : gl           - GROUND LEVEL ELEVATION
EREF.M        612.953              : kb           - ELEVATION OF DEPTH REFERENCE
DATM.M        612.953              : datum        - DATUM ELEVATION
TDD .M        574.853              : tdd          - TOTAL DEPTH DRILLER
RUN .         ONE                  : Run          - RUN NUMBER
ENG .         BILL                 : Engineer     - RECORDING ENGINEER
WIT .         JIM                  : Witness      - WITNESSED BY
MUD .         GEL                  : Mud_type     - MUD TYPE
MATR.         SANDSTONE            : Logunit      - NEUTRON MATRIX
TMAX.C        14.4444              : BHT          - MAXIMUM RECORDED TEMPERATURE
BHTD.M        574.853              : BHTDEP       - MAXIMUM RECORDED TEMPERATURE
MATR.         1                    : LOGUNIT      - NEUTRON MATRIX
RMT .C        25                   : MDTP         - TEMPERATURE OF MUD
NEUT.         1                    : NEUTRON      - NEUTRON TYPE
RESI.         0                    : RESIST       - RESISTIVITY TYPE
RMC .OHMM     0.25                 : RMC          - RESISTIVITY OF MUD CAKE
RMF .OHMM     0.25                 : RMF          - RESISTIVITY OF MUD FILTRATE
SUFT.C        15                   : SUFT         - SURFACE TEMPERATURE
~A  DEPTH      CAL       GR     PHID     PHIN     RESD
# ...
  493.548  161.476   92.913    0.168    0.424    3.391
  493.798  160.859   95.028    0.178    0.426    3.200
  494.048  160.302   96.952    0.138    0.415    3.130
  494.298  160.239   98.688    0.146    0.419    3.186
  494.548  160.004   98.905    0.161    0.426    3.374
  494.798  159.904   96.982    0.169    0.429    3.507
  495.048  159.918   93.652    0.155    0.422    3.658
  495.298  159.905   92.679    0.147    0.417    3.824
  495.548  160.738   94.010    0.138    0.412    4.021
  495.798  161.547   93.801    0.132    0.402    4.293
  496.048  161.750   92.110    0.127    0.388    4.557
  496.298  161.898   92.164    0.126    0.370    4.636
  496.548  162.174   91.175    0.119    0.351    4.395
  496.798  162.694   91.163    0.118    0.356    4.164
  497.048  163.011   94.898    0.126    0.385    3.927
  497.298  163.188   97.398    0.131    0.403    3.649
  497.548  162.974   98.548    0.153    0.418    3.554
  497.798  162.596   99.529    0.160    0.432    3.468
  498.048  162.481  100.518    0.151    0.436    3.419
  498.298  162.276  100.102    0.145    0.436    3.450
  498.548  162.170   97.484    0.146    0.435    3.551
  498.798  162.185   97.400    0.141    0.415    3.658
  499.048  162.201   98.295    0.125    0.406    3.694
  499.298  162.718   98.885    0.113    0.416    3.699
  499.548  162.505   99.541    0.114    0.422    3.661
  499.798  162.552  100.073    0.146    0.424    3.565
  500.048  162.462  100.425    0.150    0.419    3.480
  500.298  162.197  100.631    0.144    0.417    3.423
  500.548  161.848  100.628    0.142    0.416    3.397
  500.798  161.728  100.526    0.146    0.420    3.375
  501.048  166.366   99.744    0.158    0.421    3.391
  501.298  168.064   98.583    0.147    0.423    3.425
  501.548  168.022   97.593    0.144    0.428    3.438
  501.798  167.532   99.249    0.145    0.433    3.414
  502.048  167.231  101.913    0.146    0.436    3.395
  502.298  166.710  104.868    0.154    0.435    3.370
  502.548  166.648  107.502    0.162    0.431    3.333
  502.798  166.600  107.842    0.157    0.428    3.248
  503.048  166.642  108.219    0.157    0.428    3.114
  503.298  167.549  109.036    0.168    0.440    2.920
  503.548  168.750  110.287    0.172    0.448    2.747
  503.798  171.104  111.958    0.175    0.454    2.538
  504.048  177.438  113.589    0.179    0.471    2.417
  504.298  184.678  114.494    0.197    0.509    2.303
  504.548  189.155  114.775    0.203    0.510    2.220
  504.798  187.789  113.287    0.202    0.502    2.154
  505.048  186.280  111.149    0.207    0.515    2.114
  505.298  185.768  109.334    0.202    0.504    2.118
  505.548  186.601  108.633    0.196    0.493    2.155
  505.798  187.349  107.414    0.186    0.498    2.286
  506.048  187.324  105.798    0.170    0.481    2.464
  506.298  185.132  103.650    0.155    0.452    2.629
  506.548  180.491  102.163    0.172    0.440    2.830
  506.798  175.193  101.060    0.137    0.434    2.945
  507.048  170.032  106.793    0.137    0.424    2.948
  507.298  167.676  108.537    0.141    0.439    2.918
  507.548  166.851  109.451    0.133    0.444    2.898
  507.798  166.649  109.064    0.153    0.436    2.916
  508.048  166.115  106.262    0.165    0.444    3.020
  508.298  165.984   99.987    0.167    0.439    3.203
  508.548  165.554   89.881    0.168    0.442    3.496
  508.798  165.016   84.977    0.155    0.450    3.727
  509.048  164.520   82.031    0.173    0.442    4.095
  509.298  164.570   80.242    0.172    0.416    4.258
  509.548  164.202   81.667    0.174    0.392    4.511
  509.798  164.114   84.313    0.134    0.388    4.600
  510.048  164.217   86.207    0.117    0.384    4.662
  510.298  164.115   86.155    0.100    0.371    5.181
  510.548  164.131   76.156    0.107    0.312    6.109
  510.798  164.334   60.834    0.076    0.217    7.739
  511.048  164.847   57.325    0.013    0.204    9.313
  511.298  165.430   61.120    0.000    0.197   10.479
  511.548  166.057   70.065   -0.000    0.201   10.111
  511.798  166.625   85.466   -0.001    0.259    6.966
  512.048  167.061   94.819    0.031    0.361    5.658
  512.298  167.239  101.977    0.083    0.383    4.810
  512.548  167.398  103.919    0.119    0.399    4.162
  512.798  167.288  102.145    0.125    0.405    3.843
  513.048  167.403  100.705    0.120    0.413    3.675
  513.298  167.631  100.438    0.116    0.418    3.704
  513.548  167.912  100.927    0.118    0.428    3.803
  513.798  167.790  101.192    0.121    0.418    3.899
  514.048  168.128  100.559    0.117    0.404    3.994
  514.298  168.407   97.714    0.105    0.389    4.048
  514.548  168.601   98.982    0.093    0.374    4.061
  514.798  168.745  100.846    0.092    0.380    4.041
  515.048  168.859   99.481    0.113    0.389    4.008
  515.298  168.833   95.412    0.129    0.387    3.994
  515.548  168.847   93.874    0.118    0.378    4.008
  515.798  168.751   95.979    0.116    0.372    4.005
  516.048  168.644   97.657    0.119    0.390    4.010
  516.298  168.491   98.922    0.127    0.406    4.009
  516.548  168.198   99.911    0.140    0.413    4.005
  516.798  168.157   97.381    0.139    0.414    3.979
  517.048  168.158   95.217    0.132    0.416    3.964
  517.298  168.149   94.852    0.133    0.414    3.919
  517.548  167.861   95.745    0.131    0.406    3.914
  517.798  167.924   96.243    0.133    0.400    3.894
  518.048  167.756   95.366    0.145    0.397    3.883
  518.298  167.768   92.816    0.129    0.393    3.883
  518.548  167.538   94.891    0.118    0.394    3.902
  518.798  167.574   96.363    0.103    0.400    3.919
  519.048  167.214   98.339    0.122    0.401    3.935
  519.298  167.025   99.907    0.123    0.411    3.966
  519.548  166.859   98.076    0.144    0.421    4.003
  519.798  166.789   95.847    0.131    0.419    4.055
  520.048  166.765   97.731    0.113    0.409    4.140
  520.298  166.767   99.805    0.089    0.401    4.254
  520.548  166.734   99.991    0.101    0.398    4.471
  520.798  166.611  100.719    0.138    0.391    4.774
  521.048  166.453  101.906    0.161    0.382    5.185
  521.298  166.735  103.089    0.165    0.372    5.432
  521.548  166.793  104.359    0.167    0.364    5.472
  521.798  166.773  106.156    0.158    0.359    5.410
  522.048  166.894  107.253    0.154    0.361    5.318
  522.298  166.884  106.630    0.150    0.368    5.064
  522.548  167.061  103.701    0.159    0.373    4.678
  522.798  166.943  100.721    0.142    0.380    4.399
  523.048  166.903   98.929    0.151    0.394    4.128
  523.298  167.117   97.025    0.162    0.404    3.773
  523.548  167.123   93.196    0.160    0.398    3.249
  523.798  167.497   93.859    0.156    0.420    2.677
  524.048  168.261   96.418    0.168    0.460    2.342
  524.298  172.331   99.029    0.191    0.485    2.164
  524.548  172.325   99.857    0.208    0.495    2.041
  524.798  181.766  100.603    0.197    0.497    1.985
  525.048  191.661  101.811    0.197    0.496    1.964
  525.298  199.569  102.873    0.207    0.493    1.972
  525.548  199.184  103.952    0.206    0.489    2.014
  525.798  195.654  103.923    0.217    0.483    2.067
  526.048  188.540  103.548    0.212    0.491    2.193
  526.298  183.379  100.921    0.190    0.499    2.324
  526.548  180.534   97.649    0.200    0.491    2.577
  526.798  176.298   94.273    0.161    0.469    2.806
  527.048  171.040   89.593    0.129    0.435    3.140
  527.298  169.329   87.694    0.081    0.406    3.623
  527.548  169.034   89.524    0.077    0.396    3.966
  527.798  168.879   92.207    0.117    0.402    4.342
  528.048  169.149   89.466    0.095    0.396    4.667
  528.298  169.454   82.688    0.062    0.302    5.059
  528.548  170.136   78.149    0.068    0.282    5.473
  528.798  171.428   88.550    0.042    0.300    5.335
  529.048  174.135   97.612    0.043    0.356    4.810
  529.298  177.366  101.938    0.090    0.407    4.377
  529.548  182.833  104.515    0.128    0.433    3.958
  529.798  186.012  105.025    0.133    0.417    3.647
