~VERSION INFORMATION
 VERS.                 2.0:   CWLS LOG ASCII STANDARD -VERSION 2.0
 WRAP.                  NO:   ONE LINE PER DEPTH STEP
~WELL INFORMATION BLOCK
#MNEM.UNIT           DATA                    DESCRIPTION OF MNEMONIC
#---------    -------------------            -------------------------------
# Generated from Intellog Unique Number	CX_WELLS/WELL/1061
WELL.         06-12-088-17W4                 : Well_name    - WELL
LOC .         00/06-12-088-17W4/0            : Location     - LOCATION
UWI .         00/06-12-088-17W400            : Uwi          - UNIQUE WELL ID
ENTR.         DW                             : Entered      - ENTERED BY
SRVC.         SCHLUMBERGER                   : Scn          - SERVICE COMPANY
STRT.M        100                            : top_depth    - START DEPTH
STOP.M        244                            : bot_depth    - STOP DEPTH
STEP.M        0.25                           : increment    - STEP LENGTH
 NULL. -999.2500:NULL Value
~CURVE INFORMATION BLOCK
#MNEM UNIT       ERCB CURVE CODE    CURVE DESCRIPTION
#-----------   ------------------   ----------------------------------
DEPT.M        00 001 00 00         : DEPTH        - DEPTH
GR  .API      00 310 00 00         : GR           - GAMMA RAY
NPHI.V/V      00 330 00 00         : PHIN         - NEUTRON POROSITY (SANDSTONE)
DPHI.V/V      00 890 00 00         : PHID         - DENSITY POROSITY (SANDSTONE)
ILD .OHMM     00 120 00 00         : RESD         - DEEP RESISTIVITY (DIL)
~PARAMETER INFORMATION
#MNEM.UNIT           DATA             DESCRIPTION OF MNEMONIC
#---------         -----------     ------------------------------
GL  .M        534.8                : gl           - GROUND LEVEL ELEVATION
EREF.M        538.3                : kb           - ELEVATION OF DEPTH REFERENCE
DATM.M        538.3                : datum        - DATUM ELEVATION
TDD .M        247                  : tdd          - TOTAL DEPTH DRILLER
RUN .         ONE                  : Run          - RUN NUMBER
ENG .         BILL                 : Engineer     - RECORDING ENGINEER
WIT .         JIM                  : Witness      - WITNESSED BY
MUD .         GEL                  : Mud_type     - MUD TYPE
MATR.         SANDSTONE            : Logunit      - NEUTRON MATRIX
TMAX.C        22                   : BHT          - MAXIMUM RECORDED TEMPERATURE
BHTD.M        247                  : BHTDEP       - MAXIMUM RECORDED TEMPERATURE
MATR.         1                    : LOGUNIT      - NEUTRON MATRIX
RMT .C        25                   : MDTP         - TEMPERATURE OF MUD
NEUT.         1                    : NEUTRON      - NEUTRON TYPE
RESI.         0                    : RESIST       - RESISTIVITY TYPE
RMC .OHMM     0.25                 : RMC          - RESISTIVITY OF MUD CAKE
RMF .OHMM     0.25                 : RMF          - RESISTIVITY OF MUD FILTRATE
SUFT.C        15                   : SUFT         - SURFACE TEMPERATURE
~A  DEPTH       GR     PHIN     PHID     RESD
# ...
  187.000   92.728    0.269    0.046   17.055
  187.250   89.784    0.300    0.203   19.808
  187.500   86.243    0.335    0.244   22.590
  187.750   83.309    0.384    0.277   24.353
  188.000   82.156    0.364    0.280   24.388
  188.250   82.795    0.348    0.266   22.263
  188.500   84.627    0.341    0.245   19.950
  188.750   85.862    0.348    0.226   17.877
  189.000   87.107    0.330    0.195   16.325
  189.250   89.536    0.335    0.156   15.760
  189.500   92.562    0.364    0.122   15.771
  189.750   94.992    0.392    0.193   15.794
  190.000   96.227    0.369    0.211   16.112
  190.250   95.074    0.353    0.216   16.437
  190.500   93.324    0.356    0.221   16.466
  190.750   92.778    0.369    0.229   16.490
  191.000   93.417    0.381    0.237   16.508
  191.250   93.437    0.395    0.234   15.942
  191.500   92.284    0.398    0.215   15.660
  191.750   89.351    0.380    0.174   15.683
  192.000   87.004    0.350    0.145   15.705
  192.250   85.254    0.327    0.074   15.728
  192.500   84.091    0.323    0.103   20.802
  192.750   85.923    0.337    0.150   22.862
  193.000   90.761    0.334    0.149   22.886
  193.250   92.583    0.327    0.123   22.086
  193.500   95.022    0.324    0.133   21.313
  193.750   96.854    0.358    0.156   18.748
  194.000   96.906    0.409    0.166   16.492
  194.250   96.329    0.455    0.176   15.909
  194.500   96.370    0.414    0.187   15.071
  194.750   96.422    0.365    0.201   14.832
  195.000   97.060    0.343    0.155   14.842
  195.250   99.489    0.357    0.157   14.591
  195.500  104.306    0.387    0.168   14.607
  195.750  104.954    0.410    0.177   14.627
  196.000  103.215    0.429    0.190   14.649
  196.250  102.041    0.401    0.195   14.675
  196.500  101.496    0.389    0.170   14.706
  196.750  102.721    0.389    0.155   14.722
  197.000  104.563    0.406    0.162   14.468
  197.250  104.604    0.412    0.168   14.223
  197.500  104.645    0.384    0.175   13.992
  197.750  107.074    0.387    0.145   13.750
  198.000  111.284    0.402    0.149   13.512
  198.250  114.310    0.420    0.157   13.536
  198.500  110.770    0.433    0.167   13.560
  198.750  109.020    0.423    0.176   13.575
  199.000  107.270    0.400    0.188   13.594
  199.250  104.326    0.396    0.196   13.864
  199.500  100.785    0.411    0.198   14.143
  199.750  104.408    0.418    0.198   14.698
  200.000  111.644    0.411    0.198   15.280
  200.250  108.690    0.397    0.191   15.885
  200.500  103.348    0.366    0.173   15.604
  200.750   95.618    0.325    0.128   15.059
  201.000   95.062    0.324    0.128   14.265
  201.250  104.068    0.335    0.169   14.291
  201.500  108.289    0.355    0.189   14.311
  201.750  111.325    0.379    0.196   14.337
  202.000  111.366    0.392    0.203   14.615
  202.250  111.407    0.402    0.204   15.194
  202.500  107.856    0.394    0.169   15.790
  202.750   94.763    0.326    0.149   16.404
  203.000   85.850    0.257    0.124   16.734
  203.250   79.910    0.179    0.038   17.722
  203.500   79.355    0.164    0.042   18.073
  203.750   89.555    0.177    0.070   18.451
  204.000   99.148    0.293    0.116   18.809
  204.250  110.532    0.323    0.131   17.818
  204.500  115.359    0.372    0.158   16.879
  204.750  116.008    0.384    0.177   15.136
  205.000  116.039    0.347    0.183   15.147
  205.250  116.677    0.330    0.183   15.458
  205.500  117.325    0.340    0.179   15.775
  205.750  113.177    0.371    0.168   16.093
  206.000  102.472    0.385    0.148   16.105
  206.250   98.324    0.387    0.148   15.256
  206.500  106.137    0.401    0.169   13.676
  206.750  114.536    0.396    0.175   12.951
  207.000  120.547    0.409    0.184   12.047
  207.250  125.961    0.440    0.194   11.626
  207.500  113.465    0.449    0.166   11.639
  207.750  106.939    0.418    0.130   11.659
  208.000   96.831    0.338    0.038   11.890
  208.250   98.664    0.314    0.027   12.130
  208.500  104.675    0.383    0.034   11.929
  208.750  110.089    0.374    0.053   10.889
  209.000  116.110    0.364    0.170   10.504
  209.250  116.748    0.359    0.178    9.951
  209.500  119.177    0.374    0.182    9.430
  209.750  122.800    0.389    0.184    9.097
  210.000  125.827    0.405    0.184    8.785
  210.250  127.072    0.402    0.185    8.636
  210.500  125.312    0.393    0.187    8.487
  210.750  124.756    0.382    0.188    8.346
  211.000  125.394    0.363    0.182    8.355
  211.250  128.431    0.364    0.180    8.679
  211.500  130.870    0.413    0.179    9.189
  211.750  132.105    0.443    0.179   10.095
  212.000  133.330    0.455    0.178   11.301
  212.250  128.595    0.408    0.176   12.416
  212.500  120.268    0.389    0.176   14.425
  212.750  110.757    0.353    0.176   15.841
  213.000  104.828    0.233    0.006   17.404
  213.250  100.701    0.228    0.008   19.477
  213.500   98.344    0.298    0.111   21.005
  213.750  110.325    0.354    0.132   20.277
  214.000  118.734    0.345    0.175   17.831
  214.250  122.368    0.334    0.182   16.277
  214.500  123.006    0.336    0.177   15.713
  214.750  123.644    0.350    0.173   15.741
  215.000  123.685    0.367    0.176   16.047
  215.250  120.731    0.378    0.180   16.371
  215.500  115.399    0.370    0.192   17.013
  215.750  109.470    0.345    0.193   18.017
  216.000  102.944    0.308    0.167   18.724
  216.250   98.199    0.196    0.134   20.578
  216.500   94.658    0.170    0.017   21.377
  216.750   92.909    0.179    0.002   23.062
  217.000   99.527    0.276    0.080   21.855
  217.250  105.538    0.324    0.145   21.075
  217.500  111.549    0.362    0.177   19.599
  217.750  114.585    0.369    0.185   18.573
  218.000  112.239    0.353    0.176   18.245
  218.250  109.285    0.338    0.149   17.936
  218.500  106.341    0.338    0.101   18.304
  218.750  106.979    0.345    0.110   19.029
  219.000  110.015    0.341    0.120   18.363
  219.250  114.832    0.335    0.171   17.383
  219.500  120.246    0.347    0.168   15.302
  219.750  115.512    0.392    0.176   15.032
  220.000  102.409    0.352    0.224   14.506
  220.250   80.361    0.278    0.244   15.081
  220.500   68.462    0.243    0.270   15.666
  220.750   58.344    0.233    0.308   16.901
  221.000   47.042    0.249    0.316   18.227
  221.250   39.930    0.274    0.313   20.039
  221.500   38.777    0.288    0.305   20.818
  221.750   38.221    0.300    0.286   21.627
  222.000   38.273    0.306    0.277   22.903
  222.250   38.293    0.314    0.273   23.810
  222.500   38.344    0.315    0.273   25.189
  222.750   38.375    0.307    0.274   28.200
  223.000   38.437    0.289    0.277   32.739
  223.250   38.458    0.297    0.280   42.507
  223.500   38.499    0.313    0.288   50.290
  223.750   39.137    0.329    0.298   62.898
  224.000   40.372    0.350    0.291   80.136
  224.250   41.607    0.350    0.285   89.716
  224.500   44.047    0.344    0.284   85.019
  224.750   45.879    0.334    0.288   82.016
  225.000   46.517    0.326    0.292   80.597
  225.250   47.155    0.345    0.296   76.350
  225.500   48.987    0.372    0.289   76.542
  225.750   50.819    0.391    0.284   76.597
  226.000   49.666    0.392    0.283   75.272
  226.250   48.513    0.385    0.285   75.407
  226.500   47.371    0.382    0.276   76.927
  226.750   48.009    0.372    0.276   78.506
  227.000   49.244    0.340    0.281   81.586
  227.250   49.872    0.324    0.286   83.230
  227.500   51.117    0.318    0.289   81.791
  227.750   52.352    0.325    0.287   77.509
  228.000   53.608    0.335    0.283   70.780
  228.250   53.629    0.343    0.274   65.820
  228.500   54.885    0.344    0.269   63.449
  228.750   55.502    0.335    0.263   56.857
  229.000   56.140    0.321    0.254   50.950
  229.250   57.993    0.318    0.227   42.396
  229.500   58.610    0.319    0.225   36.623
  229.750   59.846    0.337    0.244   33.431
  230.000   61.678    0.377    0.263   31.089
  230.250   63.510    0.378    0.271   28.910
