~VERSION INFORMATION
 VERS.                 2.0:   CWLS LOG ASCII STANDARD -VERSION 2.0
 WRAP.                  NO:   ONE LINE PER DEPTH STEP
~WELL INFORMATION BLOCK
#MNEM.UNIT           DATA                    DESCRIPTION OF MNEMONIC
#---------    -------------------            -------------------------------
# Generated from Intellog Unique Number	CW_76_78/WELL/2799
WELL.         07-22-077-26W4                 : Well_name    - WELL
LOC .         00/07-22-077-26W4/0            : Location     - LOCATION
UWI .         00/07-22-077-26W4/0            : Uwi          - UNIQUE WELL ID
ENTR.         JJ                             : Entered      - ENTERED BY
SRVC.         WESTERN ATLAS                  : Scn          - SERVICE COMPANY
DATE.         25 MAR 68                      : Date         - LOG DATE
STRT.M        481.584                        : top_depth    - START DEPTH
STOP.M        609.584                        : bot_depth    - STOP DEPTH
STEP.M        0.25                           : increment    - STEP LENGTH
 NULL. -999.2500:NULL Value
~CURVE INFORMATION BLOCK
#MNEM UNIT       ERCB CURVE CODE    CURVE DESCRIPTION
#-----------   ------------------   ----------------------------------
DEPT.M        00 001 00 00         : DEPTH        - DEPTH
DELT.US/F     00 520 00 00         : DELT         - SONIC TRAVEL TIME
GR  .API      00 310 00 00         : GR           - GAMMA RAY
ILD .OHMM     00 120 00 00         : RESD         - DEEP RESISTIVITY (DIL)
~PARAMETER INFORMATION
#MNEM.UNIT           DATA             DESCRIPTION OF MNEMONIC
#---------         -----------     ------------------------------
GL  .M        693.42               : gl           - GROUND LEVEL ELEVATION
EREF.M        696.773              : kb           - ELEVATION OF DEPTH REFERENCE
DATM.M        693.42               : datum        - DATUM ELEVATION
TDD .M        606.247              : tdd          - TOTAL DEPTH DRILLER
RUN .         ONE                  : Run          - RUN NUMBER
ENG .         BRADBEER             : Engineer     - RECORDING ENGINEER
WIT .         ROGERS               : Witness      - WITNESSED BY
BASE.         EDM                  : Branch       - HOME BASE OF LOGGING UNIT
MUD .         CHEM MUD             : Mud_type     - MUD TYPE
MATR.         SANDSTONE            : Logunit      - NEUTRON MATRIX
TMAX.C        26.6667              : BHT          - MAXIMUM RECORDED TEMPERATURE
BHTD.M        605.333              : BHTDEP       - MAXIMUM RECORDED TEMPERATURE
RMT .C        11.1111              : MDTP         - TEMPERATURE OF MUD
MUDD.KG/M     1176                 : MWT          - MUD DENSITY
NEUT.         1                    : NEUTRON      - NEUTRON TYPE
RESI.         0                    : RESIST       - RESISTIVITY TYPE
RM  .OHMM     4.04                 : RM           - RESISTIVITY OF MUD
RMC .OHMM     3.2                  : RMC          - RESISTIVITY OF MUD CAKE
RMF .OHMM     4.7                  : RMF          - RESISTIVITY OF MUD FILTRATE
SUFT.C        5                    : SUFT         - SURFACE TEMPERATURE
~A  DEPTH     DELT       GR     RESD
# ...
  535.834  377.980   91.776    3.864
  536.084  381.108   92.737    3.644
  536.334  377.213   93.247    3.522
  536.584  367.627   88.375    3.523
  536.834  359.380   86.341    3.574
  537.084  337.547   80.470    3.747
  537.334  297.774   82.129    4.133
  537.584  301.842   75.211    4.429
  537.834  320.299   74.775    4.397
  538.084  348.597   79.821    4.210
  538.334  365.114   85.568    4.269
  538.584  328.822   78.650    4.393
  538.834  245.143   66.248    4.607
  539.084  237.231   52.849    4.813
  539.334  280.387   58.295    4.715
  539.584  332.110   68.030    4.954
  539.834  327.074   62.359    5.496
  540.084  316.083   57.635    5.096
  540.334  308.303   61.538    5.113
  540.584  294.234   70.372    5.385
  540.834  302.920   65.001    5.411
  541.084  338.513   68.055    5.198
  541.334  336.289   76.742    4.938
  541.584  331.118   74.263    4.783
  541.834  334.318   77.414    4.735
  542.084  313.086   71.793    4.883
  542.334  290.181   64.476    5.253
  542.584  263.994   55.366    5.623
  542.834  286.135   45.805    5.944
  543.084  317.511   71.394    6.084
  543.334  320.642   75.945    5.667
  543.584  312.996   73.961    5.218
  543.834  318.738   69.039    4.875
  544.084  331.105   72.890    4.860
  544.334  322.188   77.139    4.918
  544.584  330.806   72.963    4.837
  544.834  338.758   78.364    4.773
  545.084  352.797   80.517    4.717
  545.334  361.685   82.124    4.669
  545.584  326.331   75.407    4.612
  545.834  339.569   71.680    4.540
  546.084  358.227   77.975    4.508
  546.334  350.448   77.637    4.476
  546.584  338.117   79.444    4.469
  546.834  328.131   71.679    4.487
  547.084  343.042   73.187    4.537
  547.334  341.420   75.494    4.620
  547.584  316.506   76.154    4.711
  547.834  310.868   79.906    4.844
  548.084  327.588   71.741    4.960
  548.334  353.943   79.780    5.018
  548.584  316.245   76.053    5.044
  548.834  308.802   74.721    5.061
  549.084  321.505   71.989    5.005
  549.334  335.545   71.655    4.867
  549.584  342.422   74.906    4.704
  549.834  342.475   78.609    4.541
  550.084  347.949   81.512    4.460
  550.334  342.313   79.531    4.396
  550.584  339.821   76.550    4.422
  550.834  336.795   80.053    4.480
  551.084  337.449   76.627    4.498
  551.334  353.764   73.001    4.384
  551.584  360.309   77.598    4.221
  551.834  347.109   76.962    4.018
  552.084  343.879   80.116    4.003
  552.334  316.091   74.794    4.085
  552.584  289.906   63.888    4.250
  552.834  288.686   58.464    4.432
  553.084  332.980   75.379    4.736
  553.334  345.615   80.327    5.106
  553.584  322.708   75.104    5.467
  553.834  299.470   68.436    5.845
  554.084  208.227   61.269    6.199
  554.334  215.508   54.251    6.806
  554.584  260.536   48.732    7.709
  554.834  262.931   45.751    9.193
  555.084  239.090   43.269   10.800
  555.334  216.854   46.525   12.276
  555.584  234.173   52.717   10.040
  555.834  309.457   61.903    8.427
  556.084  337.353   70.740    6.576
  556.334  332.049   74.542    5.414
  556.584  337.457   74.105    4.776
  556.834  326.665   73.968    4.302
  557.084  295.728   71.189    4.484
  557.334  297.385   66.466    4.861
  557.584  309.549   70.565    5.174
  557.834  324.531   76.411    5.265
  558.084  329.468   74.880    5.152
  558.334  321.088   83.365    4.833
  558.584  314.448   86.868    4.572
  558.834  324.874   87.927    4.327
  559.084  343.532   88.889    4.124
  559.334  354.426   90.793    4.051
  559.584  348.856   93.997    4.142
  559.834  327.157   87.129    4.438
  560.084  267.305   75.525    5.152
  560.334  246.206   65.866    6.448
  560.584  247.464   59.196    8.301
  560.834  278.170   54.374   10.367
  561.084  290.203   50.496   12.211
  561.334  252.506   56.941   14.072
  561.584  247.269   62.835   14.991
  561.834  246.318   57.813   15.336
  562.084  233.855   57.326   14.903
  562.334  247.760   62.124   14.060
  562.584  285.294   66.975   12.251
  562.834  307.300   71.024   10.802
  563.084  319.534   75.026    9.197
  563.334  335.246   80.223    8.010
  563.584  341.122   81.631    6.954
  563.834  336.356   83.537    6.447
  564.084  328.778   81.157    6.178
  564.334  331.574   83.811    6.081
  564.584  332.828   80.783    5.959
  564.834  334.219   82.142    5.747
  565.084  337.284   87.389    5.281
  565.334  346.907   94.181    4.897
  565.584  353.052   96.289    4.636
  565.834  352.367   86.381    4.728
  566.084  286.760   77.069    4.983
  566.334  288.887   71.296    5.172
  566.584  340.609   72.506    5.321
  566.834  373.526   86.178    5.568
  567.084  352.092   77.117    5.659
  567.334  359.038   75.335    5.406
  567.584  372.543   79.784    5.342
  567.834  267.111   77.852    5.793
  568.084  295.677   67.395    6.090
  568.334  341.710   75.982    6.172
  568.584  351.733   80.734    6.026
  568.834  342.951   81.641    5.642
  569.084  334.437   83.150    5.160
  569.334  332.950   80.669    4.809
  569.584  351.810   75.296    4.654
  569.834  367.055   62.296    5.188
  570.084  374.802   51.340    6.066
  570.334  380.143   36.744    7.574
  570.584  383.406   25.339   16.039
  570.834  385.937   23.407   18.048
  571.084  389.468   20.180   19.032
  571.334  392.398   17.699   37.893
  571.584  395.193   18.759   38.007
  571.834  393.907   20.965   39.429
  572.084  392.354   19.879   42.237
  572.334  390.732   20.191   44.548
  572.584  390.314   21.500   47.679
  572.834  392.510   21.811   51.054
  573.084  397.312   23.320   55.167
  573.334  399.442   19.742   58.543
  573.584  396.881   18.808   64.359
  573.834  394.593   21.016   63.417
  574.084  392.903   22.820   66.060
  574.334  393.359   22.284   75.382
  574.584  395.953   16.515   75.907
  574.834  396.944   16.824   72.360
  575.084  395.322   20.926   77.525
  575.334  391.890   23.031   68.845
  575.584  390.204   22.097   65.706
  575.834  388.516   22.310   62.724
  576.084  387.028   25.412   59.582
  576.334  383.131   24.129   56.199
  576.584  379.838   23.043   54.433
  576.834  381.764   26.844   52.187
  577.084  384.559   23.767   48.474
  577.334  380.730   23.180   43.378
  577.584  367.127   24.589   38.607
  577.834  358.479   26.445   35.298
  578.084  350.367   30.945   20.709
  578.334  343.521   28.414   19.951
  578.584  341.500   24.389   19.210
  578.834  341.286   29.090   18.444
  579.084  342.873   32.241   17.271
  579.334  343.599   35.194   15.812
  579.584  344.519   38.348   14.077
  579.834  343.101   40.504   12.732
  580.084  339.471   40.319   12.040
  580.334  330.085   42.124   11.306
  580.584  320.299   43.085   12.146
  580.834  338.021   38.310   14.632
  581.084  346.572   29.249   16.108
  581.334  350.976   25.672   17.029
  581.584  354.709   28.328   18.610
  581.834  356.099   30.482   19.433
  582.084  356.618   32.489   19.589
  582.334  355.870   32.201   18.440
  582.584  353.579   34.308   17.438
  582.834  351.891   38.508   16.484
  583.084  353.547   31.692   15.669
  583.334  355.269   30.756   14.781
  583.584  355.724   33.709   14.113
  583.834  355.644   35.617   13.486
  584.084  355.163   38.271   13.046
  584.334  354.680   40.029   12.411
  584.584  353.319   41.138   11.735
  584.834  352.773   37.063   11.099
  585.084  352.289   43.309   10.358
  585.334  352.009   45.312    9.714
  585.584  349.382   48.765    9.103
  585.834  242.681   51.171    9.022
  586.084  240.658   47.344    9.927
  586.334  233.081   43.019   11.785
  586.584  234.805   34.855   12.511
  586.834  257.814   44.639   12.307
  587.084  276.274   52.629   10.955
  587.334  307.246   63.360    9.162
  587.584  323.430   71.898    6.791
  587.834  323.281   76.398    5.267
  588.084  325.207   79.252    4.566
  588.334  323.719   84.002    4.289
  588.584  314.938   87.304    4.192
  588.834  316.930   88.962    4.192
  589.084  332.578   90.170    4.160
  589.334  342.067   92.027    4.127
  589.584  337.033   81.471    3.956
  589.834  336.349   78.092    3.696
