~VERSION INFORMATION
 VERS.                 2.0:   CWLS LOG ASCII STANDARD -VERSION 2.0
 WRAP.                  NO:   ONE LINE PER DEPTH STEP
~WELL INFORMATION BLOCK
#MNEM.UNIT           DATA                    DESCRIPTION OF MNEMONIC
#---------    -------------------            -------------------------------
# Generated from Intellog Unique Number	CN_94_101/WELL/3409
WELL.         PARAMOUNT RESOURCES LTD.       : Well_name    - WELL
LOC .         00/07-04-095-18W4/0            : Location     - LOCATION
UWI .         00/07-04-095-18W400            : Uwi          - UNIQUE WELL ID
ENTR.         JOETTE                         : Entered      - ENTERED BY
SRVC.         SCHLUMBERGER                   : Scn          - SERVICE COMPANY
DATE.         07\27\92                       : Date         - LOG DATE
STRT.M        170                            : top_depth    - START DEPTH
STOP.M        325                            : bot_depth    - STOP DEPTH
STEP.M        0.25                           : increment    - STEP LENGTH
 NULL. -999.2500:NULL Value
~CURVE INFORMATION BLOCK
#MNEM UNIT       ERCB CURVE CODE    CURVE DESCRIPTION
#-----------   ------------------   ----------------------------------
DEPT.M        00 001 00 00         : DEPTH        - DEPTH
ILD .OHMM     00 120 00 00         : RESD         - DEEP RESISTIVITY (DIL)
GR  .API      00 310 00 00         : GR           - GAMMA RAY
NPHI.V/V      00 330 00 00         : PHIN         - NEUTRON POROSITY (SANDSTONE)
DPHI.V/V      00 890 00 00         : PHID         - DENSITY POROSITY (SANDSTONE)
~PARAMETER INFORMATION
#MNEM.UNIT           DATA             DESCRIPTION OF MNEMONIC
#---------         -----------     ------------------------------
GL  .M        598.5                : gl           - GROUND LEVEL ELEVATION
EREF.M        602                  : kb           - ELEVATION OF DEPTH REFERENCE
DATM.M        602                  : datum        - DATUM ELEVATION
TDD .M        156                  : tdd          - TOTAL DEPTH DRILLER
RUN .         ONE                  : Run          - RUN NUMBER
ENG .         JO                   : Engineer     - RECORDING ENGINEER
WIT .         TIM                  : Witness      - WITNESSED BY
MUD .         GEL                  : Mud_type     - MUD TYPE
MATR.         SANDSTONE            : Logunit      - NEUTRON MATRIX
TMAX.C        31                   : BHT          - MAXIMUM RECORDED TEMPERATURE
BHTD.M        156                  : BHTDEP       - MAXIMUM RECORDED TEMPERATURE
RMT .C        23                   : MDTP         - TEMPERATURE OF MUD
MUDD.KG/M     1070                 : MWT          - MUD DENSITY
NEUT.         1                    : NEUTRON      - NEUTRON TYPE
RESI.         0                    : RESIST       - RESISTIVITY TYPE
RM  .OHMM     4                    : RM           - RESISTIVITY OF MUD
RMC .OHMM     4                    : RMC          - RESISTIVITY OF MUD CAKE
RMF .OHMM     4.3                  : RMF          - RESISTIVITY OF MUD FILTRATE
SUFT.C        4                    : SUFT         - SURFACE TEMPERATURE
~A  DEPTH     RESD       GR     PHIN     PHID
  170.000    5.267   93.035    0.426    0.306
  170.250    4.503   99.795    0.472    0.294
  170.500    4.414  105.934    0.495    0.283
  170.750    4.865  103.457    0.497    0.286
  171.000    5.361   99.118    0.486    0.281
  171.250    5.682  100.333    0.477    0.266
  171.500    5.570  103.401    0.469    0.258
  171.750    4.951  107.696    0.463    0.264
  172.000    4.576  108.291    0.452    0.275
  172.250    4.756  106.425    0.460    0.280
  172.500    5.140   99.019    0.456    0.274
  172.750    5.342   89.144    0.408    0.256
  173.000    5.887   79.886    0.417    0.223
  173.250    6.363   85.409    0.429    0.254
  173.500    7.152   90.941    0.443    0.284
  173.750    7.289   96.469    0.454    0.276
  174.000    6.480  105.077    0.466    0.264
  174.250    5.874  111.837    0.475    0.253
  174.500    4.924  108.734    0.462    0.251
  174.750    4.463  100.096    0.433    0.261
  175.000    4.549   93.914    0.434    0.275
  175.250    4.917   96.365    0.453    0.272
  175.500    4.914   96.348    0.455    0.257
  175.750    5.208   93.866    0.435    0.244
  176.000    4.909   93.841    0.426    0.244
  176.250    4.450   95.060    0.427    0.276
  176.500    4.033   97.503    0.466    0.267
  176.750    3.954  101.182    0.473    0.260
  177.000    3.952  106.098    0.491    0.260
  177.250    4.188  104.232    0.507    0.260
  177.500    4.439  103.599    0.497    0.257
  177.750    5.188  102.966    0.478    0.261
  178.000    5.830   95.551    0.429    0.269
  178.250    6.553   96.150    0.434    0.265
  178.500    7.509   93.056    0.446    0.251
  178.750    7.959   89.950    0.456    0.258
  179.000    7.955   89.941    0.458    0.265
  179.250    7.645   92.996    0.449    0.274
  179.500    7.350   94.220    0.441    0.272
  179.750    6.662   97.895    0.449    0.263
  180.000    6.279  100.346    0.460    0.232
  180.250    6.654   98.481    0.462    0.215
  180.500    6.918   97.843    0.438    0.198
  180.750    7.190   99.674    0.427    0.192
  181.000    6.778  103.974    0.433    0.204
  181.250    6.024  111.966    0.448    0.225
  181.500    6.511  116.873    0.464    0.238
  181.750    6.901  116.244    0.453    0.245
  182.000    6.255  109.450    0.435    0.253
  182.250    5.782  107.576    0.442    0.256
  182.500    5.344  108.179    0.458    0.250
  182.750    5.238  110.626    0.472    0.245
  183.000    5.235  112.457    0.456    0.242
  183.250    5.130  111.824    0.458    0.242
  183.500    5.030  108.726    0.470    0.256
  183.750    4.835  106.240    0.488    0.261
  184.000    4.927  111.156    0.493    0.254
  184.250    5.223  109.906    0.488    0.249
  184.500    5.755  100.032    0.485    0.250
  184.750    6.596   90.773    0.490    0.257
  185.000    7.709   80.898    0.493    0.226
  185.250    8.332   74.104    0.434    0.186
  185.500    8.329   72.234    0.392    0.235
  185.750    7.698   76.529    0.396    0.270
  186.000    7.400   81.441    0.417    0.281
  186.250    6.840   88.817    0.429    0.282
  186.500    6.322   92.496    0.436    0.280
  186.750    6.077   96.176    0.426    0.276
  187.000    5.841  102.935    0.439    0.270
  187.250    5.838  107.851    0.457    0.268
  187.500    5.951  104.129    0.475    0.271
  187.750    6.432   99.803    0.468    0.269
  188.000    7.371   90.545    0.466    0.259
  188.250    8.447   75.125    0.449    0.246
  188.500    9.311   68.947    0.427    0.227
  188.750   10.670   66.465    0.381    0.203
  189.000   11.090   68.296    0.352    0.181
  189.250   11.086   75.052    0.356    0.212
  189.500   10.652   79.347    0.356    0.225
  189.750   10.241   79.946    0.352    0.231
  190.000    9.102   83.630    0.357    0.236
  190.250    8.251   91.006    0.376    0.246
  190.500    6.916   98.998    0.414    0.272
  190.750    7.188   87.891    0.448    0.304
  191.000    7.923   73.699    0.474    0.306
  191.250    8.564   73.066    0.482    0.315
  191.500    8.071   77.977    0.468    0.326
  191.750    7.317   84.737    0.458    0.320
  192.000    6.378   95.198    0.458    0.309
  192.250    5.451  104.422    0.453    0.299
  192.500    4.942  109.949    0.443    0.273
  192.750    4.479  108.700    0.452    0.267
  193.000    4.059  102.518    0.469    0.245
  193.250    4.138  104.344    0.484    0.242
  193.500    4.301  107.412    0.468    0.239
  193.750    4.558  109.855    0.458    0.249
  194.000    5.023  111.070    0.473    0.267
  194.250    5.429  109.820    0.485    0.262
  194.500    5.867  107.339    0.483    0.265
  194.750    6.220  103.629    0.474    0.274
  195.000    6.464   96.219    0.472    0.280
  195.250    6.213  102.979    0.466    0.271
  195.500    6.210  109.118    0.464    0.266
  195.750    6.456  102.328    0.476    0.272
  196.000    6.710   96.762    0.484    0.279
  196.250    6.577  101.057    0.472    0.280
  196.500    6.573   94.883    0.455    0.276
  196.750    7.533   85.004    0.451    0.290
  197.000    8.804   78.210    0.413    0.314
  197.250    9.331   73.264    0.402    0.323
  197.500    9.326   76.943    0.427    0.317
  197.750   10.483   79.386    0.440    0.307
  198.000   12.250   81.217    0.423    0.270
  198.250   11.547   85.517    0.415    0.244
  198.500   10.265   90.428    0.431    0.225
  198.750    8.948   97.188    0.458    0.239
  199.000    7.073  103.332    0.469    0.256
  199.250    6.165  103.315    0.481    0.268
  199.500    5.698  102.681    0.472    0.274
  199.750    5.586  102.048    0.458    0.268
  200.000    5.692  104.491    0.448    0.257
  200.250    5.690  106.938    0.451    0.249
  200.500    5.577  108.769    0.471    0.241
  200.750    5.467  109.372    0.489    0.243
  201.000    5.052  110.587    0.500    0.245
  201.250    4.953  111.182    0.491    0.246
  201.500    4.668  107.468    0.484    0.248
  201.750    4.575  107.451    0.470    0.250
  202.000    4.572  111.134    0.458    0.256
  202.250    4.571  117.274    0.455    0.272
  202.500    4.659  116.029    0.461    0.274
  202.750    4.656  111.694    0.472    0.272
  203.000    4.654  107.369    0.466    0.275
  203.250    4.653  108.584    0.449    0.272
  203.500    4.471  111.647    0.457    0.263
  203.750    4.557  104.848    0.482    0.249
  204.000    4.830   99.286    0.480    0.221
  204.250    4.733   93.720    0.469    0.192
  204.500    4.551   96.787    0.459    0.161
  204.750    4.206  104.163    0.459    0.204
  205.000    3.888  111.539    0.476    0.226
  205.250    3.737  119.531    0.487    0.243
  205.500    3.735  121.978    0.499    0.256
  205.750    3.660  116.412    0.511    0.267
  206.000    3.659  113.319    0.513    0.263
  206.250    3.730  113.301    0.482    0.258
  206.500    3.728  120.061    0.472    0.253
  206.750    3.800  123.741    0.483    0.253
  207.000    3.873  127.420    0.487    0.258
  207.250    4.025  125.550    0.483    0.258
  207.500    4.184  123.073    0.487    0.251
  207.750    4.264  118.122    0.510    0.245
  208.000    4.262  117.489    0.519    0.243
  208.250    3.939  118.088    0.530    0.246
  208.500    3.861  120.539    0.546    0.256
  208.750    3.784  124.831    0.517    0.268
  209.000    3.782  114.340    0.506    0.279
  209.250    4.009  112.470    0.495    0.282
  209.500    4.333  112.453    0.495    0.255
  209.750    4.776  113.047    0.498    0.249
  210.000    4.590  113.655    0.500    0.243
  210.250    4.242  115.486    0.495    0.231
  210.500    4.159  117.317    0.481    0.233
  210.750    4.077  119.148    0.474    0.248
  211.000    4.074  119.747    0.489    0.254
  211.250    4.073  118.489    0.501    0.254
  211.500    4.070  117.248    0.496    0.252
  211.750    4.069  115.994    0.483    0.253
  212.000    4.228  113.512    0.467    0.258
  212.250    4.481  111.643    0.462    0.264
  212.500    4.658  111.018    0.472    0.268
  212.750    4.841  111.001    0.483    0.259
  213.000    4.934  113.444    0.490    0.253
  213.250    5.030  115.891    0.466    0.261
