~VERSION INFORMATION
 VERS.                 2.0:   CWLS LOG ASCII STANDARD -VERSION 2.0
 WRAP.                  NO:   ONE LINE PER DEPTH STEP
~WELL INFORMATION BLOCK
#MNEM.UNIT           DATA                    DESCRIPTION OF MNEMONIC
#---------    -------------------            -------------------------------
# Generated from Intellog Unique Number	CS_73_76/WELL/3226
WELL.         PRECABRIAMN SHIELD RESOURC     : Well_name    - WELL
LOC .         00/08-36-076-10W4/0            : Location     - LOCATION
UWI .         00/08-36-076-10W4/0            : Uwi          - UNIQUE WELL ID
ENTR.         SP                             : Entered      - ENTERED BY
SRVC.         SCHLUMBERGER                   : Scn          - SERVICE COMPANY
STRT.M        225                            : top_depth    - START DEPTH
STOP.M        440                            : bot_depth    - STOP DEPTH
STEP.M        0.25                           : increment    - STEP LENGTH
 NULL. -999.2500:NULL Value
~CURVE INFORMATION BLOCK
#MNEM UNIT       ERCB CURVE CODE    CURVE DESCRIPTION
#-----------   ------------------   ----------------------------------
DEPT.M        00 001 00 00         : DEPTH        - DEPTH
GR  .API      00 310 00 00         : GR           - GAMMA RAY
DPHI.V/V      00 890 00 00         : PHID         - DENSITY POROSITY (LIMESTONE)
NPHI.V/V      00 330 00 00         : PHIN         - NEUTRON POROSITY (LIMESTONE)
ILD .OHMM     00 120 00 00         : RESD         - DEEP RESISTIVITY (DIL)
~PARAMETER INFORMATION
#MNEM.UNIT           DATA             DESCRIPTION OF MNEMONIC
#---------         -----------     ------------------------------
GL  .M        639.1                : gl           - GROUND LEVEL ELEVATION
EREF.M        642.6                : kb           - ELEVATION OF DEPTH REFERENCE
DATM.M        639.1                : datum        - DATUM ELEVATION
TDD .M        454                  : tdd          - TOTAL DEPTH DRILLER
RUN .         ONE                  : Run          - RUN NUMBER
ENG .         BILL                 : Engineer     - RECORDING ENGINEER
WIT .         JIM                  : Witness      - WITNESSED BY
MUD .         GEL                  : Mud_type     - MUD TYPE
MATR.         LIMESTONE            : Logunit      - NEUTRON MATRIX
TMAX.C        60                   : BHT          - MAXIMUM RECORDED TEMPERATURE
BHTD.M        2072                 : BHTDEP       - MAXIMUM RECORDED TEMPERATURE
MATR.         1                    : LOGUNIT      - NEUTRON MATRIX
RMT .C        25                   : MDTP         - TEMPERATURE OF MUD
NEUT.         1                    : NEUTRON      - NEUTRON TYPE
RESI.         0                    : RESIST       - RESISTIVITY TYPE
RMC .OHMM     0.25                 : RMC          - RESISTIVITY OF MUD CAKE
RMF .OHMM     0.25                 : RMF          - RESISTIVITY OF MUD FILTRATE
SUFT.C        15                   : SUFT         - SURFACE TEMPERATURE
~A  DEPTH       GR     PHID     PHIN     RESD
  225.000   91.846    0.299    0.593    4.056
  225.250   93.699    0.299    0.607    3.981
  225.500   94.944    0.308    0.610    3.907
  225.750   98.026    0.318    0.580    3.835
  226.000  101.107    0.320    0.529    3.834
  226.250  104.197    0.315    0.521    3.834
  226.500  105.439    0.313    0.582    3.906
  226.750   99.949    0.304    0.609    3.906
  227.000   95.687    0.283    0.606    3.980
  227.250   98.779    0.261    0.581    3.979
  227.500  100.011    0.255    0.578    3.979
  227.750  100.032    0.259    0.595    4.054
  228.000   96.384    0.264    0.604    4.054
  228.250   93.953    0.277    0.624    4.054
  228.500   91.526    0.292    0.608    4.054
  228.750   92.771    0.293    0.560    4.053
  229.000   95.852    0.290    0.507    4.053
  229.250   95.874    0.296    0.501    4.053
  229.500   91.611    0.306    0.507    4.129
  229.750   92.859    0.317    0.525    4.207
  230.000   94.104    0.331    0.555    4.367
  230.250   95.960    0.318    0.572    4.533
  230.500   93.537    0.297    0.553    4.705
  230.750   90.498    0.286    0.535    4.884
  231.000   88.676    0.290    0.488    5.069
  231.250   89.930    0.277    0.539    5.262
  231.500   91.169    0.199    0.571    5.361
  231.750   94.251    0.169    0.571    5.462
  232.000   91.216    0.145    0.477    5.461
  232.250   89.396    0.174    0.435    5.360
  232.500   88.192    0.243    0.420    5.261
  232.750   88.829    0.256    0.442    5.261
  233.000   90.078    0.256    0.475    5.163
  233.250   92.545    0.263    0.490    5.163
  233.500   94.403    0.274    0.433    5.260
  233.750   95.651    0.286    0.411    5.667
  234.000   95.059    0.279    0.416    5.994
  234.250   96.305    0.272    0.434    6.830
  234.500   93.876    0.280    0.454    7.639
  234.750   91.445    0.316    0.482    9.037
  235.000   90.243    0.357    0.511   11.097
  235.250   85.371    0.441    0.559   13.626
  235.500   72.535    0.491    0.528   16.731
  235.750   65.209    0.455    0.292   20.931
  236.000   55.431    0.417    0.273   24.302
  236.250   55.459    0.389    0.262   29.289
  236.500   55.472    0.391    0.270   34.647
  236.750   51.825    0.394    0.277   38.752
  237.000   45.724    0.402    0.293   38.750
  237.250   43.293    0.390    0.308   35.960
  237.500   43.314    0.380    0.321   32.754
  237.750   48.232    0.369    0.329   29.282
  238.000   50.703    0.362    0.346   25.218
  238.250   49.507    0.357    0.356   22.545
  238.500   51.981    0.347    0.364   19.057
  238.750   53.831    0.340    0.368   16.412
  239.000   56.301    0.325    0.365   14.672
  239.250   60.606    0.313    0.364   13.616
  239.500   69.197    0.289    0.375   13.364
  239.750   78.405    0.263    0.384   14.133
  240.000   73.530    0.189    0.371   15.807
  240.250   66.813    0.163    0.364   17.680
  240.500   68.670    0.217    0.351   19.775
  240.750   74.815    0.302    0.365   20.913
  241.000   71.163    0.340    0.388   22.117
  241.250   62.004    0.354    0.374   22.116
  241.500   58.347    0.359    0.361   20.144
  241.750   60.825    0.328    0.354   19.046
  242.000   67.579    0.307    0.361   18.347
  242.250   71.887    0.300    0.375   19.403
  242.500   70.066    0.320    0.388   21.301
  242.750   62.127    0.344    0.403   22.110
  243.000   58.483    0.356    0.407   22.951
  243.250   60.336    0.368    0.394   23.823
  243.500   63.421    0.363    0.385   23.381
  243.750   73.234    0.354    0.385   21.698
  244.000   76.929    0.348    0.395   19.763
  244.250   77.563    0.332    0.390   19.397
  244.500   80.645    0.326    0.384   18.339
  244.750   88.628    0.319    0.380   18.000
  245.000   99.055    0.336    0.371   17.666
  245.250  102.138    0.334    0.355   17.338
  245.500  101.549    0.321    0.357   17.337
  245.750   97.896    0.301    0.384   17.337
  246.000   91.797    0.296    0.423   17.336
  246.250   86.916    0.294    0.423   17.015
  246.500   83.264    0.288    0.406   16.390
  246.750   88.189    0.278    0.386   14.382
  247.000   86.988    0.266    0.371   13.100
  247.250   87.002    0.196    0.374   11.494
  247.500   87.637    0.200    0.387   10.086
  247.750   89.496    0.283    0.432    9.186
  248.000   89.526    0.325    0.465    8.686
  248.250   89.541    0.349    0.526   10.866
  248.500   88.947    0.355    0.503   12.854
  248.750   85.906    0.389    0.465   16.384
  249.000   81.035    0.415    0.439   19.381
  249.250   77.378    0.394    0.420   22.502
  249.500   70.668    0.364    0.400   24.246
  249.750   64.565    0.342    0.392   25.641
  250.000   61.525    0.335    0.395   26.123
  250.250   58.486    0.331    0.383   26.614
  250.500   57.282    0.331    0.383   26.613
  250.750   56.688    0.332    0.403   26.611
  251.000   57.934    0.333    0.428   26.611
  251.250   60.404    0.340    0.413   26.609
  251.500   60.431    0.355    0.389   26.608
  251.750   55.553    0.362    0.385   26.607
  252.000   50.672    0.370    0.393   26.606
  252.250   51.307    0.374    0.382   26.605
  252.500   56.843    0.377    0.383   26.604
  252.750   59.312    0.371    0.378   26.603
  253.000   61.174    0.368    0.367   26.109
  253.250   63.030    0.363    0.381   26.108
  253.500   64.886    0.360    0.394   26.107
  253.750   66.745    0.360    0.411   26.106
  254.000   67.374    0.366    0.420   26.105
  254.250   67.401    0.367    0.411   25.621
  254.500   68.034    0.358    0.392   25.146
  254.750   67.444    0.350    0.379   24.679
  255.000   65.012    0.335    0.380   24.222
  255.250   63.806    0.342    0.382   23.334
  255.500   69.953    0.352    0.374   22.477
  255.750   73.651    0.358    0.387   20.859
  256.000   72.444    0.345    0.425   19.357
  256.250   69.407    0.314    0.413   17.631
  256.500   69.424    0.296    0.383   15.762
  256.750   77.412    0.299    0.376   14.357
  257.000   81.103    0.298    0.372   12.364
  257.250   86.024    0.282    0.371   10.849
  257.500   91.559    0.260    0.382    9.171
  257.750   95.247    0.253    0.401    8.047
  258.000  100.776    0.203    0.433    7.061
  258.250  108.148    0.197    0.431    6.553
  258.500  108.787    0.203    0.417    6.312
  258.750  108.187    0.190    0.414    6.312
  259.000  108.826    0.202    0.428    6.801
  259.250  113.130    0.230    0.441    7.750
  259.500  116.213    0.266    0.447    9.168
  259.750  115.620    0.277    0.421   10.064
  260.000  111.969    0.273    0.396   12.129
  260.250  107.715    0.265    0.379   13.822
  260.500  105.892    0.279    0.385   14.618
  260.750  103.460    0.290    0.386   14.893
  261.000  101.644    0.305    0.377   14.346
  261.250  102.893    0.318    0.378   13.564
  261.500  101.695    0.308    0.390   12.825
  261.750  100.486    0.297    0.409   12.587
  262.000   99.901    0.262    0.414   12.587
  262.250   99.921    0.245    0.408   12.353
  262.500  101.160    0.234    0.419   12.353
  262.750  101.802    0.256    0.403   12.352
  263.000  101.816    0.272    0.381   12.584
  263.250  103.066    0.264    0.370   12.821
  263.500  107.368    0.242    0.368   13.815
  263.750  103.716    0.250    0.366   15.742
  264.000   87.820    0.257    0.360   17.939
  264.250   61.514    0.246    0.353   20.065
  264.500   53.577    0.258    0.352   22.442
  264.750   52.372    0.273    0.355   23.295
  265.000   54.243    0.303    0.368   23.294
  265.250   56.093    0.364    0.360   21.617
  265.500   60.400    0.347    0.363   20.824
  265.750   62.258    0.332    0.366   18.616
  266.000   63.502    0.319    0.367   14.879
  266.250   70.869    0.302    0.376   12.814
  266.500   80.685    0.277    0.389   11.036
  266.750   96.016    0.243    0.405    8.987
  267.000  108.894    0.230    0.426    8.657
  267.250  113.813    0.220    0.444    8.986
  267.500  107.098    0.211    0.462    9.327
  267.750  100.387    0.233    0.413    9.682
  268.000   96.731    0.236    0.384   10.432
  268.250   91.248    0.221    0.367   10.829
