~VERSION INFORMATION
 VERS.                 2.0:   CWLS LOG ASCII STANDARD -VERSION 2.0
 WRAP.                  NO:   ONE LINE PER DEPTH STEP
~WELL INFORMATION BLOCK
#MNEM.UNIT           DATA                    DESCRIPTION OF MNEMONIC
#---------    -------------------            -------------------------------
# Generated from Intellog Unique Number	CS_77_79/WELL/834
WELL.         CANOXY WINIFRED                : Well_name    - WELL
LOC .         00/01-28-078-02W4/0            : Location     - LOCATION
UWI .         00/01-28-078-02W4/0            : Uwi          - UNIQUE WELL ID
ENTR.         JHS                            : Entered      - ENTERED BY
SRVC.         SCHLUMBERGER                   : Scn          - SERVICE COMPANY
STRT.M        158.496                        : top_depth    - START DEPTH
STOP.M        426.496                        : bot_depth    - STOP DEPTH
STEP.M        0.25                           : increment    - STEP LENGTH
 NULL. -999.2500:NULL Value
~CURVE INFORMATION BLOCK
#MNEM UNIT       ERCB CURVE CODE    CURVE DESCRIPTION
#-----------   ------------------   ----------------------------------
DEPT.M        00 001 00 00         : DEPTH        - DEPTH
GR  .API      00 310 00 00         : GR           - GAMMA RAY
DPHI.V/V      00 890 00 00         : PHID         - DENSITY POROSITY (SANDSTONE)
NPHI.V/V      00 330 00 00         : PHIN         - NEUTRON POROSITY (SANDSTONE)
ILD .OHMM     00 120 00 00         : RESD         - DEEP RESISTIVITY (DIL)
~PARAMETER INFORMATION
#MNEM.UNIT           DATA             DESCRIPTION OF MNEMONIC
#---------         -----------     ------------------------------
GL  .M        570.89               : gl           - GROUND LEVEL ELEVATION
EREF.M        574.243              : kb           - ELEVATION OF DEPTH REFERENCE
DATM.M        574.243              : datum        - DATUM ELEVATION
TDD .M        434.34               : tdd          - TOTAL DEPTH DRILLER
RUN .         ONE                  : Run          - RUN NUMBER
ENG .         BILL                 : Engineer     - RECORDING ENGINEER
WIT .         JIM                  : Witness      - WITNESSED BY
MUD .         GEL                  : Mud_type     - MUD TYPE
MATR.         SANDSTONE            : Logunit      - NEUTRON MATRIX
TMAX.C        21.1111              : BHT          - MAXIMUM RECORDED TEMPERATURE
BHTD.M        434.34               : BHTDEP       - MAXIMUM RECORDED TEMPERATURE
MATR.         1                    : LOGUNIT      - NEUTRON MATRIX
RMT .C        25                   : MDTP         - TEMPERATURE OF MUD
NEUT.         1                    : NEUTRON      - NEUTRON TYPE
RESI.         0                    : RESIST       - RESISTIVITY TYPE
RMC .OHMM     0.25                 : RMC          - RESISTIVITY OF MUD CAKE
RMF .OHMM     0.25                 : RMF          - RESISTIVITY OF MUD FILTRATE
SUFT.C        15                   : SUFT         - SURFACE TEMPERATURE
~A  DEPTH       GR     PHID     PHIN     RESD
# ...
  332.496   46.147    0.310    0.320    2.917
  332.746   47.215    0.301    0.323    2.864
  332.996   45.179    0.296    0.323    2.821
  333.246   43.266    0.300    0.314    2.767
  333.496   41.437    0.301    0.306    2.762
  333.746   40.499    0.299    0.316    2.730
  333.996   40.435    0.303    0.324    2.704
  334.246   42.096    0.301    0.311    2.738
  334.496   46.028    0.295    0.307    2.872
  334.746   51.998    0.286    0.311    3.060
  334.996   55.825    0.278    0.310    3.183
  335.246   58.113    0.275    0.307    3.309
  335.496   53.777    0.265    0.317    3.208
  335.746   50.434    0.277    0.325    3.141
  335.996   49.821    0.298    0.330    3.073
  336.246   54.826    0.301    0.332    3.156
  336.496   63.464    0.264    0.325    3.310
  336.746   69.027    0.252    0.312    3.676
  336.996   68.342    0.243    0.307    3.857
  337.246   64.736    0.241    0.307    3.983
  337.496   65.785    0.255    0.305    3.975
  337.746   66.908    0.264    0.301    4.162
  337.996   67.731    0.252    0.307    4.423
  338.246   73.366    0.253    0.323    4.545
  338.496   74.014    0.248    0.331    4.441
  338.746   65.574    0.252    0.341    4.007
  338.996   56.411    0.256    0.347    3.472
  339.246   42.078    0.266    0.343    3.023
  339.496   41.891    0.301    0.337    2.732
  339.746   45.758    0.313    0.337    2.658
  339.996   51.967    0.304    0.341    2.747
  340.246   55.865    0.301    0.340    2.826
  340.496   56.496    0.292    0.332    2.985
  340.746   55.005    0.282    0.333    3.117
  340.996   53.985    0.281    0.333    3.309
  341.246   53.008    0.291    0.337    3.437
  341.496   52.623    0.300    0.342    3.508
  341.746   51.222    0.288    0.336    3.337
  341.996   47.706    0.271    0.341    3.179
  342.246   44.031    0.263    0.354    2.871
  342.496   37.884    0.290    0.360    2.564
  342.746   35.913    0.318    0.346    2.372
  342.996   38.222    0.328    0.342    2.276
  343.246   42.339    0.333    0.350    2.197
  343.496   47.627    0.346    0.364    2.198
  343.746   54.387    0.336    0.373    2.197
  343.996   56.426    0.328    0.383    2.196
  344.246   52.359    0.321    0.388    2.229
  344.496   48.998    0.310    0.379    2.312
  344.746   51.948    0.323    0.359    2.460
  344.996   52.467    0.310    0.350    2.584
  345.246   51.177    0.306    0.359    2.574
  345.496   47.158    0.293    0.371    2.544
  345.746   44.249    0.304    0.369    2.392
  345.996   44.330    0.311    0.356    2.251
  346.246   45.400    0.319    0.356    2.156
  346.496   46.178    0.322    0.365    2.088
  346.746   45.367    0.321    0.366    2.075
  346.996   45.025    0.317    0.353    2.071
  347.246   43.270    0.310    0.352    2.113
  347.496   40.706    0.310    0.365    2.157
  347.746   40.451    0.312    0.366    2.189
  347.996   45.726    0.310    0.359    2.251
  348.246   47.534    0.317    0.348    2.272
  348.496   45.225    0.310    0.346    2.276
  348.746   41.422    0.307    0.354    2.227
  348.996   38.120    0.329    0.352    2.190
  349.246   38.064    0.323    0.341    2.125
  349.496   40.935    0.318    0.341    2.066
  349.746   41.343    0.329    0.351    2.072
  349.996   38.749    0.321    0.349    2.027
  350.246   36.983    0.316    0.349    2.030
  350.496   37.475    0.316    0.340    2.033
  350.746   40.162    0.324    0.338    1.985
  350.996   41.367    0.323    0.336    2.031
  351.246   39.913    0.328    0.345    2.029
  351.496   38.911    0.320    0.362    2.042
  351.746   40.895    0.321    0.373    2.066
  351.996   43.869    0.328    0.377    2.134
  352.246   43.950    0.337    0.366    2.152
  352.496   44.002    0.326    0.353    2.184
  352.746   44.285    0.316    0.339    2.119
  352.996   46.120    0.310    0.346    2.058
  353.246   48.114    0.322    0.373    1.959
  353.496   49.791    0.348    0.398    1.936
  353.746   47.584    0.359    0.399    1.916
  353.996   43.206    0.361    0.392    1.912
  354.246   40.194    0.355    0.388    1.954
  354.496   38.275    0.345    0.389    1.950
  354.746   38.315    0.333    0.389    1.946
  354.996   39.339    0.337    0.385    1.989
  355.246   41.360    0.346    0.386    1.986
  355.496   42.453    0.350    0.372    1.950
  355.746   40.609    0.344    0.374    1.911
  355.996   38.576    0.341    0.389    1.880
  356.246   39.519    0.347    0.375    1.862
  356.496   40.483    0.350    0.366    1.802
  356.746   39.077    0.350    0.362    1.777
  356.996   35.342    0.358    0.366    1.738
  357.246   33.948    0.361    0.366    1.741
  357.496   36.973    0.357    0.362    1.766
  357.746   40.696    0.363    0.364    1.770
  357.996   44.847    0.367    0.371    1.806
  358.246   48.109    0.367    0.379    1.802
  358.496   49.783    0.362    0.388    1.850
  358.746   49.792    0.350    0.398    1.906
  358.996   47.478    0.347    0.370    1.967
  359.246   47.540    0.354    0.363    1.978
  359.496   48.019    0.365    0.388    1.978
  359.746   48.556    0.366    0.400    1.977
  359.996   46.763    0.343    0.387    1.975
  360.246   44.811    0.330    0.380    1.913
  360.496   44.109    0.329    0.384    1.854
  360.746   46.599    0.344    0.377    1.836
  360.996   50.933    0.352    0.374    1.814
  361.246   52.292    0.354    0.389    1.766
  361.496   50.188    0.371    0.414    1.768
  361.746   52.145    0.380    0.423    1.840
  361.996   58.794    0.359    0.387    1.954
  362.246   62.600    0.332    0.365    1.942
  362.496   64.043    0.324    0.390    1.883
  362.746   60.151    0.326    0.392    1.826
  362.996   60.780    0.336    0.377    1.796
  363.246   65.556    0.347    0.384    1.859
  363.496   70.547    0.344    0.384    2.022
  363.746   76.265    0.319    0.380    2.152
  363.996   76.523    0.306    0.395    2.265
  364.246   73.349    0.308    0.402    2.329
  364.496   73.041    0.307    0.383    2.438
  364.746   75.957    0.292    0.389    2.633
  364.996   79.401    0.279    0.411    2.794
  365.246   81.488    0.280    0.406    2.887
  365.496   81.749    0.290    0.391    2.827
  365.746   79.308    0.288    0.393    2.658
  365.996   76.436    0.288    0.412    2.495
  366.246   77.572    0.316    0.406    2.461
  366.496   82.261    0.319    0.397    2.537
  366.746   85.073    0.312    0.395    2.601
  366.996   83.268    0.302    0.402    2.542
  367.246   73.949    0.296    0.416    2.389
  367.496   65.827    0.309    0.405    2.238
  367.746   60.140    0.321    0.403    2.041
  367.996   52.887    0.332    0.403    1.827
  368.246   48.994    0.344    0.392    1.681
  368.496   47.034    0.364    0.380    1.636
  368.746   49.329    0.370    0.396    1.584
  368.996   55.476    0.360    0.400    1.573
  369.246   59.099    0.341    0.389    1.596
  369.496   54.370    0.347    0.403    1.643
  369.746   51.731    0.360    0.390    1.731
  369.996   60.908    0.364    0.375    1.864
  370.246   70.554    0.349    0.389    2.053
  370.496   78.046    0.322    0.398    2.321
  370.746   83.560    0.288    0.402    2.538
  370.996   84.356    0.284    0.406    2.763
  371.246   81.737    0.311    0.383    2.736
  371.496   77.269    0.305    0.380    2.680
  371.746   71.801    0.297    0.370    2.690
  371.996   66.449    0.297    0.374    2.772
  372.246   63.901    0.303    0.358    3.058
  372.496   70.158    0.314    0.342    3.379
  372.746   82.222    0.295    0.329    3.537
  372.996   88.816    0.261    0.333    3.629
  373.246   91.006    0.224    0.367    3.735
  373.496   93.386    0.256    0.374    3.829
  373.746   97.460    0.254    0.376    4.101
  373.996  105.426    0.240    0.384    4.327
  374.246  112.793    0.232    0.393    4.269
  374.496  116.281    0.211    0.398    4.214
  374.746   98.292    0.213    0.388    4.020
  374.996   87.857    0.228    0.371    3.893
  375.246   83.086    0.233    0.364    3.859
  375.496   83.879    0.245    0.366    3.796
  375.746   94.491    0.268    0.376    3.832
