~VERSION INFORMATION
 VERS.                 2.0:   CWLS LOG ASCII STANDARD -VERSION 2.0
 WRAP.                  NO:   ONE LINE PER DEPTH STEP
~WELL INFORMATION BLOCK
#MNEM.UNIT           DATA                    DESCRIPTION OF MNEMONIC
#---------    -------------------            -------------------------------
# Generated from Intellog Unique Number	CW_73_75/WELL/637
WELL.         MANNVILL MESA MITSKE 07-01     : Well_name    - WELL
LOC .         00/07-01-074-03W5/0            : Location     - LOCATION
UWI .         00/07-01-074-03W5/0            : Uwi          - UNIQUE WELL ID
ENTR.         JAYE                           : Entered      - ENTERED BY
SRVC.         SCHLUMBERGER                   : Scn          - SERVICE COMPANY
DATE.         1 MAR 79                       : Date         - LOG DATE
STRT.M        440                            : top_depth    - START DEPTH
STOP.M        675                            : bot_depth    - STOP DEPTH
STEP.M        0.25                           : increment    - STEP LENGTH
 NULL. -999.2500:NULL Value
~CURVE INFORMATION BLOCK
#MNEM UNIT       ERCB CURVE CODE    CURVE DESCRIPTION
#-----------   ------------------   ----------------------------------
DEPT.M        00 001 00 00         : DEPTH        - DEPTH
ILD .OHMM     00 120 00 00         : RESD         - DEEP RESISTIVITY (DIL)
NPHI.V/V      00 330 00 00         : PHIN         - NEUTRON POROSITY (SANDSTONE)
DPHI.V/V      00 890 00 00         : PHID         - DENSITY POROSITY (SANDSTONE)
CALI.MM       00 280 01 00         : CAL          - CALIPER
GR  .API      00 310 00 00         : GR           - GAMMA RAY
~PARAMETER INFORMATION
#MNEM.UNIT           DATA             DESCRIPTION OF MNEMONIC
#---------         -----------     ------------------------------
GL  .M        685.4                : gl           - GROUND LEVEL ELEVATION
EREF.M        688.4                : kb           - ELEVATION OF DEPTH REFERENCE
DATM.M        685.4                : datum        - DATUM ELEVATION
TDD .M        675                  : tdd          - TOTAL DEPTH DRILLER
RUN .         ONE                  : Run          - RUN NUMBER
ENG .         KESTER               : Engineer     - RECORDING ENGINEER
WIT .         MURYNKA              : Witness      - WITNESSED BY
BASE.         EDM                  : Branch       - HOME BASE OF LOGGING UNIT
MUD .         GEL GELEX            : Mud_type     - MUD TYPE
MATR.         SANDSTONE            : Logunit      - NEUTRON MATRIX
TMAX.C        17.5                 : BHT          - MAXIMUM RECORDED TEMPERATURE
BHTD.M        674                  : BHTDEP       - MAXIMUM RECORDED TEMPERATURE
RMT .C        16.7                 : MDTP         - TEMPERATURE OF MUD
MUDD.KG/M     1110                 : MWT          - MUD DENSITY
NEUT.         1                    : NEUTRON      - NEUTRON TYPE
RESI.         0                    : RESIST       - RESISTIVITY TYPE
RM  .OHMM     4.07                 : RM           - RESISTIVITY OF MUD
RMC .OHMM     0                    : RMC          - RESISTIVITY OF MUD CAKE
RMF .OHMM     4.68                 : RMF          - RESISTIVITY OF MUD FILTRATE
SUFT.C        0                    : SUFT         - SURFACE TEMPERATURE
~A  DEPTH     RESD     PHIN     PHID      CAL       GR
# ...
  586.000    6.720    0.435    0.210  164.997   73.371
  586.250    7.686    0.412    0.215  163.937   68.679
  586.500    8.248    0.349    0.180  162.878   67.545
  586.750    7.870    0.257    0.114  161.927   66.974
  587.000    7.073    0.316    0.082  161.286   69.709
  587.250    6.089    0.333    0.099  160.228   72.632
  587.500    4.866    0.399    0.166  159.065   71.623
  587.750    4.333    0.419    0.206  158.112   68.179
  588.000    4.073    0.435    0.243  157.055   66.422
  588.250    3.885    0.450    0.291  155.790   65.412
  588.500    3.681    0.450    0.296  154.523   64.778
  588.750    3.544    0.439    0.276  153.674   64.579
  589.000    3.445    0.444    0.272  153.137   64.945
  589.250    3.386    0.457    0.273  152.911   65.369
  589.500    3.287    0.465    0.274  153.309   65.670
  589.750    3.237    0.460    0.279  153.812   65.910
  590.000    3.182    0.451    0.295  154.314   66.275
  590.250    3.128    0.447    0.301  155.025   66.827
  590.500    3.168    0.458    0.288  155.944   67.566
  590.750    3.368    0.456    0.283  157.071   68.304
  591.000    3.731    0.456    0.296  157.782   68.606
  591.250    4.259    0.461    0.270  158.493   68.159
  591.500    4.701    0.467    0.278  159.100   67.524
  591.750    4.869    0.449    0.277  159.393   67.263
  592.000    4.787    0.413    0.258  160.001   65.630
  592.250    4.525    0.322    0.199  160.608   64.247
  592.500    4.105    0.372    0.128  161.214   65.421
  592.750    3.766    0.434    0.142  161.614   66.846
  593.000    3.474    0.489    0.192  161.700   68.024
  593.250    3.253    0.476    0.287  161.683   69.011
  593.500    3.092    0.456    0.298  161.874   67.378
  593.750    2.968    0.417    0.281  161.647   67.555
  594.000    2.911    0.453    0.258  161.839   69.978
  594.250    2.884    0.478    0.240  161.615   72.839
  594.500    2.862    0.501    0.284  161.491   76.075
  594.750    2.871    0.491    0.291  161.371   78.687
  595.000    2.930    0.476    0.288  161.351   79.799
  595.250    3.168    0.472    0.298  161.231   77.105
  595.500    3.432    0.481    0.311  161.004   75.097
  595.750    3.683    0.477    0.283  160.677   74.213
  596.000    3.716    0.459    0.269  160.245   71.643
  596.250    3.568    0.412    0.265  159.811   70.759
  596.500    3.506    0.412    0.254  159.584   73.370
  596.750    3.421    0.437    0.239  159.464   77.729
  597.000    3.338    0.457    0.223  159.238   79.965
  597.250    3.268    0.468    0.238  155.372   81.017
  597.500    3.239    0.463    0.253  151.194   84.190
  597.750    3.219    0.479    0.270  153.777   88.674
  598.000    3.211    0.477    0.250  156.254   98.712
  598.250    3.217    0.483    0.230  158.318  104.195
  598.500    3.221    0.482    0.213  161.215   98.941
  598.750    3.244    0.483    0.205  163.070   96.309
  599.000    3.292    0.497    0.200  163.778   98.858
  599.250    3.385    0.509    0.193  163.866   98.535
  599.500    3.519    0.499    0.195  163.848   95.217
  599.750    3.578    0.488    0.205  163.622   90.150
  600.000    3.905    0.485    0.225  164.872   81.647
  600.250    3.586    0.488    0.234  163.517   82.489
  600.500    3.502    0.480    0.247  162.669   82.166
  600.750    3.621    0.477    0.255  161.826   81.231
  601.000    3.868    0.480    0.246  161.596   81.338
  601.250    3.975    0.475    0.240  161.767   82.118
  601.500    4.142    0.456    0.237  161.738   83.207
  601.750    4.260    0.438    0.231  161.711   86.504
  602.000    4.414    0.440    0.217  161.691   88.758
  602.250    4.608    0.451    0.210  161.972   89.048
  602.500    4.862    0.462    0.210  162.254   89.032
  602.750    5.329    0.462    0.208  162.732   88.526
  603.000    5.749    0.446    0.217  162.908   86.240
  603.250    6.596    0.443    0.209  162.779   82.238
  603.500    7.597    0.428    0.205  162.755   79.829
  603.750    7.698    0.412    0.201  162.531   78.648
  604.000    7.098    0.410    0.185  162.302   74.522
  604.250    6.221    0.409    0.151  161.858   76.223
  604.500    5.681    0.367    0.152  161.426   80.809
  604.750    5.237    0.371    0.171  161.288   85.209
  605.000    4.818    0.396    0.189  161.166   90.224
  605.250    4.507    0.438    0.202  161.245   92.661
  605.500    4.328    0.469    0.184  161.325   96.510
  605.750    4.235    0.459    0.158  161.398  100.666
  606.000    4.196    0.440    0.150  161.373  101.999
  606.250    4.165    0.444    0.155  161.348  102.289
  606.500    4.175    0.444    0.193  161.525  101.109
  606.750    4.182    0.436    0.181  161.396   96.431
  607.000    4.199    0.437    0.183  161.469   93.225
  607.250    4.287    0.450    0.190  161.542   91.983
  607.500    4.377    0.448    0.198  161.622   94.236
  607.750    4.445    0.434    0.191  161.798   97.656
  608.000    4.501    0.425    0.192  161.873  101.320
  608.250    4.587    0.442    0.201  162.155  101.426
  608.500    4.637    0.442    0.201  162.233  101.350
  608.750    4.719    0.437    0.205  162.105  102.438
  609.000    4.744    0.437    0.198  161.661  103.833
  609.250    4.737    0.434    0.195  161.333  101.977
  609.500    4.702    0.429    0.190  159.878  103.249
  609.750    4.667    0.432    0.181  158.318  107.220
  610.000    4.686    0.447    0.162  160.234  109.042
  610.250    4.766    0.454    0.167  162.764  109.029
  610.500    4.873    0.458    0.163  164.474  108.951
  610.750    5.031    0.454    0.167  164.139  108.138
  611.000    5.079    0.444    0.170  163.701  107.387
  611.250    5.194    0.449    0.181  163.577  106.450
  611.500    5.305    0.435    0.159  163.448  104.901
  611.750    5.384    0.418    0.149  163.624  103.964
  612.000    5.465    0.418    0.163  164.008  106.157
  612.250    5.548    0.428    0.157  163.879  106.141
  612.500    5.716    0.464    0.149  161.707  103.120
  612.750    6.124    0.441    0.161  159.125   98.565
  613.000    6.462    0.419    0.203  157.664   97.873
  613.250    6.798    0.408    0.181  157.539   97.122
  613.500    7.068    0.407    0.130  158.738   90.972
  613.750    7.350    0.406    0.145  160.140   90.281
  614.000    7.532    0.405    0.166  161.445   98.730
  614.250    7.660    0.404    0.158  161.825   98.408
  614.500    7.747    0.406    0.163  161.905   94.280
  614.750    7.914    0.397    0.183  161.469   91.567
  615.000    8.063    0.388    0.194  158.883   89.772
  615.250    8.261    0.397    0.200  156.405   87.364
  615.500    8.412    0.390    0.190  154.845   85.814
  615.750    8.638    0.389    0.176  156.967   86.226
  616.000    8.800    0.406    0.193  159.494   87.071
  616.250    8.985    0.421    0.207  160.895   87.668
  616.500    9.083    0.422    0.203  161.386   88.573
  616.750    9.187    0.417    0.186  162.066   90.213
  617.000    9.121    0.417    0.176  162.147   87.621
  617.250    8.955    0.402    0.178  162.528   90.365
  617.500    8.583    0.394    0.192  162.600   97.526
  617.750    7.926    0.387    0.172  162.685  101.742
  618.000    7.265    0.379    0.161  162.952  105.653
  618.250    6.624    0.407    0.164  163.140  110.238
  618.500    6.195    0.397    0.166  163.208  116.356
  618.750    5.971    0.388    0.153  162.878  116.401
  619.000    6.186    0.398    0.153  162.851  110.068
  619.250    6.752    0.419    0.146  162.420  100.605
  619.500    7.302    0.402    0.135  162.192   95.068
  619.750    7.777    0.367    0.089  161.857   86.342
  620.000    8.208    0.364    0.092  161.723   86.202
  620.250    8.428    0.333    0.109  161.493   91.156
  620.500    8.459    0.320    0.104  161.368   91.692
  620.750    8.308    0.329    0.099  161.241   95.418
  621.000    8.036    0.351    0.115  161.214  100.800
  621.250    7.715    0.380    0.118  161.185  100.355
  621.500    7.435    0.399    0.136  161.162  101.198
  621.750    7.165    0.421    0.154  161.443   98.176
  622.000    6.866    0.440    0.176  161.417   93.069
  622.250    6.569    0.414    0.175  159.138   91.336
