~VERSION INFORMATION
 VERS.                 2.0:   CWLS LOG ASCII STANDARD -VERSION 2.0
 WRAP.                  NO:   ONE LINE PER DEPTH STEP
~WELL INFORMATION BLOCK
#MNEM.UNIT           DATA                    DESCRIPTION OF MNEMONIC
#---------    -------------------            -------------------------------
# Generated from Intellog Unique Number	CW_70_72/WELL/3301
NULL.         -999.25                        : NULL_VALUE
WELL.         CALSTAN SOBC MITSUE            : Well_name    - WELL              
LOC .         04-12-072-05W5                 : Location     - LOCATION          
UWI .         00/04-12-072-05W5/0            : Uwi          - UNIQUE WELL ID    
ENTR.         CAMPBELL                       : Entered      - ENTERED BY        
SRVC.         SCHLUMBERGER                   : Scn          - SERVICE COMPANY   
DATE.         21 OCT 1964                    : Date         - LOG DATE          
STRT.M        585.216                        : top_depth    - START DEPTH       
STOP.M        731.466                        : bot_depth    - STOP DEPTH        
STEP.M        0.25                           : increment    - STEP LENGTH       
~CURVE INFORMATION BLOCK
#MNEM UNIT       ERCB CURVE CODE    CURVE DESCRIPTION
#-----------   ------------------   ----------------------------------
DEPT.M        00 001 00 00         : DEPTH        - DEPTH                       
ILD .OHMM     00 120 00 00         : RESD         - DEEP RESISTIVITY (DIL)      
DELT.US/F     00 520 00 00         : DELT         - SONIC TRAVEL TIME           
GR  .API      00 310 00 00         : GR           - GAMMA RAY                   
~PARAMETER INFORMATION       
#MNEM.UNIT           DATA             DESCRIPTION OF MNEMONIC
#---------         -----------     ------------------------------
GL  .M        689.762              : gl           - GROUND LEVEL ELEVATION      
EREF.M        693.115              : kb           - ELEVATION OF DEPTH REFERENCE
DATM.M        693.115              : datum        - DATUM ELEVATION             
TDD .M        1806.24              : tdd          - TOTAL DEPTH DRILLER         
RUN .         ONE                  : Run          - RUN NUMBER                  
ENG .         MCKEOWN              : Engineer     - RECORDING ENGINEER          
WIT .         BROWN                : Witness      - WITNESSED BY                
MUD .         GEL                  : Mud_type     - MUD TYPE                    
MATR.         SANDSTONE            : Logunit      - NEUTRON MATRIX              
TMAX.C        48.8889              : BHT          - MAXIMUM RECORDED TEMPERATURE
BHTD.M        1806.24              : BHTDEP       - MAXIMUM RECORDED TEMPERATURE
RMT .C        12.2222              : MDTP         - TEMPERATURE OF MUD          
MUDD.KG/M     9800                 : MWT          - MUD DENSITY                 
NEUT.         1                    : NEUTRON      - NEUTRON TYPE                
RESI.         0                    : RESIST       - RESISTIVITY TYPE            
RM  .OHMM     1.55                 : RM           - RESISTIVITY OF MUD          
RMC .OHMM     1.32                 : RMC          - RESISTIVITY OF MUD CAKE     
RMF .OHMM     0.65                 : RMF          - RESISTIVITY OF MUD FILTRATE 
SUFT.C        10                   : SUFT         - SURFACE TEMPERATURE         
~A  DEPTH     RESD     DELT       GR
# ...
  693.716    3.209  373.335   54.209
  693.966    3.400  366.857   53.017
  694.216    3.544  364.912   52.780
  694.466    3.637  363.939   54.212
  694.716    3.780  362.643   54.929
  694.966    3.872  360.051   54.692
  695.216    3.966  357.135   54.693
  695.466    4.060  353.571   55.172
  695.716    4.203  351.627   55.411
  695.966    4.345  348.387   56.129
  696.216    4.489  348.710   57.322
  696.466    4.632  345.146   58.755
  696.716    4.825  336.724   58.756
  696.966    4.968  332.189   57.803
  697.216    5.161  331.864   58.759
  697.466    5.303  328.948   59.476
  697.716    5.447  320.850   59.715
  697.966    5.539  328.946   59.717
  698.216    5.632  332.831   59.480
  698.466    5.676  334.125   58.526
  698.716    5.720  331.857   58.289
  698.966    5.713  331.532   57.336
  699.216    5.756  324.406   56.383
  699.466    5.751  322.462   55.430
  699.716    5.694  330.881   54.715
  699.966    5.488  333.795   54.716
  700.216    5.234  330.879   54.956
  700.466    4.678  329.906   55.196
  700.716    4.424  328.286   55.197
  700.966    4.069  338.649   55.914
  701.216    3.864  340.591   57.824
  701.466    3.609  337.351   59.018
  701.716    3.301  338.322   59.019
  701.966    3.098  342.207   59.259
  702.216    2.793  348.036   61.407
  702.466    2.487  359.370   63.556
  702.716    2.382  384.631   64.034
  702.966    2.275  323.418   64.035
  703.216    2.168  365.197   66.422
  703.466    2.064  383.332   67.616
  703.716    2.006  450.050   65.232
  703.966    2.001  350.619   63.563
  704.216    1.993  334.748   62.372
  704.466    1.988  339.605   62.611
  704.716    1.981  347.377   64.282
  704.966    1.975  366.484   67.862
  705.216    2.069  268.349   69.056
  705.466    2.211  313.690   68.819
  705.716    2.305  338.628   70.252
  705.966    2.447  342.189   71.207
  706.216    2.591  364.212   71.208
  706.466    2.733  311.419   71.925
  706.716    2.926  295.872   72.642
  706.966    3.070  325.343   72.405
  707.216    3.262  416.027   71.691
  707.466    3.505  329.875   70.499
  707.716    3.748  340.886   69.307
  707.966    4.040  331.816   67.877
  708.216    4.332  337.969   65.731
  708.466    4.625  342.826   63.585
  708.716    4.966  321.125   62.871
  708.966    5.259  306.550   63.588
  709.216    5.452  351.567   62.635
  709.466    5.196  310.110   64.306
  709.716    4.941  310.109   66.454
  709.966    4.736  331.484   68.364
  710.216    4.580  340.875   69.558
  710.466    4.425  331.158   69.321
  710.716    4.219  302.656   67.175
  710.966    3.962  294.557   64.313
  711.216    3.707  390.424   63.837
  711.466    3.552  385.564   64.793
  711.716    3.394  289.048   66.702
  711.966    3.291  353.822   68.612
  712.216    3.284  392.039   67.659
  712.466    3.278  317.546   68.853
  712.716    3.320  334.063   71.717
  712.966    3.264  313.010   73.389
  713.216    3.059  323.696   74.344
  713.466    2.805  332.764   71.960
  713.716    2.549  335.678   69.336
  713.966    2.193  305.232   67.668
  714.216    1.938  369.358   65.522
  714.466    1.732  474.941   63.853
  714.716    1.578  460.689   62.900
  714.966    1.372  258.590   60.516
  715.216    1.166  404.980   57.654
  715.466    1.008  465.868   55.746
  715.716    0.954  500.198   56.463
  715.966    0.898  581.813   60.282
  716.216    0.891  658.895   61.476
  716.466    0.934  586.345   60.046
  716.716    0.929  655.330   58.854
  716.966    0.972  691.927   59.332
  717.216    1.065  725.285   61.481
  717.466    1.208  656.946   61.959
  717.716    1.351  628.120   61.961
  717.966    1.594  595.083   60.769
  718.216    1.936  423.104   60.293
  718.466    2.279  362.214   59.340
  718.716    2.570  336.951   58.148
  718.966    2.763  367.718   56.956
  719.216    2.757  264.401   57.196
  719.466    2.652  288.366   58.629
  719.716    2.545  369.982   60.300
  719.966    2.489  393.948   60.779
  720.216    2.483  372.571   60.064
  720.466    2.526  364.149   59.588
  720.716    2.669  349.249   60.066
  720.966    2.812  369.976   61.976
  721.216    3.005  403.335   65.794
  721.466    3.247  311.353   67.704
  721.716    3.092  255.969   66.990
  721.966    2.688  194.431   65.798
  722.216    2.482  420.495   63.891
  722.466    2.375  483.974   62.222
  722.716    2.320  397.822   61.508
  722.966    2.313  377.417   61.032
  723.216    2.407  360.898   61.033
  723.466    2.549  315.878   61.273
  723.716    2.693  324.946   60.558
  723.966    2.885  307.455   58.651
  724.216    3.028  264.378   56.743
  724.466    3.072  196.687   56.745
  724.716    3.065  220.329   59.847
  724.966    3.159  431.171   61.996
  725.216    3.201  450.603   64.621
  725.466    3.344  181.137   66.770
  725.716    3.389  211.580   68.680
  725.966    3.481  300.969   70.350
  726.216    3.526  238.136   72.260
  726.466    3.468  297.404   74.409
  726.716    3.362  353.757   74.887
  726.966    3.307  371.245   72.026
  727.216    3.399  398.774   70.595
  727.466    3.444  254.324   69.404
  727.716    3.685  299.342   68.689
  727.966    4.078  357.638   65.828
  728.216    4.719  270.514   59.864
  728.466    5.410  329.783   52.470
  728.716    6.349  257.233   48.893
  728.966    7.837  285.410   44.361
  729.216    9.275  318.444   42.692
  729.466   10.314  321.034   44.125
  729.716   10.207  322.976   45.796
  729.966   10.001  325.889   45.797
  730.216    9.797  326.860   44.129
  730.466    9.590  322.972   44.607
  730.716    9.385  312.931   45.324
  730.966    9.280  325.237   46.518
  731.216    9.173  321.674   46.042
  731.466    9.118  319.405   46.521
