~VERSION INFORMATION
 VERS.                 2.0:   CWLS LOG ASCII STANDARD -VERSION 2.0
 WRAP.                  NO:   ONE LINE PER DEPTH STEP
~WELL INFORMATION BLOCK
#MNEM.UNIT           DATA                    DESCRIPTION OF MNEMONIC
#---------    -------------------            -------------------------------
# Generated from Intellog Unique Number	CW_70_72/WELL/3001
NULL.         -999.25                        : NULL_VALUE
WELL.         NORCEN SHERRITT MITSUE 03-22   : Well_name    - WELL              
LOC .         03-22-070-02W5                 : Location     - LOCATION          
UWI .         00/03-22-070-02W5/0            : Uwi          - UNIQUE WELL ID    
ENTR.         JAYE                           : Entered      - ENTERED BY        
SRVC.         COMPUTALOG                     : Scn          - SERVICE COMPANY   
DATE.         23 FEB 84                      : Date         - LOG DATE          
STRT.M        435                            : top_depth    - START DEPTH       
STOP.M        655                            : bot_depth    - STOP DEPTH        
STEP.M        0.25                           : increment    - STEP LENGTH       
~CURVE INFORMATION BLOCK
#MNEM UNIT       ERCB CURVE CODE    CURVE DESCRIPTION
#-----------   ------------------   ----------------------------------
DEPT.M        00 001 00 00         : DEPTH        - DEPTH                       
ILD .OHMM     00 120 00 00         : RESD         - DEEP RESISTIVITY (DIL)      
CALI.MM       00 280 01 00         : CAL          - CALIPER                     
GR  .API      00 310 00 00         : GR           - GAMMA RAY                   
NPHI.V/V      00 330 00 00         : PHIN         - NEUTRON POROSITY (SANDSTONE)
DPHI.V/V      00 890 00 00         : PHID         - DENSITY POROSITY (SANDSTONE)
~PARAMETER INFORMATION       
#MNEM.UNIT           DATA             DESCRIPTION OF MNEMONIC
#---------         -----------     ------------------------------
GL  .M        597.2                : gl           - GROUND LEVEL ELEVATION      
EREF.M        600.95               : kb           - ELEVATION OF DEPTH REFERENCE
DATM.M        597.2                : datum        - DATUM ELEVATION             
TDD .M        673                  : tdd          - TOTAL DEPTH DRILLER         
RUN .         ONE                  : Run          - RUN NUMBER                  
ENG .         MACLEAN              : Engineer     - RECORDING ENGINEER          
WIT .         BOGNER/CARLSON       : Witness      - WITNESSED BY                
BASE.         EDMONTON             : Branch       - HOME BASE OF LOGGING UNIT   
MUD .         GEL CHEM             : Mud_type     - MUD TYPE                    
MATR.         SANDSTONE            : Logunit      - NEUTRON MATRIX              
TMAX.C        28                   : BHT          - MAXIMUM RECORDED TEMPERATURE
BHTD.M        671.5                : BHTDEP       - MAXIMUM RECORDED TEMPERATURE
RMT .C        19                   : MDTP         - TEMPERATURE OF MUD          
MUDD.KG/M     1120                 : MWT          - MUD DENSITY                 
NEUT.         1                    : NEUTRON      - NEUTRON TYPE                
RESI.         0                    : RESIST       - RESISTIVITY TYPE            
RM  .OHMM     3.5                  : RM           - RESISTIVITY OF MUD          
RMC .OHMM     2.8                  : RMC          - RESISTIVITY OF MUD CAKE     
RMF .OHMM     3.5                  : RMF          - RESISTIVITY OF MUD FILTRATE 
SUFT.C        5                    : SUFT         - SURFACE TEMPERATURE         
~A  DEPTH     RESD      CAL       GR     PHIN     PHID
# ...
  617.500    3.929  211.926  115.273    0.397    0.120
  617.750 1754.120  208.458  109.939    0.392    0.122
  618.000 1888.360  207.384  102.101    0.348    0.109
  618.250   10.444  207.871   99.079    0.321    0.089
  618.500    9.381  210.867  100.503    0.319    0.079
  618.750   11.833  211.993  101.170    0.343    0.102
  619.000   13.711  211.135   98.089    0.332    0.091
  619.250    9.038  209.225   94.007    0.327    0.066
  619.500    6.697  207.832   95.871    0.326    0.065
  619.750    6.353  206.968   96.727    0.321    0.084
  620.000    5.993  207.677   94.708    0.314    0.078
  620.250    5.559  207.126   92.685    0.307    0.051
  620.500    5.205  207.820   96.795    0.305    0.019
  620.750    4.928  209.773  101.658    0.312    0.037
  621.000    4.729  209.849  105.517    0.327    0.063
  621.250    4.641  207.017  107.315    0.338    0.078
  621.500    4.607  205.315  107.489    0.345    0.065
  621.750    4.599  205.709  106.413    0.351    0.053
  622.000    4.583  207.125  104.885    0.344    0.079
  622.250    4.575  209.289  104.437    0.335    0.099
  622.500    4.576  207.180  109.918    0.339    0.109
  622.750    4.568  204.751  115.966    0.356    0.116
  623.000    4.526  204.401  121.205    0.371    0.121
  623.250    4.501  204.805  116.872    0.367    0.105
  623.500    4.493  204.880  109.231    0.347    0.062
  623.750    4.528  204.439  100.825    0.329    0.038
  624.000    4.615  204.498   99.430    0.350    0.028
  624.250    4.504  204.470   92.346    0.361    0.071
  624.500    4.257  204.438   76.624    0.327    0.094
  624.750    3.586  202.844   65.221    0.312    0.188
  625.000    2.936  200.519   54.757    0.300    0.216
  625.250    2.525  200.182   43.292    0.292    0.248
  625.500    2.260  200.783   42.092    0.298    0.245
  625.750    2.156  201.579   43.329    0.313    0.238
  626.000    2.165  203.533   41.495    0.302    0.236
  626.250    2.194  202.783   40.849    0.294    0.243
  626.500    2.257  202.430   43.394    0.295    0.244
  626.750    2.288  202.506   45.570    0.301    0.242
  627.000    2.332  202.802   46.428    0.291    0.235
  627.250    2.372  203.084   46.852    0.281    0.229
  627.500    2.454  203.160   46.221    0.280    0.222
  627.750    2.554  203.856   45.882    0.299    0.216
  628.000    2.683  204.684   45.418    0.293    0.212
  628.250    2.792  205.158   44.960    0.289    0.212
  628.500    2.949  205.859   51.573    0.288    0.210
  628.750    3.104  206.250   53.685    0.280    0.203
  629.000    3.279  206.747   55.422    0.272    0.190
  629.250    3.444  206.502   57.788    0.283    0.183
  629.500    3.611  205.854   58.135    0.292    0.181
  629.750    3.744  205.182   59.314    0.296    0.189
  630.000    3.837  204.428   61.106    0.296    0.191
  630.250    3.889  203.687   62.217    0.296    0.189
  630.500    3.919  202.908   62.512    0.301    0.184
  630.750    4.055  202.675   62.619    0.300    0.170
  631.000    4.276  202.431   62.847    0.296    0.148
  631.250    4.517  202.088   62.642    0.285    0.132
  631.500    4.772  200.722   63.062    0.276    0.115
  631.750    4.947  199.959   67.238    0.274    0.103
  632.000    4.892  200.127   68.663    0.281    0.135
  632.250    4.801  200.203   69.461    0.288    0.149
  632.500    4.686  200.484   69.935    0.297    0.154
  632.750    4.643  200.566   71.987    0.299    0.159
  633.000    4.626  200.952   73.782    0.296    0.161
  633.250    4.644  201.345   76.327    0.294    0.160
  633.500    4.689  201.955   81.074    0.303    0.153
  633.750    4.752  201.912   87.563    0.320    0.140
  634.000    4.844  202.624   83.414    0.321    0.134
  634.250    5.050  203.000   79.641    0.299    0.137
  634.500    5.294  203.908   84.123    0.285    0.122
  634.750    5.562  204.194   92.487    0.295    0.109
  635.000    5.776  204.787   98.850    0.336    0.092
  635.250    5.955  205.187  106.651    0.362    0.077
  635.500    6.046  205.557   98.566    0.302    0.093
  635.750    6.128  205.841  103.744    0.288    0.101
  636.000    6.305  205.498  108.170    0.285    0.109
  636.250    6.462  205.066   93.950    0.298    0.104
  636.500    6.983  204.712   77.976    0.244    0.086
  636.750    8.015  205.201   60.444    0.217    0.053
  637.000    8.894  199.560   49.230    0.198    0.037
  637.250    9.756  196.102   50.213    0.180    0.031
  637.500   11.115  193.442   61.335    0.202    0.046
  637.750   10.745  190.704   69.070    0.240    0.072
  638.000    9.615  191.090   76.874    0.271    0.122
  638.250    8.130  196.484   78.356    0.288    0.142
  638.500    6.571  201.363   78.839    0.298    0.139
  638.750    5.587  201.854   82.136    0.307    0.145
  639.000    4.925  200.156   78.686    0.318    0.163
  639.250    4.568  198.870   76.974    0.324    0.175
  639.500    4.325  197.170   85.220    0.315    0.170
  639.750    4.442  196.107   87.388    0.308    0.163
  640.000    4.596  199.100   84.615    0.298    0.151
  640.250    4.929  201.984   80.655    0.289    0.138
  640.500    5.377  206.231   82.396    0.279    0.126
  640.750    5.712  206.411   85.635    0.300    0.142
  641.000    5.978  205.763   88.487    0.318    0.166
  641.250    6.070  205.414   90.727    0.310    0.176
  641.500    6.094  205.390   93.021    0.306    0.148
  641.750    6.038  206.408   94.814    0.305    0.122
  642.000    6.039  207.096   94.931    0.305    0.104
  642.250    6.040  208.015   97.594    0.321    0.093
  642.500    6.098  208.089   97.204    0.352    0.102
  642.750    6.298  207.744   81.108    0.283    0.098
  643.000    6.819  207.297   69.143    0.213    0.042
  643.250    7.623  206.221   60.493    0.182    0.002
  643.500    8.750  205.474   53.595    0.171   -0.007
  643.750    9.874  205.446   51.949    0.169    0.007
  644.000   10.650  205.930   53.370    0.169    0.008
  644.250   11.315  206.627   52.544    0.170    0.002
  644.500   11.664  207.016   51.027    0.177   -0.005
  644.750   11.622  207.196   57.824    0.179   -0.006
  645.000   11.406  207.908   61.257    0.185   -0.001
  645.250   11.069  207.971   62.418    0.188    0.007
  645.500   10.864  206.793   63.529    0.190    0.020
  645.750   10.684  205.728   63.207    0.189    0.025
  646.000   10.625  205.906   63.129    0.186    0.020
  646.250   10.527  205.148   63.042    0.187    0.021
  646.500   10.449  204.180   62.455    0.195    0.028
  646.750   10.392  203.420   64.252    0.204    0.032
  647.000   10.374  203.504   69.675    0.210    0.027
  647.250   10.298  203.997   73.981    0.215    0.028
  647.500   10.319  204.382   76.461    0.219    0.034
  647.750   10.282  204.871   75.630    0.223    0.035
  648.000   10.187  205.259   70.489    0.224    0.033
  648.250   10.228  205.961   71.157    0.223    0.029
  648.500   10.229  206.868   72.888    0.220    0.038
  648.750   10.154  207.363   69.806    0.218    0.040
  649.000   10.080  207.869   71.665    0.214    0.038
  649.250    9.987  208.038   74.273    0.220    0.033
  649.500    9.783  207.904   75.070    0.231    0.037
  649.750    9.405  207.250   76.930    0.230    0.039
  650.000    9.007  206.697   81.167    0.227    0.032
  650.250    8.642  205.935   88.783    0.239    0.034
  650.500    8.214  205.179   95.397    0.256    0.044
  650.750    7.793  206.199  106.761    0.272    0.057
  651.000    7.394  207.522  113.001    0.290    0.067
  651.250    7.107  208.648  117.548    0.288    0.071
  651.500    6.781  209.123  123.039    0.279    0.074
  651.750    6.519  208.674  135.839    0.281    0.079
  652.000    6.279  206.876  146.714    0.310    0.089
  652.250    6.128  205.603  161.828    0.333    0.085
  652.500    6.037  205.355  176.448    0.221    0.064
  652.750    6.329  205.224  190.880    0.176    0.044
  653.000    7.049  205.298  205.125    0.130    0.020
  653.250   10.498  206.108   38.594    0.111    0.007
  653.500   15.054  206.697   27.630    0.106   -0.014
  653.750   20.286  207.414   21.546    0.104   -0.026
