~VERSION INFORMATION
 VERS.                 2.0:   CWLS LOG ASCII STANDARD -VERSION 2.0
 WRAP.                  NO:   ONE LINE PER DEPTH STEP
~WELL INFORMATION BLOCK
#MNEM.UNIT           DATA                    DESCRIPTION OF MNEMONIC
#---------    -------------------            -------------------------------
# Generated from Intellog Unique Number	CW_76_78/WELL/3097
WELL.         04-30-078-23W4                 : Well_name    - WELL
LOC .         00/04-30-078-23W4/0            : Location     - LOCATION
UWI .         00/04-30-078-23W4/0            : Uwi          - UNIQUE WELL ID
ENTR.         MAX                            : Entered      - ENTERED BY
SRVC.         SCHLUMBERGER                   : Scn          - SERVICE COMPANY
DATE.         4 MAR 84                       : Date         - LOG DATE
STRT.M        270                            : top_depth    - START DEPTH
STOP.M        520                            : bot_depth    - STOP DEPTH
STEP.M        0.25                           : increment    - STEP LENGTH
 NULL. -999.2500:NULL Value
~CURVE INFORMATION BLOCK
#MNEM UNIT       ERCB CURVE CODE    CURVE DESCRIPTION
#-----------   ------------------   ----------------------------------
DEPT.M        00 001 00 00         : DEPTH        - DEPTH
GR  .API      00 310 00 00         : GR           - GAMMA RAY
ILD .OHMM     00 120 00 00         : RESD         - DEEP RESISTIVITY (DIL)
NPHI.V/V      00 330 00 00         : PHIN         - NEUTRON POROSITY (SANDSTONE)
DPHI.V/V      00 890 00 00         : PHID         - DENSITY POROSITY (SANDSTONE)
~PARAMETER INFORMATION
#MNEM.UNIT           DATA             DESCRIPTION OF MNEMONIC
#---------         -----------     ------------------------------
GL  .M        587.9                : gl           - GROUND LEVEL ELEVATION
EREF.M        591.6                : kb           - ELEVATION OF DEPTH REFERENCE
DATM.M        587.9                : datum        - DATUM ELEVATION
TDD .M        525                  : tdd          - TOTAL DEPTH DRILLER
RUN .         ONE                  : Run          - RUN NUMBER
MUD .         GEL CHEM             : Mud_type     - MUD TYPE
MATR.         SANDSTONE            : Logunit      - NEUTRON MATRIX
TMAX.C        11                   : BHT          - MAXIMUM RECORDED TEMPERATURE
BHTD.M        524                  : BHTDEP       - MAXIMUM RECORDED TEMPERATURE
RMT .C        11                   : MDTP         - TEMPERATURE OF MUD
MUDD.KG/M     1130                 : MWT          - MUD DENSITY
NEUT.         1                    : NEUTRON      - NEUTRON TYPE
RESI.         0                    : RESIST       - RESISTIVITY TYPE
RM  .OHMM     9                    : RM           - RESISTIVITY OF MUD
RMC .OHMM     13.8                 : RMC          - RESISTIVITY OF MUD CAKE
RMF .OHMM     13.8                 : RMF          - RESISTIVITY OF MUD FILTRATE
SUFT.C        4                    : SUFT         - SURFACE TEMPERATURE
~A  DEPTH       GR     RESD     PHIN     PHID
# ...
  357.000   80.212   12.541    0.405    0.243
  357.250   81.442   11.257    0.407    0.236
  357.500   83.902   10.859    0.408    0.219
  357.750   85.148   10.294    0.411    0.216
  358.000   85.780    9.756    0.425    0.219
  358.250   85.807    9.768    0.436    0.221
  358.500   86.433   10.521    0.426    0.223
  358.750   86.449   11.334    0.415    0.226
  359.000   84.032   12.667    0.407    0.227
  359.250   81.620   13.899    0.404    0.223
  359.500   80.417   14.435    0.399    0.189
  359.750   79.840   14.729    0.391    0.159
  360.000   79.862   15.021    0.363    0.132
  360.250   79.883   15.600    0.340    0.133
  360.500   79.900   15.063    0.333    0.144
  360.750   78.707   14.799    0.331    0.163
  361.000   77.510   14.029    0.368    0.185
  361.250   76.307   14.043    0.387    0.199
  361.500   74.505   14.069    0.412    0.159
  361.750   76.350   14.078    0.391    0.149
  362.000   80.639   14.095    0.356    0.176
  362.250   83.709   12.193    0.367    0.188
  362.500   83.731   10.935    0.390    0.205
  362.750   82.533   10.366    0.398    0.204
  363.000   81.335   10.767    0.409    0.192
  363.250   78.924   10.979    0.415    0.178
  363.500   79.549   11.193    0.399    0.158
  363.750   83.844   11.210    0.383    0.171
  364.000   85.090   11.224    0.388    0.185
  364.250   84.502   11.235    0.404    0.200
  364.500   84.524   10.844    0.421    0.202
  364.750   85.770   10.467    0.425    0.199
  365.000   86.391   10.293    0.417    0.197
  365.250   87.028    9.936    0.413    0.197
  365.500   87.659    9.764    0.415    0.201
  365.750   88.285    9.257    0.418    0.203
  366.000   87.702    9.097    0.424    0.206
  366.250   86.499    8.946    0.435    0.212
  366.500   84.093    8.792    0.441    0.216
  366.750   83.499    8.806    0.434    0.220
  367.000   82.302    8.980    0.427    0.224
  367.250   81.719    9.160    0.434    0.226
  367.500   81.730    9.172    0.446    0.228
  367.750   79.928    9.186    0.455    0.231
  368.000   77.516    9.028    0.450    0.235
  368.250   75.100    9.042    0.442    0.223
  368.500   77.571    9.220    0.436    0.209
  368.750   78.191    9.397    0.431    0.210
  369.000   80.651    9.408    0.424    0.210
  369.250   82.496    9.597    0.414    0.200
  369.500   85.572    9.438    0.421    0.199
  369.750   85.588    9.275    0.447    0.206
  370.000   81.952    9.115    0.447    0.200
  370.250   84.412    8.801    0.425    0.187
  370.500   86.263    8.192    0.430    0.184
  370.750   86.894    7.905    0.433    0.189
  371.000   85.092    7.223    0.443    0.193
  371.250   80.236    6.971    0.438    0.202
  371.500   75.990    7.377    0.442    0.222
  371.750   73.573    7.659    0.449    0.224
  372.000   71.162    8.254    0.448    0.229
  372.250   71.178    9.054    0.430    0.233
  372.500   71.815    9.404    0.429    0.238
  372.750   72.441    9.595    0.429    0.241
  373.000   72.468    9.604    0.424    0.245
  373.250   71.880    9.791    0.419    0.247
  373.500   71.901    9.988    0.414    0.234
  373.750   71.918   10.182    0.412    0.229
  374.000   71.335   10.386    0.409    0.240
  374.250   70.747   10.396    0.407    0.251
  374.500   70.164   11.000    0.404    0.256
  374.750   70.175   11.214    0.403    0.246
  375.000   72.026   11.862    0.403    0.240
  375.250   78.144   11.661    0.403    0.236
  375.500   83.043   10.858    0.399    0.231
  375.750   86.722   10.480    0.397    0.221
  376.000   93.455   10.303    0.401    0.215
  376.250   97.755   10.504    0.406    0.204
  376.500   84.969   10.711    0.419    0.188
  376.750   80.108   11.131    0.417    0.151
  377.000   71.595   11.344    0.380    0.109
  377.250   73.451   12.912    0.317    0.087
  377.500   75.296   14.434    0.321    0.102
  377.750   79.590   15.838    0.354    0.157
  378.000   83.270   16.753    0.370    0.160
  378.250   85.730   16.779    0.374    0.155
  378.500   86.356   16.795    0.368    0.152
  378.750   86.987   16.511    0.368    0.158
  379.000   86.399   16.537    0.370    0.166
  379.250   86.421   17.175    0.376    0.175
  379.500   85.833   17.191    0.385    0.185
  379.750   86.469   16.594    0.404    0.187
  380.000   87.721   15.165    0.412    0.182
  380.250   87.737   13.600    0.409    0.180
  380.500   87.759   12.889    0.399    0.173
  380.750   87.775   13.144    0.394    0.170
  381.000   87.797   13.403    0.408    0.167
  381.250   88.428   13.925    0.407    0.166
  381.500   89.060   14.200    0.398    0.174
  381.750   89.087   14.218    0.399    0.179
  382.000   89.108   13.973    0.409    0.182
  382.250   89.124   13.247    0.420    0.180
  382.500   89.767   12.330    0.420    0.179
  382.750   89.777   11.894    0.412    0.175
  383.000   89.799   11.273    0.405    0.172
  383.250   90.436   11.287    0.401    0.168
  383.500   91.062   11.301    0.396    0.158
  383.750   91.094   11.524    0.393    0.162
  384.000   91.116   11.752    0.389    0.167
  384.250   90.522   11.770    0.392    0.167
  384.500   90.549   11.571    0.403    0.149
  384.750   88.747   11.165    0.411    0.123
  385.000   87.544   10.976    0.403    0.111
  385.250   85.122   11.836    0.393    0.104
  385.500   82.101   12.286    0.373    0.091
  385.750   80.898   13.236    0.334    0.083
  386.000   80.310   14.264    0.295    0.063
  386.250   83.379   13.768    0.296    0.104
  386.500   87.669   12.808    0.302    0.128
  386.750   91.963   12.138    0.392    0.151
  387.000   92.595   11.933    0.398    0.164
  387.250   92.616   11.951    0.398    0.157
  387.500   92.638   11.536    0.397    0.156
  387.750   92.659   11.135    0.397    0.163
  388.000   92.681   10.943    0.403    0.176
  388.250   93.318   10.566    0.412    0.169
  388.500   90.901   10.576    0.416    0.168
  388.750   90.313   10.589    0.420    0.166
  389.000   90.329   10.799    0.418    0.153
  389.250   84.864   12.518    0.385    0.119
  389.500   78.179   15.624    0.278    0.073
  389.750   77.591   16.222    0.234    0.049
  390.000   83.709   15.952    0.278    0.116
  390.250   87.999   15.118    0.337    0.138
  390.500   91.683   14.858    0.408    0.146
  390.750   91.711   13.826    0.421    0.132
  391.000   91.721   12.869    0.417    0.123
  391.250   92.353   12.422    0.407    0.125
  391.500   92.995   12.212    0.398    0.131
  391.750   93.621   12.002    0.391    0.134
  392.000   93.648   11.381    0.386    0.140
  392.250   93.664   10.982    0.381    0.143
  392.500   93.686   10.600    0.371    0.138
  392.750   93.103   10.610    0.367    0.126
  393.000   91.905   10.437    0.377    0.132
  393.250   91.927   10.640    0.394    0.139
  393.500   92.558   11.051    0.403    0.147
  393.750   91.965   11.690    0.404    0.151
  394.000   90.157   12.361    0.398    0.139
  394.250   88.350   14.083    0.383    0.126
  394.500   91.420   14.096    0.366    0.118
  394.750   96.928   13.862    0.352    0.126
  395.000   98.784   13.871    0.371    0.136
  395.250   96.977   13.389    0.385    0.146
  395.500   95.170   12.927    0.393    0.148
  395.750   93.362   12.939    0.397    0.148
  396.000   92.775   12.960    0.402    0.146
  396.250   94.015   12.976    0.405    0.142
  396.500   94.043   12.752    0.399    0.141
  396.750   94.059   12.768    0.390    0.141
  397.000   94.080   12.560    0.386    0.139
  397.250   95.332   12.347    0.386    0.138
  397.500   95.953   12.355    0.390    0.138
  397.750   95.974   11.933    0.396    0.142
  398.000   95.392   11.724    0.399    0.150
  398.250   93.579   11.739    0.410    0.158
  398.500   91.772   11.543    0.420    0.164
  398.750   87.531   11.562    0.414    0.143
  399.000   82.675   12.230    0.383    0.117
  399.250   79.034   13.176    0.344    0.100
  399.500   80.275   14.997    0.334    0.103
  399.750   84.564   16.754    0.355    0.115
  400.000   89.468   18.056    0.368    0.130
  400.250   88.885   17.756    0.367    0.137
