~VERSION INFORMATION
 VERS.                 2.0:   CWLS LOG ASCII STANDARD -VERSION 2.0
 WRAP.                  NO:   ONE LINE PER DEPTH STEP
~WELL INFORMATION BLOCK
#MNEM.UNIT           DATA                    DESCRIPTION OF MNEMONIC
#---------    -------------------            -------------------------------
# Generated from Intellog Unique Number	CW_73_75/WELL/619
WELL.         HB AMOCO MARTIN HILLS 06-33    : Well_name    - WELL
LOC .         00/06-33-074-26W4/0            : Location     - LOCATION
UWI .         00/06-33-074-26W4/0            : Uwi          - UNIQUE WELL ID
ENTR.         JAYE                           : Entered      - ENTERED BY
SRVC.         SCHLUMBERGER                   : Scn          - SERVICE COMPANY
DATE.         9 FEB 77                       : Date         - LOG DATE
STRT.M        554.736                        : top_depth    - START DEPTH
STOP.M        771.236                        : bot_depth    - STOP DEPTH
STEP.M        0.25                           : increment    - STEP LENGTH
 NULL. -999.2500:NULL Value
~CURVE INFORMATION BLOCK
#MNEM UNIT       ERCB CURVE CODE    CURVE DESCRIPTION
#-----------   ------------------   ----------------------------------
DEPT.M        00 001 00 00         : DEPTH        - DEPTH
ILD .OHMM     00 120 00 00         : RESD         - DEEP RESISTIVITY (DIL)
NPHI.V/V      00 330 00 00         : PHIN         - NEUTRON POROSITY (SANDSTONE)
DPHI.V/V      00 890 00 00         : PHID         - DENSITY POROSITY (SANDSTONE)
GR  .API      00 310 00 00         : GR           - GAMMA RAY
CALI.MM       00 280 01 00         : CAL          - CALIPER
~PARAMETER INFORMATION
#MNEM.UNIT           DATA             DESCRIPTION OF MNEMONIC
#---------         -----------     ------------------------------
GL  .M        817.778              : gl           - GROUND LEVEL ELEVATION
EREF.M        820.826              : kb           - ELEVATION OF DEPTH REFERENCE
DATM.M        817.778              : datum        - DATUM ELEVATION
TDD .M        745.236              : tdd          - TOTAL DEPTH DRILLER
RUN .         ONE                  : Run          - RUN NUMBER
ENG .         PRICE                : Engineer     - RECORDING ENGINEER
WIT .         MAQUE                : Witness      - WITNESSED BY
BASE.         EDM                  : Branch       - HOME BASE OF LOGGING UNIT
MUD .         GEL CHEM             : Mud_type     - MUD TYPE
MATR.         SANDSTONE            : Logunit      - NEUTRON MATRIX
TMAX.C        25.5556              : BHT          - MAXIMUM RECORDED TEMPERATURE
BHTD.M        746.15               : BHTDEP       - MAXIMUM RECORDED TEMPERATURE
RMT .C        18.8889              : MDTP         - TEMPERATURE OF MUD
MUDD.KG/M     1170                 : MWT          - MUD DENSITY
NEUT.         1                    : NEUTRON      - NEUTRON TYPE
RESI.         0                    : RESIST       - RESISTIVITY TYPE
RM  .OHMM     4.49                 : RM           - RESISTIVITY OF MUD
RMC .OHMM     0                    : RMC          - RESISTIVITY OF MUD CAKE
RMF .OHMM     4.59                 : RMF          - RESISTIVITY OF MUD FILTRATE
SUFT.C        -17.7778             : SUFT         - SURFACE TEMPERATURE
~A  DEPTH     RESD     PHIN     PHID       GR      CAL
# ...
  737.236    6.597    0.337    0.065  103.872  139.909
  737.486    6.416    0.354    0.043  104.641  139.036
  737.736    6.184    0.357    0.044  102.346  140.440
  737.986    5.916    0.376    0.066  102.444  142.675
  738.236    5.671    0.394    0.097  102.228  143.666
  738.486    5.720    0.411    0.101  100.792  143.926
  738.736    5.835    0.426    0.128   99.781  142.940
  738.986    6.217    0.432    0.127   98.589  141.446
  739.236    6.638    0.432    0.134   97.579  142.533
  739.486    7.125    0.428    0.114   96.757  144.044
  739.736    7.919    0.414    0.092   94.153  144.718
  739.986    8.980    0.387    0.069   90.570  144.574
  740.236    8.927    0.337    0.065   86.683  144.207
  740.486    8.556    0.304    0.046   86.534  143.744
  740.736    8.112    0.311    0.006   87.310  143.700
  740.986    7.579    0.327    0.033   87.945  143.866
  741.236    7.107    0.330    0.048   89.816  144.119
  741.486    6.689    0.359    0.048   96.710  144.072
  741.736    6.158    0.367    0.072   98.891  144.030
  741.986    5.764    0.370    0.080  100.394  144.190
  742.236    5.575    0.380    0.092  103.001  144.347
  742.486    5.543    0.378    0.098  105.482  144.714
  742.736    5.531    0.369    0.086  102.758  144.764
  742.986    5.549    0.368    0.073  102.426  144.098
  743.236    5.526    0.382    0.069  104.234  142.387
  743.486    5.465    0.400    0.087  105.371  141.304
  743.736    5.532    0.390    0.094  105.706  140.941
  743.986    5.622    0.383    0.111  104.640  141.409
  744.236    5.894    0.377    0.106  104.364  141.465
  744.486    6.420    0.378    0.089  106.360  140.796
  744.736    6.767    0.390    0.118  108.473  140.331
  744.986    6.889    0.379    0.138  110.039  141.010
  745.236    6.975    0.376    0.120  111.051  141.690
  745.486    6.934    0.383    0.106  111.083  142.477
  745.736    6.844    0.380    0.083   98.925  143.256
  745.986    6.536    0.344    0.026   94.914  143.307
  746.236    5.844    0.333    0.037  100.521  142.325
  746.486    4.726    0.360    0.089  113.238  141.969
  746.736    3.255    0.371    0.106  116.032  141.821
  746.986    2.359    0.378    0.118  115.201  141.767
  747.236    1.964    0.380    0.123  114.439  140.893
  747.486    1.568    0.382    0.146  114.838  139.908
  747.736    1.457    0.386    0.168  115.544  140.795
  747.986    1.564    0.390    0.214  116.193  141.786
  748.236    1.787    0.394    0.233  113.037  142.782
  748.486    2.176    0.399    0.234  113.563  143.559
  748.736    2.504    0.406    0.230  117.453  144.647
  748.986    2.907    0.414    0.216  117.609  142.109
  749.236    3.599    0.417    0.159  112.801  144.549
  749.486    4.342    0.409    0.133  106.952  142.842
  749.736    4.364    0.398    0.118  101.414  140.517
  749.986    4.229    0.393    0.108   99.548  142.334
  750.236    3.580    0.410    0.120  100.556  143.224
  750.486    3.243    0.406    0.102  102.245  141.300
  750.736    2.937    0.389    0.075   83.162  140.843
  750.986    2.679    0.373    0.013   67.387  142.041
  751.236    2.289    0.370    0.056   51.737  141.786
  751.486    2.210    0.368    0.188   29.223  140.081
  751.736    2.165    0.361    0.261   23.313  139.921
  751.986    2.245    0.353    0.269   20.834  140.395
  752.236    2.414    0.331    0.266   24.177  140.653
  752.486    2.654    0.327    0.259   24.943  140.715
  752.736    2.663    0.336    0.252   22.588  140.663
  752.986    2.585    0.342    0.261   22.926  139.677
  753.236    2.478    0.344    0.263   24.186  139.844
  753.486    2.375    0.347    0.249   25.199  139.896
  753.736    2.374    0.354    0.270   25.969  138.501
  753.986    2.444    0.358    0.267   25.939  138.450
  754.236    2.547    0.358    0.261   25.482  138.611
  754.486    2.656    0.366    0.265   25.452  139.080
  754.736    2.660    0.343    0.263   25.853  137.473
  754.986    2.601    0.320    0.247   24.784  138.361
  755.236    2.466    0.272    0.225   24.571  137.586
  755.486    2.403    0.289    0.190   25.277  137.745
  755.736    2.337    0.340    0.263   26.044  136.973
  755.986    2.285    0.363    0.257   27.241  138.269
  756.236    2.264    0.364    0.260   28.192  136.150
  756.486    2.292    0.360    0.273   29.271  134.752
  756.736    2.342    0.368    0.277   30.526  135.222
  756.986    2.415    0.381    0.279   31.908  138.703
  757.236    2.463    0.391    0.284   33.410  138.133
  757.486    2.526    0.388    0.284   34.239  137.462
  757.736    2.576    0.382    0.282   34.824  138.143
  757.986    2.608    0.377    0.277   35.776  137.264
  758.236    2.622    0.377    0.262   38.627  134.624
  758.486    2.640    0.378    0.246   42.278  133.230
  758.736    2.654    0.375    0.248   43.840  137.014
  758.986    2.657    0.370    0.243   45.771  136.449
  759.236    2.671    0.376    0.242   48.255  135.365
  759.486    2.700    0.378    0.247   53.679  136.251
  759.736    2.794    0.373    0.239   62.657  136.095
  759.986    2.865    0.366    0.238   68.391  135.634
  760.236    3.309    0.357    0.246   71.053  136.623
  760.486    4.264    0.347    0.233   76.050  136.885
  760.736    5.688    0.338    0.220   80.496  132.586
  760.986    5.834    0.326    0.230   85.553  134.510
  761.236    5.643    0.319    0.194   91.098  135.400
  761.486    5.448    0.315    0.125  107.243  132.337
  761.736    5.213    0.328    0.118  112.973  129.698
  761.986    5.014    0.343    0.133  112.150  130.684
  762.236    4.798    0.347    0.136  109.057  133.335
  762.486    4.565    0.358    0.138  105.843  134.114
  762.736    4.376    0.383    0.156  104.772  133.444
  762.986    4.209    0.384    0.174  102.172  131.424
  763.236    4.101    0.375    0.191   93.504  131.275
  763.486    4.115    0.382    0.191   86.062  130.920
  763.736    4.159    0.381    0.184   83.154  130.450
  763.986    4.180    0.375    0.175   82.702  130.198
  764.236    4.217    0.366    0.171   83.097  129.733
  764.486    4.293    0.365    0.172   86.871  131.343
  764.736    4.379    0.359    0.169   90.640  131.090
  764.986    4.458    0.364    0.167   92.144  129.798
  765.236    4.555    0.360    0.167   93.587  129.124
  765.486    4.645    0.356    0.171   94.903  129.291
  765.736    4.755    0.356    0.166   96.282  131.309
  765.986    4.608    0.355    0.177   98.341  129.918
  766.236    4.076    0.355    0.187  100.089  130.075
  766.486    3.579    0.355    0.196  102.021  131.274
  766.736    3.171    0.356    0.218  103.649  133.815
  766.986    2.877    0.356    0.227  104.656  132.314
  767.236    2.522    0.357    0.247  105.059  130.505
  767.486    2.378    0.358    0.278  102.703  132.528
  767.736    2.279    0.359    0.299   97.956  132.076
  767.986    2.225    0.360    0.306   88.920  131.917
  768.236    2.196    0.361    0.298   82.154  131.249
  768.486    2.171    0.361    0.282   77.592  132.237
  768.736    2.158    0.361    0.283   73.277  130.943
  768.986    2.149    0.362    0.281   70.553  132.871
  769.236    2.164    0.365    0.269   68.622  132.295
  769.486    2.179    0.368    0.259   66.021  131.523
  769.736    2.191    0.372    0.267   63.541  129.298
  769.986    2.194    0.375    0.293   61.615  127.179
  770.236    2.189    0.374    0.288   60.117  126.398
  770.486    2.180    0.364    0.292   58.803  125.731
  770.736    2.175    0.349    0.284   57.980  124.850
  770.986    2.159    0.339    0.289   57.336  124.493
  771.236    2.142    0.332    0.295   56.694  124.032
