~VERSION INFORMATION
 VERS.                 2.0:   CWLS LOG ASCII STANDARD -VERSION 2.0
 WRAP.                  NO:   ONE LINE PER DEPTH STEP
~WELL INFORMATION BLOCK
#MNEM.UNIT           DATA                    DESCRIPTION OF MNEMONIC
#---------    -------------------            -------------------------------
# Generated from Intellog Unique Number	CS_73_76/WELL/637
WELL.         AMOCO AEC IPIATIK              : Well_name    - WELL
LOC .         00/06-13-073-06W4/0            : Location     - LOCATION
UWI .         00/06-13-073-06W4/0            : Uwi          - UNIQUE WELL ID
ENTR.         SP                             : Entered      - ENTERED BY
SRVC.         SCHLUMBERGER                   : Scn          - SERVICE COMPANY
STRT.M        305                            : top_depth    - START DEPTH
STOP.M        550                            : bot_depth    - STOP DEPTH
STEP.M        0.25                           : increment    - STEP LENGTH
 NULL. -999.2500:NULL Value
~CURVE INFORMATION BLOCK
#MNEM UNIT       ERCB CURVE CODE    CURVE DESCRIPTION
#-----------   ------------------   ----------------------------------
DEPT.M        00 001 00 00         : DEPTH        - DEPTH
ILD .OHMM     00 120 00 00         : RESD         - DEEP RESISTIVITY (DIL)
DPHI.V/V      00 890 00 00         : PHID         - DENSITY POROSITY (LIMESTONE)
NPHI.V/V      00 330 00 00         : PHIN         - NEUTRON POROSITY (LIMESTONE)
GR  .API      00 310 00 00         : GR           - GAMMA RAY
~PARAMETER INFORMATION
#MNEM.UNIT           DATA             DESCRIPTION OF MNEMONIC
#---------         -----------     ------------------------------
GL  .M        693.7                : gl           - GROUND LEVEL ELEVATION
EREF.M        697.9                : kb           - ELEVATION OF DEPTH REFERENCE
DATM.M        693.7                : datum        - DATUM ELEVATION
TDD .M        570                  : tdd          - TOTAL DEPTH DRILLER
RUN .         ONE                  : Run          - RUN NUMBER
ENG .         BILL                 : Engineer     - RECORDING ENGINEER
WIT .         JIM                  : Witness      - WITNESSED BY
MUD .         GEL                  : Mud_type     - MUD TYPE
MATR.         LIMESTONE            : Logunit      - NEUTRON MATRIX
TMAX.C        20                   : BHT          - MAXIMUM RECORDED TEMPERATURE
BHTD.M        570                  : BHTDEP       - MAXIMUM RECORDED TEMPERATURE
MATR.         1                    : LOGUNIT      - NEUTRON MATRIX
RMT .C        25                   : MDTP         - TEMPERATURE OF MUD
NEUT.         1                    : NEUTRON      - NEUTRON TYPE
RESI.         0                    : RESIST       - RESISTIVITY TYPE
RMC .OHMM     0.25                 : RMC          - RESISTIVITY OF MUD CAKE
RMF .OHMM     0.25                 : RMF          - RESISTIVITY OF MUD FILTRATE
SUFT.C        15                   : SUFT         - SURFACE TEMPERATURE
~A  DEPTH     RESD     PHID     PHIN       GR
# ...
  522.500    3.454    0.329    0.378   42.974
  522.750    3.260    0.319    0.368   36.277
  523.000    3.197    0.319    0.378   34.443
  523.250    3.075    0.314    0.386   36.247
  523.500    3.015    0.300    0.383   36.230
  523.750    3.011    0.293    0.373   41.068
  524.000    3.062    0.282    0.381   43.487
  524.250    3.119    0.297    0.381   47.111
  524.500    3.233    0.276    0.374   48.313
  524.750    3.230    0.270    0.377   49.516
  525.000    3.287    0.305    0.394   42.214
  525.250    3.161    0.336    0.407   35.520
  525.500    3.100    0.344    0.396   31.251
  525.750    2.925    0.338    0.393   30.022
  526.000    2.867    0.336    0.387   30.011
  526.250    2.812    0.336    0.380   29.989
  526.500    2.757    0.331    0.377   29.981
  526.750    2.703    0.332    0.390   28.747
  527.000    2.650    0.337    0.397   27.516
  527.250    2.598    0.340    0.387   28.109
  527.500    2.594    0.335    0.378   28.700
  527.750    2.541    0.338    0.374   29.295
  528.000    2.538    0.345    0.376   29.276
  528.250    2.536    0.336    0.384   29.268
  528.500    2.533    0.330    0.389   28.644
  528.750    2.530    0.321    0.394   28.023
  529.000    2.527    0.316    0.380   27.400
  529.250    2.525    0.323    0.369   26.773
  529.500    2.522    0.334    0.389   25.542
  529.750    2.519    0.333    0.401   24.923
  530.000    2.562    0.334    0.401   25.512
  530.250    2.559    0.343    0.388   26.108
  530.500    2.556    0.331    0.378   27.909
  530.750    2.554    0.326    0.376   27.898
  531.000    2.551    0.321    0.379   27.883
  531.250    2.548    0.328    0.382   27.263
  531.500    2.594    0.321    0.379   27.248
  531.750    2.637    0.315    0.384   29.050
  532.000    2.634    0.322    0.388   29.648
  532.250    2.632    0.333    0.387   31.449
  532.500    2.680    0.338    0.393   32.654
  532.750    2.777    0.325    0.406   36.280
  533.000    2.879    0.316    0.411   37.482
  533.250    2.878    0.305    0.409   36.861
  533.500    2.983    0.305    0.389   35.023
  533.750    3.035    0.320    0.376   35.612
  534.000    3.032    0.312    0.369   35.597
  534.250    3.027    0.304    0.369   34.973
  534.500    2.968    0.301    0.376   34.356
  534.750    2.966    0.309    0.371   35.556
  535.000    2.906    0.323    0.365   36.755
  535.250    2.849    0.328    0.359   38.557
  535.500    2.793    0.319    0.378   39.155
  535.750    2.790    0.311    0.382   40.348
  536.000    2.735    0.323    0.395   40.335
  536.250    2.732    0.329    0.384   39.107
  536.500    2.678    0.324    0.380   37.266
  536.750    2.675    0.325    0.373   36.041
  537.000    2.669    0.329    0.369   34.803
  537.250    2.667    0.328    0.371   33.578
  537.500    2.714    0.324    0.377   32.351
  537.750    2.764    0.317    0.384   31.122
  538.000    2.813    0.294    0.385   37.789
  538.250    3.026    0.255    0.383   49.310
  538.500    3.320    0.216    0.376   57.192
  538.750    3.780    0.161    0.355   67.500
  539.000    4.146    0.155    0.348   74.772
  539.250    4.547    0.191    0.373   63.822
  539.500    4.804    0.248    0.385   56.524
  539.750    4.890    0.284    0.375   46.791
  540.000    4.791    0.281    0.384   46.170
  540.250    4.612    0.264    0.386   48.583
  540.500    4.354    0.272    0.361   46.746
  540.750    4.110    0.280    0.345   41.873
  541.000    3.956    0.286    0.339   37.609
  541.250    3.736    0.301    0.354   33.343
  541.500    3.460    0.309    0.366   29.684
  541.750    3.393    0.301    0.378   29.061
  542.000    3.326    0.288    0.376   30.869
  542.250    3.323    0.284    0.359   30.247
  542.500    3.381    0.275    0.342   29.623
  542.750    3.641    0.226    0.330   33.254
  543.000    4.550    0.011    0.311   43.556
  543.250    5.585    0.000    0.286   47.796
  543.500    7.813    0.000    0.263   51.426
  543.750   13.678    0.000    0.258   52.012
  544.000   19.493    0.015    0.240   52.002
  544.250   22.202    0.020    0.225   50.770
  544.500   25.744    0.025    0.217   48.935
  544.750   29.863    0.021    0.205   46.492
  545.000   32.772    0.015    0.179   35.544
  545.250   40.969    0.011    0.159   29.458
  545.500   47.533    0.005    0.136   23.979
  545.750   52.128    0.024    0.128   22.750
  546.000   52.067    0.032    0.130   22.734
  546.250   49.155    0.041    0.136   23.922
  546.500   46.400    0.047    0.141   23.906
  546.750   45.494    0.052    0.143   24.500
  547.000   43.789    0.045    0.142   24.488
  547.250   43.715    0.039    0.140   25.085
  547.500   43.686    0.051    0.136   24.466
  547.750   44.447    0.051    0.132   23.233
  548.000   45.224    0.045    0.132   22.611
  548.250   45.178    0.051    0.134   23.204
  548.500   45.958    0.048    0.135   23.795
  548.750   45.925    0.045    0.139   24.389
  549.000   45.854    0.051    0.141   26.190
  549.250   45.821    0.052    0.142   27.394
  549.500   46.612    0.045    0.146   28.593
  549.750   47.454    0.045    0.147   26.759
  550.000   49.170    0.051    0.150   25.524
