~VERSION INFORMATION
 VERS.                 2.0:   CWLS LOG ASCII STANDARD -VERSION 2.0
 WRAP.                  NO:   ONE LINE PER DEPTH STEP
~WELL INFORMATION BLOCK
#MNEM.UNIT           DATA                    DESCRIPTION OF MNEMONIC
#---------    -------------------            -------------------------------
# Generated from Intellog Unique Number	CS_69_70/WELL/851
WELL.         BOW VALLEY INDUSTRIES LTD      : Well_name    - WELL
LOC .         00/07-35-070-17W4/0            : Location     - LOCATION
UWI .         00/07-35-070-17W4/0            : Uwi          - UNIQUE WELL ID
ENTR.         SP                             : Entered      - ENTERED BY
SRVC.         SCHLUMBERGER                   : Scn          - SERVICE COMPANY
STRT.M        280                            : top_depth    - START DEPTH
STOP.M        473                            : bot_depth    - STOP DEPTH
STEP.M        0.25                           : increment    - STEP LENGTH
 NULL. -999.2500:NULL Value
~CURVE INFORMATION BLOCK
#MNEM UNIT       ERCB CURVE CODE    CURVE DESCRIPTION
#-----------   ------------------   ----------------------------------
DEPT.M        00 001 00 00         : DEPTH        - DEPTH
DPHI.V/V      00 890 00 00         : PHID         - DENSITY POROSITY (LIMESTONE)
NPHI.V/V      00 330 00 00         : PHIN         - NEUTRON POROSITY (LIMESTONE)
GR  .API      00 310 00 00         : GR           - GAMMA RAY
ILD .OHMM     00 120 00 00         : RESD         - DEEP RESISTIVITY (DIL)
~PARAMETER INFORMATION
#MNEM.UNIT           DATA             DESCRIPTION OF MNEMONIC
#---------         -----------     ------------------------------
GL  .M        520.17               : gl           - GROUND LEVEL ELEVATION
EREF.M        524.67               : kb           - ELEVATION OF DEPTH REFERENCE
DATM.M        520.17               : datum        - DATUM ELEVATION
TDD .M        476                  : tdd          - TOTAL DEPTH DRILLER
RUN .         ONE                  : Run          - RUN NUMBER
ENG .         BILL                 : Engineer     - RECORDING ENGINEER
WIT .         JIM                  : Witness      - WITNESSED BY
MUD .         GEL                  : Mud_type     - MUD TYPE
MATR.         LIMESTONE            : Logunit      - NEUTRON MATRIX
TMAX.C        221                  : BHT          - MAXIMUM RECORDED TEMPERATURE
BHTD.M        476                  : BHTDEP       - MAXIMUM RECORDED TEMPERATURE
MATR.         1                    : LOGUNIT      - NEUTRON MATRIX
RMT .C        25                   : MDTP         - TEMPERATURE OF MUD
NEUT.         1                    : NEUTRON      - NEUTRON TYPE
RESI.         0                    : RESIST       - RESISTIVITY TYPE
RMC .OHMM     0.25                 : RMC          - RESISTIVITY OF MUD CAKE
RMF .OHMM     0.25                 : RMF          - RESISTIVITY OF MUD FILTRATE
SUFT.C        15                   : SUFT         - SURFACE TEMPERATURE
~A  DEPTH     PHID     PHIN       GR     RESD
  280.000    0.264    0.455  112.185    3.015
  280.250    0.263    0.463  113.561    3.062
  280.500    0.253    0.462  112.357    3.186
  280.750    0.260    0.459  109.592    3.229
  281.000    0.274    0.462  106.647    3.310
  281.250    0.261    0.466  104.002    3.323
  281.500    0.236    0.463  101.958    3.299
  281.750    0.212    0.453  103.034    3.220
  282.000    0.211    0.447  102.910    3.102
  282.250    0.224    0.445  105.128    2.994
  282.500    0.240    0.456  106.685    2.890
  282.750    0.249    0.466  105.600    2.784
  283.000    0.258    0.472  104.336    2.723
  283.250    0.251    0.477  103.372    2.668
  283.500    0.245    0.478  103.128    2.649
  283.750    0.259    0.470  103.304    2.670
  284.000    0.267    0.474  102.580    2.716
  284.250    0.277    0.481  100.475    2.768
  284.500    0.289    0.486   99.631    2.805
  284.750    0.301    0.487  101.848    2.891
  285.000    0.294    0.484  105.566    2.974
  285.250    0.271    0.475  109.464    3.015
  285.500    0.258    0.463  114.560    3.055
  285.750    0.248    0.464  116.598    3.050
  286.000    0.253    0.475  118.216    3.051
  286.250    0.279    0.483  111.970    2.995
  286.500    0.298    0.485  105.063    2.929
  286.750    0.318    0.479  101.937    2.848
  287.000    0.327    0.475  101.514    2.786
  287.250    0.307    0.475  104.751    2.735
  287.500    0.295    0.477  105.948    2.772
  287.750    0.284    0.479  105.524    2.867
  288.000    0.298    0.473  103.180    3.144
  288.250    0.318    0.430   98.074    3.449
  288.500    0.303    0.391   93.568    3.574
  288.750    0.276    0.353   83.000    3.747
  289.000    0.246    0.323   70.211    3.748
  289.250    0.211    0.299   55.741    3.458
  289.500    0.245    0.287   46.374    3.161
  289.750    0.261    0.282   39.708    2.830
  290.000    0.279    0.280   35.442    2.656
  290.250    0.299    0.279   35.618    2.535
  290.500    0.304    0.281   35.855    2.447
  290.750    0.305    0.287   35.611    2.366
  291.000    0.306    0.292   35.066    2.354
  291.250    0.304    0.292   34.942    2.359
  291.500    0.310    0.288   35.058    2.355
  291.750    0.314    0.286   34.515    2.369
  292.000    0.310    0.286   34.511    2.401
  292.250    0.298    0.290   36.008    2.415
  292.500    0.286    0.296   38.825    2.415
  292.750    0.285    0.299   40.502    2.407
  293.000    0.291    0.304   41.218    2.407
  293.250    0.316    0.309   40.315    2.394
  293.500    0.330    0.315   38.570    2.386
  293.750    0.344    0.324   35.565    2.391
  294.000    0.354    0.332   35.141    2.383
  294.250    0.366    0.336   35.557    2.309
  294.500    0.358    0.343   37.293    2.292
  294.750    0.363    0.349   38.791    2.293
  295.000    0.346    0.358   42.328    2.323
  295.250    0.333    0.365   45.866    2.359
  295.500    0.338    0.372   52.285    2.400
  295.750    0.348    0.378   57.563    2.460
  296.000    0.349    0.381   66.623    2.484
  296.250    0.336    0.387   72.622    2.522
  296.500    0.324    0.392   75.979    2.541
  296.750    0.317    0.394   77.296    2.556
  297.000    0.305    0.394   77.772    2.615
  297.250    0.297    0.389   78.488    2.763
  297.500    0.295    0.384   79.326    2.885
  297.750    0.285    0.379   80.762    2.996
  298.000    0.273    0.383   83.039    3.112
  298.250    0.263    0.394   84.296    3.213
  298.500    0.255    0.400   85.612    3.337
  298.750    0.256    0.403   86.628    3.498
  299.000    0.260    0.389   86.266    3.808
  299.250    0.247    0.366   82.239    4.067
  299.500    0.228    0.353   80.795    4.477
  299.750    0.205    0.338   80.732    4.845
  300.000    0.189    0.328   81.808    5.117
  300.250    0.174    0.332   86.546    5.335
  300.500    0.155    0.340   89.484    5.447
  300.750    0.196    0.344   89.660    5.258
  301.000    0.237    0.348   84.734    4.770
  301.250    0.234    0.351   77.648    4.368
  301.500    0.261    0.354   73.382    3.948
  301.750    0.276    0.359   71.278    3.775
  302.000    0.294    0.367   73.494    3.596
  302.250    0.306    0.383   76.071    3.564
  302.500    0.310    0.402   77.929    3.687
  302.750    0.316    0.422   83.267    3.744
  303.000    0.367    0.436   91.787    3.896
  303.250    0.380    0.450  100.366    3.993
  303.500    0.438    0.458  106.185    4.062
  303.750    0.447    0.468  108.762    4.070
  304.000    0.469    0.481  109.359    3.966
  304.250    0.526    0.497  109.175    3.871
  304.500    0.535    0.507  106.650    3.729
  304.750    0.564    0.512  109.167    3.640
  305.000    0.534    0.506  111.503    3.574
  305.250    0.498    0.505  112.461    3.495
  305.500    0.470    0.487  111.016    3.399
  305.750    0.440    0.478  109.572    3.274
  306.000    0.425    0.521  109.388    3.143
  306.250    0.461    0.538  107.284    3.011
  306.500    0.556    0.542  107.940    3.040
  306.750    0.585    0.504  111.417    3.139
  307.000    0.544    0.473  113.215    3.242
  307.250    0.369    0.444  113.511    3.489
  307.500    0.324    0.420  112.667    3.769
  307.750    0.264    0.413  108.821    4.056
  308.000    0.239    0.415  105.936    4.196
  308.250    0.224    0.411  107.252    4.342
  308.500    0.212    0.407  107.369    4.459
  308.750    0.211    0.403  105.084    4.544
  309.000    0.216    0.404  101.839    4.623
  309.250    0.209    0.411   99.375    4.757
  309.500    0.204    0.425   97.270    4.821
  309.750    0.222    0.439   96.006    4.777
  310.000    0.305    0.458   97.082    4.715
  310.250    0.354    0.475   98.459    4.517
  310.500    0.382    0.485  100.076    4.352
  310.750    0.408    0.498  102.233    4.296
  311.000    0.427    0.481  102.829    4.273
  311.250    0.418    0.431  101.025    4.266
  311.500    0.372    0.383   98.380    4.332
  311.750    0.323    0.370   94.234    4.374
  312.000    0.292    0.372   90.389    4.375
  312.250    0.285    0.383   87.684    4.311
  312.500    0.261    0.393   86.060    4.169
  312.750    0.235    0.399   85.936    4.100
  313.000    0.221    0.407   87.973    4.132
  313.250    0.225    0.414   91.091    4.332
  313.500    0.241    0.417   97.209    4.448
  313.750    0.259    0.420   99.606    4.850
  314.000    0.270    0.420  102.243    5.152
  314.250    0.249    0.412  103.860    5.381
  314.500    0.231    0.405  105.476    5.412
  314.750    0.222    0.399  105.293    5.413
  315.000    0.213    0.395  103.549    5.445
  315.250    0.199    0.392  105.766    5.386
  315.500    0.213    0.394  106.062    5.277
  315.750    0.205    0.396  103.957    5.180
  316.000    0.192    0.398  105.274    5.114
  316.250    0.201    0.400  108.271    5.077
  316.500    0.205    0.402  111.749    5.127
  316.750    0.208    0.404  115.587    5.137
  317.000    0.202    0.408  118.825    5.167
  317.250    0.237    0.417  116.599    5.218
  317.500    0.277    0.418  114.255    5.269
  317.750    0.294    0.414  112.690    5.279
  318.000    0.295    0.410  111.486    5.300
  318.250    0.259    0.406  113.403    5.362
  318.500    0.215    0.402  116.280    5.403
  318.750    0.186    0.405  118.437    5.255
  319.000    0.164    0.415  119.634    4.987
  319.250    0.179    0.428  119.210    4.742
  319.500    0.245    0.443  119.027    4.441
  319.750    0.273    0.461  119.023    4.168
  320.000    0.296    0.480  119.019    4.015
  320.250    0.317    0.471  117.875    3.949
  320.500    0.308    0.443  114.209    3.943
  320.750    0.295    0.422  110.664    3.973
  321.000    0.287    0.407  101.057    4.027
  321.250    0.273    0.401   92.349    4.135
  321.500    0.233    0.392   88.444    4.160
  321.750    0.221    0.381   85.919    4.145
  322.000    0.244    0.371   89.396    4.092
  322.250    0.275    0.365   91.914    4.063
  322.500    0.288    0.368   92.990    4.063
  322.750    0.299    0.374   93.467    4.157
  323.000    0.308    0.380   92.623    4.309
  323.250    0.302    0.364   88.656    4.620
