~VERSION INFORMATION
 VERS.                 2.0:   CWLS LOG ASCII STANDARD -VERSION 2.0
 WRAP.                  NO:   ONE LINE PER DEPTH STEP
~WELL INFORMATION BLOCK
#MNEM.UNIT           DATA                    DESCRIPTION OF MNEMONIC
#---------    -------------------            -------------------------------
# Generated from Intellog Unique Number	CS_73_76/WELL/701
WELL.         ALLIED ROXANA MINERALS LTD     : Well_name    - WELL
LOC .         00/06-35-073-14W4/0            : Location     - LOCATION
UWI .         00/06-35-073-14W4/0            : Uwi          - UNIQUE WELL ID
ENTR.         SP                             : Entered      - ENTERED BY
SRVC.         SCHLUMBERGER                   : Scn          - SERVICE COMPANY
STRT.M        335.28                         : top_depth    - START DEPTH
STOP.M        560.53                         : bot_depth    - STOP DEPTH
STEP.M        0.25                           : increment    - STEP LENGTH
 NULL. -999.2500:NULL Value
~CURVE INFORMATION BLOCK
#MNEM UNIT       ERCB CURVE CODE    CURVE DESCRIPTION
#-----------   ------------------   ----------------------------------
DEPT.M        00 001 00 00         : DEPTH        - DEPTH
GR  .API      00 310 00 00         : GR           - GAMMA RAY
DPHI.V/V      00 890 00 00         : PHID         - DENSITY POROSITY (SANDSTONE)
NPHI.V/V      00 330 00 00         : PHIN         - NEUTRON POROSITY (SANDSTONE)
ILD .OHMM     00 120 00 00         : RESD         - DEEP RESISTIVITY (DIL)
~PARAMETER INFORMATION
#MNEM.UNIT           DATA             DESCRIPTION OF MNEMONIC
#---------         -----------     ------------------------------
GL  .M        683.666              : gl           - GROUND LEVEL ELEVATION
EREF.M        686.714              : kb           - ELEVATION OF DEPTH REFERENCE
DATM.M        683.666              : datum        - DATUM ELEVATION
TDD .M        579.12               : tdd          - TOTAL DEPTH DRILLER
RUN .         ONE                  : Run          - RUN NUMBER
ENG .         BILL                 : Engineer     - RECORDING ENGINEER
WIT .         JIM                  : Witness      - WITNESSED BY
MUD .         GEL                  : Mud_type     - MUD TYPE
MATR.         SANDSTONE            : Logunit      - NEUTRON MATRIX
TMAX.C        15.5556              : BHT          - MAXIMUM RECORDED TEMPERATURE
BHTD.M        490.728              : BHTDEP       - MAXIMUM RECORDED TEMPERATURE
MATR.         1                    : LOGUNIT      - NEUTRON MATRIX
RMT .C        25                   : MDTP         - TEMPERATURE OF MUD
NEUT.         1                    : NEUTRON      - NEUTRON TYPE
RESI.         0                    : RESIST       - RESISTIVITY TYPE
RMC .OHMM     0.25                 : RMC          - RESISTIVITY OF MUD CAKE
RMF .OHMM     0.25                 : RMF          - RESISTIVITY OF MUD FILTRATE
SUFT.C        15                   : SUFT         - SURFACE TEMPERATURE
~A  DEPTH       GR     PHID     PHIN     RESD
  335.280   90.474    0.171    0.523    3.108
  335.530   91.460    0.172    0.545    2.893
  335.780   92.543    0.187    0.589    2.762
  336.030   94.510    0.204    0.615    2.707
  336.280   95.299    0.195    0.633    2.699
  336.530   94.123    0.188    0.652    2.792
  336.780   94.122    0.184    0.657    2.852
  337.030   92.700    0.183    0.652    2.991
  337.280   93.567    0.179    0.589    3.025
  337.530   93.579    0.170    0.577    3.024
  337.780   91.078    0.161    0.590    2.995
  338.030   87.388    0.088    0.602    2.946
  338.280   85.201    0.065    0.581    3.003
  338.530   93.025    0.148    0.556    3.027
  338.780   95.755    0.199    0.582    2.949
  339.030   93.915    0.203    0.574    2.857
  339.280   90.511    0.208    0.556    2.983
  339.530   87.042    0.207    0.546    3.172
  339.780   85.303    0.207    0.547    3.399
  340.030   84.421    0.218    0.516    3.416
  340.280   86.009    0.221    0.502    3.214
  340.530   87.180    0.222    0.535    3.135
  340.780   86.096    0.211    0.574    3.184
  341.030   80.095    0.275    0.617    3.428
  341.280   72.808    0.304    0.657    3.979
  341.530   65.904    0.355    0.679    4.860
  341.780   60.449    0.382    0.627    5.843
  342.030   54.876    0.356    0.548    7.289
  342.280   50.538    0.303    0.451    7.573
  342.530   49.035    0.306    0.442    7.322
  342.780   51.196    0.318    0.436    6.974
  343.030   55.443    0.328    0.438    6.927
  343.280   60.755    0.319    0.440    6.962
  343.530   63.048    0.305    0.454    7.106
  343.780   65.119    0.295    0.464    7.240
  344.030   65.522    0.277    0.459    7.480
  344.280   65.219    0.261    0.458    7.646
  344.530   65.457    0.254    0.464    7.782
  344.780   66.617    0.275    0.473    7.779
  345.030   67.631    0.292    0.478    7.645
  345.280   70.223    0.297    0.469    7.385
  345.530   76.240    0.283    0.465    7.137
  345.780   82.200    0.263    0.477    7.013
  346.030   86.991    0.243    0.467    6.880
  346.280   93.177    0.219    0.447    6.741
  346.530   94.562    0.208    0.460    6.481
  346.780   96.507    0.201    0.448    6.122
  347.030  101.165    0.193    0.445    5.864
  347.280  103.850    0.185    0.462    5.591
  347.530  103.580    0.178    0.477    5.387
  347.780  100.875    0.182    0.491    5.490
  348.030   95.334    0.193    0.508    5.669
  348.280   85.271    0.220    0.482    5.939
  348.530   76.814    0.243    0.489    6.120
  348.780   70.041    0.267    0.476    6.387
  349.030   68.313    0.295    0.448    6.551
  349.280   70.868    0.315    0.443    6.823
  349.530   74.021    0.302    0.451    6.918
  349.780   77.934    0.297    0.446    7.008
  350.030   80.592    0.281    0.430    6.992
  350.280   78.082    0.271    0.447    7.078
  350.530   78.264    0.261    0.457    7.252
  350.780   75.275    0.247    0.460    7.456
  351.030   68.303    0.241    0.463    7.563
  351.280   61.014    0.246    0.480    7.559
  351.530   52.854    0.270    0.495    7.476
  351.780   43.610    0.285    0.439    7.360
  352.030   33.329    0.299    0.402    7.095
  352.280   26.160    0.307    0.403    6.834
  352.530   24.705    0.309    0.393    6.582
  352.780   27.097    0.315    0.388    6.449
  353.030   30.883    0.319    0.388    6.398
  353.280   36.817    0.317    0.391    6.445
  353.530   41.918    0.298    0.383    6.495
  353.780   47.895    0.275    0.376    6.628
  354.030   53.138    0.260    0.392    6.760
  354.280   44.840    0.237    0.441    6.811
  354.530   38.742    0.255    0.459    6.820
  354.780   37.085    0.291    0.431    6.680
  355.030   35.782    0.302    0.411    6.588
  355.280   33.687    0.324    0.429    6.408
  355.530   31.244    0.338    0.443    6.208
  355.780   29.554    0.342    0.464    6.070
  356.030   28.652    0.336    0.436    6.033
  356.280   29.154    0.334    0.421    5.950
  356.530   30.135    0.333    0.427    6.050
  356.780   31.105    0.329    0.439    6.044
  357.030   32.182    0.324    0.439    6.124
  357.280   31.454    0.319    0.426    6.121
  357.530   30.452    0.326    0.417    6.118
  357.780   33.099    0.327    0.416    6.205
  358.030   34.048    0.319    0.423    6.198
  358.280   34.035    0.320    0.440    6.199
  358.530   33.369    0.321    0.453    6.242
  358.780   33.486    0.325    0.453    6.275
  359.030   34.423    0.339    0.448    6.279
  359.280   37.227    0.332    0.447    6.317
  359.530   40.105    0.331    0.446    6.363
  359.780   41.984    0.328    0.435    6.433
  360.030   45.022    0.325    0.424    6.523
  360.280   48.309    0.324    0.426    6.513
  360.530   52.230    0.318    0.417    6.399
  360.780   59.571    0.307    0.421    5.923
  361.030   68.552    0.293    0.441    5.100
  361.280   93.777    0.240    0.441    4.415
  361.530  106.973    0.183    0.555    3.540
  361.780  107.107    0.145    0.603    2.946
  362.030  109.551    0.115    0.636    3.292
  362.280  107.334    0.153    0.627    3.974
  362.530  104.305    0.200    0.566    4.953
  362.780  103.276    0.222    0.468    6.137
  363.030  103.011    0.228    0.479    7.210
  363.280  104.762    0.227    0.491    7.973
  363.530  103.241    0.223    0.493    8.292
  363.780  102.339    0.234    0.486    8.186
  364.030  102.677    0.227    0.501    7.888
  364.280  104.806    0.217    0.517    7.248
  364.530  110.343    0.187    0.522    6.618
  364.780  116.552    0.164    0.534    6.008
  365.030  116.459    0.171    0.515    5.503
  365.280  114.956    0.181    0.528    5.051
  365.530  115.117    0.179    0.556    4.553
  365.780  111.598    0.187    0.573    4.268
  366.030  112.859    0.185    0.556    4.122
  366.280  112.236    0.173    0.571    4.356
  366.530  109.974    0.163    0.573    4.523
  366.780  109.707    0.176    0.543    4.921
  367.030  106.392    0.200    0.523    5.762
  367.280  100.547    0.213    0.501    6.258
  367.530   97.717    0.226    0.481    7.091
  367.780   93.181    0.238    0.456    7.898
  368.030   90.969    0.223    0.423    8.700
  368.280   89.857    0.231    0.415    8.937
  368.530   91.128    0.247    0.430    9.052
  368.780   93.618    0.248    0.437    8.986
  369.030   94.919    0.238    0.440    8.749
  369.280   96.909    0.222    0.429    8.398
  369.530   96.475    0.212    0.445    7.999
  369.780   96.039    0.214    0.472    7.698
  370.030  100.451    0.205    0.489    7.383
  370.280  103.659    0.212    0.498    7.116
  370.530  104.604    0.224    0.484    6.980
  370.780  104.573    0.229    0.467    6.989
  371.030  103.113    0.226    0.459    6.898
  371.280   97.520    0.221    0.451    7.040
  371.530   86.976    0.213    0.460    7.505
  371.780   78.111    0.214    0.414    7.960
  372.030   69.297    0.222    0.395    8.106
  372.280   64.031    0.212    0.419    8.365
  372.530   65.946    0.232    0.424    8.638
  372.780   69.567    0.274    0.401    8.406
  373.030   75.097    0.275    0.390    8.146
  373.280   79.984    0.260    0.404    8.033
  373.530   83.627    0.254    0.408    8.252
  373.780   86.555    0.243    0.411    8.508
  374.030   89.432    0.233    0.423    8.608
  374.280   92.975    0.222    0.423    8.584
  374.530   95.237    0.209    0.414    8.342
  374.780   98.149    0.193    0.424    7.797
  375.030  100.597    0.191    0.454    7.065
  375.280  102.827    0.206    0.484    6.379
  375.530  105.785    0.188    0.506    5.496
  375.780  107.754    0.184    0.543    4.768
  376.030  108.846    0.178    0.596    4.263
  376.280  109.821    0.170    0.602    4.274
  376.530  110.669    0.206    0.567    4.443
  376.780  109.267    0.213    0.538    4.809
  377.030  104.589    0.216    0.545    4.986
  377.280  101.046    0.225    0.547    4.935
  377.530  102.177    0.230    0.531    5.021
  377.780  101.543    0.221    0.538    5.287
  378.030   99.450    0.228    0.550    5.616
  378.280   95.832    0.249    0.492    6.037
  378.530   91.254    0.246    0.464    6.298
