~VERSION INFORMATION
 VERS.                 2.0:   CWLS LOG ASCII STANDARD -VERSION 2.0
 WRAP.                  NO:   ONE LINE PER DEPTH STEP
~WELL INFORMATION BLOCK
#MNEM.UNIT           DATA                    DESCRIPTION OF MNEMONIC
#---------    -------------------            -------------------------------
# Generated from Intellog Unique Number	CW_82_90/WELL/502
WELL.         GULF WABASCA 06-14             : Well_name    - WELL
LOC .         00/06-14-083-23W4/0            : Location     - LOCATION
UWI .         00/06-14-083-23W4/0            : Uwi          - UNIQUE WELL ID
ENTR.         JAYE                           : Entered      - ENTERED BY
SRVC.         SCHLUMBERGER                   : Scn          - SERVICE COMPANY
DATE.         9 JAN 74                       : Date         - LOG DATE
STRT.M        222.504                        : top_depth    - START DEPTH
STOP.M        426.754                        : bot_depth    - STOP DEPTH
STEP.M        0.25                           : increment    - STEP LENGTH
 NULL. -999.2500:NULL Value
~CURVE INFORMATION BLOCK
#MNEM UNIT       ERCB CURVE CODE    CURVE DESCRIPTION
#-----------   ------------------   ----------------------------------
DEPT.M        00 001 00 00         : DEPTH        - DEPTH
ILD .OHMM     00 120 00 00         : RESD         - DEEP RESISTIVITY (DIL)
CALI.MM       00 280 01 00         : CAL          - CALIPER
GR  .API      00 310 00 00         : GR           - GAMMA RAY
NPHI.V/V      00 330 00 00         : PHIN         - NEUTRON POROSITY (SANDSTONE)
DPHI.V/V      00 890 00 00         : PHID         - DENSITY POROSITY (SANDSTONE)
~PARAMETER INFORMATION
#MNEM.UNIT           DATA             DESCRIPTION OF MNEMONIC
#---------         -----------     ------------------------------
GL  .M        607.771              : gl           - GROUND LEVEL ELEVATION
EREF.M        609.295              : kb           - ELEVATION OF DEPTH REFERENCE
DATM.M        607.771              : datum        - DATUM ELEVATION
TDD .M        426.72               : tdd          - TOTAL DEPTH DRILLER
ENG .         CHAUDHARY            : Engineer     - RECORDING ENGINEER
WIT .         LONG & CAMPBELL      : Witness      - WITNESSED BY
BASE.         EDMONTON             : Branch       - HOME BASE OF LOGGING UNIT
MUD .         GEL                  : Mud_type     - MUD TYPE
MATR.         SANDSTONE            : Logunit      - NEUTRON MATRIX
TMAX.C        29.4444              : BHT          - MAXIMUM RECORDED TEMPERATURE
BHTD.M        426.72               : BHTDEP       - MAXIMUM RECORDED TEMPERATURE
RMT .C        11.6667              : MDTP         - TEMPERATURE OF MUD
MUDD.KG/M     0                    : MWT          - MUD DENSITY
NEUT.         1                    : NEUTRON      - NEUTRON TYPE
RESI.         0                    : RESIST       - RESISTIVITY TYPE
RM  .OHMM     4.77                 : RM           - RESISTIVITY OF MUD
RMC .OHMM     0                    : RMC          - RESISTIVITY OF MUD CAKE
RMF .OHMM     0                    : RMF          - RESISTIVITY OF MUD FILTRATE
SUFT.C        -17.7778             : SUFT         - SURFACE TEMPERATURE
~A  DEPTH     RESD      CAL       GR     PHIN     PHID
# ...
  368.504   36.956  163.912   67.278    0.229    0.011
  368.754   31.055  163.532   72.306    0.302    0.024
  369.004   26.144  162.339   72.393    0.361    0.072
  369.254   24.110  162.182   69.732    0.371    0.159
  369.504   24.673  162.219   75.124    0.398    0.201
  369.754   25.892  162.362   77.038    0.414    0.197
  370.004   27.373  162.615   66.884    0.434    0.170
  370.254   29.421  163.069   53.493    0.405    0.140
  370.504   29.883  163.211   47.911    0.285    0.049
  370.754   28.789  163.568   50.258    0.282    0.036
  371.004   23.841  164.236   53.019    0.340    0.081
  371.254   17.634  164.482   73.777    0.359    0.132
  371.504   15.453  164.518   76.915    0.405    0.126
  371.754   13.443  165.079   78.769    0.436    0.166
  372.004   12.352  165.537   80.863    0.464    0.210
  372.254   11.964  164.756   86.626    0.475    0.207
  372.504   12.064  163.871   87.134    0.453    0.219
  372.754   12.571  163.296   80.514    0.430    0.220
  373.004   13.290  162.817   83.166    0.439    0.213
  373.254   13.850  162.451   82.641    0.454    0.214
  373.504   13.766  162.086   80.589    0.445    0.211
  373.754   13.626  162.128   82.686    0.432    0.200
  374.004   13.345  162.169   91.128    0.418    0.166
  374.254   12.929  162.202   88.776    0.416    0.227
  374.504   12.659  162.664   88.314    0.455    0.223
  374.754   12.672  162.909   90.295    0.481    0.215
  375.004   12.872  163.689   87.266    0.473    0.211
  375.254   13.123  163.922   79.974    0.459    0.189
  375.504   13.351  164.282   82.322    0.462    0.203
  375.754   13.611  164.530   87.706    0.457    0.193
  376.004   13.751  164.783   88.772    0.442    0.177
  376.254   13.864  163.991   85.748    0.451    0.168
  376.504   13.953  163.521   85.223    0.445    0.154
  376.754   13.918  163.049   84.090    0.433    0.129
  377.004   13.960  162.678   84.662    0.448    0.151
  377.254   13.921  162.305   84.812    0.445    0.179
  377.504   13.912  162.346   82.825    0.454    0.193
  377.754   13.949  162.503   84.925    0.448    0.185
  378.004   13.940  162.540   91.777    0.439    0.177
  378.254   13.900  162.590   88.021    0.488    0.171
  378.504   13.762  162.521   84.575    0.470    0.182
  378.754   13.455  162.562   86.490    0.460    0.198
  379.004   13.272  162.716   89.014    0.445    0.215
  379.254   13.238  162.340   89.040    0.426    0.190
  379.504   13.347  162.179   89.184    0.444    0.187
  379.754   13.608  162.425   89.700    0.442    0.191
  380.004   13.694  163.093   83.015    0.425    0.196
  380.254   13.759  163.553   84.994    0.411    0.164
  380.504   13.823  163.793   92.639    0.426    0.131
  380.754   13.786  164.250   89.493    0.442    0.167
  381.004   13.652  164.812   87.629    0.455    0.200
  381.254   13.565  164.851   93.814    0.453    0.213
  381.504   13.358  165.001   91.763    0.449    0.194
  381.754   13.276  165.142   90.996    0.449    0.174
  382.004   13.287  165.183   90.906    0.448    0.180
  382.254   13.300  165.332   91.962    0.452    0.170
  382.504   13.316  165.288   91.438    0.457    0.156
  382.754   13.327  165.017   89.577    0.469    0.168
  383.004   13.341  164.232   90.456    0.477    0.192
  383.254   13.357  163.745   94.625    0.464    0.202
  383.504   13.371  163.482   89.710    0.448    0.185
  383.754   13.383  163.525   87.847    0.467    0.168
  384.004   13.274  163.878   89.699    0.483    0.167
  384.254   12.858  163.918   92.173    0.465    0.188
  384.504   12.343  163.966   92.983    0.450    0.201
  384.754   11.891  163.803   98.068    0.438    0.166
  385.004   11.666  163.430   99.803    0.430    0.152
  385.254   11.594  163.777   99.156    0.441    0.173
  385.504   11.948  163.629   94.243    0.450    0.175
  385.754   12.726  163.666   86.829    0.438    0.178
  386.004   12.996  164.121   91.916    0.422    0.178
  386.254   13.248  164.266   95.293    0.421    0.174
  386.504   13.880  163.994   92.147    0.433    0.154
  386.754   15.334  163.628   87.600    0.450    0.155
  387.004   16.628  162.633   77.383    0.397    0.165
  387.254   18.200  162.784   70.702    0.373    0.170
  387.504   24.519  163.040   66.154    0.333    0.157
  387.754   43.426  162.454   64.043    0.272    0.116
  388.004   42.143  161.670   62.914    0.257    0.049
  388.254   36.862  161.096   65.436    0.274    0.014
  388.504   31.777  161.140   77.534    0.292    0.073
  388.754   27.245  161.082   73.722    0.316    0.167
  389.004   25.171  161.752   77.282    0.365    0.191
  389.254   25.710  161.680   86.085    0.466    0.228
  389.504   28.442  161.414   81.843    0.429    0.233
  389.754   30.518  160.938   69.186    0.385    0.175
  390.004   30.162  160.474   69.153    0.353    0.141
  390.254   28.481  160.408   71.435    0.394    0.131
  390.504   27.137  160.763   72.188    0.363    0.143
  390.754   26.971  160.900   77.092    0.346    0.122
  391.004   27.640  161.770   77.667    0.379    0.155
  391.254   30.310  164.297   78.422    0.363    0.155
  391.504   32.576  164.643   83.692    0.351    0.120
  391.754   33.267  164.479   89.084    0.356    0.099
  392.004   32.945  163.386   84.904    0.344    0.076
  392.254   31.447  163.331   72.674    0.322    0.062
  392.504   26.233  162.862   79.282    0.342    0.060
  392.754   23.071  161.974   83.818    0.406    0.114
  393.004   19.600  162.122   87.319    0.436    0.159
  393.254   17.588  162.573   80.638    0.437    0.223
  393.504   17.351  162.411   78.287    0.429    0.219
  393.754   17.914  162.346   76.969    0.436    0.208
  394.004   19.151  162.597   75.408    0.462    0.197
  394.254   21.115  162.844   76.107    0.398    0.192
  394.504   24.055  163.299   79.240    0.412    0.204
  394.754   27.605  164.590   76.340    0.392    0.190
  395.004   33.219  165.040   77.278    0.316    0.176
  395.254   36.959  165.395   73.036    0.261    0.126
  395.504   37.747  166.279   75.632    0.262    0.094
  395.754   34.938  166.612   75.954    0.281    0.074
  396.004   31.465  165.415   75.006    0.319    0.101
  396.254   30.094  164.941   75.332    0.383    0.118
  396.504   30.016  163.649   72.917    0.369    0.116
  396.754   29.606  164.018   69.649    0.350    0.098
  397.004   26.665  164.356   71.018    0.337    0.085
  397.254   23.971  163.984   74.947    0.362    0.075
  397.504   21.586  163.096   79.361    0.382    0.119
  397.754   19.725  162.519   80.303    0.408    0.174
  398.004   18.493  162.565   81.117    0.417    0.191
  398.254   17.751  162.506   82.242    0.411    0.193
  398.504   17.009  163.177   80.561    0.404    0.185
  398.754   16.475  163.207   80.773    0.408    0.171
  399.004   16.136  163.144   84.268    0.400    0.164
  399.254   15.918  163.287   84.963    0.411    0.171
  399.504   15.503  163.642   82.610    0.433    0.184
  399.754   14.854  164.101   85.502    0.449    0.199
  400.004   15.507  164.350   86.630    0.433    0.185
  400.254   16.127  164.598   89.699    0.425    0.155
  400.504   16.411  164.639   95.823    0.419    0.164
  400.754   15.955  164.578   91.948    0.416    0.177
  401.004   16.146  164.317   83.556    0.396    0.168
  401.254   15.991  164.676   84.746    0.391    0.128
  401.504   15.916  164.403   89.951    0.413    0.147
  401.754   16.079  163.724   90.825    0.420    0.166
  402.004   16.509  163.245   88.230    0.412    0.151
  402.254   16.647  163.289   84.231    0.420    0.114
  402.504   16.452  163.435   87.187    0.445    0.136
  402.754   15.999  164.202   91.415    0.418    0.175
  403.004   15.523  163.936   93.819    0.410    0.162
  403.254   14.660  163.876   94.697    0.425    0.175
  403.504   13.945  164.331   90.885    0.439    0.158
  403.754   13.095  163.856   91.761    0.436    0.140
  404.004   12.254  164.007   96.664    0.429    0.160
  404.254   11.939  164.043   99.616    0.417    0.176
  404.504   12.015  164.293  102.323    0.411    0.175
  404.754   12.224  164.337  102.899    0.425    0.189
