~VERSION INFORMATION
 VERS.                 2.0:   CWLS LOG ASCII STANDARD -VERSION 2.0
 WRAP.                  NO:   ONE LINE PER DEPTH STEP
~WELL INFORMATION BLOCK
#MNEM.UNIT           DATA                    DESCRIPTION OF MNEMONIC
#---------    -------------------            -------------------------------
# Generated from Intellog Unique Number	CS_77_79/WELL/881
WELL.         DOME PETROLEUM LIMITED         : Well_name    - WELL
LOC .         00/06-24-077-16W4/0            : Location     - LOCATION
UWI .         00/06-24-077-16W4/0            : Uwi          - UNIQUE WELL ID
ENTR.         SP                             : Entered      - ENTERED BY
SRVC.         SCHLUMBERGER                   : Scn          - SERVICE COMPANY
STRT.M        260                            : top_depth    - START DEPTH
STOP.M        485                            : bot_depth    - STOP DEPTH
STEP.M        0.25                           : increment    - STEP LENGTH
 NULL. -999.2500:NULL Value
~CURVE INFORMATION BLOCK
#MNEM UNIT       ERCB CURVE CODE    CURVE DESCRIPTION
#-----------   ------------------   ----------------------------------
DEPT.M        00 001 00 00         : DEPTH        - DEPTH
ILD .OHMM     00 120 00 00         : RESD         - DEEP RESISTIVITY (DIL)
DPHI.V/V      00 890 00 00         : PHID         - DENSITY POROSITY (LIMESTONE)
NPHI.V/V      00 330 00 00         : PHIN         - NEUTRON POROSITY (LIMESTONE)
GR  .API      00 310 00 00         : GR           - GAMMA RAY
~PARAMETER INFORMATION
#MNEM.UNIT           DATA             DESCRIPTION OF MNEMONIC
#---------         -----------     ------------------------------
GL  .M        653.8                : gl           - GROUND LEVEL ELEVATION
EREF.M        657.6                : kb           - ELEVATION OF DEPTH REFERENCE
DATM.M        653.8                : datum        - DATUM ELEVATION
TDD .M        499                  : tdd          - TOTAL DEPTH DRILLER
RUN .         ONE                  : Run          - RUN NUMBER
ENG .         BILL                 : Engineer     - RECORDING ENGINEER
WIT .         JIM                  : Witness      - WITNESSED BY
MUD .         GEL                  : Mud_type     - MUD TYPE
MATR.         LIMESTONE            : Logunit      - NEUTRON MATRIX
TMAX.C        21                   : BHT          - MAXIMUM RECORDED TEMPERATURE
BHTD.M        499                  : BHTDEP       - MAXIMUM RECORDED TEMPERATURE
MATR.         1                    : LOGUNIT      - NEUTRON MATRIX
RMT .C        25                   : MDTP         - TEMPERATURE OF MUD
NEUT.         1                    : NEUTRON      - NEUTRON TYPE
RESI.         0                    : RESIST       - RESISTIVITY TYPE
RMC .OHMM     0.25                 : RMC          - RESISTIVITY OF MUD CAKE
RMF .OHMM     0.25                 : RMF          - RESISTIVITY OF MUD FILTRATE
SUFT.C        15                   : SUFT         - SURFACE TEMPERATURE
~A  DEPTH     RESD     PHID     PHIN       GR
# ...
  390.500    5.812    0.272    0.423   90.780
  390.750    5.813    0.266    0.423   93.198
  391.000    5.602    0.264    0.422   95.620
  391.250    5.298    0.264    0.422   95.632
  391.500    5.106    0.271    0.420   94.436
  391.750    4.920    0.268    0.417   93.841
  392.000    4.922    0.267    0.412   92.049
  392.250    4.832    0.263    0.407   92.055
  392.500    4.745    0.261    0.401   93.875
  392.750    4.747    0.260    0.400   94.483
  393.000    4.748    0.255    0.401   96.302
  393.250    4.750    0.252    0.402   96.914
  393.500    4.753    0.251    0.408   95.116
  393.750    4.754    0.254    0.414   93.322
  394.000    4.757    0.260    0.426   92.727
  394.250    4.759    0.266    0.431   92.737
  394.500    4.850    0.275    0.426   92.746
  394.750    4.851    0.284    0.419   91.554
  395.000    4.853    0.296    0.416   90.358
  395.250    4.947    0.319    0.414   87.956
  395.500    5.043    0.326    0.412   86.159
  395.750    5.238    0.323    0.412   84.364
  396.000    5.439    0.319    0.409   83.166
  396.250    5.755    0.331    0.408   79.569
  396.500    6.322    0.343    0.407   77.769
  396.750    6.945    0.357    0.408   75.967
  397.000    7.923    0.363    0.407   72.365
  397.250    8.227    0.349    0.404   69.966
  397.500    8.386    0.348    0.403   66.965
  397.750    7.931    0.349    0.399   65.772
  398.000    7.643    0.361    0.398   64.575
  398.250    7.365    0.366    0.397   62.780
  398.500    6.837    0.376    0.398   62.185
  398.750    6.711    0.366    0.406   62.192
  399.000    6.347    0.353    0.409   65.216
  399.250    6.004    0.345    0.408   67.638
  399.500    6.006    0.342    0.403   67.645
  399.750    6.008    0.343    0.397   64.644
  400.000    6.012    0.351    0.394   64.054
  400.250    6.014    0.351    0.394   64.662
  400.500    5.905    0.351    0.394   65.882
  400.750    5.798    0.354    0.393   65.886
  401.000    5.799    0.357    0.390   65.897
  401.250    5.802    0.357    0.388   68.321
  401.500    5.803    0.357    0.384   68.326
  401.750    5.697    0.360    0.381   66.529
  402.000    5.808    0.362    0.379   66.542
  402.250    5.702    0.359    0.385   65.347
  402.500    5.705    0.352    0.394   63.548
  402.750    5.816    0.348    0.400   62.955
  403.000    5.818    0.345    0.402   64.773
  403.250    5.819    0.343    0.404   65.989
  403.500    5.933    0.344    0.403   66.599
  403.750    5.935    0.340    0.403   67.212
  404.000    5.937    0.343    0.405   66.620
  404.250    5.939    0.345    0.407   64.823
  404.500    5.832    0.346    0.412   66.038
  404.750    5.833    0.349    0.417   66.650
  405.000    5.836    0.351    0.422   64.252
  405.250    5.948    0.355    0.422   63.659
  405.500    5.951    0.345    0.422   64.874
  405.750    5.953    0.345    0.420   64.285
  406.000    5.955    0.357    0.419   64.292
  406.250    5.957    0.356    0.418   64.905
  406.500    5.959    0.357    0.418   64.917
  406.750    5.963    0.362    0.415   64.923
  407.000    5.855    0.359    0.413   63.729
  407.250    5.856    0.359    0.410   63.136
  407.500    5.750    0.354    0.408   63.146
  407.750    5.752    0.350    0.406   62.554
  408.000    5.647    0.341    0.402   63.166
  408.250    5.651    0.335    0.399   64.383
  408.500    5.547    0.330    0.396   64.992
  408.750    5.549    0.326    0.392   66.208
  409.000    5.657    0.326    0.390   65.016
  409.250    5.658    0.332    0.387   63.821
  409.500    5.878    0.349    0.382   63.830
  409.750    5.991    0.358    0.379   63.838
  410.000    6.106    0.354    0.369   64.453
  410.250    6.461    0.332    0.355   63.255
  410.500    7.098    0.273    0.319   59.656
  410.750    7.797    0.168    0.225   59.059
  411.000    9.060    0.108    0.192   57.261
  411.250   11.348    0.034    0.168   55.466
  411.500   13.435    0.055    0.165   55.474
  411.750   15.322    0.085    0.180   56.089
  412.000   15.618    0.125    0.193   56.698
  412.250   14.229    0.173    0.233   57.917
  412.500   12.028    0.248    0.250   59.131
  412.750   10.753    0.283    0.285   60.345
  413.000    9.437    0.311    0.327   60.956
  413.250    8.281    0.331    0.377   61.571
  413.500    7.686    0.329    0.403   62.184
  413.750    6.620    0.339    0.410   62.794
  414.000    6.031    0.345    0.410   63.412
  414.250    5.598    0.343    0.410   64.022
  414.500    5.496    0.351    0.408   64.632
  414.750    5.297    0.355    0.415   64.642
  415.000    5.298    0.350    0.413   65.858
  415.250    5.301    0.345    0.412   68.277
  415.500    5.302    0.349    0.411   68.887
  415.750    5.304    0.352    0.410   67.695
  416.000    5.307    0.346    0.406   66.499
  416.250    5.409    0.335    0.400   63.498
  416.500    5.411    0.329    0.390   62.303
  416.750    5.515    0.324    0.383   62.918
  417.000    5.729    0.329    0.375   63.525
  417.250    5.839    0.327    0.367   64.141
  417.500    5.951    0.305    0.345   62.341
  417.750    6.538    0.257    0.251   56.931
  418.000    7.318    0.025    0.211   52.120
  418.250    8.829    0.004    0.188   47.310
  418.500   10.650    0.008    0.177   45.513
  418.750   12.609    0.044    0.199   46.728
  419.000   14.929    0.075    0.240   49.750
  419.250   13.348    0.168    0.285   51.567
  419.500   10.869    0.241    0.351   54.591
  419.750    9.360    0.322    0.390   59.421
  420.000    7.912    0.357    0.418   62.444
  420.250    7.207    0.369    0.418   64.260
  420.500    6.325    0.365    0.415   64.871
  420.750    5.872    0.362    0.413   67.893
  421.000    5.658    0.352    0.409   71.519
  421.250    5.555    0.348    0.409   73.335
  421.500    5.454    0.342    0.413   69.133
  421.750    5.559    0.340    0.415   67.933
  422.000    5.562    0.340    0.414   66.739
  422.250    5.563    0.347    0.413   66.150
  422.500    5.672    0.353    0.408   66.760
  422.750    5.781    0.344    0.399   65.565
  423.000    5.783    0.349    0.381   64.972
  423.250    5.895    0.355    0.360   63.779
  423.500    6.008    0.303    0.303   61.979
  423.750    6.478    0.175    0.268   57.774
  424.000    7.388    0.169    0.259   55.373
  424.250    7.530    0.182    0.280   56.589
  424.500    6.990    0.274    0.311   57.201
  424.750    6.736    0.302    0.389   59.021
  425.000    6.253    0.333    0.425   60.233
  425.250    6.139    0.350    0.425   62.051
  425.500    5.807    0.354    0.421   62.061
  425.750    5.701    0.349    0.421   60.868
  426.000    5.597    0.340    0.427   60.875
  426.250    5.495    0.345    0.427   63.297
  426.500    5.498    0.346    0.426   65.116
  426.750    5.603    0.346    0.426   67.533
  427.000    5.503    0.345    0.424   69.348
  427.250    5.505    0.339    0.432   71.769
  427.500    5.507    0.333    0.443   69.368
  427.750    5.406    0.329    0.445   71.790
  428.000    5.409    0.331    0.441   74.212
  428.250    5.411    0.328    0.439   74.820
  428.500    5.312    0.304    0.434   74.228
  428.750    5.314    0.290    0.442   73.637
  429.000    5.218    0.296    0.446   73.647
  429.250    5.123    0.305    0.447   73.656
  429.500    5.125    0.324    0.450   74.873
  429.750    5.126    0.335    0.456   75.487
  430.000    5.226    0.338    0.458   74.893
  430.250    5.131    0.323    0.459   74.299
  430.500    5.230    0.313    0.458   74.308
  430.750    5.232    0.310    0.456   74.322
  431.000    5.235    0.312    0.449   74.935
  431.250    5.237    0.310    0.447   76.147
  431.500    4.861    0.306    0.445   77.965
  431.750    4.862    0.296    0.443   79.781
  432.000    4.774    0.291    0.442   82.804
  432.250    4.687    0.290    0.451   85.222
  432.500    4.602    0.295    0.458   88.245
  432.750    4.435    0.277    0.460   90.668
  433.000    4.354    0.263    0.460   91.881
  433.250    4.197    0.241    0.458   95.505
  433.500    4.120    0.233    0.450   98.529
  433.750    4.121    0.230    0.441   99.140
