~VERSION INFORMATION
 VERS.                 2.0:   CWLS LOG ASCII STANDARD -VERSION 2.0
 WRAP.                  NO:   ONE LINE PER DEPTH STEP
~WELL INFORMATION BLOCK
#MNEM.UNIT           DATA                    DESCRIPTION OF MNEMONIC
#---------    -------------------            -------------------------------
# Generated from Intellog Unique Number	CS_67_68/WELL/2182
WELL.         07-36-067-03W4                 : Well_name    - WELL
LOC .         00/07-36-067-03W4/0            : Location     - LOCATION
UWI .         00/07-36-067-03W4/0            : Uwi          - UNIQUE WELL ID
ENTR.         SP                             : Entered      - ENTERED BY
SRVC.         SCHLUMBERGER                   : Scn          - SERVICE COMPANY
STRT.M        370                            : top_depth    - START DEPTH
STOP.M        616                            : bot_depth    - STOP DEPTH
STEP.M        0.25                           : increment    - STEP LENGTH
 NULL. -999.2500:NULL Value
~CURVE INFORMATION BLOCK
#MNEM UNIT       ERCB CURVE CODE    CURVE DESCRIPTION
#-----------   ------------------   ----------------------------------
DEPT.M        00 001 00 00         : DEPTH        - DEPTH
GR  .API      00 310 00 00         : GR           - GAMMA RAY
DPHI.V/V      00 890 00 00         : PHID         - DENSITY POROSITY (LIMESTONE)
NPHI.V/V      00 330 00 00         : PHIN         - NEUTRON POROSITY (LIMESTONE)
CALI.MM       00 280 01 00         : CAL          - CALIPER
ILD .OHMM     00 120 00 00         : RESD         - DEEP RESISTIVITY (DIL)
~PARAMETER INFORMATION
#MNEM.UNIT           DATA             DESCRIPTION OF MNEMONIC
#---------         -----------     ------------------------------
GL  .M        701.08               : gl           - GROUND LEVEL ELEVATION
EREF.M        704.28               : kb           - ELEVATION OF DEPTH REFERENCE
DATM.M        704.28               : datum        - DATUM ELEVATION
TDD .M        622                  : tdd          - TOTAL DEPTH DRILLER
RUN .         ONE                  : Run          - RUN NUMBER
ENG .         BILL                 : Engineer     - RECORDING ENGINEER
WIT .         JIM                  : Witness      - WITNESSED BY
MUD .         GEL                  : Mud_type     - MUD TYPE
MATR.         LIMESTONE            : Logunit      - NEUTRON MATRIX
TMAX.C        28.8                 : BHT          - MAXIMUM RECORDED TEMPERATURE
BHTD.M        622.2                : BHTDEP       - MAXIMUM RECORDED TEMPERATURE
MATR.         1                    : LOGUNIT      - NEUTRON MATRIX
RMT .C        25                   : MDTP         - TEMPERATURE OF MUD
NEUT.         1                    : NEUTRON      - NEUTRON TYPE
RESI.         0                    : RESIST       - RESISTIVITY TYPE
RMC .OHMM     0.25                 : RMC          - RESISTIVITY OF MUD CAKE
RMF .OHMM     0.25                 : RMF          - RESISTIVITY OF MUD FILTRATE
SUFT.C        15                   : SUFT         - SURFACE TEMPERATURE
~A  DEPTH       GR     PHID     PHIN      CAL     RESD
# ...
  406.500   61.729    0.315    0.369  161.077    8.290
  406.750   53.935    0.323    0.381  161.082    8.224
  407.000   45.779    0.321    0.394  161.293    8.038
  407.250   41.067    0.311    0.368  161.503    7.783
  407.500   44.276    0.306    0.376  161.610    7.452
  407.750   57.885    0.300    0.386  162.025    7.270
  408.000   67.865    0.297    0.392  162.334    7.199
  408.250   75.126    0.292    0.412  162.343    7.115
  408.500   79.121    0.285    0.436  162.349    7.005
  408.750   81.786    0.277    0.445  162.760    6.950
  409.000   84.149    0.272    0.429  162.972    6.754
  409.250   83.489    0.276    0.417  163.181    6.676
  409.500   87.242    0.281    0.436  163.592    6.611
  409.750   87.671    0.279    0.435  164.006    6.632
  410.000   86.769    0.278    0.436  164.215    6.641
  410.250   85.988    0.281    0.453  164.323    6.800
  410.500   85.872    0.280    0.463  164.531    7.016
  410.750   86.421    0.281    0.468  164.540    7.280
  411.000   83.706    0.290    0.472  164.346    7.596
  411.250   82.017    0.292    0.465  164.459    7.866
  411.500   80.873    0.289    0.460  164.567    8.223
  411.750   76.888    0.294    0.456  164.273    8.342
  412.000   77.559    0.292    0.456  164.280    8.123
  412.250   81.251    0.284    0.465  164.288    7.894
  412.500   84.702    0.276    0.467  164.295    7.716
  412.750   86.582    0.286    0.462  164.304    7.640
  413.000   90.335    0.293    0.465  164.312    7.551
  413.250   88.647    0.289    0.471  164.323    7.491
  413.500   80.067    0.295    0.461  164.331    7.432
  413.750   73.058    0.301    0.443  164.338    7.414
  414.000   77.720    0.301    0.420  164.346    7.355
  414.250   83.891    0.301    0.421  164.353    7.283
  414.500   88.309    0.303    0.445  164.160    7.226
  414.750   89.160    0.308    0.466  164.067    7.141
  415.000   89.589    0.295    0.481  164.076    7.058
  415.250   91.468    0.286    0.467  163.784    6.950
  415.500   92.743    0.279    0.470  164.194    6.869
  415.750   91.902    0.271    0.468  164.102    6.827
  416.000   89.548    0.264    0.456  164.310    6.786
  416.250   88.284    0.260    0.447  164.420    6.782
  416.500   89.377    0.262    0.443  164.429    6.817
  416.750   92.224    0.266    0.449  164.335    6.877
  417.000   93.437    0.272    0.440  163.741    6.952
  417.250   93.321    0.283    0.429  163.243    7.092
  417.500   93.024    0.292    0.421  162.750    7.195
  417.750   92.606    0.281    0.431  162.554    7.245
  418.000   92.128    0.273    0.430  162.262    7.242
  418.250   91.407    0.278    0.426  161.967    7.184
  418.500   90.445    0.292    0.423  161.672    7.074
  418.750   89.361    0.300    0.420  161.378    6.926
  419.000   87.673    0.298    0.430  160.987    6.821
  419.250   85.260    0.294    0.442  160.895    6.729
  419.500   83.571    0.287    0.451  160.799    6.564
  419.750   85.874    0.285    0.449  160.606    6.273
  420.000   89.025    0.293    0.434  160.614    6.018
  420.250   90.539    0.284    0.428  160.924    5.904
  420.500   91.996    0.276    0.456  161.235    6.113
  420.750   91.940    0.292    0.477  161.748    6.331
  421.000   86.685    0.297    0.490  162.360    6.717
  421.250   82.578    0.299    0.470  162.368    6.918
  421.500   86.392    0.290    0.459  161.771    7.150
  421.750   87.244    0.284    0.477  160.772    7.147
  422.000   81.384    0.279    0.481  159.975    6.882
  422.250   76.250    0.275    0.474  159.379    7.220
  422.500   69.967    0.290    0.469  159.085    7.604
  422.750   64.410    0.304    0.453  158.892    7.964
  423.000   73.302    0.298    0.427  158.697    8.263
  423.250   81.288    0.274    0.441  158.605    8.030
  423.500   85.223    0.261    0.452  158.613    7.790
  423.750   80.210    0.260    0.455  158.925    7.844
  424.000   76.406    0.260    0.452  159.134    7.988
  424.250   74.597    0.286    0.450  159.243    8.150
  424.500   77.746    0.306    0.451  159.353    8.176
  424.750   79.625    0.318    0.458  159.461    8.112
  425.000   80.719    0.306    0.466  159.771    8.002
  425.250   79.333    0.285    0.457  160.082    7.983
  425.500   77.646    0.281    0.447  160.392    8.008
  425.750   76.502    0.283    0.439  161.006    8.080
  426.000   75.901    0.285    0.453  162.021    8.182
  426.250   75.906    0.284    0.458  162.232    8.379
  426.500   76.395    0.273    0.442  162.139    8.313
  426.750   79.242    0.260    0.437  161.946    8.155
  427.000   73.382    0.252    0.457  161.953   10.331
  427.250   63.532    0.096    0.471  161.963   12.309
  427.500   55.436    0.042    0.325  161.972   14.966
  427.750   49.818    0.012    0.196  161.978   17.897
  428.000   48.069    0.000    0.180  161.987   21.844
  428.250   53.818    0.000    0.175  161.794   20.994
  428.500   60.353    0.178    0.200  161.600   15.710
  428.750   67.008    0.221    0.332  161.307   11.777
  429.000   73.361    0.253    0.388  160.912    9.166
  429.250   73.367    0.284    0.429  160.618    8.098
  429.500   70.590    0.294    0.462  160.325    7.798
  429.750   68.782    0.303    0.436  160.030    7.606
  430.000   68.121    0.312    0.422  159.837    7.588
  430.250   69.093    0.326    0.437  159.644    7.613
  430.500   71.456    0.318    0.448  159.652    7.624
  430.750   74.061    0.303    0.452  159.559    7.734
  431.000   72.917    0.294    0.458  159.567    7.832
  431.250   71.471    0.298    0.464  159.878    7.946
  431.500   70.086    0.317    0.464  159.885    8.062
  431.750   69.003    0.329    0.459  159.894    8.163
  432.000   68.040    0.332    0.456  159.902    8.221
  432.250   67.682    0.340    0.460  160.011    8.217
  432.500   70.528    0.345    0.465  160.020    8.182
  432.750   71.985    0.338    0.462  160.029    8.086
  433.000   70.780    0.332    0.454  160.138    8.008
  433.250   69.758    0.324    0.446  160.247    7.913
  433.500   69.218    0.313    0.441  160.254    7.895
  433.750   68.740    0.309    0.432  160.264    7.804
  434.000   70.437    0.316    0.435  160.170    7.785
  434.250   69.838    0.317    0.445  160.077    7.723
  434.500   67.303    0.324    0.455  159.784    7.720
  434.750   66.644    0.332    0.464  159.490    7.643
  435.000   68.342    0.336    0.462  159.298    7.612
  435.250   70.765    0.322    0.452  159.305    7.509
  435.500   73.732    0.310    0.443  159.313    6.848
  435.750   75.067    0.294    0.454  159.324    6.436
  436.000   73.742    0.284    0.454  159.534    5.970
  436.250   70.241    0.278    0.445  159.442    5.780
  436.500   67.828    0.308    0.443  159.547    5.735
  436.750   66.985    0.329    0.455  159.560    6.305
  437.000   66.507    0.341    0.459  159.766    7.330
  437.250   66.028    0.349    0.459  159.777    7.940
  437.500   65.066    0.346    0.466  159.886    8.299
  437.750   63.317    0.342    0.474  159.894    8.373
  438.000   59.755    0.341    0.461  160.103    8.306
  438.250   60.183    0.349    0.452  160.211    8.058
  438.500   66.295    0.335    0.454  160.320    7.890
  438.750   70.834    0.305    0.450  160.428    7.610
  439.000   74.104    0.278    0.447  160.537    7.494
  439.250   76.104    0.270    0.452  160.951    7.449
  439.500   78.346    0.264    0.455  161.161    7.445
  439.750   81.313    0.277    0.469  161.268    7.372
  440.000   74.486    0.301    0.480  161.477    7.341
  440.250   67.841    0.318    0.488  161.787    7.215
  440.500   64.520    0.338    0.479  161.999    7.224
  440.750   63.256    0.335    0.473  162.106    7.275
  441.000   63.503    0.331    0.465  162.417    7.409
  441.250   63.991    0.277    0.473  162.426    7.629
  441.500   61.820    0.165    0.513  162.434    7.931
  441.750   52.454    0.064    0.172  162.139    8.243
  442.000   45.868    0.041    0.165  162.753    8.473
  442.250   53.793    0.177    0.171  163.365    8.485
  442.500   62.262    0.220    0.284  163.979    8.293
  442.750   69.341    0.249    0.391  164.087    7.881
