~VERSION INFORMATION
 VERS.                 2.0:   CWLS LOG ASCII STANDARD -VERSION 2.0
 WRAP.                  NO:   ONE LINE PER DEPTH STEP
~WELL INFORMATION BLOCK
#MNEM.UNIT           DATA                    DESCRIPTION OF MNEMONIC
#---------    -------------------            -------------------------------
# Generated from Intellog Unique Number	CS_77_79/WELL/871
WELL.         HOME LEISMER                   : Well_name    - WELL
LOC .         00/06-11-078-07W4/0            : Location     - LOCATION
UWI .         00/06-11-078-07W4/0            : Uwi          - UNIQUE WELL ID
ENTR.         JHS                            : Entered      - ENTERED BY
SRVC.         SCHLUMBERGER                   : Scn          - SERVICE COMPANY
STRT.M        106.680                        : top_depth    - START DEPTH
STOP.M        344.180                        : bot_depth    - STOP DEPTH
STEP.M        0.25                           : increment    - STEP LENGTH
 NULL. -999.2500:NULL Value
~CURVE INFORMATION BLOCK
#MNEM UNIT       ERCB CURVE CODE    CURVE DESCRIPTION
#-----------   ------------------   ----------------------------------
DEPT.M        00 001 00 00         : DEPTH        - DEPTH
RHOB.KG/M3    00 350 00 00         : DENS         - BULK DENSITY
GR  .API      00 310 00 00         : GR           - GAMMA RAY
DPHI.V/V      00 890 00 00         : PHID         - DENSITY POROSITY (SANDSTONE)
NPHI.V/V      00 330 00 00         : PHIN         - NEUTRON POROSITY (SANDSTONE)
ILD .OHMM     00 120 00 00         : RESD         - DEEP RESISTIVITY (DIL)
~PARAMETER INFORMATION
#MNEM.UNIT           DATA             DESCRIPTION OF MNEMONIC
#---------         -----------     ------------------------------
GL  .M        533.461              : gl           - GROUND LEVEL ELEVATION
EREF.M        536.814              : kb           - ELEVATION OF DEPTH REFERENCE
DATM.M        536.814              : datum        - DATUM ELEVATION
TDD .M        347.472              : tdd          - TOTAL DEPTH DRILLER
RUN .         ONE                  : Run          - RUN NUMBER
ENG .         BILL                 : Engineer     - RECORDING ENGINEER
WIT .         JIM                  : Witness      - WITNESSED BY
MUD .         GEL                  : Mud_type     - MUD TYPE
MATR.         SANDSTONE            : Logunit      - NEUTRON MATRIX
TMAX.C        21.6667              : BHT          - MAXIMUM RECORDED TEMPERATURE
BHTD.M        347.472              : BHTDEP       - MAXIMUM RECORDED TEMPERATURE
MATR.         1                    : LOGUNIT      - NEUTRON MATRIX
RMT .C        25                   : MDTP         - TEMPERATURE OF MUD
NEUT.         1                    : NEUTRON      - NEUTRON TYPE
RESI.         0                    : RESIST       - RESISTIVITY TYPE
RMC .OHMM     0.25                 : RMC          - RESISTIVITY OF MUD CAKE
RMF .OHMM     0.25                 : RMF          - RESISTIVITY OF MUD FILTRATE
SUFT.C        15                   : SUFT         - SURFACE TEMPERATURE
~A  DEPTH     DENS       GR     PHID     PHIN     RESD
# ...
  216.180    0.000   66.542    0.336    0.483    9.740
  216.430    0.000   64.138    0.329    0.488    9.743
  216.680   -0.000   64.171    0.324    0.478    9.604
  216.930   -0.000   65.439    0.314    0.472    9.253
  217.180   -0.000   69.192    0.307    0.468    8.877
  217.430    0.000   76.311    0.295    0.460    8.494
  217.680    0.000   82.863    0.280    0.468    8.168
  217.930   -0.000   88.130    0.268    0.481    7.678
  218.180   -0.000   90.854    0.266    0.524    7.167
  218.430   -0.000   91.184    0.280    0.514    6.816
  218.680    0.000   87.916    0.290    0.501    6.742
  218.930    0.000   85.413    0.281    0.488    6.811
  219.180    0.000   85.365    0.276    0.490    6.876
  219.430   -0.000   89.534    0.283    0.513    7.111
  219.680   -0.000   91.300    0.272    0.535    7.177
  219.930   -0.000   90.526    0.284    0.517    7.250
  220.180    0.000   88.481    0.272    0.497    7.357
  220.430    0.000   87.353    0.263    0.484    7.384
  220.680    0.000   87.641    0.259    0.475    7.388
  220.930   -0.000   92.882    0.263    0.472    7.310
  221.180   -0.000   95.156    0.265    0.486    7.108
  221.430    0.000   93.682    0.260    0.473    7.125
  221.680    0.000   91.999    0.260    0.463    6.978
  221.930    0.000   91.969    0.259    0.472    6.989
  222.180   -0.000   91.983    0.252    0.484    6.989
  222.430   -0.000   89.826    0.253    0.494    6.986
  222.680   -0.000   86.942    0.260    0.493    6.978
  222.930    0.000   87.469    0.269    0.478    6.765
  223.180    0.000   89.458    0.270    0.478    6.605
  223.430    0.000   93.799    0.258    0.490    6.475
  223.680   -0.000   99.039    0.244    0.501    6.064
  223.930   -0.000  103.461    0.230    0.505    5.777
  224.180    0.000  106.260    0.231    0.514    5.408
  224.430    0.000  105.425    0.252    0.526    4.871
  224.680    0.000  102.039    0.255    0.525    4.487
  224.930   -0.000  100.809    0.245    0.523    3.976
  225.180   -0.000  101.350    0.256    0.542    3.420
  225.430   -0.000  103.524    0.275    0.565    3.012
  225.680    0.000  103.479    0.287    0.596    2.538
  225.930    0.000  100.582    0.280    0.591    2.282
  226.180    0.000   98.378    0.262    0.581    2.155
  226.430   -0.000   95.867    0.271    0.579    2.179
  226.680   -0.000   94.545    0.290    0.576    2.296
  226.930   -0.000   95.507    0.275    0.561    2.410
  227.180    0.000   96.324    0.258    0.558    2.686
  227.430    0.000   95.663    0.245    0.559    3.015
  227.680   -0.000   94.393    0.261    0.541    3.393
  227.930   -0.000   90.388    0.275    0.508    3.962
  228.180   -0.000   89.440    0.263    0.465    4.769
  228.430    0.000   90.003    0.266    0.448    6.034
  228.680    0.000   92.321    0.280    0.428    6.906
  228.930    0.000   92.166    0.296    0.412    7.854
  229.180   -0.000   87.203    0.306    0.407    8.753
  229.430   -0.000   83.617    0.294    0.406    9.027
  229.680   -0.000   86.598    0.303    0.398    9.023
  229.930    0.000   86.867    0.319    0.398    8.627
  230.180    0.000   84.429    0.253    0.428    8.340
  230.430   -0.000   82.946    0.217    0.433    8.084
  230.680   -0.000   81.187    0.240    0.387    8.068
  230.930   -0.000   80.476    0.339    0.364    8.234
  231.180    0.000   77.048    0.294    0.431    8.505
  231.430    0.000   74.873    0.272    0.469    8.975
  231.680    0.000   76.536    0.256    0.466    9.026
  231.930   -0.000   79.552    0.292    0.458    8.893
  232.180   -0.000   81.092    0.296    0.463    8.654
  232.430   -0.000   77.801    0.282    0.468    8.052
  232.680    0.000   78.753    0.284    0.471    8.211
  232.930    0.000   77.822    0.269    0.480    8.334
  233.180    0.000   80.034    0.249    0.457    8.703
  233.430   -0.000   81.191    0.226    0.439    9.141
  233.680   -0.000   78.448    0.241    0.451    9.371
  233.930    0.000   78.161    0.259    0.463    9.361
  234.180    0.000   77.879    0.243    0.444    9.088
  234.430    0.000   77.023    0.266    0.438    8.851
  234.680   -0.000   78.112    0.300    0.448    8.704
  234.930   -0.000   79.334    0.306    0.457    8.547
  235.180   -0.000   81.294    0.312    0.464    8.206
  235.430    0.000   82.683    0.288    0.469    7.958
  235.680    0.000   85.837    0.279    0.476    7.725
  235.930    0.000   89.121    0.287    0.479    7.500
  236.180   -0.000   92.117    0.270    0.489    7.413
  236.430   -0.000   94.045    0.264    0.497    7.189
  236.680    0.000   94.995    0.259    0.489    6.970
  236.930    0.000   96.048    0.252    0.475    6.803
  237.180    0.000   96.322    0.254    0.471    6.703
  237.430   -0.000   93.972    0.260    0.471    6.479
  237.680   -0.000   91.577    0.269    0.463    6.410
  237.930   -0.000   90.101    0.262    0.461    6.356
  238.180    0.000   89.550    0.264    0.475    6.455
  238.430    0.000   90.296    0.277    0.485    6.708
  238.680    0.000   89.458    0.279    0.491    6.969
  238.930   -0.000   86.007    0.271    0.505    7.070
  239.180   -0.000   82.194    0.272    0.483    7.093
  239.430   -0.000   80.633    0.272    0.473    7.097
  239.680    0.000   81.778    0.277    0.482    6.998
  239.930    0.000   86.631    0.287    0.494    6.905
  240.180   -0.000   85.472    0.273    0.489    6.593
  240.430   -0.000   86.435    0.261    0.472    6.529
  240.680   -0.000   89.498    0.254    0.474    6.332
  240.930    0.000   91.886    0.266    0.487    6.036
  241.180    0.000   94.813    0.261    0.489    5.849
  241.430    0.000   92.130    0.243    0.487    5.673
  241.680   -0.000   87.596    0.253    0.489    5.505
  241.930   -0.000   88.423    0.274    0.491    5.365
  242.180   -0.000   92.041    0.267    0.497    5.484
  242.430    0.000   89.974    0.275    0.505    5.709
  242.680    0.000   86.769    0.295    0.493    5.935
  242.930    0.000   79.436    0.316    0.461    6.123
  243.180   -0.000   74.812    0.331    0.462    6.311
  243.430   -0.000   72.615    0.332    0.499    6.511
  243.680    0.000   72.809    0.339    0.521    6.585
  243.930    0.000   73.479    0.342    0.522    6.722
  244.180    0.000   73.287    0.327    0.499    6.711
  244.430   -0.000   71.757    0.336    0.493    6.707
  244.680   -0.000   71.052    0.345    0.494    6.653
  244.930   -0.000   71.178    0.329    0.488    6.601
  245.180    0.000   73.218    0.328    0.491    6.714
  245.430    0.000   75.063    0.330    0.478    6.710
  245.680    0.000   74.638    0.326    0.481    6.709
  245.930   -0.000   72.613    0.325    0.503    6.602
  246.180   -0.000   71.520    0.324    0.506    6.678
  246.430    0.000   70.507    0.315    0.524    6.704
  246.680    0.000   72.510    0.328    0.521    6.690
  246.930    0.000   75.633    0.333    0.511    6.844
  247.180   -0.000   77.595    0.316    0.503    6.823
  247.430   -0.000   78.156    0.317    0.494    6.972
  247.680   -0.000   76.494    0.322    0.494    6.975
  247.930    0.000   77.986    0.312    0.503    7.096
  248.180    0.000   81.253    0.306    0.504    6.848
  248.430    0.000   86.036    0.296    0.493    6.436
  248.680   -0.000   93.645    0.280    0.476    6.171
  248.930   -0.000   97.660    0.265    0.484    5.587
  249.180   -0.000   95.081    0.244    0.508    5.179
  249.430    0.000   90.114    0.281    0.502    5.078
  249.680    0.001   86.270    0.284    0.501    5.200
  249.930   -0.002   84.960    0.275    0.506    5.563
  250.180   -0.098   83.311    0.256    0.492    5.724
  250.430   -0.585   83.106    0.237    0.482    6.031
  250.680    3.217   88.505    0.191    0.480    6.312
  250.930   66.365   86.256    0.164    0.464    6.478
  251.180  263.032   78.687    0.150    0.444    6.337
  251.430 2489.870   83.239    0.195    0.465    6.256
  251.680 2283.890   84.727    0.260    0.493    6.058
  251.930 2277.710   77.526    0.253    0.470    6.001
  252.180 2312.000   75.549    0.233    0.442    6.059
  252.430 2375.740   76.056    0.195    0.425    6.382
