~VERSION INFORMATION
 VERS.                 2.0:   CWLS LOG ASCII STANDARD -VERSION 2.0
 WRAP.                  NO:   ONE LINE PER DEPTH STEP
~WELL INFORMATION BLOCK
#MNEM.UNIT           DATA                    DESCRIPTION OF MNEMONIC
#---------    -------------------            -------------------------------
# Generated from Intellog Unique Number	CW_70_72/WELL/2903
NULL.         -999.25                        : NULL_VALUE
WELL.         PETROMA ET AL RICHMOND         : Well_name    - WELL              
LOC .         07-14-070-19W4                 : Location     - LOCATION          
UWI .         00/07-14-070-19W4/0            : Uwi          - UNIQUE WELL ID    
ENTR.         MAX                            : Entered      - ENTERED BY        
SRVC.         SCHLUMBERGER                   : Scn          - SERVICE COMPANY   
DATE.         07 FEB 76                      : Date         - LOG DATE
STRT.M        335.28                         : top_depth    - START DEPTH       
STOP.M        487.78                         : bot_depth    - STOP DEPTH        
STEP.M        0.25                           : increment    - STEP LENGTH       
~CURVE INFORMATION BLOCK
#MNEM UNIT       ERCB CURVE CODE    CURVE DESCRIPTION
#-----------   ------------------   ----------------------------------
DEPT.M        00 001 00 00         : DEPTH        - DEPTH                       
ILD .OHMM     00 120 00 00         : RESD         - DEEP RESISTIVITY (DIL)      
NPHI.V/V      00 330 00 00         : PHIN         - NEUTRON POROSITY (SANDSTONE)
DPHI.V/V      00 890 00 00         : PHID         - DENSITY POROSITY (SANDSTONE)
CALI.MM       00 280 01 00         : CAL          - CALIPER                     
GR  .API      00 310 00 00         : GR           - GAMMA RAY                   
~PARAMETER INFORMATION       
#MNEM.UNIT           DATA             DESCRIPTION OF MNEMONIC
#---------         -----------     ------------------------------
GL  .M        560.497              : gl           - GROUND LEVEL ELEVATION      
EREF.M        564.185              : kb           - ELEVATION OF DEPTH REFERENCE
DATM.M        560.497              : datum        - DATUM ELEVATION             
TDD .M        513.893              : tdd          - TOTAL DEPTH DRILLER         
RUN .         ONE                  : Run          - RUN NUMBER                  
ENG .         BILL                 : Engineer     - RECORDING ENGINEER          
WIT .         JIM                  : Witness      - WITNESSED BY                
MUD .         GEL                  : Mud_type     - MUD TYPE                    
MATR.         SANDSTONE            : Logunit      - NEUTRON MATRIX              
TMAX.C        23.8889              : BHT          - MAXIMUM RECORDED TEMPERATURE
BHTD.M        513.893              : BHTDEP       - MAXIMUM RECORDED TEMPERATURE
RMT .C        18.8889              : MDTP         - TEMPERATURE OF MUD          
MUDD.KG/M     9900                 : MWT          - MUD DENSITY                 
NEUT.         1                    : NEUTRON      - NEUTRON TYPE                
RESI.         0                    : RESIST       - RESISTIVITY TYPE            
RM  .OHMM     3.74                 : RM           - RESISTIVITY OF MUD          
RMC .OHMM     1.86                 : RMC          - RESISTIVITY OF MUD CAKE     
RMF .OHMM     2.12                 : RMF          - RESISTIVITY OF MUD FILTRATE 
SUFT.C        -12.2222             : SUFT         - SURFACE TEMPERATURE         
~A  DEPTH     RESD     PHIN     PHID      CAL       GR
  335.280    5.853    0.442    0.205  160.496  107.752
  335.530    5.801    0.430    0.200  160.494  108.960
  335.780    5.697    0.431    0.204  159.463  110.774
  336.030    5.494    0.427    0.206  158.431  112.891
  336.280    5.347    0.430    0.204  157.399  117.732
  336.530    5.204    0.445    0.211  157.913  119.242
  336.780    5.157    0.447    0.227  162.550  121.359
  337.030    5.157    0.420    0.228  158.426  125.594
  337.280    5.111    0.399    0.211  154.302  126.501
  337.530    5.111    0.414    0.213  152.240  131.947
  337.780    5.111    0.422    0.208  156.361  138.300
  338.030    5.112    0.432    0.207  160.483  133.456
  338.280    5.112    0.428    0.199  164.089  121.649
  338.530    5.206    0.406    0.206  174.394  111.659
  338.780    5.447    0.396    0.203  166.663  112.867
  339.030    5.648    0.394    0.156  154.810  115.892
  339.280    5.804    0.397    0.136  155.839  118.311
  339.530    5.547    0.410    0.179  156.869  117.704
  339.780    5.113    0.426    0.203  156.867  117.096
  340.030    4.383    0.436    0.246  153.774  121.937
  340.280    3.826    0.463    0.227  162.018  131.015
  340.530    3.527    0.474    0.242  177.992  137.672
  340.780    3.527    0.486    0.249  175.414  139.486
  341.030    3.527    0.487    0.277  176.444  139.786
  341.280    3.560    0.499    0.291  175.927  136.455
  341.530    3.759    0.501    0.286  169.227  131.005
  341.780    4.041    0.491    0.271  163.042  125.554
  342.030    4.465    0.438    0.301  166.648  117.380
  342.280    4.889    0.430    0.240  168.193  109.206
  342.530    5.070    0.431    0.204  150.155  107.387
  342.780    5.209    0.446    0.210  153.246  107.083
  343.030    5.257    0.446    0.207  152.730  107.081
  343.280    5.257    0.440    0.211  150.152  104.052
  343.530    5.258    0.443    0.214  150.666  101.023
  343.780    5.306    0.443    0.212  150.665   98.902
  344.030    5.502    0.449    0.177  151.694  101.321
  344.280    5.603    0.448    0.147  155.816  106.465
  344.530    5.654    0.447    0.143  158.391  107.673
  344.780    5.654    0.446    0.154  158.905  109.789
  345.030    5.603    0.445    0.176  158.904  110.998
  345.280    5.553    0.440    0.184  158.388  113.417
  345.530    5.404    0.436    0.201  158.387  115.232
  345.780    5.260    0.443    0.187  158.385  115.835
  346.030    5.165    0.452    0.176  158.384  116.135
  346.280    5.073    0.470    0.170  158.898  116.133
  346.530    5.073    0.468    0.173  162.504  114.315
  346.780    5.073    0.465    0.191  165.080  110.378
  347.030    5.028    0.472    0.191  159.410  104.928
  347.280    5.028    0.471    0.202  155.802   99.175
  347.530    5.074    0.455    0.221  155.285   96.449
  347.780    5.214    0.445    0.233  153.223   98.565
  348.030    5.358    0.441    0.235  152.191  102.196
  348.280    5.358    0.445    0.232  153.736  105.220
  348.530    5.262    0.436    0.229  156.827  106.429
  348.780    5.121    0.440    0.214  157.856  107.032
  349.030    4.984    0.456    0.202  159.401  110.359
  349.280    4.895    0.444    0.218  161.461  111.871
  349.530    4.895    0.417    0.200  164.037  108.236
  349.780    5.030    0.396    0.219  161.459   99.457
  350.030    5.169    0.397    0.241  156.304   95.519
  350.280    5.360    0.404    0.244  158.364   95.215
  350.530    5.458    0.406    0.239  158.363   96.726
  350.780    5.508    0.407    0.234  156.816   97.632
  351.030    5.508    0.409    0.224  156.300   98.840
  351.280    5.361    0.415    0.214  156.298  101.865
  351.530    5.217    0.437    0.194  156.297  106.100
  351.780    4.986    0.434    0.202  157.327  108.217
  352.030    4.638    0.482    0.218  157.841  110.939
  352.280    4.236    0.530    0.217  158.871  115.477
  352.530    4.012    0.519    0.238  159.385  114.567
  352.780    3.940    0.495    0.217  158.868  113.657
  353.030    4.013    0.467    0.229  158.352  113.352
  353.280    4.315    0.458    0.222  157.320  107.902
  353.530    4.854    0.447    0.228  155.257  103.359
  353.780    5.267    0.421    0.230  153.710  101.239
  354.030    5.363    0.416    0.230  154.225   96.091
  354.280    5.315    0.428    0.231  154.739   83.074
  354.530    5.173    0.425    0.238  152.676   71.570
  354.780    5.034    0.400    0.267  150.099   62.488
  355.030    4.855    0.376    0.285  147.005   63.091
  355.280    4.557    0.401    0.283  146.489   63.694
  355.530    4.316    0.400    0.300  147.003   63.389
  355.780    4.088    0.403    0.297  147.517   63.085
  356.030    3.907    0.411    0.300  147.516   63.083
  356.280    3.734    0.410    0.307  146.484   63.081
  356.530    3.667    0.415    0.308  144.937   64.894
  356.780    3.569    0.421    0.307  144.421   65.498
  357.030    3.569    0.421    0.299  144.935   63.679
  357.280    3.537    0.417    0.302  145.964   61.256
  357.530    3.474    0.405    0.310  146.478   61.254
  357.780    3.412    0.406    0.310  145.447   62.463
  358.030    3.381    0.410    0.310  145.445   62.763
  358.280    3.381    0.410    0.305  145.960   64.577
  358.530    3.381    0.416    0.306  146.989   66.391
  358.780    3.351    0.412    0.312  148.019   65.481
  359.030    3.351    0.401    0.317  149.048   64.571
  359.280    3.321    0.403    0.322  150.077   65.477
  359.530    3.321    0.405    0.324  150.076   66.382
  359.780    3.321    0.407    0.316  149.560   66.985
  360.030    3.321    0.413    0.317  149.559   68.497
  360.280    3.322    0.420    0.323  149.557   70.614
  360.530    3.322    0.414    0.323  149.556   70.006
  360.780    3.322    0.406    0.319  149.555   68.490
  361.030    3.322    0.409    0.320  148.524   69.699
  361.280    3.292    0.430    0.322  148.007   69.092
  361.530    3.292    0.434    0.326  148.006   69.089
  361.780    3.263    0.427    0.332  148.520   70.298
  362.030    3.263    0.427    0.334  147.488   71.204
  362.280    3.263    0.437    0.327  147.487   71.807
  362.530    3.263    0.440    0.331  147.486   70.292
  362.780    3.234    0.441    0.334  146.454   69.381
  363.030    3.234    0.444    0.337  146.453   70.287
  363.280    3.234    0.446    0.345  146.967   70.285
  363.530    3.205    0.449    0.351  147.481   69.980
  363.780    3.205    0.458    0.354  147.480   69.676
  364.030    3.205    0.471    0.354  147.479   69.371
  364.280    3.235    0.469    0.344  147.993   69.672
  364.530    3.235    0.442    0.337  147.992   71.485
  364.780    3.235    0.444    0.337  148.506   70.273
  365.030    3.235    0.441    0.332  149.535   67.244
  365.280    3.235    0.415    0.324  149.534   66.031
  365.530    3.235    0.403    0.316  149.533   68.450
  365.780    3.236    0.404    0.323  149.532   69.659
  366.030    3.265    0.419    0.324  149.531   69.657
  366.280    3.265    0.425    0.319  149.529   68.746
  366.530    3.265    0.427    0.320  149.528   69.955
  366.780    3.325    0.431    0.323  149.527   69.650
  367.030    3.356    0.439    0.325  149.526   68.740
  367.280    3.386    0.452    0.327  149.525   70.554
  367.530    3.387    0.452    0.326  149.524   71.460
  367.780    3.387    0.446    0.321  149.007   69.339
  368.030    3.387    0.446    0.310  149.006   68.731
  368.280    3.387    0.455    0.315  148.490   69.638
  368.530    3.357    0.455    0.318  147.973   68.728
  368.780    3.357    0.452    0.315  147.457   66.909
  369.030    3.357    0.446    0.311  146.940   66.302
  369.280    3.357    0.446    0.310  146.424   67.813
  369.530    3.388    0.443    0.309  145.907   69.930
  369.780    3.419    0.439    0.306  145.906   72.046
  370.030    3.481    0.443    0.299  145.390   75.979
  370.280    3.577    0.438    0.284  145.388   75.674
  370.530    3.847    0.390    0.224  146.418   69.316
  370.780    4.447    0.292    0.186  147.963   61.142
  371.030    5.141    0.400    0.137  147.962   65.377
  371.280    5.283    0.444    0.266  147.445   68.401
  371.530    5.049    0.445    0.304  147.444   68.399
