~VERSION INFORMATION
 VERS.                 2.0:   CWLS LOG ASCII STANDARD -VERSION 2.0
 WRAP.                  NO:   ONE LINE PER DEPTH STEP
~WELL INFORMATION BLOCK
#MNEM.UNIT           DATA                    DESCRIPTION OF MNEMONIC
#---------    -------------------            -------------------------------
# Generated from Intellog Unique Number	CS_77_79/WELL/3299
WELL.         ATCOR LTD.                     : Well_name    - WELL
LOC .         00/08-34-077-13W4/0            : Location     - LOCATION
UWI .         00/08-34-077-13W4/0            : Uwi          - UNIQUE WELL ID
ENTR.         JO                             : Entered      - ENTERED BY
SRVC.         SCHLUMBERGER                   : Scn          - SERVICE COMPANY
DATE.         05/22/92                       : Date         - LOG DATE
STRT.M        270                            : top_depth    - START DEPTH
STOP.M        495                            : bot_depth    - STOP DEPTH
STEP.M        0.25                           : increment    - STEP LENGTH
 NULL. -999.2500:NULL Value
~CURVE INFORMATION BLOCK
#MNEM UNIT       ERCB CURVE CODE    CURVE DESCRIPTION
#-----------   ------------------   ----------------------------------
DEPT.M        00 001 00 00         : DEPTH        - DEPTH
GR  .API      00 310 00 00         : GR           - GAMMA RAY
NPHI.V/V      00 330 00 00         : PHIN         - NEUTRON POROSITY (SANDSTONE)
DPHI.V/V      00 890 00 00         : PHID         - DENSITY POROSITY (SANDSTONE)
ILD .OHMM     00 120 00 00         : RESD         - DEEP RESISTIVITY (DIL)
~PARAMETER INFORMATION
#MNEM.UNIT           DATA             DESCRIPTION OF MNEMONIC
#---------         -----------     ------------------------------
GL  .M        670.6                : gl           - GROUND LEVEL ELEVATION
EREF.M        674.2                : kb           - ELEVATION OF DEPTH REFERENCE
DATM.M        674.2                : datum        - DATUM ELEVATION
TDD .M        503                  : tdd          - TOTAL DEPTH DRILLER
RUN .         ONE                  : Run          - RUN NUMBER
ENG .         BILL                 : Engineer     - RECORDING ENGINEER
WIT .         JIM                  : Witness      - WITNESSED BY
MUD .         GEL                  : Mud_type     - MUD TYPE
MATR.         SANDSTONE            : Logunit      - NEUTRON MATRIX
TMAX.C        21                   : BHT          - MAXIMUM RECORDED TEMPERATURE
BHTD.M        503                  : BHTDEP       - MAXIMUM RECORDED TEMPERATURE
RMT .C        20                   : MDTP         - TEMPERATURE OF MUD
MUDD.KG/M     1130                 : MWT          - MUD DENSITY
NEUT.         1                    : NEUTRON      - NEUTRON TYPE
RESI.         0                    : RESIST       - RESISTIVITY TYPE
RM  .OHMM     4.81                 : RM           - RESISTIVITY OF MUD
RMC .OHMM     0                    : RMC          - RESISTIVITY OF MUD CAKE
RMF .OHMM     5.58                 : RMF          - RESISTIVITY OF MUD FILTRATE
SUFT.C        15                   : SUFT         - SURFACE TEMPERATURE
~A  DEPTH       GR     PHIN     PHID     RESD
# ...
  444.000   64.703    0.355    0.211    9.626
  444.250   64.205    0.328    0.237   11.190
  444.500   66.130    0.344    0.264   14.546
  444.750   71.138    0.369    0.280   16.922
  445.000   74.248    0.359    0.276   16.956
  445.250   80.415    0.348    0.263   14.938
  445.500   80.576    0.350    0.266   13.160
  445.750   81.288    0.386    0.273   10.976
  446.000   76.494    0.388    0.285   11.641
  446.250   71.781    0.387    0.281   12.552
  446.500   72.494    0.385    0.263   15.425
  446.750   75.025    0.372    0.209   20.049
  447.000   70.257    0.356    0.172   18.671
  447.250   61.881    0.323    0.124   16.767
  447.500   65.044    0.352    0.138   16.505
  447.750   82.725    0.371    0.188   18.152
  448.000  107.730    0.385    0.218   18.529
  448.250  117.559    0.391    0.214    9.368
  448.500  112.212    0.383    0.213    8.102
  448.750  107.445    0.378    0.206    7.545
  449.000   98.463    0.384    0.205    7.285
  449.250   85.818    0.378    0.217    7.310
  449.500   79.838    0.362    0.244    7.606
  449.750   78.760    0.349    0.263    8.212
  450.000   81.291    0.342    0.273    8.867
  450.250   86.852    0.346    0.266   10.119
  450.500   91.834    0.353    0.231   12.676
  450.750   93.153    0.356    0.190   14.201
  451.000   93.260    0.357    0.189   14.516
  451.250   77.558    0.351    0.199   13.770
  451.500   73.424    0.333    0.218   13.807
  451.750   71.107    0.312    0.228   14.624
  452.000   70.608    0.318    0.249   17.342
  452.250   67.685    0.325    0.223   20.524
  452.500   59.282    0.339    0.225   23.423
  452.750   55.753    0.366    0.285   28.276
  453.000   60.735    0.379    0.328   33.508
  453.250   67.534    0.386    0.306   37.541
  453.500   73.701    0.392    0.292   42.844
  453.750   79.868    0.370    0.267   45.411
  454.000   83.638    0.351    0.252   43.107
  454.250   90.410    0.365    0.239   38.659
  454.500   96.577    0.372    0.235   32.800
  454.750   99.135    0.365    0.252   24.923
  455.000   85.305    0.366    0.242   22.784
  455.250   81.776    0.355    0.218   18.288
  455.500   78.826    0.340    0.190   15.838
  455.750   79.540    0.331    0.161   15.294
  456.000   83.282    0.326    0.114   15.346
  456.250   81.572    0.327    0.208   15.664
  456.500   76.225    0.329    0.202   14.587
  456.750   73.908    0.330    0.195   13.091
  457.000   72.803    0.329    0.197   12.418
  457.250   71.699    0.326    0.206   12.460
  457.500   71.173    0.329    0.210   12.710
  457.750   68.277    0.326    0.207   13.480
  458.000   68.384    0.320    0.263   14.826
  458.250   70.888    0.311    0.241   16.306
  458.500   77.688    0.312    0.220   16.656
  458.750   82.037    0.325    0.207   14.947
  459.000   88.230    0.350    0.190   13.655
  459.250   83.463    0.340    0.200   12.962
  459.500   69.000    0.321    0.256   12.989
  459.750   63.653    0.305    0.263   14.572
  460.000   64.366    0.294    0.255   16.026
  460.250   63.894    0.277    0.255   18.291
  460.500   59.127    0.251    0.261   19.735
  460.750   53.780    0.239    0.345   23.387
  461.000   51.437    0.209    0.346   26.201
  461.250   48.514    0.224    0.375   28.837
  461.500   51.705    0.249    0.353   29.434
  461.750   60.874    0.260    0.333   30.065
  462.000   67.095    0.254    0.303   27.504
  462.250   63.539    0.246    0.287   25.126
  462.500   61.222    0.234    0.369   20.181
  462.750   66.177    0.237    0.312   18.449
  463.000   72.371    0.276    0.281   17.513
  463.250   72.478    0.319    0.259   16.935
  463.500   73.824    0.321    0.256   16.353
  463.750   77.593    0.318    0.257   15.802
  464.000   79.465    0.340    0.226   15.249
  464.250   68.638    0.358    0.207   14.210
  464.500   54.808    0.355    0.234   14.515
  464.750   53.070    0.358    0.262   15.964
  465.000   50.753    0.343    0.261   17.885
  465.250   50.254    0.321    0.258   18.268
  465.500   45.541    0.358    0.286   13.133
  465.750   43.803    0.374    0.325   11.350
  466.000   45.149    0.368    0.321    9.636
  466.250   45.229    0.362    0.319    8.660
  466.500   39.277    0.376    0.324    8.833
  466.750   41.228    0.376    0.345    9.550
  467.000   45.550    0.372    0.338    9.741
  467.250   52.377    0.367    0.331   11.536
  467.500   51.851    0.359    0.323   18.053
  467.750   45.898    0.353    0.324   21.379
  468.000   49.641    0.364    0.340   33.455
  468.250   54.017    0.366    0.335   36.097
  468.500   55.942    0.361    0.329   43.545
  468.750   56.022    0.366    0.322   54.584
  469.000   42.798    0.383    0.315   56.794
  469.250   41.061    0.375    0.332   59.093
  469.500   39.350    0.369    0.339   63.802
  469.750   40.669    0.362    0.335   70.124
  470.000   42.621    0.367    0.330   83.101
  470.250   42.755    0.369    0.333  134.850
  470.500   41.650    0.365    0.335  142.928
  470.750   42.363    0.365    0.337  130.662
  471.000   45.500    0.359    0.342  124.031
  471.250   46.792    0.360    0.343  134.006
  471.500   40.233    0.368    0.336  144.488
  471.750   34.281    0.356    0.323  158.912
  472.000   33.782    0.350    0.330  168.546
  472.250   36.919    0.369    0.343  156.956
  472.500   40.662    0.377    0.344   88.603
  472.750   45.643    0.369    0.333   66.093
  473.000   49.992    0.370    0.314   60.420
  473.250   47.675    0.390    0.305   57.354
  473.500   44.200    0.385    0.316   58.583
  473.750   42.436    0.377    0.324   62.093
  474.000   40.092    0.369    0.330   69.519
  474.250   37.170    0.366    0.333   90.424
  474.500   39.701    0.370    0.338  103.198
  474.750   41.020    0.375    0.334  113.424
  475.000   38.124    0.381    0.330  129.534
  475.250   38.837    0.385    0.335  132.399
  475.500   38.944    0.380    0.338  120.954
  475.750   37.812    0.374    0.333  112.561
  476.000   36.102    0.365    0.330  108.917
  476.250   33.206    0.363    0.330  107.139
  476.500   30.916    0.367    0.330  105.391
  476.750   30.363    0.369    0.333  105.749
  477.000   28.652    0.361    0.343  114.253
  477.250   28.180    0.356    0.358  121.015
  477.500   30.738    0.358    0.357  130.835
  477.750   32.004    0.366    0.347  136.041
  478.000   34.588    0.378    0.333  126.600
  478.250   36.486    0.392    0.336   86.039
  478.500   36.620    0.414    0.334   73.147
  478.750   30.008    0.424    0.330   71.904
  479.000   33.172    0.411    0.337   70.779
  479.250   42.368    0.389    0.348   67.142
  479.500   49.774    0.395    0.349   54.934
  479.750   60.209    0.382    0.314   33.414
  480.000   70.644    0.357    0.303   27.320
  480.250   75.599    0.356    0.279   21.542
  480.500   52.020    0.387    0.244   18.289
  480.750   38.796    0.438    0.242   15.817
  481.000   34.055    0.457    0.295   13.174
  481.250   32.318    0.434    0.309   11.394
  481.500   34.270    0.400    0.318   13.493
  481.750   39.830    0.381    0.330   17.539
  482.000   47.209    0.371    0.328   22.364
  482.250   57.644    0.380    0.294   28.538
  482.500   65.050    0.380    0.272   34.450
  482.750   67.607    0.375    0.252   38.596
  483.000   59.177    0.376    0.264    9.302
  483.250   44.135    0.382    0.308    6.934
  483.500   38.156    0.379    0.338    5.673
  483.750   43.717    0.377    0.350    4.731
  484.000   58.421    0.374    0.315    4.572
  484.250   62.770    0.395    0.305    4.757
  484.500   65.327    0.390    0.286    5.039
  484.750   60.560    0.371    0.294    5.967
  485.000   64.935    0.345    0.294    7.756
  485.250   71.708    0.364    0.278    8.702
  485.500   77.875    0.381    0.248    8.713
  485.750   77.376    0.359    0.240    8.120
  486.000   72.056    0.372    0.219    7.561
  486.250   76.378    0.395    0.218    7.307
  486.500   84.996    0.389    0.218    7.468
  486.750   90.556    0.370    0.212    7.478
  487.000   93.747    0.385    0.204    7.504
  487.250   96.857    0.392    0.193    7.251
