~VERSION INFORMATION
 VERS.                 2.0:   CWLS LOG ASCII STANDARD -VERSION 2.0
 WRAP.                  NO:   ONE LINE PER DEPTH STEP
~WELL INFORMATION BLOCK
#MNEM.UNIT           DATA                    DESCRIPTION OF MNEMONIC
#---------    -------------------            -------------------------------
# Generated from Intellog Unique Number	CW_82_90/WELL/528
WELL.         06-19-083-22W4                 : Well_name    - WELL
LOC .         00/06-19-083-22W4/0            : Location     - LOCATION
UWI .         00/06-19-083-22W4/0            : Uwi          - UNIQUE WELL ID
ENTR.         JAYE                           : Entered      - ENTERED BY
SRVC.         SCHLUMBERGER                   : Scn          - SERVICE COMPANY
DATE.         11 FEB 86                      : Date         - LOG DATE
STRT.M        220                            : top_depth    - START DEPTH
STOP.M        435                            : bot_depth    - STOP DEPTH
STEP.M        0.25                           : increment    - STEP LENGTH
 NULL. -999.2500:NULL Value
~CURVE INFORMATION BLOCK
#MNEM UNIT       ERCB CURVE CODE    CURVE DESCRIPTION
#-----------   ------------------   ----------------------------------
DEPT.M        00 001 00 00         : DEPTH        - DEPTH
CALI.MM       00 280 01 00         : CAL          - CALIPER
GR  .API      00 310 00 00         : GR           - GAMMA RAY
NPHI.V/V      00 330 00 00         : PHIN         - NEUTRON POROSITY (SANDSTONE)
DPHI.V/V      00 890 00 00         : PHID         - DENSITY POROSITY (SANDSTONE)
ILD .OHMM     00 120 00 00         : RESD         - DEEP RESISTIVITY (DIL)
~PARAMETER INFORMATION
#MNEM.UNIT           DATA             DESCRIPTION OF MNEMONIC
#---------         -----------     ------------------------------
GL  .M        606.8                : gl           - GROUND LEVEL ELEVATION
EREF.M        610.4                : kb           - ELEVATION OF DEPTH REFERENCE
DATM.M        606.8                : datum        - DATUM ELEVATION
TDD .M        435                  : tdd          - TOTAL DEPTH DRILLER
RUN .         ONE                  : Run          - RUN NUMBER
ENG .         LAROSE               : Engineer     - RECORDING ENGINEER
WIT .         BLOTT                : Witness      - WITNESSED BY
BASE.         EDMONTON             : Branch       - HOME BASE OF LOGGING UNIT
MUD .         GEL CHEM             : Mud_type     - MUD TYPE
MATR.         SANDSTONE            : Logunit      - NEUTRON MATRIX
TMAX.C        46                   : BHT          - MAXIMUM RECORDED TEMPERATURE
BHTD.M        435                  : BHTDEP       - MAXIMUM RECORDED TEMPERATURE
RMT .C        18                   : MDTP         - TEMPERATURE OF MUD
MUDD.KG/M     1100                 : MWT          - MUD DENSITY
NEUT.         1                    : NEUTRON      - NEUTRON TYPE
RESI.         0                    : RESIST       - RESISTIVITY TYPE
RM  .OHMM     6.69                 : RM           - RESISTIVITY OF MUD
RMC .OHMM     0                    : RMC          - RESISTIVITY OF MUD CAKE
RMF .OHMM     8.7                  : RMF          - RESISTIVITY OF MUD FILTRATE
SUFT.C        0                    : SUFT         - SURFACE TEMPERATURE
~A  DEPTH      CAL       GR     PHIN     PHID     RESD
# ...
  256.500  250.824   51.430    0.421    0.355   29.244
  256.750  248.516   49.358    0.454    0.356   28.453
  257.000  247.143   49.349    0.456    0.357   27.480
  257.250  246.504   51.338    0.461    0.359   26.988
  257.500  246.065   52.705    0.474    0.366   26.409
  257.750  245.739   53.881    0.491    0.371   25.887
  258.000  245.412   53.684    0.495    0.376   25.715
  258.250  244.561   52.925    0.460    0.375   26.080
  258.500  244.439   51.603    0.446    0.374   26.255
  258.750  244.734   50.655    0.452    0.377   26.833
  259.000  245.243   50.270    0.464    0.379   27.053
  259.250  246.464   51.448    0.469    0.377   27.384
  259.500  246.667   52.811    0.470    0.376   27.463
  259.750  247.483   52.428    0.451    0.370   27.280
  260.000  248.609   49.980    0.453    0.367   27.250
  260.250  249.630   49.784    0.466    0.366   27.120
  260.500  250.557   51.148    0.460    0.356   26.388
  260.750  251.790   52.826    0.454    0.328   25.243
  261.000  251.790   53.629    0.451    0.339   24.887
  261.250  254.667   53.305    0.460    0.356   24.911
  261.500  254.869   52.920    0.458    0.368   25.314
  261.750  255.890   52.849    0.437    0.368   25.522
  262.000  256.398   53.464    0.442    0.361   26.136
  262.250  257.726   55.579    0.437    0.356   26.706
  262.500  257.819   53.757    0.441    0.354   27.134
  262.750  258.532   53.247    0.439    0.354   27.462
  263.000  258.417   55.924    0.431    0.355   27.907
  263.250  257.974   59.289    0.417    0.356   27.928
  263.500  257.550   62.217    0.417    0.359   27.592
  263.750  256.073   62.832    0.426    0.361   27.150
  264.000  253.135   59.886    0.438    0.362   26.614
  264.250  252.396   55.625    0.445    0.361   26.092
  264.500  251.231   53.114    0.444    0.356   26.014
  264.750  251.231   53.979    0.444    0.347   25.941
  265.000  248.487   55.157    0.453    0.344   26.016
  265.250  248.163   53.584    0.465    0.346   26.135
  265.500  247.625   52.575    0.481    0.351   26.457
  265.750  247.295   52.251    0.465    0.357   27.082
  266.000  247.384   52.555    0.453    0.359   27.833
  266.250  246.636   52.421    0.442    0.354   28.657
  266.500  246.619   51.098    0.432    0.354   30.235
  266.750  246.607   49.526    0.446    0.355   33.005
  267.000  246.902   47.266    0.464    0.363   36.365
  267.250  248.031   43.757    0.468    0.364   41.456
  267.500  249.576   41.997    0.488    0.364   47.976
  267.750  250.811   43.111    0.486    0.364   71.474
  268.000  252.876   44.415    0.477    0.365   91.233
  268.250  254.735   45.778    0.440    0.369  100.906
  268.500  256.491   45.207    0.368    0.368  103.516
  268.750  259.178   44.508    0.314    0.367  100.898
  269.000  260.417   44.062    0.289    0.371   95.795
  269.250  262.169   43.428    0.280    0.341   94.621
  269.500  262.883   44.477    0.259    0.287  104.063
  269.750  262.034   44.969    0.214    0.123  150.720
  270.000  260.559   44.710    0.204    0.072  144.186
  270.250  257.210   46.013    0.201    0.074  120.416
  270.500  253.131   47.564    0.218    0.120  101.524
  270.750  250.301   47.993    0.279    0.263   95.121
  271.000  249.347   48.231    0.344    0.390   89.644
  271.250  249.330   48.911    0.369    0.389   80.270
  271.500  249.728   50.714    0.398    0.393   67.934
  271.750  250.542   51.141    0.423    0.394   44.819
  272.000  251.258   48.319    0.443    0.387   30.365
  272.250  252.178   48.122    0.446    0.380   27.708
  272.500  252.995   49.736    0.442    0.375   26.312
  272.750  253.396   50.788    0.441    0.373   25.550
  273.000  254.004   50.092    0.459    0.372   24.955
  273.250  255.132   48.892    0.464    0.371   24.699
  273.500  255.741   48.510    0.455    0.374   24.811
  273.750  255.832   48.499    0.460    0.376   25.161
  274.000  255.813   49.239    0.479    0.379   24.853
  274.250  256.316   50.418    0.458    0.387   23.729
  274.500  256.409   52.219    0.458    0.381   23.306
  274.750  256.287   52.585    0.445    0.374   23.155
  275.000  253.666   52.513    0.450    0.373   23.346
  275.250  253.442   53.877    0.453    0.375   25.436
  275.500  253.837   58.180    0.455    0.379   29.659
  275.750  253.823   62.857    0.468    0.381   29.462
  276.000  252.765   61.286    0.479    0.382   29.380
  276.250  252.959   56.713    0.473    0.377   28.317
  276.500  253.044   54.953    0.415    0.307   25.261
  276.750  253.646   54.877    0.329    0.182   19.640
  277.000  253.639   54.995    0.330    0.163   19.845
  277.250  252.993   54.986    0.359    0.271   19.566
  277.500  252.773   54.102    0.485    0.352   18.820
  277.750  252.958   57.029    0.475    0.383   17.633
  278.000  253.360   55.081    0.461    0.386   16.335
  278.250  253.760   52.321    0.477    0.383   15.804
  278.500  254.056   52.749    0.487    0.379   15.818
  278.750  254.353   55.614    0.501    0.376   17.042
  279.000  255.169   56.354    0.475    0.376   16.864
  279.250  255.569   55.969    0.447    0.367   16.255
  279.500  255.657   57.521    0.472    0.346   15.521
  279.750  255.435   56.637    0.462    0.345   14.794
  280.000  255.211   55.502    0.450    0.349   14.804
  280.250  254.985   55.054    0.448    0.362   17.523
  280.500  254.867   55.232    0.440    0.370   19.787
  280.750  254.956   55.659    0.433    0.367   18.435
  281.000  255.350   55.901    0.434    0.363   17.537
  281.250  255.440   55.453    0.460    0.366   17.617
  281.500  255.322   55.316    0.464    0.368   17.869
  281.750  255.322   56.183    0.460    0.369   18.023
  282.000  251.740   58.298    0.473    0.369   18.035
  282.250  250.585   59.100    0.464    0.371   17.782
  282.500  248.481   58.028    0.465    0.372   17.301
  282.750  247.735   57.706    0.449    0.371   16.738
  283.000  247.092   58.633    0.446    0.365   16.010
  283.250  247.280   60.060    0.453    0.345   15.815
  283.500  247.061   60.989    0.459    0.344   15.244
  283.750  247.660   62.353    0.468    0.350   14.068
  284.000  248.170   64.907    0.476    0.351   11.508
  284.250  248.369   71.147    0.490    0.339    8.846
  284.500  248.038   77.575    0.488    0.334    6.536
  284.750  248.854   83.628    0.472    0.341    3.851
  285.000  249.776   81.618    0.473    0.345    3.449
  285.250  249.971   82.670    0.488    0.335    3.225
  285.500  247.970   82.722    0.511    0.317    3.259
  285.750  246.500   80.150    0.524    0.303    3.368
  286.000  245.339   77.766    0.515    0.291    3.669
  286.250  244.175   73.380    0.508    0.296    4.074
  286.500  243.847   73.308    0.497    0.291    4.706
  286.750  245.911   75.424    0.478    0.278    5.344
  287.000  247.975   76.413    0.462    0.269    5.566
  287.250  249.212   76.279    0.456    0.279    5.466
  287.500  250.031   75.267    0.471    0.286    5.348
  287.750  250.844   75.572    0.472    0.280    5.334
  288.000  250.618   73.936    0.478    0.266    5.409
  288.250  250.813   72.551    0.477    0.249    5.527
  288.500  251.317   72.853    0.475    0.238    5.691
  288.750  251.509   71.093    0.483    0.245    5.760
  289.000  251.703   68.896    0.512    0.260    5.701
  289.250  251.894   65.823    0.493    0.275    5.684
  289.500  252.188   63.377    0.478    0.282    6.111
  289.750  252.485   60.242    0.475    0.284    7.413
  290.000  252.674   58.794    0.474    0.289    8.482
  290.250  252.968   57.034    0.475    0.294    9.799
  290.500  252.853   54.088    0.484    0.301   10.836
  290.750  252.731   50.702    0.478    0.313   12.237
  291.000  251.670   49.005    0.472    0.317   14.405
  291.250  250.095   49.745    0.463    0.312   16.733
  291.500  247.160   53.172    0.462    0.305   18.404
  291.750  245.999   54.976    0.456    0.306   18.876
  292.000  250.557   54.902    0.453    0.312   18.751
  292.250  251.592   53.829    0.463    0.321   18.451
  292.500  253.756   54.258    0.450    0.321   18.021
  292.750  253.756   55.560    0.448    0.318   17.368
