~VERSION INFORMATION
 VERS.                 2.0:   CWLS LOG ASCII STANDARD -VERSION 2.0
 WRAP.                  NO:   ONE LINE PER DEPTH STEP
~WELL INFORMATION BLOCK
#MNEM.UNIT           DATA                    DESCRIPTION OF MNEMONIC
#---------    -------------------            -------------------------------
# Generated from Intellog Unique Number	CS_69_70/WELL/771
NULL.         -999.25                        : NULL_VALUE
WELL.         SULPETRO LIMITED               : Well_name    - WELL              
LOC .         00/06-16-070-09W4/0            : Location     - LOCATION          
UWI .         00/06-16-070-09W4/0            : Uwi          - UNIQUE WELL ID    
ENTR.         SP                             : Entered      - ENTERED BY        
SRVC.         SCHLUMBERGER                   : Scn          - SERVICE COMPANY   
STRT.M        260                            : top_depth    - START DEPTH       
STOP.M        480                            : bot_depth    - STOP DEPTH        
STEP.M        0.25                           : increment    - STEP LENGTH       
~CURVE INFORMATION BLOCK
#MNEM UNIT       ERCB CURVE CODE    CURVE DESCRIPTION
#-----------   ------------------   ----------------------------------
DEPT.M        00 001 00 00         : DEPTH        - DEPTH                       
ILD .OHMM     00 120 00 00         : RESD         - DEEP RESISTIVITY (DIL)      
DPHI.V/V      00 890 00 00         : PHID         - DENSITY POROSITY (LIMESTONE)
NPHI.V/V      00 330 00 00         : PHIN         - NEUTRON POROSITY (LIMESTONE)
GR  .API      00 310 00 00         : GR           - GAMMA RAY                   
~PARAMETER INFORMATION       
#MNEM.UNIT           DATA             DESCRIPTION OF MNEMONIC
#---------         -----------     ------------------------------
GL  .M        600.87               : gl           - GROUND LEVEL ELEVATION      
EREF.M        603.87               : kb           - ELEVATION OF DEPTH REFERENCE
DATM.M        600.87               : datum        - DATUM ELEVATION             
TDD .M        489                  : tdd          - TOTAL DEPTH DRILLER         
RUN .         ONE                  : Run          - RUN NUMBER                  
ENG .         BILL                 : Engineer     - RECORDING ENGINEER          
WIT .         JIM                  : Witness      - WITNESSED BY                
MUD .         GEL                  : Mud_type     - MUD TYPE                    
MATR.         LIMESTONE            : Logunit      - NEUTRON MATRIX              
TMAX.C        22                   : BHT          - MAXIMUM RECORDED TEMPERATURE
BHTD.M        489                  : BHTDEP       - MAXIMUM RECORDED TEMPERATURE
MATR.         1                    : LOGUNIT      - NEUTRON MATRIX              
RMT .C        25                   : MDTP         - TEMPERATURE OF MUD          
NEUT.         1                    : NEUTRON      - NEUTRON TYPE                
RESI.         0                    : RESIST       - RESISTIVITY TYPE            
RMC .OHMM     0.25                 : RMC          - RESISTIVITY OF MUD CAKE     
RMF .OHMM     0.25                 : RMF          - RESISTIVITY OF MUD FILTRATE 
SUFT.C        15                   : SUFT         - SURFACE TEMPERATURE         
~A  DEPTH     RESD     PHID     PHIN       GR
# ...
  347.000    9.380    0.332    0.452   60.119
  347.250    9.365    0.331    0.438   57.907
  347.500    9.333    0.331    0.425   55.264
  347.750    9.318    0.330    0.415   57.684
  348.000    9.321    0.330    0.407   59.427
  348.250    9.323    0.330    0.409   59.439
  348.500    9.326    0.330    0.414   58.651
  348.750    9.310    0.331    0.426   57.372
  349.000    9.279    0.334    0.423   56.457
  349.250    9.280    0.336    0.421   56.100
  349.500    9.248    0.330    0.440   56.479
  349.750    9.268    0.323    0.446   57.419
  350.000    9.253    0.323    0.438   58.481
  350.250    9.238    0.327    0.430   59.731
  350.500    9.241    0.329    0.412   59.985
  350.750    9.227    0.329    0.437   59.319
  351.000    9.230    0.331    0.443   58.035
  351.250    9.231    0.335    0.425   57.985
  351.500    9.234    0.339    0.422   58.807
  351.750    9.254    0.334    0.431   57.148
  352.000    9.274    0.328    0.427   56.604
  352.250    9.295    0.329    0.409   55.753
  352.500    9.297    0.337    0.397   55.209
  352.750    9.282    0.341    0.403   54.727
  353.000    9.267    0.336    0.403   54.551
  353.250    9.252    0.324    0.420   54.256
  353.500    9.291    0.320    0.423   53.900
  353.750    9.310    0.316    0.440   53.971
  354.000    9.330    0.319    0.436   54.048
  354.250    9.386    0.321    0.428   54.183
  354.500    9.805    0.325    0.425   54.752
  354.750    9.807    0.326    0.435   56.124
  355.000    9.847    0.329    0.428   57.741
  355.250    9.869    0.330    0.421   58.743
  355.500    9.928    0.331    0.409   57.459
  355.750    9.912    0.332    0.401   56.296
  356.000    9.933    0.335    0.395   56.124
  356.250    9.880    0.339    0.403   55.707
  356.500    9.846    0.338    0.411   55.039
  356.750    9.829    0.334    0.398   54.743
  357.000    9.870    0.329    0.390   55.432
  357.250    9.910    0.328    0.418   58.104
  357.500    9.950    0.329    0.445   60.092
  357.750    9.954    0.330    0.463   61.092
  358.000    9.994    0.331    0.471   59.375
  358.250    9.978    0.332    0.453   58.090
  358.500    9.981    0.332    0.443   57.857
  358.750    9.945    0.331    0.437   57.872
  359.000    9.854    0.332    0.419   58.067
  359.250    9.765    0.335    0.401   58.513
  359.500    9.749    0.342    0.384   58.650
  359.750    9.715    0.347    0.380   58.969
  360.000    9.699    0.352    0.389   59.106
  360.250    9.593    0.351    0.378   57.451
  360.500    9.471    0.342    0.371   56.165
  360.750    9.401    0.335    0.379   55.066
  361.000    9.351    0.333    0.389   57.055
  361.250    9.318    0.337    0.432   58.180
  361.500    9.268    0.341    0.487   58.811
  361.750    9.200    0.345    0.498   58.207
  362.000    9.204    0.341    0.455   57.108
  362.250    9.188    0.336    0.435   55.884
  362.500    9.174    0.333    0.429   55.154
  362.750    9.160    0.338    0.414   54.488
  363.000    9.161    0.344    0.419   55.179
  363.250    9.181    0.345    0.404   57.418
  363.500    9.184    0.341    0.385   58.912
  363.750    9.169    0.338    0.365   60.407
  364.000    9.120    0.338    0.375   60.420
  364.250    9.071    0.344    0.389   58.704
  364.500    9.040    0.341    0.422   55.812
  364.750    8.992    0.339    0.428   53.291
  365.000    8.909    0.343    0.407   51.079
  365.250    8.646    0.346    0.432   48.558
  365.500    8.312    0.333    0.369   55.120
  365.750    7.931    0.314    0.350   69.466
  366.000    7.597    0.285    0.360   86.594
  366.250    7.262    0.256    0.379   95.873
  366.500    6.929    0.225    0.392  100.397
  366.750    6.574    0.214    0.391  102.139
  367.000    6.321    0.212    0.388  103.514
  367.250    6.123    0.210    0.379  103.585
  367.500    6.010    0.207    0.364  101.807
  367.750    5.945    0.205    0.342   99.471
  368.000    5.912    0.198    0.342   96.085
  368.250    5.825    0.194    0.361   99.001
  368.500    5.750    0.192    0.380  101.115
  368.750    5.498    0.204    0.448  101.005
  369.000    5.295    0.212    0.500  100.524
  369.250    5.081    0.215    0.441  100.164
  369.500    4.677    0.201    0.398  100.055
  369.750    4.177    0.194    0.381  102.727
  370.000    3.824    0.200    0.389  104.469
  370.250    3.520    0.212    0.381  105.838
  370.500    3.234    0.217    0.366  108.322
  370.750    3.040    0.213    0.371  110.188
  371.000    2.922    0.211    0.405  109.396
  371.250    2.951    0.207    0.431  107.927
  371.500    3.048    0.198    0.401  109.730
  371.750    3.172    0.202    0.380  113.635
  372.000    3.461    0.210    0.414  115.624
  372.250    3.805    0.219    0.455  115.205
  372.500    4.127    0.227    0.482  109.101
  372.750    4.572    0.233    0.495  103.367
  373.000    4.885    0.239    0.476   97.512
  373.250    5.251    0.232    0.424   94.249
  373.500    5.475    0.214    0.400   96.115
  373.750    5.644    0.198    0.402  101.564
  374.000    5.830    0.187    0.421  101.764
  374.250    5.954    0.194    0.405   95.967
  374.500    5.955    0.216    0.398   92.026
  374.750    5.726    0.233    0.418   87.467
  375.000    5.546    0.256    0.444   89.518
  375.250    5.403    0.261    0.462   92.991
  375.500    5.344    0.252    0.446   91.708
  375.750    5.397    0.258    0.449   87.209
  376.000    5.428    0.270    0.449   84.194
  376.250    5.856    0.280    0.425   81.920
  376.500    5.969    0.289    0.406   80.204
  376.750    6.130    0.302    0.387   78.672
  377.000    6.225    0.307    0.401   77.387
  377.250    6.310    0.293    0.426   76.659
  377.500    6.372    0.288    0.422   78.339
  377.750    6.385    0.296    0.421   81.132
  378.000    6.436    0.298    0.427   84.604
  378.250    6.450    0.285    0.437   89.992
  378.500    6.440    0.266    0.433   94.452
  378.750    6.418    0.245    0.400   98.110
  379.000    6.347    0.231    0.383   98.246
  379.250    6.288    0.232    0.387   95.170
  379.500    6.080    0.237    0.395   92.588
  379.750    6.047    0.236    0.393   92.106
  380.000    6.072    0.232    0.380   93.788
  380.250    6.120    0.229    0.353   94.665
  380.500    6.274    0.230    0.331   95.358
  380.750    6.492    0.236    0.342   95.804
  381.000    7.300    0.238    0.455   96.618
  381.250    8.687    0.235    0.496   96.939
  381.500    9.861    0.233    0.454   88.797
  381.750   10.400    0.188    0.141   80.529
  382.000   10.305    0.028    0.126   69.297
  382.250    8.930    0.012    0.170   64.553
  382.500    7.594    0.075    0.272   73.648
  382.750    6.519    0.140    0.355   80.210
  383.000    5.922    0.200    0.384   86.833
  383.250    5.629    0.236    0.379   92.776
  383.500    5.589    0.236    0.394   95.695
  383.750    5.622    0.221    0.413   98.794
  384.000    5.666    0.212    0.424  102.144
  384.250    5.722    0.204    0.431  103.701
  384.500    5.767    0.201    0.436  100.192
  384.750    5.823    0.202    0.428   97.919
  385.000    5.848    0.207    0.409   97.560
  385.250    5.805    0.212    0.400   98.501
  385.500    5.741    0.210    0.395   99.809
  385.750    5.635    0.206    0.392   99.451
  386.000    5.500    0.205    0.423   99.157
  386.250    5.429    0.203    0.451  100.033
  386.500    5.359    0.203    0.450  101.468
  386.750    5.341    0.202    0.435  101.849
  387.000    5.312    0.199    0.418  101.183
  387.250    5.324    0.196    0.404   98.973
  387.500    5.285    0.202    0.389   97.874
  387.750    5.256    0.206    0.382   97.514
  388.000    5.130    0.207    0.410   98.577
  388.250    4.813    0.211    0.399  100.694
  388.500    4.584    0.213    0.358  102.746
  388.750    4.382    0.211    0.343  103.497
  389.000    4.142    0.209    0.367  104.192
  389.250    3.982    0.209    0.385  103.954
  389.500    3.821    0.212    0.403  102.854
  389.750    3.666    0.216    0.393  104.412
  390.000    3.459    0.218    0.400  105.967
  390.250    3.307    0.220    0.416  106.784
