~VERSION INFORMATION
 VERS.                 2.0:   CWLS LOG ASCII STANDARD -VERSION 2.0
 WRAP.                  NO:   ONE LINE PER DEPTH STEP
~WELL INFORMATION BLOCK
#MNEM.UNIT           DATA                    DESCRIPTION OF MNEMONIC
#---------    -------------------            -------------------------------
# Generated from Intellog Unique Number	CS_73_76/WELL/3218
WELL.         CANADIAN OCCIDENTAL            : Well_name    - WELL
LOC .         00/08-24-076-02W4/0            : Location     - LOCATION
UWI .         00/08-24-076-02W4/0            : Uwi          - UNIQUE WELL ID
ENTR.         SP                             : Entered      - ENTERED BY
SRVC.         SCHLUMBERGER                   : Scn          - SERVICE COMPANY
STRT.M        237.744                        : top_depth    - START DEPTH
STOP.M        524.244                        : bot_depth    - STOP DEPTH
STEP.M        0.25                           : increment    - STEP LENGTH
 NULL. -999.2500:NULL Value
~CURVE INFORMATION BLOCK
#MNEM UNIT       ERCB CURVE CODE    CURVE DESCRIPTION
#-----------   ------------------   ----------------------------------
DEPT.M        00 001 00 00         : DEPTH        - DEPTH
DPHI.V/V      00 890 00 00         : PHID         - DENSITY POROSITY (SANDSTONE)
NPHI.V/V      00 330 00 00         : PHIN         - NEUTRON POROSITY (SANDSTONE)
ILD .OHMM     00 120 00 00         : RESD         - DEEP RESISTIVITY (DIL)
GR  .API      00 310 00 00         : GR           - GAMMA RAY
~PARAMETER INFORMATION
#MNEM.UNIT           DATA             DESCRIPTION OF MNEMONIC
#---------         -----------     ------------------------------
GL  .M        630.326              : gl           - GROUND LEVEL ELEVATION
EREF.M        633.832              : kb           - ELEVATION OF DEPTH REFERENCE
DATM.M        630.326              : datum        - DATUM ELEVATION
TDD .M        536.143              : tdd          - TOTAL DEPTH DRILLER
RUN .         ONE                  : Run          - RUN NUMBER
ENG .         BILL                 : Engineer     - RECORDING ENGINEER
WIT .         JIM                  : Witness      - WITNESSED BY
MUD .         GEL                  : Mud_type     - MUD TYPE
MATR.         SANDSTONE            : Logunit      - NEUTRON MATRIX
TMAX.C        22.2222              : BHT          - MAXIMUM RECORDED TEMPERATURE
BHTD.M        536.143              : BHTDEP       - MAXIMUM RECORDED TEMPERATURE
MATR.         1                    : LOGUNIT      - NEUTRON MATRIX
RMT .C        25                   : MDTP         - TEMPERATURE OF MUD
NEUT.         1                    : NEUTRON      - NEUTRON TYPE
RESI.         0                    : RESIST       - RESISTIVITY TYPE
RMC .OHMM     0.25                 : RMC          - RESISTIVITY OF MUD CAKE
RMF .OHMM     0.25                 : RMF          - RESISTIVITY OF MUD FILTRATE
SUFT.C        15                   : SUFT         - SURFACE TEMPERATURE
~A  DEPTH     PHID     PHIN     RESD       GR
# ...
  498.744    0.215    0.320    3.908   45.873
  498.994    0.235    0.338    3.787   50.622
  499.244    0.229    0.370    3.918   57.956
  499.494    0.206    0.392    3.934   68.227
  499.744    0.225    0.469    3.938   79.368
  499.994    0.206    0.501    3.938   97.076
  500.244    0.191    0.507    3.936   98.364
  500.494    0.207    0.531    3.936   92.781
  500.744    0.220    0.562    3.859   92.056
  500.994    0.221    0.560    3.846   93.843
  501.244    0.214    0.556    3.796   93.974
  501.494    0.208    0.552    3.795   94.672
  501.744    0.206    0.541    3.793   95.228
  501.994    0.204    0.532    3.859   94.637
  502.244    0.208    0.524    3.858   95.295
  502.494    0.214    0.534    3.946   97.519
  502.744    0.222    0.573    3.872   98.439
  502.994    0.207    0.589    3.947   99.114
  503.244    0.210    0.561    3.938   96.666
  503.494    0.216    0.555    3.943   96.204
  503.744    0.229    0.568    3.840   95.497
  503.994    0.211    0.572    3.728   94.932
  504.244    0.211    0.563    3.573   93.313
  504.494    0.212    0.558    3.432   92.450
  504.744    0.216    0.567    3.338   92.496
  504.994    0.204    0.574    3.299   92.583
  505.244    0.201    0.578    3.344   91.069
  505.494    0.194    0.551    3.395   90.956
  505.744    0.203    0.535    3.431   95.046
  505.994    0.197    0.520    3.469   99.133
  506.244    0.191    0.516    3.533  100.416
  506.494    0.188    0.526    3.535   99.976
  506.744    0.199    0.544    3.464   98.894
  506.994    0.215    0.547    3.422   97.641
  507.244    0.208    0.546    3.403   94.474
  507.494    0.200    0.554    3.403   94.671
  507.744    0.209    0.561    3.474   94.040
  507.994    0.216    0.577    3.601   92.092
  508.244    0.227    0.593    3.843   91.062
  508.494    0.233    0.587    4.114   91.850
  508.744    0.254    0.575    4.493   94.223
  508.994    0.280    0.578    4.752   96.408
  509.244    0.239    0.582    5.161  101.722
  509.494    0.176    0.523    5.582  108.506
  509.744    0.153    0.467    5.646  112.217
  509.994    0.147    0.438    5.678  117.067
  510.244    0.141    0.439    5.572  117.089
  510.494    0.136    0.444    5.410  116.732
  510.744    0.144    0.443    5.265  118.309
  510.994    0.148    0.459    4.835  115.935
  511.244    0.153    0.486    4.605  114.257
  511.494    0.176    0.508    4.202  112.842
  511.744    0.178    0.520    3.954  112.004
  511.994    0.212    0.540    3.768  104.804
  512.244    0.251    0.561    3.586   93.625
  512.494    0.289    0.592    3.533   87.795
  512.744    0.325    0.615    3.481   82.032
  512.994    0.352    0.618    3.600   76.372
  513.244    0.346    0.607    3.897   75.793
  513.494    0.348    0.593    4.292   75.896
  513.744    0.341    0.442    4.721   77.515
  513.994    0.266    0.393    5.172   79.928
  514.244    0.219    0.353    5.505   86.229
  514.494    0.175    0.366    5.580   91.538
  514.744    0.139    0.370    5.480   87.706
  514.994    0.135    0.332    5.249   74.153
  515.244    0.155    0.314    5.101   67.852
  515.494    0.141    0.331    5.129   82.602
  515.744    0.145    0.377    5.178   95.295
  515.994    0.142    0.407    5.184   82.675
  516.244    0.217    0.412    5.015   65.584
  516.494    0.245    0.373    4.812   52.900
  516.744    0.237    0.358    4.389   45.666
  516.994    0.185    0.345    4.132   45.777
  517.244    0.075    0.336    4.078   55.877
  517.494    0.014    0.334    4.561   66.827
  517.744    0.005    0.336    6.654   63.377
  517.994    0.102    0.276   10.438   49.601
  518.244    0.116    0.185   17.456   41.940
  518.494    0.112    0.146   23.480   37.059
  518.744    0.078    0.133   26.431   45.465
  518.994    0.036    0.149   27.899   50.963
  519.244    0.000    0.165   27.261   53.394
  519.494    0.016    0.166   25.221   54.245
  519.744    0.011    0.186   23.279   59.626
  519.994    0.016    0.214   21.586   66.935
  520.244    0.024    0.230   19.843   71.031
  520.494    0.019    0.240   21.570   71.631
  520.744    0.028    0.241   25.997   72.253
  520.994    0.010    0.218   32.715   68.718
  521.244   -0.000    0.185   41.991   64.314
  521.494    0.000    0.157   51.460   57.985
  521.744    0.000    0.141   65.215   48.680
  521.994    0.000    0.131   75.172   44.556
  522.244   -0.000    0.122   82.119   39.536
  522.494   -0.000    0.117   86.461   36.569
  522.744   -0.000    0.119   87.992   33.364
  522.994    0.000    0.119   86.373   27.674
  523.244    0.000    0.120   84.261   28.821
  523.494   -0.000    0.120   83.246   29.789
  523.744   -0.000    0.119   85.762   30.136
  523.994   -0.000    0.117   88.353   30.083
  524.244    0.000    0.000    0.000    0.000
