~VERSION INFORMATION
 VERS.                 2.0:   CWLS LOG ASCII STANDARD -VERSION 2.0
 WRAP.                  NO:   ONE LINE PER DEPTH STEP
~WELL INFORMATION BLOCK
#MNEM.UNIT           DATA                    DESCRIPTION OF MNEMONIC
#---------    -------------------            -------------------------------
# Generated from Intellog Unique Number	CS_67_68/WELL/769
WELL.         FISHER CREEK                   : Well_name    - WELL
LOC .         00/07-08-068-05W4/0            : Location     - LOCATION
UWI .         00/07-08-068-05W4/0            : Uwi          - UNIQUE WELL ID
ENTR.         SP                             : Entered      - ENTERED BY
SRVC.         SCHLUMBERGER                   : Scn          - SERVICE COMPANY
STRT.M        350                            : top_depth    - START DEPTH
STOP.M        560                            : bot_depth    - STOP DEPTH
STEP.M        0.25                           : increment    - STEP LENGTH
 NULL. -999.2500:NULL Value
~CURVE INFORMATION BLOCK
#MNEM UNIT       ERCB CURVE CODE    CURVE DESCRIPTION
#-----------   ------------------   ----------------------------------
DEPT.M        00 001 00 00         : DEPTH        - DEPTH
ILD .OHMM     00 120 00 00         : RESD         - DEEP RESISTIVITY (DIL)
DPHI.V/V      00 890 00 00         : PHID         - DENSITY POROSITY (LIMESTONE)
NPHI.V/V      00 330 00 00         : PHIN         - NEUTRON POROSITY (LIMESTONE)
GR  .API      00 310 00 00         : GR           - GAMMA RAY
~PARAMETER INFORMATION
#MNEM.UNIT           DATA             DESCRIPTION OF MNEMONIC
#---------         -----------     ------------------------------
GL  .M        690.6                : gl           - GROUND LEVEL ELEVATION
EREF.M        694.1                : kb           - ELEVATION OF DEPTH REFERENCE
DATM.M        690.6                : datum        - DATUM ELEVATION
TDD .M        570                  : tdd          - TOTAL DEPTH DRILLER
RUN .         ONE                  : Run          - RUN NUMBER
ENG .         BILL                 : Engineer     - RECORDING ENGINEER
WIT .         JIM                  : Witness      - WITNESSED BY
MUD .         GEL                  : Mud_type     - MUD TYPE
MATR.         LIMESTONE            : Logunit      - NEUTRON MATRIX
TMAX.C        25                   : BHT          - MAXIMUM RECORDED TEMPERATURE
BHTD.M        570                  : BHTDEP       - MAXIMUM RECORDED TEMPERATURE
MATR.         1                    : LOGUNIT      - NEUTRON MATRIX
RMT .C        25                   : MDTP         - TEMPERATURE OF MUD
NEUT.         1                    : NEUTRON      - NEUTRON TYPE
RESI.         0                    : RESIST       - RESISTIVITY TYPE
RMC .OHMM     0.25                 : RMC          - RESISTIVITY OF MUD CAKE
RMF .OHMM     0.25                 : RMF          - RESISTIVITY OF MUD FILTRATE
SUFT.C        15                   : SUFT         - SURFACE TEMPERATURE
~A  DEPTH     RESD     PHID     PHIN       GR
# ...
  393.500    6.978    0.308    0.436   87.598
  393.750    7.017    0.315    0.442   90.396
  394.000    7.057    0.294    0.449   92.104
  394.250    7.057    0.289    0.446   86.566
  394.500    6.952    0.281    0.458   81.024
  394.750    6.888    0.275    0.471   74.456
  395.000    6.862    0.295    0.474   69.701
  395.250    6.862    0.316    0.450   78.480
  395.500    6.914    0.301    0.429   82.849
  395.750    6.966    0.277    0.424   84.740
  396.000    7.045    0.261    0.436   86.028
  396.250    7.125    0.244    0.464   87.372
  396.500    7.152    0.252    0.458   89.209
  396.750    7.139    0.255    0.447   90.430
  397.000    7.126    0.250    0.456   92.264
  397.250    7.099    0.248    0.450   93.306
  397.500    7.113    0.227    0.444   93.143
  397.750    7.099    0.205    0.457   91.773
  398.000    7.086    0.198    0.463   91.547
  398.250    7.073    0.208    0.467   92.108
  398.500    7.021    0.247    0.463   89.891
  398.750    6.969    0.257    0.464   86.829
  399.000    6.891    0.241    0.466   86.425
  399.250    6.789    0.225    0.469   89.522
  399.500    6.601    0.211    0.478   92.562
  399.750    6.466    0.206    0.487   94.454
  400.000    6.323    0.224    0.499   94.955
  400.250    6.276    0.236    0.491   95.275
  400.500    6.300    0.234    0.495   95.896
  400.750    6.383    0.215    0.507   98.391
  401.000    6.467    0.211    0.497   99.133
  401.250    6.590    0.202    0.476   96.736
  401.500    6.664    0.211    0.457   98.506
  401.750    6.702    0.223    0.466  100.638
  402.000    6.740    0.222    0.475   95.521
  402.250    6.791    0.216    0.457   87.987
  402.500    6.804    0.217    0.442   84.017
  402.750    6.665    0.247    0.425   83.615
  403.000    6.457    0.273    0.402   83.932
  403.250    6.266    0.250    0.399   85.642
  403.500    6.104    0.221    0.431   89.889
  403.750    6.059    0.223    0.449   91.901
  404.000    6.070    0.240    0.437   91.314
  404.250    6.139    0.245    0.453   91.031
  404.500    6.267    0.248    0.466   92.802
  404.750    6.326    0.248    0.456   95.118
  405.000    6.338    0.242    0.445   94.409
  405.250    6.279    0.243    0.451   91.042
  405.500    6.221    0.252    0.440   90.519
  405.750    6.140    0.259    0.435   91.805
  406.000    6.094    0.247    0.434   91.157
  406.250    6.015    0.238    0.436   88.638
  406.500    5.970    0.233    0.439   89.686
  406.750    5.937    0.236    0.448   92.120
  407.000    5.926    0.239    0.460   93.646
  407.250    6.027    0.235    0.450   94.450
  407.500    6.222    0.238    0.436   94.710
  407.750    6.448    0.242    0.423   93.704
  408.000    6.619    0.248    0.420   92.025
  408.250    6.770    0.255    0.419   88.299
  408.500    6.834    0.267    0.421   85.416
  408.750    6.783    0.275    0.444   84.409
  409.000    6.695    0.277    0.445   85.693
  409.250    6.595    0.268    0.435   87.464
  409.500    6.522    0.260    0.450   86.579
  409.750    6.437    0.256    0.453   84.782
  410.000    6.377    0.262    0.437   85.283
  410.250    6.342    0.266    0.420   87.055
  410.500    6.306    0.264    0.428   87.010
  410.750    6.306    0.263    0.433   85.095
  411.000    6.295    0.264    0.423   80.885
  411.250    6.295    0.257    0.414   79.149
  411.500    6.283    0.259    0.410   84.605
  411.750    6.260    0.269    0.432   87.885
  412.000    6.249    0.266    0.447   86.999
  412.250    6.179    0.272    0.448   84.540
  412.500    6.121    0.272    0.435   85.040
  412.750    6.087    0.266    0.444   88.080
  413.000    6.087    0.264    0.452   87.009
  413.250    6.076    0.295    0.449   81.045
  413.500    6.031    0.309    0.439   75.809
  413.750    5.997    0.305    0.423   79.754
  414.000    5.953    0.281    0.404   81.945
  414.250    5.920    0.272    0.439   78.945
  414.500    5.909    0.307    0.476   71.534
  414.750    5.931    0.325    0.472   65.448
  415.000    5.954    0.339    0.462   62.383
  415.250    6.010    0.349    0.468   60.589
  415.500    6.044    0.352    0.457   59.941
  415.750    6.078    0.353    0.446   57.486
  416.000    6.112    0.352    0.436   54.117
  416.250    6.135    0.350    0.426   55.947
  416.500    6.147    0.349    0.422   58.322
  416.750    6.101    0.349    0.433   59.911
  417.000    6.079    0.348    0.433   61.200
  417.250    6.033    0.348    0.426   62.186
  417.500    5.977    0.348    0.432   60.874
  417.750    5.944    0.349    0.440   58.050
  418.000    5.900    0.350    0.442   54.926
  418.250    5.867    0.353    0.445   52.889
  418.500    5.802    0.359    0.440   51.276
  418.750    5.769    0.350    0.426   53.590
  419.000    5.748    0.342    0.431   57.900
  419.250    5.705    0.348    0.459   59.911
  419.500    5.673    0.359    0.474   59.324
  419.750    5.663    0.364    0.453   58.616
  420.000    5.674    0.351    0.426   59.359
  420.250    5.695    0.327    0.426   62.762
  420.500    5.727    0.307    0.465   64.048
  420.750    5.749    0.326    0.469   62.979
  421.000    5.760    0.346    0.459   62.636
  421.250    5.760    0.356    0.459   64.766
  421.500    5.739    0.357    0.443   65.028
  421.750    5.707    0.342    0.429   64.138
  422.000    5.696    0.340    0.426   63.128
  422.250    5.675    0.338    0.442   63.450
  422.500    5.643    0.338    0.452   64.800
  422.750    5.601    0.334    0.457   64.937
  423.000    5.529    0.330    0.461   65.315
  423.250    5.447    0.337    0.450   70.529
  423.500    5.376    0.334    0.437   74.655
  423.750    5.356    0.317    0.422   76.002
  424.000    5.396    0.300    0.451   69.620
  424.250    5.427    0.282    0.474   67.640
  424.500    5.509    0.309    0.458   74.848
  424.750    5.634    0.330    0.441   80.489
  425.000    5.752    0.341    0.427   83.585
  425.250    5.860    0.325    0.418   85.536
  425.500    5.983    0.310    0.421   87.003
  425.750    6.084    0.304    0.431   85.030
  426.000    6.176    0.306    0.460   79.790
  426.250    6.223    0.311    0.448   69.717
  426.500    6.247    0.310    0.434   61.278
  426.750    6.223    0.312    0.431   56.643
  427.000    6.223    0.326    0.441   53.641
  427.250    6.235    0.334    0.442   55.957
  427.500    6.189    0.345    0.426   59.295
  427.750    6.154    0.350    0.418   57.561
  428.000    6.097    0.354    0.416   52.868
  428.250    6.086    0.350    0.413   54.759
  428.500    6.063    0.348    0.409   59.790
  428.750    6.030    0.344    0.405   63.313
  429.000    6.030    0.346    0.417   64.721
  429.250    6.030    0.351    0.411   68.000
  429.500    6.019    0.348    0.403   76.174
  429.750    5.963    0.335    0.415   85.500
  430.000    5.627    0.308    0.450   89.987
  430.250    4.511    0.293    0.474   95.142
  430.500    3.741    0.289    0.467  100.173
  430.750    3.257    0.283    0.479  105.929
  431.000    2.977    0.277    0.508  113.379
  431.250    2.846    0.282    0.558  114.003
  431.500    3.074    0.289    0.565  109.247
  431.750    3.531    0.297    0.553   91.139
  432.000    4.163    0.303    0.570   82.942
  432.250    4.624    0.303    0.532   77.281
  432.500    5.193    0.321    0.463   73.251
  432.750    5.767    0.331    0.476   71.336
  433.000    6.345    0.336    0.474   69.902
  433.250    6.649    0.342    0.455   68.047
  433.500    6.662    0.352    0.443   67.522
  433.750    6.490    0.357    0.447   68.265
  434.000    6.382    0.353    0.451   70.458
  434.250    6.322    0.347    0.455   72.108
  434.500    6.299    0.347    0.448   72.790
  434.750    6.323    0.346    0.432   74.017
  435.000    6.394    0.341    0.426   75.848
  435.250    6.515    0.339    0.438   76.409
  435.500    6.714    0.335    0.440   78.783
  435.750    6.879    0.324    0.466   81.216
  436.000    6.944    0.316    0.482   82.564
  436.250    6.905    0.314    0.474   86.268
  436.500    6.854    0.319    0.461   86.829
  436.750    6.727    0.322    0.452   85.945
