~VERSION INFORMATION
 VERS.                 2.0:   CWLS LOG ASCII STANDARD -VERSION 2.0
 WRAP.                  NO:   ONE LINE PER DEPTH STEP
~WELL INFORMATION BLOCK
#MNEM.UNIT           DATA                    DESCRIPTION OF MNEMONIC
#---------    -------------------            -------------------------------
# Generated from Intellog Unique Number	CS_73_76/WELL/1080
WELL.         BOW VALLEY EXPLORATION         : Well_name    - WELL
LOC .         00/06-28-076-17W4/0            : Location     - LOCATION
UWI .         00/06-28-076-17W4/0            : Uwi          - UNIQUE WELL ID
ENTR.         SP                             : Entered      - ENTERED BY
SRVC.         SCHLUMBERGER                   : Scn          - SERVICE COMPANY
STRT.M        325                            : top_depth    - START DEPTH
STOP.M        542                            : bot_depth    - STOP DEPTH
STEP.M        0.25                           : increment    - STEP LENGTH
 NULL. -999.2500:NULL Value
~CURVE INFORMATION BLOCK
#MNEM UNIT       ERCB CURVE CODE    CURVE DESCRIPTION
#-----------   ------------------   ----------------------------------
DEPT.M        00 001 00 00         : DEPTH        - DEPTH
DPHI.V/V      00 890 00 00         : PHID         - DENSITY POROSITY (LIMESTONE)
NPHI.V/V      00 330 00 00         : PHIN         - NEUTRON POROSITY (LIMESTONE)
GR  .API      00 310 00 00         : GR           - GAMMA RAY
ILD .OHMM     00 120 00 00         : RESD         - DEEP RESISTIVITY (DIL)
~PARAMETER INFORMATION
#MNEM.UNIT           DATA             DESCRIPTION OF MNEMONIC
#---------         -----------     ------------------------------
GL  .M        692.7                : gl           - GROUND LEVEL ELEVATION
EREF.M        696                  : kb           - ELEVATION OF DEPTH REFERENCE
DATM.M        692.7                : datum        - DATUM ELEVATION
TDD .M        545                  : tdd          - TOTAL DEPTH DRILLER
RUN .         ONE                  : Run          - RUN NUMBER
ENG .         BILL                 : Engineer     - RECORDING ENGINEER
WIT .         JIM                  : Witness      - WITNESSED BY
MUD .         GEL                  : Mud_type     - MUD TYPE
MATR.         LIMESTONE            : Logunit      - NEUTRON MATRIX
TMAX.C        24                   : BHT          - MAXIMUM RECORDED TEMPERATURE
BHTD.M        545                  : BHTDEP       - MAXIMUM RECORDED TEMPERATURE
MATR.         1                    : LOGUNIT      - NEUTRON MATRIX
RMT .C        25                   : MDTP         - TEMPERATURE OF MUD
NEUT.         1                    : NEUTRON      - NEUTRON TYPE
RESI.         0                    : RESIST       - RESISTIVITY TYPE
RMC .OHMM     0.25                 : RMC          - RESISTIVITY OF MUD CAKE
RMF .OHMM     0.25                 : RMF          - RESISTIVITY OF MUD FILTRATE
SUFT.C        15                   : SUFT         - SURFACE TEMPERATURE
~A  DEPTH     PHID     PHIN       GR     RESD
# ...
  412.000    0.337    0.436   49.309    8.961
  412.250    0.333    0.424   49.305    8.800
  412.500    0.335    0.436   51.122    8.804
  412.750    0.335    0.442   51.724    8.806
  413.000    0.333    0.446   51.719    8.809
  413.250    0.329    0.443   49.285    8.812
  413.500    0.333    0.442   48.065    8.815
  413.750    0.326    0.446   48.061    8.820
  414.000    0.333    0.450   48.663    8.822
  414.250    0.326    0.447   49.265    8.825
  414.500    0.329    0.437   49.261    8.828
  414.750    0.334    0.438   49.863    8.830
  415.000    0.332    0.449   51.072    8.834
  415.250    0.343    0.455   52.281    9.002
  415.500    0.339    0.460   52.885    8.838
  415.750    0.332    0.470   54.702    8.842
  416.000    0.304    0.461   56.519    9.010
  416.250    0.282    0.441   58.942    8.848
  416.500    0.259    0.436   61.367    8.851
  416.750    0.232    0.446   64.399    8.692
  417.000    0.224    0.457   62.572    8.694
  417.250    0.266    0.463   58.923    8.538
  417.500    0.281    0.457   64.383    7.931
  417.750    0.263    0.438   69.844    6.969
  418.000    0.277    0.440   74.091    6.473
  418.250    0.292    0.449   76.514    6.014
  418.500    0.279    0.445   79.546    5.798
  418.750    0.288    0.468   83.184    5.692
  419.000    0.308    0.491   83.180    5.694
  419.250    0.321    0.488   79.532    5.803
  419.500    0.337    0.476   74.668    5.914
  419.750    0.347    0.465   71.020    5.915
  420.000    0.352    0.464   77.087    6.372
  420.250    0.341    0.459   81.940    7.124
  420.500    0.310    0.462   88.009    7.817
  420.750    0.286    0.459   89.826    8.115
  421.000    0.254    0.463   92.857    7.822
  421.250    0.265    0.480   91.031    7.267
  421.500    0.268    0.503   89.203    6.504
  421.750    0.257    0.493   90.413    6.042
  422.000    0.248    0.492   91.623    5.718
  422.250    0.237    0.501   91.619    5.615
  422.500    0.252    0.510   89.791    5.616
  422.750    0.256    0.495   87.357    5.515
  423.000    0.251    0.480   86.746    5.416
  423.250    0.241    0.470   88.562    5.318
  423.500    0.257    0.471   89.165    5.223
  423.750    0.256    0.470   90.374    5.224
  424.000    0.251    0.467   92.799    5.130
  424.250    0.231    0.467   95.223    5.038
  424.500    0.245    0.469   92.789    4.947
  424.750    0.258    0.470   90.961    4.949
  425.000    0.267    0.478   90.957    4.771
  425.250    0.290    0.475   90.952    4.684
  425.500    0.283    0.470   92.161    4.516
  425.750    0.280    0.465   93.978    4.435
  426.000    0.279    0.493   95.796    4.354
  426.250    0.281    0.508   95.184    4.276
  426.500    0.269    0.506   93.965    4.199
  426.750    0.279    0.490   95.782    4.123
  427.000    0.301    0.484   95.169    4.361
  427.250    0.324    0.475   90.914    4.611
  427.500    0.344    0.480   80.585    5.060
  427.750    0.350    0.486   72.686    5.451
  428.000    0.346    0.481   68.430    5.765
  428.250    0.340    0.470   70.853    6.096
  428.500    0.331    0.470   75.100    6.212
  428.750    0.333    0.487   75.702    5.770
  429.000    0.328    0.502   72.660    5.772
  429.250    0.323    0.513   69.620    5.775
  429.500    0.322    0.468   69.615    5.776
  429.750    0.260    0.463   80.541    5.366
  430.000    0.240    0.478   93.896    4.803
  430.250    0.260    0.507  103.607    4.299
  430.500    0.278    0.552  104.817    3.258
  430.750    0.262    0.605  102.989    2.562
  431.000    0.254    0.619  102.984    1.977
  431.250    0.261    0.574  104.194    1.643
  431.500    0.267    0.531  104.189    1.555
  431.750    0.259    0.503  100.542    1.707
  432.000    0.243    0.483   96.286    1.944
  432.250    0.248    0.488   91.422    2.213
  432.500    0.268    0.478   84.738    2.616
  432.750    0.284    0.471   83.518    2.979
  433.000    0.253    0.482   87.764    3.330
  433.250    0.265    0.491   95.046    3.393
  433.500    0.255    0.508  100.507    3.152
  433.750    0.254    0.523   98.074    2.770
  434.000    0.256    0.527   95.032    2.434
  434.250    0.246    0.520   91.991    2.261
  434.500    0.293    0.511   85.913    2.528
  434.750    0.309    0.500   81.050    2.878
  435.000    0.295    0.486   76.188    3.339
  435.250    0.315    0.477   73.754    3.946
  435.500    0.311    0.465   76.785    4.750
  435.750    0.286    0.451   79.816    5.311
  436.000    0.294    0.457   75.561    5.513
  436.250    0.318    0.501   73.126    5.618
  436.500    0.312    0.478   73.729    5.620
  436.750    0.289    0.460   76.153    5.727
  437.000    0.287    0.453   75.541    5.729
  437.250    0.265    0.442   74.322    5.730
  437.500    0.260    0.443   76.745    5.627
  437.750    0.281    0.453   77.348    5.526
  438.000    0.303    0.468   80.379    5.427
  438.250    0.318    0.467   84.018    5.329
  438.500    0.298    0.472   82.799    5.233
  438.750    0.289    0.465   84.008    5.139
  439.000    0.271    0.457   85.219    5.140
  439.250    0.292    0.473   83.998    5.238
  439.500    0.316    0.472   80.958    5.438
  439.750    0.320    0.455   76.095    5.750
  440.000    0.306    0.461   69.410    6.194
  440.250    0.237    0.339   63.332    6.925
  440.500    0.086    0.234   57.254    7.886
  440.750    0.089    0.203   51.784    9.493
  441.000    0.123    0.206   50.563   11.013
  441.250    0.167    0.235   51.167   11.864
  441.500    0.214    0.288   53.591   10.620
  441.750    0.249    0.352   57.230    8.351
  442.000    0.314    0.414   59.047    7.615
  442.250    0.354    0.447   58.435    6.944
  442.500    0.371    0.467   59.037    6.450
  442.750    0.366    0.476   58.425    6.218
  443.000    0.360    0.461   60.239    5.884
  443.250    0.361    0.459   60.844    5.778
  443.500    0.363    0.470   62.054    5.674
  443.750    0.369    0.475   62.656    5.572
  444.000    0.374    0.467   63.258    5.574
  444.250    0.372    0.456   62.039    5.576
  444.500    0.367    0.458   62.035    5.577
  444.750    0.369    0.460   65.066    5.580
  445.000    0.366    0.453   65.060    5.581
  445.250    0.366    0.443   64.448    5.583
  445.500    0.368    0.444   64.444    5.482
  445.750    0.366    0.455   65.651    5.586
  446.000    0.358    0.474   66.256    5.800
  446.250    0.347    0.481   67.465    5.910
  446.500    0.346    0.489   69.283    6.486
  446.750    0.338    0.472   70.492    7.386
  447.000    0.343    0.453   68.058    7.956
  447.250    0.348    0.393   65.624    7.959
  447.500    0.337    0.421   68.049    7.257
  447.750    0.318    0.463   74.116    6.496
  448.000    0.303    0.478   80.791    5.924
  448.250    0.285    0.454   82.001    5.711
  448.500    0.289    0.452   81.388    5.505
  448.750    0.300    0.460   83.206    5.306
  449.000    0.292    0.454   83.808    5.115
  449.250    0.290    0.449   81.981    5.023
  449.500    0.292    0.454   83.798    4.932
  449.750    0.273    0.457   85.615    4.755
  450.000    0.287    0.472   86.825    4.757
  450.250    0.278    0.487   87.427    4.848
  450.500    0.268    0.499   89.852    4.849
  450.750    0.279    0.504   90.454    4.761
  451.000    0.268    0.457   88.020    4.763
  451.250    0.247    0.453   86.194    4.765
  451.500    0.238    0.464   88.618    4.855
  451.750    0.255    0.485   91.649    4.948
  452.000    0.266    0.497   95.895    4.950
  452.250    0.267    0.482   92.854    4.951
  452.500    0.257    0.460   92.241    4.953
  452.750    0.246    0.464   95.880    4.954
  453.000    0.243    0.488   98.912    4.865
  453.250    0.228    0.473   95.871    4.867
  453.500    0.232    0.479   92.222    4.869
  453.750    0.223    0.471   91.609    4.781
  454.000    0.234    0.465   92.820    4.783
  454.250    0.229    0.476   95.242    4.697
  454.500    0.240    0.490   95.846    4.786
  454.750    0.238    0.492   94.625    4.787
  455.000    0.241    0.481   94.621    4.789
  455.250    0.286    0.490   94.617    4.880
