~VERSION INFORMATION
 VERS.                 2.0:   CWLS LOG ASCII STANDARD -VERSION 2.0
 WRAP.                  NO:   ONE LINE PER DEPTH STEP
~WELL INFORMATION BLOCK
#MNEM.UNIT           DATA                    DESCRIPTION OF MNEMONIC
#---------    -------------------            -------------------------------
# Generated from Intellog Unique Number	CS_67_68/WELL/2182
WELL.         07-36-067-03W4                 : Well_name    - WELL
LOC .         00/07-36-067-03W4/0            : Location     - LOCATION
UWI .         00/07-36-067-03W4/0            : Uwi          - UNIQUE WELL ID
ENTR.         SP                             : Entered      - ENTERED BY
SRVC.         SCHLUMBERGER                   : Scn          - SERVICE COMPANY
STRT.M        370                            : top_depth    - START DEPTH
STOP.M        616                            : bot_depth    - STOP DEPTH
STEP.M        0.25                           : increment    - STEP LENGTH
 NULL. -999.2500:NULL Value
~CURVE INFORMATION BLOCK
#MNEM UNIT       ERCB CURVE CODE    CURVE DESCRIPTION
#-----------   ------------------   ----------------------------------
DEPT.M        00 001 00 00         : DEPTH        - DEPTH
GR  .API      00 310 00 00         : GR           - GAMMA RAY
DPHI.V/V      00 890 00 00         : PHID         - DENSITY POROSITY (LIMESTONE)
NPHI.V/V      00 330 00 00         : PHIN         - NEUTRON POROSITY (LIMESTONE)
CALI.MM       00 280 01 00         : CAL          - CALIPER
ILD .OHMM     00 120 00 00         : RESD         - DEEP RESISTIVITY (DIL)
~PARAMETER INFORMATION
#MNEM.UNIT           DATA             DESCRIPTION OF MNEMONIC
#---------         -----------     ------------------------------
GL  .M        701.08               : gl           - GROUND LEVEL ELEVATION
EREF.M        704.28               : kb           - ELEVATION OF DEPTH REFERENCE
DATM.M        704.28               : datum        - DATUM ELEVATION
TDD .M        622                  : tdd          - TOTAL DEPTH DRILLER
RUN .         ONE                  : Run          - RUN NUMBER
ENG .         BILL                 : Engineer     - RECORDING ENGINEER
WIT .         JIM                  : Witness      - WITNESSED BY
MUD .         GEL                  : Mud_type     - MUD TYPE
MATR.         LIMESTONE            : Logunit      - NEUTRON MATRIX
TMAX.C        28.8                 : BHT          - MAXIMUM RECORDED TEMPERATURE
BHTD.M        622.2                : BHTDEP       - MAXIMUM RECORDED TEMPERATURE
MATR.         1                    : LOGUNIT      - NEUTRON MATRIX
RMT .C        25                   : MDTP         - TEMPERATURE OF MUD
NEUT.         1                    : NEUTRON      - NEUTRON TYPE
RESI.         0                    : RESIST       - RESISTIVITY TYPE
RMC .OHMM     0.25                 : RMC          - RESISTIVITY OF MUD CAKE
RMF .OHMM     0.25                 : RMF          - RESISTIVITY OF MUD FILTRATE
SUFT.C        15                   : SUFT         - SURFACE TEMPERATURE
~A  DEPTH       GR     PHID     PHIN      CAL     RESD
# ...
  589.000   83.430    0.184    0.370  169.230    7.115
  589.250   81.803    0.205    0.370  169.440    7.191
  589.500   82.594    0.214    0.383  169.448    7.255
  589.750   83.082    0.204    0.389  169.657    7.293
  590.000   83.088    0.197    0.386  169.867    7.207
  590.250   78.316    0.192    0.379  169.976    7.124
  590.500   74.210    0.200    0.385  169.885    6.936
  590.750   76.331    0.216    0.376  169.690    6.754
  591.000   74.038    0.227    0.370  169.195    6.688
  591.250   62.254    0.245    0.376  168.800    6.697
  591.500   64.798    0.263    0.367  168.406    6.781
  591.750   73.993    0.264    0.374  168.414    6.867
  592.000   76.538    0.245    0.384  168.422    6.915
  592.250   76.603    0.229    0.386  168.532    6.886
  592.500   74.310    0.217    0.385  168.640    6.680
  592.750   57.689    0.205    0.403  169.052    6.432
  593.000   49.229    0.228    0.412  168.860    6.205
  593.250   37.324    0.278    0.395  168.464    6.030
  593.500   45.188    0.331    0.365  168.472    5.960
  593.750   48.337    0.326    0.360  168.379    5.957
  594.000   43.385    0.304    0.369  168.288    6.055
  594.250   38.673    0.303    0.387  168.093    6.143
  594.500   50.287    0.328    0.361  167.799    6.197
  594.750   63.351    0.266    0.351  167.708    6.182
  595.000   53.950    0.251    0.371  169.756    5.899
  595.250   57.930    0.303    0.373  169.535    6.020
  595.500   61.970    0.288    0.375  169.311    6.293
  595.750   63.409    0.276    0.379  169.089    6.531
  596.000   70.291    0.268    0.376  168.767    6.904
  596.250   76.569    0.214    0.350  168.747    7.435
  596.500   82.001    0.186    0.330  168.525    7.476
  596.750   79.027    0.168    0.376  168.506    7.351
  597.000   76.716    0.204    0.368  168.588    7.109
  597.250   74.889    0.207    0.372  168.568    6.926
  597.500   69.132    0.214    0.378  168.649    6.798
  597.750   63.555    0.237    0.373  168.931    6.747
  598.000   65.237    0.248    0.365  169.311    6.646
  598.250   71.999    0.238    0.351  168.889    6.708
  598.500   79.667    0.225    0.346  168.567    6.795
  598.750   78.507    0.210    0.353  168.443    6.896
  599.000   71.538    0.216    0.357  168.627    7.024
  599.250   64.570    0.237    0.357  169.111    7.128
  599.500   61.777    0.245    0.355  169.795    7.261
  599.750   70.413    0.232    0.354  170.583    7.355
  600.000   75.482    0.219    0.360  171.571    7.465
  600.250   75.227    0.203    0.370  172.157    7.533
  600.500   76.124    0.210    0.370  172.742    7.491
  600.750   77.866    0.210    0.369  172.618    7.448
  601.000   79.123    0.205    0.380  171.993    7.406
  601.250   76.995    0.201    0.380  171.269    7.351
  601.500   72.930    0.216    0.376  170.542    7.295
  601.750   77.757    0.235    0.372  170.322    7.214
  602.000   76.536    0.226    0.370  170.401    7.173
  602.250   70.293    0.216    0.369  170.684    7.093
  602.500   65.260    0.225    0.372  170.462    6.859
  602.750   63.133    0.249    0.386  170.039    6.695
  603.000   58.462    0.307    0.401  169.618    6.414
  603.250   51.556    0.335    0.418  169.293    6.157
  603.500   45.314    0.327    0.428  168.970    5.943
  603.750   53.830    0.297    0.379  168.749    5.641
  604.000   62.648    0.270    0.368  168.629    5.375
  604.250   69.471    0.248    0.404  168.409    5.207
  604.500   70.367    0.230    0.430  168.287    5.207
  604.750   57.532    0.319    0.447  167.862    5.555
  605.000   47.358    0.340    0.396  166.937    5.765
  605.250   52.730    0.301    0.365  165.502    5.818
  605.500   63.725    0.266    0.348  164.881    5.839
  605.750   63.653    0.235    0.370  164.858    5.817
  606.000   50.576    0.238    0.385  164.738    5.730
  606.250   40.341    0.317    0.375  164.517    5.677
  606.500   36.279    0.332    0.370  164.090    5.666
  606.750   37.779    0.335    0.364  163.768    5.665
  607.000   38.795    0.312    0.351  163.448    5.664
  607.250   38.722    0.289    0.356  163.127    5.738
  607.500   37.380    0.300    0.372  163.107    5.823
  607.750   45.108    0.317    0.386  163.484    5.899
  608.000   51.508    0.326    0.370  163.871    5.931
  608.250   58.873    0.321    0.346  164.660    5.919
  608.500   63.761    0.316    0.349  165.646    5.810
  608.750   57.157    0.309    0.347  166.232    5.681
  609.000   42.084    0.304    0.334  166.414    5.628
  609.250   33.968    0.305    0.327  166.291    5.669
  609.500   35.831    0.308    0.325  165.767    5.754
  609.750   37.574    0.313    0.336  165.244    5.828
  610.000   45.062    0.310    0.336  164.616    5.926
  610.250   57.569    0.283    0.329  164.398    5.992
  610.500   67.900    0.264    0.361  164.982    5.969
  610.750   64.682    0.238    0.389  166.070    5.676
  611.000   51.304    0.306    0.371  166.957    5.469
  611.250   38.529    0.329    0.358  166.027    5.279
  611.500   32.528    0.331    0.346  165.103    5.105
  611.750   31.308    0.329    0.358  164.271    4.973
  612.000   29.361    0.327    0.362  164.256    4.872
  612.250   28.682    0.330    0.364  164.035    4.764
  612.500   31.937    0.333    0.372  164.013    4.729
  612.750   35.373    0.334    0.374  163.993    4.817
  613.000   39.469    0.330    0.366  164.177    5.139
  613.250   42.364    0.322    0.363  164.257    5.423
  613.500   46.163    0.312    0.368  164.237    5.576
  613.750   49.175    0.300    0.374  164.415    5.616
  614.000   47.288    0.302    0.380  164.700    5.839
  614.250   42.073    0.309    0.289  165.790    7.446
  614.500   39.159    0.184    0.216  167.382   14.364
  614.750   37.998    0.128    0.173  168.371   18.975
  615.000   38.953    0.095    0.172  167.845   24.376
  615.250   39.605    0.063    0.186  166.516   32.682
  615.500   38.687    0.067    0.189  164.679   39.198
  615.750   32.868    0.073    0.185  163.653   44.385
  616.000   28.563    0.070    0.174  163.028   46.922
