~VERSION INFORMATION
 VERS.                 2.0:   CWLS LOG ASCII STANDARD -VERSION 2.0
 WRAP.                  NO:   ONE LINE PER DEPTH STEP
~WELL INFORMATION BLOCK
#MNEM.UNIT           DATA                    DESCRIPTION OF MNEMONIC
#---------    -------------------            -------------------------------
# Generated from Intellog Unique Number	CS_67_68/WELL/2400
WELL.         BVI ET AL TOUCHWOOD            : Well_name    - WELL
LOC .         00/06-27-067-10W4/0            : Location     - LOCATION
UWI .         00/06-27-067-10W4/0            : Uwi          - UNIQUE WELL ID
ENTR.         ANDERSEN                       : Entered      - ENTERED BY
SRVC.         COMPUTALOG                     : Scn          - SERVICE COMPANY
STRT.M        355                            : top_depth    - START DEPTH
STOP.M        570                            : bot_depth    - STOP DEPTH
STEP.M        0.25                           : increment    - STEP LENGTH
 NULL. -999.2500:NULL Value
~CURVE INFORMATION BLOCK
#MNEM UNIT       ERCB CURVE CODE    CURVE DESCRIPTION
#-----------   ------------------   ----------------------------------
DEPT.M        00 001 00 00         : DEPTH        - DEPTH
GR  .API      00 310 00 00         : GR           - GAMMA RAY
CALI.MM       00 280 01 00         : CAL          - CALIPER
NPHI.V/V      00 330 00 00         : PHIN         - NEUTRON POROSITY (SANDSTONE)
DPHI.V/V      00 890 00 00         : PHID         - DENSITY POROSITY (SANDSTONE)
ILD .OHMM     00 120 00 00         : RESD         - DEEP RESISTIVITY (DIL)
~PARAMETER INFORMATION
#MNEM.UNIT           DATA             DESCRIPTION OF MNEMONIC
#---------         -----------     ------------------------------
GL  .M        645                  : gl           - GROUND LEVEL ELEVATION
EREF.M        649.15               : kb           - ELEVATION OF DEPTH REFERENCE
DATM.M        649.15               : datum        - DATUM ELEVATION
TDD .M        583                  : tdd          - TOTAL DEPTH DRILLER
RUN .         ONE                  : Run          - RUN NUMBER
ENG .         BILL                 : Engineer     - RECORDING ENGINEER
WIT .         JIM                  : Witness      - WITNESSED BY
MUD .         GEL                  : Mud_type     - MUD TYPE
MATR.         SANDSTONE            : Logunit      - NEUTRON MATRIX
TMAX.C        28                   : BHT          - MAXIMUM RECORDED TEMPERATURE
BHTD.M        583                  : BHTDEP       - MAXIMUM RECORDED TEMPERATURE
MATR.         1                    : LOGUNIT      - NEUTRON MATRIX
RMT .C        18                   : MDTP         - TEMPERATURE OF MUD
NEUT.         1                    : NEUTRON      - NEUTRON TYPE
RESI.         0                    : RESIST       - RESISTIVITY TYPE
RMC .OHMM     3.2                  : RMC          - RESISTIVITY OF MUD CAKE
RMF .OHMM     2.8                  : RMF          - RESISTIVITY OF MUD FILTRATE
SUFT.C        15                   : SUFT         - SURFACE TEMPERATURE
~A  DEPTH       GR      CAL     PHIN     PHID     RESD
  355.000   18.940    0.000    0.328    0.263    2.559
  355.250   16.538  146.633    0.334    0.308    2.557
  355.500   16.510  184.094    0.343    0.325    2.556
  355.750   17.673  183.062    0.357    0.334    2.602
  356.000   18.829  183.016    0.352    0.327    2.601
  356.250   18.210  180.997    0.350    0.318    2.648
  356.500   15.808  180.939    0.350    0.327    2.696
  356.750   15.188  180.916    0.342    0.343    2.796
  357.000   15.759  180.870    0.347    0.341    2.794
  357.250   17.507  179.838    0.350    0.332    2.742
  357.500   19.847  179.792    0.349    0.326    2.641
  357.750   22.194  179.734    0.353    0.318    2.544
  358.000   24.534  179.688    0.349    0.310    2.496
  358.250   23.323  179.631    0.352    0.304    2.449
  358.500   20.329  180.594    0.359    0.290    2.448
  358.750   19.117  180.548    0.366    0.281    2.539
  359.000   19.689  180.502    0.357    0.283    2.633
  359.250   20.253  180.456    0.352    0.288    2.681
  359.500   20.817  180.410    0.353    0.295    2.582
  359.750   21.959  180.364    0.354    0.300    2.397
  360.000   21.946  180.318    0.350    0.304    2.308
  360.250   21.326  180.272    0.345    0.307    2.265
  360.500   20.707  180.226    0.343    0.308    2.264
  360.750   20.679  180.180    0.346    0.308    2.305
  361.000   21.835  180.123    0.350    0.303    2.304
  361.250   23.576  180.088    0.354    0.298    2.303
  361.500   25.324  181.029    0.343    0.286    2.301
  361.750   31.814  181.969    0.325    0.274    2.300
  362.000   39.487  185.880    0.319    0.193    2.299
  362.250   54.256  190.755    0.332    0.024    2.298
  362.500   76.135  190.709    0.355    0.054    2.297
  362.750   90.903  190.651    0.381    0.181    2.338
  363.000   86.141  189.642    0.379    0.193    2.337
  363.250   68.949  188.610    0.380    0.216    2.380
  363.500   57.078  185.604    0.372    0.259    2.378
  363.750   62.377  182.599    0.357    0.293    2.421
  364.000   76.561  181.566    0.351    0.249    2.420
  364.250   78.894  180.534    0.350    0.227    2.419
  364.500   77.682  178.515    0.348    0.254    2.417
  364.750   74.702  177.483    0.349    0.236    2.461
  365.000   81.777  177.425    0.359    0.204    2.460
  365.250   85.301  178.366    0.371    0.201    2.414
  365.500   88.232  179.306    0.374    0.213    2.457
  365.750   91.164  179.272    0.373    0.219    2.502
  366.000   92.912  179.214    0.373    0.188    2.595
  366.250   92.286  180.166    0.379    0.165    2.792
  366.500   92.272  180.120    0.385    0.139    3.060
  366.750   91.653  180.085    0.385    0.105    3.294
  367.000   90.441  180.028    0.391    0.065    3.678
  367.250   92.175  182.941    0.402    0.098    3.676
  367.500   94.529  184.880    0.420    0.125    3.607
  367.750   98.053  186.806    0.435    0.142    3.539
  368.000  100.392  186.760    0.450    0.147    3.472
  368.250  104.501  186.714    0.435    0.174    3.471
  368.500  102.698  186.668    0.431    0.179    3.469
  368.750  107.412  186.622    0.446    0.184    3.664
  369.000  112.126  188.538    0.470    0.192    3.871
  369.250  111.507  188.492    0.483    0.214    4.015
  369.500  107.928  187.459    0.463    0.226    4.164
  369.750   96.648  185.440    0.424    0.256    4.318
  370.000   67.027  181.460    0.415    0.285    4.315
  370.250   55.754  181.414    0.405    0.293    4.314
  370.500   53.352  181.368    0.376    0.289    4.311
  370.750   51.549  180.313    0.358    0.292    4.230
  371.000   49.753  180.290    0.353    0.292    4.150
  371.250   46.174  180.244    0.351    0.291    4.072
  371.500   41.412  180.198    0.354    0.299    3.922
  371.750   36.642  180.140    0.361    0.309    3.709
  372.000   34.254  180.117    0.364    0.317    3.573
  372.250   34.227  180.071    0.367    0.321    3.379
  372.500   37.158  180.014    0.372    0.320    3.136
  372.750   37.715  179.968    0.380    0.323    2.966
  373.000   34.729  178.935    0.377    0.333    2.857
  373.250   34.701  177.903    0.373    0.346    2.751
  373.500   35.857  176.870    0.373    0.339    2.801
  373.750   36.428  176.824    0.375    0.329    2.905
  374.000   34.625  176.778    0.380    0.329    3.127
  374.250   34.597  175.746    0.376    0.329    3.303
  374.500   36.346  175.711    0.374    0.331    3.362
  374.750   39.862  175.665    0.371    0.331    3.423
  375.000   39.834  175.619    0.361    0.323    3.359
  375.250   39.222  176.560    0.362    0.319    3.296
  375.500   41.562  176.514    0.370    0.325    3.116
  375.750   43.310  176.468    0.385    0.330    3.058
  376.000   41.507  176.422    0.376    0.332    2.945
  376.250   38.527  176.364    0.374    0.324    2.837
  376.500   42.050  177.305    0.367    0.313    2.733
  376.750   50.302  177.259    0.383    0.306    2.632
  377.000   50.866  177.236    0.368    0.305    2.536
  377.250   49.070  177.178    0.368    0.308    2.442
  377.500   47.267  177.132    0.378    0.314    2.441
  377.750   48.423  177.086    0.379    0.322    2.395
  378.000   56.089  176.054    0.383    0.321    2.393
  378.250   63.164  176.008    0.367    0.314    2.393
  378.500   64.912  175.973    0.344    0.297    2.392
  378.750   63.708  175.927    0.353    0.264    2.390
  379.000   74.925  175.881    0.365    0.264    2.388
  379.250   79.041  175.835    0.376    0.269    2.432
  379.500   74.870  175.789    0.384    0.281    2.430
  379.750   74.836  175.743    0.379    0.288    2.429
  380.000   73.624  175.697    0.383    0.293    2.428
  380.250   74.787  175.651    0.386    0.285    2.427
  380.500   77.120  175.594    0.381    0.266    2.425
  380.750   75.324  175.559    0.376    0.255    2.425
  381.000   68.194  176.500    0.390    0.264    2.423
  381.250   69.942  176.454    0.406    0.275    2.422
  381.500   74.057  177.406    0.402    0.274    2.420
  381.750   69.288  177.360    0.403    0.269    2.419
  382.000   67.492  177.302    0.411    0.275    2.463
  382.250   66.872  175.295    0.422    0.279    2.462
  382.500   66.253  177.221    0.408    0.282    2.460
  382.750   68.008  177.152    0.420    0.274    2.460
  383.000   72.116  177.129    0.409    0.278    2.504
  383.250   72.095  176.097    0.413    0.283    2.597
  383.500   73.252  174.067    0.421    0.287    2.693
  383.750   68.489  174.032    0.412    0.283    2.845
  384.000   64.318  178.907    0.398    0.260    3.006
  384.250   66.658  179.847    0.338    0.226    3.295
  384.500   66.624  178.815    0.250    0.144    3.480
  384.750   68.379  177.782    0.209    0.081    3.609
  385.000   72.494  177.736    0.211    0.151    3.675
  385.250   80.161  178.665    0.375    0.245    3.673
  385.500   88.419  178.642    0.392    0.279    3.603
  385.750   85.432  179.583    0.406    0.278    3.602
  386.000   78.302  179.537    0.418    0.284    3.600
  386.250   72.356  178.504    0.423    0.279    3.532
  386.500   72.920  176.485    0.423    0.273    3.530
  386.750   75.253  174.466    0.421    0.261    3.528
  387.000   75.239  174.432    0.417    0.254    3.526
  387.250   74.028  174.386    0.419    0.242    3.525
  387.500   75.184  174.328    0.421    0.233    3.523
  387.750   78.708  176.255    0.413    0.229    3.522
  388.000   86.374  177.196    0.406    0.224    3.520
  388.250   92.857  178.125    0.406    0.209    3.518
  388.500   92.830  178.102    0.412    0.209    3.581
  388.750   87.475  178.044    0.429    0.214    3.854
  389.000   90.999  177.987    0.443    0.219    3.997
  389.250   94.516  177.964    0.429    0.232    3.850
  389.500   93.896  177.918    0.416    0.244    4.221
  389.750   90.916  177.860    0.400    0.249    5.265
  390.000   82.010  177.826    0.406    0.231    4.539
  390.250   78.432  176.793    0.399    0.238    3.703
  390.500   72.486  175.761    0.394    0.255    3.374
  390.750   70.084  175.703    0.392    0.273    3.310
  391.000   68.280  176.655    0.386    0.280    3.309
  391.250   70.035  176.609    0.397    0.255    3.495
