~VERSION INFORMATION
 VERS.                 2.0:   CWLS LOG ASCII STANDARD -VERSION 2.0
 WRAP.                  NO:   ONE LINE PER DEPTH STEP
~WELL INFORMATION BLOCK
#MNEM.UNIT           DATA                    DESCRIPTION OF MNEMONIC
#---------    -------------------            -------------------------------
# Generated from Intellog Unique Number	CC_84_87/WELL/1045
NULL.         -999.25                        : NULL_VALUE
WELL.         PARA ET AL GRANOR              : Location     - LOCATION          
UWI .         00/01-21-084-17W400            : Uwi          - UNIQUE WELL ID    
ENTR.         JHS                            : Entered      - ENTERED BY        
SRVC.         COMPUTALOG                     : Scn          - SERVICE COMPANY   
DATE.         17 FEB 82                      : Date         - LOG DATE
STRT.M        95                             : top_depth    - START DEPTH       
STOP.M        293                            : bot_depth    - STOP DEPTH        
STEP.M        0.3                            : increment    - STEP LENGTH       
~CURVE INFORMATION BLOCK
#MNEM UNIT       ERCB CURVE CODE    CURVE DESCRIPTION
#-----------   ------------------   ----------------------------------
DEPT.M        00 001 00 00         : DEPTH        - DEPTH                       
DPHI.V/V      00 890 00 00         : PHID         - DENSITY POROSITY (LIMESTONE)
NPHI.V/V      00 330 00 00         : PHIN         - NEUTRON POROSITY (LIMESTONE)
GR  .API      00 310 00 00         : GR           - GAMMA RAY                   
ILD .OHMM     00 120 00 00         : RESD         - DEEP RESISTIVITY (DIL)      
~PARAMETER INFORMATION       
#MNEM.UNIT           DATA             DESCRIPTION OF MNEMONIC
#---------         -----------     ------------------------------
GL  .M        520.21               : gl           - GROUND LEVEL ELEVATION      
EREF.M        523.81               : kb           - ELEVATION OF DEPTH REFERENCE
DATM.M        523.81               : datum        - DATUM ELEVATION             
TDD .M        293                  : tdd          - TOTAL DEPTH DRILLER         
RUN .         ONE                  : Run          - RUN NUMBER                  
ENG .         BILL                 : Engineer     - RECORDING ENGINEER          
WIT .         JIM                  : Witness      - WITNESSED BY                
MUD .         GEL                  : Mud_type     - MUD TYPE                    
MATR.         LIMESTONE            : Logunit      - NEUTRON MATRIX              
TMAX.C        22                   : BHT          - MAXIMUM RECORDED TEMPERATURE
BHTD.M        293                  : BHTDEP       - MAXIMUM RECORDED TEMPERATURE
MATR.         1                    : LOGUNIT      - NEUTRON MATRIX              
RMT .C        25                   : MDTP         - TEMPERATURE OF MUD          
NEUT.         1                    : NEUTRON      - NEUTRON TYPE                
RESI.         0                    : RESIST       - RESISTIVITY TYPE            
RMC .OHMM     0.25                 : RMC          - RESISTIVITY OF MUD CAKE     
RMF .OHMM     0.25                 : RMF          - RESISTIVITY OF MUD FILTRATE 
SUFT.C        15                   : SUFT         - SURFACE TEMPERATURE         
~A  DEPTH     PHID     PHIN       GR     RESD
# ...
  199.401    0.200    0.374   91.534    8.338
  199.701    0.205    0.357   92.172    8.494
  200.001    0.213    0.399   90.978    8.495
  200.301    0.211    0.407   91.002    8.339
  200.601    0.215    0.393   92.247    8.186
  200.901    0.217    0.400   95.323    7.889
  201.201    0.213    0.425   96.571    7.744
  201.501    0.210    0.440   95.985    7.602
  201.801    0.213    0.438   94.186    7.745
  202.101    0.217    0.416   92.990    8.037
  202.401    0.217    0.399   93.624    8.037
  202.701    0.219    0.406   94.266    7.890
  203.001    0.211    0.393   96.119    7.746
  203.301    0.212    0.401   96.146    7.604
  203.601    0.210    0.439   93.732    7.604
  203.901    0.207    0.454   91.929    7.604
  204.201    0.201    0.406   93.788    7.604
  204.501    0.192    0.402   96.251    7.604
  204.801    0.197    0.419  101.157    7.605
  205.101    0.200    0.435  101.184    7.465
  205.401    0.199    0.439   99.377    7.329
  205.701    0.193    0.416  101.236    7.329
  206.001    0.198    0.371  101.260    7.329
  206.301    0.193    0.354  100.066    7.063
  206.601    0.200    0.366  101.924    6.806
  206.901    0.204    0.386   98.900    6.806
  207.201    0.216    0.359   95.272    6.806
  207.501    0.205    0.341   95.905    6.934
  207.801    0.200    0.353   95.320    7.196
  208.101    0.208    0.381   95.347    7.467
  208.401    0.214    0.434   91.106    8.660
  208.701    0.208    0.481   88.694   10.231
  209.001    0.158    0.358   84.451   13.017
  209.301    0.104    0.202   76.551   17.506
  209.601    0.021    0.154   66.819   16.257
  209.901    0.023    0.153   61.358   12.088
  210.201    0.128    0.195   65.047   10.045
  210.501    0.191    0.326   74.825    9.157
  210.801    0.209    0.408   88.270    8.989
  211.101    0.221    0.407   85.855    9.157
  211.401    0.230    0.426   79.174    9.329
  211.701    0.233    0.429   75.541    9.681
  212.001    0.238    0.386   75.570    9.681
  212.301    0.239    0.366   77.424    9.681
  212.601    0.232    0.367   81.113    9.682
  212.901    0.231    0.358   86.016    9.504
  213.201    0.223    0.368   90.310    9.505
  213.501    0.204    0.392   94.604    9.330
  213.801    0.201    0.395   90.364    9.159
  214.101    0.216    0.366   88.562    8.827
  214.401    0.229    0.358   92.857    8.827
  214.701    0.233    0.371   95.320    8.827
  215.001    0.240    0.376   94.739    8.827
  215.301    0.230    0.364   92.324    8.993
  215.601    0.222    0.374   92.352    8.993
  215.901    0.235    0.391   88.717    9.161
  216.201    0.237    0.376   85.696    9.162
  216.501    0.220    0.355   85.723    8.829
  216.801    0.201    0.361   89.411    8.352
  217.101    0.197    0.390   96.146    7.337
  217.401    0.237    0.383   97.388    6.565
  217.701    0.261    0.401   97.413    5.985
  218.001    0.247    0.408  102.318    5.985
  218.301    0.233    0.417  108.444    6.211
  218.601    0.238    0.434  106.033    6.566
  218.901    0.254    0.453   98.739    7.757
  219.201    0.256    0.421   89.618    8.669
  219.501    0.223    0.373   85.986    8.831
  219.801    0.211    0.368   85.402    8.201
  220.101    0.194    0.349   85.429    6.942
  220.401    0.180    0.358   88.504    6.212
  220.701    0.183    0.390  103.166    6.098
  221.001    0.199    0.396  106.851    6.212
  221.301    0.198    0.388  104.438    6.567
  221.601    0.176    0.373  103.248    7.205
  221.901    0.181    0.365  100.225    7.617
  222.201    0.188    0.379  102.084    7.477
  222.501    0.203    0.380  103.329    7.205
  222.801    0.176    0.398  102.743    6.691
  223.101    0.157    0.403  104.602    6.569
  223.401    0.163    0.413  105.843    6.692
  223.701    0.173    0.413  109.529    6.692
  224.001    0.163    0.411  111.388    6.449
  224.301    0.181    0.424  112.632    6.100
  224.601    0.199    0.402  116.318    6.214
  224.901    0.204    0.397  119.391    6.945
  225.201    0.197    0.370  112.711    8.205
  225.501    0.181    0.377  107.251    8.836
  225.801    0.169    0.383  105.445    9.516
  226.101    0.177    0.366  107.914    9.694
  226.401    0.171    0.383  109.767    9.342
  226.701    0.171    0.379  109.185    9.170
  227.001    0.180    0.343  107.383    8.837
  227.301    0.177    0.304  109.240    8.516
  227.601    0.187    0.337  111.096    8.360
  227.901    0.200    0.426  111.120    8.360
  228.201    0.209    0.398  107.489    8.517
  228.501    0.193    0.376  100.196    9.172
  228.801    0.181    0.353  100.225    9.877
  229.101    0.195    0.344  107.566   11.245
  229.401    0.229    0.339  135.643   11.456
  229.701    0.234    0.346  134.451   11.039
  230.001    0.224    0.342  107.038   10.837
  230.301    0.232    0.352   90.600   10.837
  230.601    0.239    0.364   86.968   11.671
  230.901    0.223    0.436   86.997   13.287
  231.201    0.203    0.270   85.193   17.870
  231.501    0.177    0.221   79.726   23.592
  231.801    0.018    0.149   71.828   34.808
  232.101    0.000    0.138   66.365   34.170
  232.401    0.000    0.124   64.561   24.035
  232.701    0.000    0.127   65.807   16.291
  233.001    0.051    0.179   72.547   13.289
  233.301    0.141    0.307   79.276   11.892
  233.601    0.221    0.418   84.793   10.841
  233.901    0.222    0.384   85.427   10.255
  234.201    0.224    0.396   84.846   10.067
  234.501    0.222    0.380   86.094   10.067
  234.801    0.221    0.349   89.166   10.068
  235.101    0.225    0.346   89.191   10.068
  235.401    0.221    0.369   87.389    9.883
  235.701    0.213    0.370   84.976    9.884
  236.001    0.204    0.354   85.616   10.069
  236.301    0.182    0.382   88.688   10.069
  236.601    0.194    0.401   92.982    9.885
  236.901    0.186    0.407   92.404    9.704
  237.201    0.182    0.387   89.986    9.351
  237.501    0.184    0.378   91.233    9.180
  237.801    0.181    0.393   94.308    9.011
  238.101    0.185    0.411   97.384    8.684
  238.401    0.189    0.404   99.239    8.525
  238.701    0.192    0.387  101.096    8.369
  239.001    0.190    0.388   98.688    8.215
  239.301    0.179    0.374   96.271    7.629
  239.601    0.159    0.403   95.076    6.954
  239.901    0.149    0.423   98.156    6.340
  240.201    0.175    0.435  100.617    6.340
  240.501    0.186    0.381   96.986    6.702
  240.801    0.186    0.372   95.184    6.955
  241.101    0.181    0.374   93.994    6.955
  241.401    0.195    0.350   97.675    6.580
  241.701    0.207    0.369  102.582    6.110
  242.001    0.205    0.375  107.485    5.674
  242.301    0.198    0.431  106.905    5.269
  242.602    0.202    0.453  105.098    4.893
  242.902    0.205    0.434  108.784    4.629
  243.202    0.201    0.417  113.692    4.379
  243.502    0.191    0.410  119.205    4.379
  243.802    0.185    0.397  124.110    4.629
  244.102    0.182    0.413  124.743    5.270
  244.402    0.182    0.428  123.550    6.582
  244.702    0.188    0.418  123.580    8.220
  245.002    0.183    0.359  113.847    9.892
  245.302    0.156    0.326  102.896   12.585
  245.602    0.103    0.279   94.385   14.595
  245.902    0.086    0.266   92.583   15.147
  246.202    0.085    0.313   97.489   14.329
  246.502    0.140    0.349  104.831   13.062
  246.802    0.173    0.357  105.471   13.062
  247.102    0.181    0.345   92.689   13.809
  247.402    0.208    0.358   74.421   16.314
  247.702    0.241    0.379   57.984   20.000
  248.002    0.255    0.376   51.304   23.195
  248.302    0.253    0.357   48.282   25.446
  248.602    0.250    0.362   45.873   26.900
  248.902    0.263    0.384   45.899   27.404
  249.202    0.272    0.391   48.973   26.902
  249.502    0.275    0.396   50.830   26.409
  249.802    0.271    0.402   50.860   24.982
  250.102    0.264    0.394   50.881   22.773
  250.402    0.258    0.370   52.126   20.005
  250.702    0.258    0.381   54.593   17.573
  251.002    0.262    0.387   57.667   16.319
  251.302    0.254    0.390   60.741   15.154
