~VERSION INFORMATION
 VERS.                 2.0:   CWLS LOG ASCII STANDARD -VERSION 2.0
 WRAP.                  NO:   ONE LINE PER DEPTH STEP
~WELL INFORMATION BLOCK
#MNEM.UNIT           DATA                    DESCRIPTION OF MNEMONIC
#---------    -------------------            -------------------------------
# Generated from Intellog Unique Number	CS_69_70/WELL/770
NULL.         -999.25                        : NULL_VALUE
WELL.         ET AL TWEEDIE                  : Well_name    - WELL              
LOC .         00/06-11-070-13W4/0            : Location     - LOCATION          
UWI .         00/06-11-070-13W4/0            : Uwi          - UNIQUE WELL ID    
ENTR.         SP                             : Entered      - ENTERED BY        
SRVC.         SCHLUMBERGER                   : Scn          - SERVICE COMPANY   
STRT.M        265                            : top_depth    - START DEPTH       
STOP.M        500                            : bot_depth    - STOP DEPTH        
STEP.M        0.25                           : increment    - STEP LENGTH       
~CURVE INFORMATION BLOCK
#MNEM UNIT       ERCB CURVE CODE    CURVE DESCRIPTION
#-----------   ------------------   ----------------------------------
DEPT.M        00 001 00 00         : DEPTH        - DEPTH                       
ILD .OHMM     00 120 00 00         : RESD         - DEEP RESISTIVITY (DIL)      
DPHI.V/V      00 890 00 00         : PHID         - DENSITY POROSITY (LIMESTONE)
NPHI.V/V      00 330 00 00         : PHIN         - NEUTRON POROSITY (LIMESTONE)
GR  .API      00 310 00 00         : GR           - GAMMA RAY                   
~PARAMETER INFORMATION       
#MNEM.UNIT           DATA             DESCRIPTION OF MNEMONIC
#---------         -----------     ------------------------------
GL  .M        579.7                : gl           - GROUND LEVEL ELEVATION      
EREF.M        583.3                : kb           - ELEVATION OF DEPTH REFERENCE
DATM.M        579.7                : datum        - DATUM ELEVATION             
TDD .M        511                  : tdd          - TOTAL DEPTH DRILLER         
RUN .         ONE                  : Run          - RUN NUMBER                  
ENG .         BILL                 : Engineer     - RECORDING ENGINEER          
WIT .         JIM                  : Witness      - WITNESSED BY                
MUD .         GEL                  : Mud_type     - MUD TYPE                    
MATR.         LIMESTONE            : Logunit      - NEUTRON MATRIX              
TMAX.C        26                   : BHT          - MAXIMUM RECORDED TEMPERATURE
BHTD.M        511                  : BHTDEP       - MAXIMUM RECORDED TEMPERATURE
MATR.         1                    : LOGUNIT      - NEUTRON MATRIX              
RMT .C        25                   : MDTP         - TEMPERATURE OF MUD          
NEUT.         1                    : NEUTRON      - NEUTRON TYPE                
RESI.         0                    : RESIST       - RESISTIVITY TYPE            
RMC .OHMM     0.25                 : RMC          - RESISTIVITY OF MUD CAKE     
RMF .OHMM     0.25                 : RMF          - RESISTIVITY OF MUD FILTRATE 
SUFT.C        15                   : SUFT         - SURFACE TEMPERATURE         
~A  DEPTH     RESD     PHID     PHIN       GR
# ...
  395.500    4.545    0.226    0.365   75.774
  395.750    4.479    0.228    0.366   76.149
  396.000    4.438    0.214    0.373   74.285
  396.250    4.397    0.200    0.378   76.296
  396.500    4.374    0.195    0.382   78.848
  396.750    4.246    0.201    0.384   81.522
  397.000    4.107    0.214    0.390   85.347
  397.250    3.913    0.224    0.406   88.506
  397.500    3.708    0.231    0.407   91.118
  397.750    3.547    0.235    0.398   94.640
  398.000    3.437    0.239    0.392   96.467
  398.250    3.343    0.242    0.391   96.479
  398.500    3.098    0.247    0.415   94.738
  398.750    2.952    0.247    0.432   94.870
  399.000    2.828    0.237    0.444   98.271
  399.250    2.756    0.229    0.457  100.038
  399.500    2.751    0.231    0.472  100.412
  399.750    2.778    0.246    0.462   98.794
  400.000    2.825    0.264    0.445   96.564
  400.250    2.841    0.262    0.455   93.975
  400.500    2.815    0.259    0.473   93.140
  400.750    2.673    0.259    0.476   93.454
  401.000    2.505    0.271    0.470   93.531
  401.250    2.334    0.281    0.482   93.720
  401.500    2.167    0.287    0.484   94.278
  401.750    2.088    0.292    0.505   94.895
  402.000    2.050    0.289    0.536   95.634
  402.250    2.217    0.277    0.539   95.886
  402.500    2.345    0.264    0.510   91.299
  402.750    2.555    0.259    0.493   93.249
  403.000    2.748    0.255    0.444   96.104
  403.250    2.922    0.257    0.423   97.205
  403.500    3.226    0.265    0.403   87.536
  403.750    3.515    0.277    0.408   80.772
  404.000    3.946    0.257    0.396   76.004
  404.250    4.244    0.195    0.364   72.990
  404.500    4.496    0.130    0.349   69.736
  404.750    4.747    0.084    0.333   66.964
  405.000    4.473    0.107    0.326   64.254
  405.250    3.891    0.189    0.332   61.845
  405.500    3.384    0.222    0.348   66.337
  405.750    3.165    0.249    0.378   70.282
  406.000    3.411    0.278    0.390   73.377
  406.250    4.079    0.258    0.382   77.264
  406.500    4.656    0.220    0.369   76.608
  406.750    5.111    0.181    0.357   62.946
  407.000    5.208    0.045    0.347   63.260
  407.250    5.037    0.126    0.338   69.868
  407.500    4.431    0.161    0.342   77.806
  407.750    4.144    0.193    0.350   83.869
  408.000    4.076    0.215    0.361   87.209
  408.250    4.092    0.226    0.367   89.158
  408.500    4.272    0.209    0.374   91.529
  408.750    4.484    0.194    0.377   92.631
  409.000    4.725    0.188    0.393   92.825
  409.250    4.951    0.199    0.384   91.143
  409.500    5.092    0.204    0.374   88.009
  409.750    5.121    0.217    0.384   87.596
  410.000    5.113    0.202    0.398   86.640
  410.250    5.057    0.173    0.397   84.898
  410.500    4.964    0.153    0.387   83.882
  410.750    5.002    0.139    0.380   83.895
  411.000    5.041    0.142    0.375   85.419
  411.250    4.976    0.166    0.373   88.517
  411.500    4.840    0.198    0.381   92.099
  411.750    4.673    0.207    0.382   93.623
  412.000    4.528    0.209    0.373   94.543
  412.250    4.486    0.210    0.367   95.160
  412.500    4.405    0.208    0.368   96.322
  412.750    4.405    0.208    0.367   97.241
  413.000    4.406    0.211    0.362   95.076
  413.250    4.415    0.216    0.367   92.547
  413.500    4.465    0.224    0.374   90.744
  413.750    4.584    0.237    0.373   89.061
  414.000    4.777    0.244    0.373   87.198
  414.250    4.858    0.238    0.377   85.394
  414.500    4.950    0.224    0.375   83.350
  414.750    4.969    0.214    0.368   82.816
  415.000    4.971    0.205    0.372   86.459
  415.250    4.953    0.203    0.390   90.768
  415.500    4.926    0.202    0.404   93.683
  415.750    4.800    0.194    0.418   96.723
  416.000    4.739    0.192    0.401   97.762
  416.250    4.661    0.188    0.377   95.777
  416.500    4.584    0.199    0.365   94.760
  416.750    4.593    0.210    0.359   96.103
  417.000    4.594    0.200    0.358   98.416
  417.250    4.544    0.190    0.358   99.940
  417.500    4.411    0.183    0.368   95.898
  417.750    3.880    0.176    0.374   90.041
  418.000    3.331    0.192    0.378   88.117
  418.250    2.914    0.218    0.383   89.399
  418.500    2.675    0.243    0.403   89.836
  418.750    2.447    0.259    0.425   87.850
  419.000    2.305    0.262    0.451   88.165
  419.250    2.144    0.257    0.479   89.932
  419.500    2.234    0.252    0.472   92.545
  419.750    2.480    0.255    0.510   95.402
  420.000    2.879    0.228    0.425   93.659
  420.250    3.137    0.211    0.396   86.773
  420.500    3.438    0.198    0.376   82.610
  420.750    3.697    0.187    0.378   79.415
  421.000    3.589    0.200    0.391   78.762
  421.250    3.754    0.221    0.399   80.652
  421.500    3.847    0.230    0.407   81.569
  421.750    3.840    0.240    0.408   82.005
  422.000    3.827    0.247    0.390   82.561
  422.250    3.943    0.251    0.389   82.030
  422.500    4.264    0.253    0.386   77.747
  422.750    4.527    0.256    0.377   77.698
  423.000    4.717    0.223    0.375   80.371
  423.250    4.833    0.188    0.373   85.345
  423.500    4.971    0.158    0.368   87.958
  423.750    5.047    0.130    0.364   76.112
  424.000    5.066    0.109    0.361   71.162
  424.250    5.002    0.100    0.359   72.323
  424.500    4.775    0.116    0.358   77.418
  424.750    4.567    0.132    0.367   84.207
  425.000    4.146    0.152    0.373   87.789
  425.250    3.892    0.172    0.375   91.008
  425.500    3.772    0.199    0.374   88.177
  425.750    3.894    0.187    0.372   86.131
  426.000    3.967    0.165    0.368   84.813
  426.250    4.020    0.154    0.365   86.276
  426.500    3.925    0.167    0.364   90.524
  426.750    3.671    0.200    0.366   94.348
  427.000    3.408    0.192    0.382   97.871
  427.250    3.140    0.184    0.399   99.274
  427.500    2.943    0.181    0.409   99.165
  427.750    2.717    0.196    0.407   97.664
  428.000    2.603    0.198    0.406   95.135
  428.250    2.481    0.197    0.403   96.599
  428.500    2.382    0.192    0.402   98.973
  428.750    2.291    0.184    0.435  100.011
  429.000    2.257    0.186    0.423  100.024
  429.250    2.195    0.190    0.410  102.940
  429.500    2.179    0.196    0.411  105.796
  429.750    2.237    0.198    0.435  104.780
  430.000    2.323    0.170    0.450   98.741
  430.250    2.416    0.163    0.436   98.330
  430.500    2.471    0.185    0.419  102.819
  430.750    2.480    0.208    0.434  110.157
  431.000    2.386    0.223    0.461  113.191
  431.250    2.307    0.226    0.467  116.652
  431.500    2.269    0.213    0.441  118.660
  431.750    2.283    0.204    0.431  116.009
  432.000    2.361    0.201    0.398  100.956
  432.250    2.645    0.214    0.374   78.216
  432.500    3.472    0.228    0.355   67.277
  432.750    4.507    0.231    0.340   61.663
  433.000    5.604    0.224    0.327   63.126
  433.250    7.022    0.222    0.331   67.071
  433.500    7.637    0.259    0.340   71.621
  433.750    7.525    0.242    0.347   76.779
  434.000    6.794    0.223    0.349   79.632
  434.250    6.179    0.211    0.346   74.381
  434.500    5.823    0.239    0.343   68.101
  434.750    6.034    0.260    0.343   64.301
  435.000    6.735    0.265    0.344   61.891
  435.250    7.339    0.267    0.349   65.415
  435.500    7.908    0.260    0.350   66.999
  435.750    8.379    0.257    0.348   66.467
  436.000    8.715    0.247    0.346   63.695
  436.250    9.149    0.234    0.345   60.621
  436.500    9.497    0.218    0.348   61.179
  436.750    9.951    0.050    0.338   60.585
  437.000   10.603    0.034    0.316   53.094
  437.250   10.946    0.018    0.303   46.753
  437.500   10.887    0.133    0.302   49.005
  437.750   10.452    0.177    0.310   61.965
  438.000    9.262    0.238    0.315   71.356
  438.250    6.419    0.294    0.317   72.940
  438.500    5.993    0.326    0.315   68.840
  438.750    6.164    0.335    0.308   65.341
