~VERSION INFORMATION
 VERS.                 2.0:   CWLS LOG ASCII STANDARD -VERSION 2.0
 WRAP.                  NO:   ONE LINE PER DEPTH STEP
~WELL INFORMATION BLOCK
#MNEM.UNIT           DATA                    DESCRIPTION OF MNEMONIC
#---------    -------------------            -------------------------------
# Generated from Intellog Unique Number	CN_91_93/WELL/3046
WELL.         PARAMOUNT RESOURCES LTD.       : Well_name    - WELL
LOC .         00/05-36-092-20W4/0            : Location     - LOCATION
UWI .         00/05-36-092-20W4/0            : Uwi          - UNIQUE WELL ID
ENTR.         JOETTE                         : Entered      - ENTERED BY
SRVC.         COMPUTALOG                     : Scn          - SERVICE COMPANY
DATE.         04/09/92                       : Date         - LOG DATE
STRT.M        105                            : top_depth    - START DEPTH
STOP.M        255                            : bot_depth    - STOP DEPTH
STEP.M        0.25                           : increment    - STEP LENGTH
 NULL. -999.2500:NULL Value
~CURVE INFORMATION BLOCK
#MNEM UNIT       ERCB CURVE CODE    CURVE DESCRIPTION
#-----------   ------------------   ----------------------------------
DEPT.M        00 001 00 00         : DEPTH        - DEPTH
CALI.MM       00 280 01 00         : CAL          - CALIPER
GR  .API      00 310 00 00         : GR           - GAMMA RAY
NPHI.V/V      00 330 00 00         : PHIN         - NEUTRON POROSITY (SANDSTONE)
DPHI.V/V      00 890 00 00         : PHID         - DENSITY POROSITY (SANDSTONE)
ILD .OHMM     00 120 00 00         : RESD         - DEEP RESISTIVITY (DIL)
~PARAMETER INFORMATION
#MNEM.UNIT           DATA             DESCRIPTION OF MNEMONIC
#---------         -----------     ------------------------------
GL  .M        527.9                : gl           - GROUND LEVEL ELEVATION
EREF.M        531.3                : kb           - ELEVATION OF DEPTH REFERENCE
DATM.M        531.3                : datum        - DATUM ELEVATION
TDD .M        259                  : tdd          - TOTAL DEPTH DRILLER
RUN .         ONE                  : Run          - RUN NUMBER
ENG .         BILL                 : Engineer     - RECORDING ENGINEER
WIT .         JIM                  : Witness      - WITNESSED BY
MUD .         GEL                  : Mud_type     - MUD TYPE
MATR.         SANDSTONE            : Logunit      - NEUTRON MATRIX
TMAX.C        17                   : BHT          - MAXIMUM RECORDED TEMPERATURE
BHTD.M        259                  : BHTDEP       - MAXIMUM RECORDED TEMPERATURE
RMT .C        15.6                 : MDTP         - TEMPERATURE OF MUD
MUDD.KG/M     1190                 : MWT          - MUD DENSITY
NEUT.         1                    : NEUTRON      - NEUTRON TYPE
RESI.         0                    : RESIST       - RESISTIVITY TYPE
RM  .OHMM     1.9                  : RM           - RESISTIVITY OF MUD
RMC .OHMM     1.9                  : RMC          - RESISTIVITY OF MUD CAKE
RMF .OHMM     1.6                  : RMF          - RESISTIVITY OF MUD FILTRATE
SUFT.C        -20                  : SUFT         - SURFACE TEMPERATURE
~A  DEPTH      CAL       GR     PHIN     PHID     RESD
# ...
  141.500  190.218  107.045    0.419    0.226    8.127
  141.750  189.220  102.811    0.410    0.197    7.678
  142.000  187.217  101.612    0.410    0.142    7.253
  142.250  186.224  105.258    0.452    0.112    6.984
  142.500  185.232  107.697    0.477    0.199    6.233
  142.750  184.239  105.282    0.452    0.239    6.002
  143.000  184.257  107.110    0.422    0.249    5.890
  143.250  184.275  110.150    0.414    0.241    5.671
  143.500  184.293  108.951    0.446    0.232    5.565
  143.750  185.321  108.961    0.469    0.220    5.462
  144.000  185.335  111.398    0.474    0.224    5.463
  144.250  185.353  113.831    0.484    0.229    5.464
  144.500  185.366  113.842    0.483    0.229    5.465
  144.750  186.395  112.640    0.475    0.226    5.466
  145.000  186.417  110.225    0.475    0.224    5.573
  145.250  186.440  108.414    0.475    0.214    5.791
  145.500  186.449  104.180    0.463    0.196    6.016
  145.750  186.471  100.555    0.444    0.183    6.494
  146.000  186.485   97.534    0.422    0.174    6.746
  146.250  185.497   95.116    0.410    0.191    7.564
  146.500  185.506   98.162    0.401    0.212    8.164
  146.750  185.524   98.779    0.395    0.232    8.482
  147.000  184.535   97.577    0.400    0.256    9.155
  147.250  184.553   98.795    0.407    0.248    9.157
  147.500  184.571  104.870    0.404    0.198    8.986
  147.750  184.589  113.371    0.407    0.177    8.330
  148.000  183.597  109.743    0.418    0.165    7.433
  148.250  183.615   97.019    0.412    0.116    6.760
  148.500  183.624  106.126    0.411    0.115    6.635
  148.750  183.641  119.478    0.427    0.154    6.636
  149.000  182.653  125.553    0.448    0.169    6.637
  149.250  182.676  127.385    0.459    0.164    6.639
  149.500  182.685  128.609    0.466    0.174    6.272
  149.750  182.707  125.585    0.456    0.173    5.815
  150.000  182.721  124.383    0.455    0.161    5.598
  150.250  181.732  121.968    0.463    0.159    5.494
  150.500  181.741  117.731    0.469    0.168    5.291
  150.750  181.764  114.710    0.480    0.181    5.292
  151.000  181.777  117.149    0.495    0.205    5.193
  151.250  181.800  118.982    0.507    0.212    5.194
  151.500  181.813  118.381    0.507    0.206    4.907
  151.750  181.836  116.572    0.513    0.206    4.725
  152.000  181.858  115.370    0.523    0.216    4.217
  152.250  181.872  117.198    0.523    0.241    4.060
  152.500  181.890  120.240    0.448    0.258    3.984
  152.750  181.903  119.038    0.439    0.229    3.985
  153.000  181.921  110.560    0.427    0.219    4.384
  153.250  181.939  101.474    0.409    0.232    5.204
  153.500  181.962   97.243    0.391    0.239    6.060
  153.750  180.964   96.035    0.376    0.229    6.925
  154.000  177.950   88.163    0.368    0.196    8.065
  154.250  175.942   79.078    0.357    0.149    9.043
  154.500  171.922   66.963    0.346    0.099   10.137
  154.750  170.920   60.907    0.314    0.059   16.628
  155.000  170.947   62.737    0.297    0.139   18.290
  155.250  172.978   79.124    0.297    0.156   20.119
  155.500  176.028   81.555    0.312    0.181   19.746
  155.750  179.082   88.845    0.341    0.178   17.620
  156.000  180.111   88.853    0.362    0.154   15.427
  156.250  180.129   93.715    0.377    0.154   13.251
  156.500  180.151   99.183    0.383    0.183   11.602
  156.750  180.165   99.194    0.374    0.204    9.967
  157.000  181.189   95.567    0.373    0.214    8.894
  157.250  181.202   98.612    0.376    0.220    8.089
  157.500  182.231  101.048    0.383    0.199    7.939
  157.750  184.279  104.094    0.403    0.194    7.790
  158.000  184.293  105.919    0.412    0.199    7.502
  158.250  185.317  107.139    0.412    0.227    7.504
  158.500  185.339  108.366    0.412    0.232    7.505
  158.750  184.342  104.735    0.419    0.245    7.948
  159.000  182.348   96.863    0.420    0.245    8.577
  159.250  180.335   84.746    0.406    0.193   10.377
  159.500  177.326   68.383    0.378    0.184   12.317
  159.750  176.324   67.785    0.363    0.221   14.345
  160.000  176.351   70.224    0.360    0.235   16.392
  160.250  176.365   67.809    0.349    0.247   17.692
  160.500  176.383   68.429    0.325    0.272   18.036
  160.750  176.396   69.044    0.334    0.243   18.040
  161.000  177.425   70.265    0.353    0.236   17.704
  161.250  177.438   72.704    0.347    0.236   17.047
  161.500  178.467   73.927    0.344    0.199   16.105
  161.750  179.495   78.183    0.352    0.143   14.372
  162.000  181.535   80.614    0.359    0.199   13.071
  162.250  182.563   88.508    0.368    0.194   11.887
  162.500  184.603  100.040    0.390    0.227    9.645
  162.750  187.657  113.998    0.418    0.241    7.826
  163.000  189.692  110.977    0.433    0.234    6.350
  163.250  191.736  108.562    0.456    0.212    5.999
  163.500  192.760  106.150    0.458    0.205    5.888
  163.750  193.789  106.767    0.450    0.185    6.118
  164.000  193.802  106.778    0.440    0.175    6.603
  164.250  193.820  106.789    0.433    0.185    7.126
  164.500  193.838  106.188    0.423    0.196    7.691
  164.750  193.856  104.986    0.418    0.202    8.301
  165.000  192.863  103.178    0.412    0.212    9.307
  165.250  189.854  100.763    0.406    0.218   10.045
  165.500  188.857   98.954    0.398    0.225   11.262
  165.750  186.858   97.149    0.392    0.238   11.700
  166.000  186.871   96.553    0.385    0.250   12.629
  166.250  186.885   99.593    0.375    0.244   12.874
  166.500  186.907  103.242    0.375    0.204   12.877
  166.750  186.921  102.647    0.382    0.193   12.880
  167.000  183.915  102.048    0.391    0.164   12.640
  167.250  181.903   95.995    0.354    0.111   12.643
  167.500  176.868   82.665    0.305    0.049   12.890
  167.750  173.858   79.644    0.304   -0.025   13.140
  168.000  171.846   86.931    0.314    0.045   13.652
  168.250  171.868   95.432    0.340    0.122   14.457
  168.500  172.897   92.408    0.347    0.189   15.021
  168.750  176.962   83.929    0.365    0.225   15.608
  169.000  176.971   77.269    0.381    0.260   15.611
  169.250  175.978   77.886    0.335    0.256   15.615
  169.500  173.979   86.387    0.324    0.182   15.323
  169.750  173.988   99.739    0.331    0.146   15.038
  170.000  178.049  102.781    0.346    0.161   14.481
  170.250  182.110  104.611    0.366    0.192   13.944
  170.500  183.143  104.016    0.392    0.204   13.425
  170.750  184.167  102.210    0.394    0.198   12.927
  171.000  184.194  101.609    0.383    0.225   12.213
  171.250  184.207  101.016    0.383    0.234   11.321
  171.500  184.221  103.452    0.389    0.231   10.494
  171.750  184.221  106.495    0.399    0.201    9.188
  172.000  184.252  107.110    0.404    0.204    8.199
  172.250  185.286  107.121    0.410    0.216    7.043
  172.500  185.299  111.376    0.449    0.227    6.405
  172.750  186.337  111.387    0.493    0.236    6.407
  173.000  185.339  105.940    0.486    0.241    7.183
  173.250  183.336   97.459    0.453    0.247    8.053
  173.500  180.322   87.160    0.425    0.259    9.379
  173.750  179.329   77.469    0.405    0.272   10.923
  174.000  178.328   72.628    0.391    0.274   12.482
  174.250  179.361   73.248    0.380    0.265   13.472
  174.500  182.415   77.501    0.370    0.257   13.734
  174.750  183.435   84.791    0.375    0.260   13.479
  175.000  185.479   87.829    0.385    0.253   12.978
  175.250  185.492   94.510    0.394    0.227   12.260
  175.500  184.508   99.372    0.405    0.212   11.364
  175.750  183.507  104.840    0.412    0.213   10.534
  176.000  180.502   98.787    0.416    0.205    9.952
  176.250  179.504   92.130    0.413    0.206    9.584
  176.500  178.507   89.715    0.408    0.213    9.586
  176.750  177.515   87.301    0.397    0.226    9.772
  177.000  176.517   86.700    0.385    0.235   10.751
  177.250  176.535   83.678    0.366    0.200   11.602
  177.500  176.558   79.444    0.330    0.158   13.007
  177.750  176.576   74.604    0.298    0.128   14.582
