~VERSION INFORMATION
 VERS.                 2.0:   CWLS LOG ASCII STANDARD -VERSION 2.0
 WRAP.                  NO:   ONE LINE PER DEPTH STEP
~WELL INFORMATION BLOCK
#MNEM.UNIT           DATA                    DESCRIPTION OF MNEMONIC
#---------    -------------------            -------------------------------
# Generated from Intellog Unique Number	CS_67_68/WELL/2169
WELL.         CHIEFCO et al TWEEDIE          : Well_name    - WELL
LOC .         00/06-13-067-12W4/0            : Location     - LOCATION
UWI .         00/06-13-067-12W4/0            : Uwi          - UNIQUE WELL ID
ENTR.         SP                             : Entered      - ENTERED BY
SRVC.         SCHLUMBERGER                   : Scn          - SERVICE COMPANY
STRT.M        320                            : top_depth    - START DEPTH
STOP.M        525                            : bot_depth    - STOP DEPTH
STEP.M        0.25                           : increment    - STEP LENGTH
 NULL. -999.2500:NULL Value
~CURVE INFORMATION BLOCK
#MNEM UNIT       ERCB CURVE CODE    CURVE DESCRIPTION
#-----------   ------------------   ----------------------------------
DEPT.M        00 001 00 00         : DEPTH        - DEPTH
ILD .OHMM     00 120 00 00         : RESD         - DEEP RESISTIVITY (DIL)
DPHI.V/V      00 890 00 00         : PHID         - DENSITY POROSITY (LIMESTONE)
NPHI.V/V      00 330 00 00         : PHIN         - NEUTRON POROSITY (LIMESTONE)
GR  .API      00 310 00 00         : GR           - GAMMA RAY
CALI.MM       00 280 01 00         : CAL          - CALIPER
~PARAMETER INFORMATION
#MNEM.UNIT           DATA             DESCRIPTION OF MNEMONIC
#---------         -----------     ------------------------------
GL  .M        604.6                : gl           - GROUND LEVEL ELEVATION
EREF.M        607.6                : kb           - ELEVATION OF DEPTH REFERENCE
DATM.M        607.6                : datum        - DATUM ELEVATION
TDD .M        532                  : tdd          - TOTAL DEPTH DRILLER
RUN .         ONE                  : Run          - RUN NUMBER
ENG .         BILL                 : Engineer     - RECORDING ENGINEER
WIT .         JIM                  : Witness      - WITNESSED BY
MUD .         GEL                  : Mud_type     - MUD TYPE
MATR.         LIMESTONE            : Logunit      - NEUTRON MATRIX
TMAX.C        20                   : BHT          - MAXIMUM RECORDED TEMPERATURE
BHTD.M        529                  : BHTDEP       - MAXIMUM RECORDED TEMPERATURE
MATR.         1                    : LOGUNIT      - NEUTRON MATRIX
RMT .C        25                   : MDTP         - TEMPERATURE OF MUD
NEUT.         1                    : NEUTRON      - NEUTRON TYPE
RESI.         0                    : RESIST       - RESISTIVITY TYPE
RMC .OHMM     0.25                 : RMC          - RESISTIVITY OF MUD CAKE
RMF .OHMM     0.25                 : RMF          - RESISTIVITY OF MUD FILTRATE
SUFT.C        15                   : SUFT         - SURFACE TEMPERATURE
~A  DEPTH     RESD     PHID     PHIN       GR      CAL
# ...
  356.500    2.640    0.259    0.344  108.065  146.872
  356.750    2.628    0.236    0.337  116.990  147.474
  357.000    2.553    0.233    0.331  125.120  148.278
  357.250    2.430    0.238    0.326  135.757  148.878
  357.500    2.365    0.238    0.339  134.405  149.378
  357.750    2.395    0.234    0.352  129.627  149.876
  358.000    2.437    0.236    0.356  140.571  150.273
  358.250    2.499    0.242    0.364  155.858  150.366
  358.500    2.548    0.247    0.370  187.172  150.661
  358.750    2.604    0.237    0.375  196.097  151.056
  359.000    2.655    0.231    0.377  201.413  151.353
  359.250    2.707    0.215    0.371  205.138  151.748
  359.500    2.756    0.199    0.365  206.783  152.248
  359.750    2.753    0.191    0.361  208.000  152.543
  360.000    2.705    0.217    0.356  209.095  152.533
  360.250    2.595    0.234    0.357  209.333  152.726
  360.500    2.484    0.246    0.398  207.858  152.614
  360.750    2.399    0.253    0.403  203.875  151.990
  361.000    2.323    0.259    0.395  196.589  151.470
  361.250    2.282    0.258    0.390  180.372  150.848
  361.500    2.259    0.247    0.390  148.127  150.326
  361.750    2.240    0.236    0.379  139.189  149.807
  362.000    2.230    0.235    0.371  143.648  149.082
  362.250    2.253    0.244    0.380  137.157  148.663
  362.500    2.255    0.247    0.385  138.925  148.244
  362.750    2.228    0.245    0.382  144.791  147.928
  363.000    2.156    0.245    0.394  148.883  147.509
  363.250    2.049    0.238    0.384  128.995  147.496
  363.500    1.921    0.230    0.373  111.554  147.487
  363.750    1.746    0.224    0.368   96.927  147.273
  364.000    1.560    0.247    0.378   86.521  146.752
  364.250    1.412    0.270    0.371   71.833  146.026
  364.500    1.319    0.291    0.355   60.081  145.610
  364.750    1.296    0.312    0.342   52.122  144.885
  365.000    1.319    0.323    0.331   43.612  144.160
  365.250    1.461    0.322    0.326   43.361  143.436
  365.500    1.581    0.322    0.323   46.718  142.710
  365.750    1.799    0.314    0.321   49.038  142.293
  366.000    2.002    0.298    0.370   55.026  141.976
  366.250    2.224    0.274    0.371   65.174  141.863
  366.500    2.403    0.243    0.376   75.078  141.853
  366.750    2.577    0.237    0.391   82.840  142.146
  367.000    2.717    0.233    0.401   86.872  142.239
  367.250    2.796    0.227    0.408   84.418  142.330
  367.500    2.763    0.237    0.394   89.428  142.320
  367.750    2.670    0.244    0.385   85.017  142.409
  368.000    2.584    0.239    0.380   90.331  142.399
  368.250    2.501    0.243    0.379   88.797  142.287
  368.500    2.444    0.251    0.386   82.428  142.072
  368.750    2.410    0.257    0.395   79.791  141.755
  369.000    2.394    0.262    0.383   83.027  141.540
  369.250    2.388    0.254    0.377   76.658  141.632
  369.500    2.417    0.245    0.373   79.465  141.722
  369.750    2.511    0.235    0.376   84.169  141.916
  370.000    2.604    0.241    0.388   86.549  142.516
  370.250    2.695    0.249    0.393   84.769  143.322
  370.500    2.790    0.259    0.387   87.147  144.331
  370.750    2.855    0.270    0.386   89.465  145.340
  371.000    2.939    0.253    0.388   91.356  146.450
  371.250    3.008    0.252    0.377   89.147  147.560
  371.500    3.050    0.257    0.365   83.207  148.263
  371.750    3.087    0.231    0.359   80.142  148.559
  372.000    3.097    0.186    0.361   81.236  148.444
  372.250    3.122    0.197    0.373   85.265  148.230
  372.500    3.160    0.210    0.380   88.073  148.118
  372.750    3.193    0.203    0.372   90.576  147.903
  373.000    3.226    0.201    0.367   93.690  147.791
  373.250    3.247    0.195    0.373   93.438  147.474
  373.500    3.256    0.192    0.375   90.557  146.954
  373.750    3.235    0.188    0.364   88.960  146.942
  374.000    3.172    0.184    0.358   93.175  146.830
  374.250    3.015    0.185    0.360   96.655  146.922
  374.500    2.907    0.195    0.362   96.282  146.911
  374.750    2.793    0.214    0.355   93.216  146.900
  375.000    2.678    0.228    0.348   87.643  146.684
  375.250    2.535    0.239    0.357   79.195  146.470
  375.500    2.382    0.243    0.352   79.003  146.153
  375.750    2.315    0.238    0.343   82.668  145.529
  376.000    2.300    0.238    0.342   86.149  145.009
  376.250    2.281    0.242    0.351   84.612  144.692
  376.500    2.266    0.254    0.344   85.707  144.377
  376.750    2.264    0.268    0.338   85.946  143.957
  377.000    2.278    0.277    0.346   85.083  143.641
  377.250    2.311    0.264    0.354   81.896  143.935
  377.500    2.348    0.262    0.358   78.647  144.232
  377.750    2.394    0.263    0.352   76.071  144.323
  378.000    2.446    0.254    0.348   80.163  145.230
  378.250    2.494    0.235    0.341   83.521  146.442
  378.500    2.548    0.229    0.334   85.656  146.942
  378.750    2.603    0.235    0.328   80.389  147.439
  379.000    2.694    0.233    0.336   83.685  147.531
  379.250    2.799    0.214    0.343   81.660  147.520
  379.500    2.924    0.199    0.345   79.206  147.307
  379.750    3.038    0.187    0.339   78.344  147.499
  380.000    3.174    0.177    0.334   79.989  147.285
  380.250    3.322    0.182    0.332   82.735  147.580
  380.500    3.438    0.196    0.334   85.910  147.874
  380.750    3.566    0.205    0.342   91.898  148.167
  381.000    3.760    0.190    0.347   99.783  148.363
  381.250    3.907    0.182    0.347  105.282  148.556
  381.500    3.976    0.180    0.355  106.499  148.953
  381.750    3.995    0.177    0.361  103.251  149.351
  382.000    3.932    0.167    0.365  102.877  149.237
  382.250    3.806    0.178    0.365   98.711  148.309
  382.500    3.636    0.211    0.363   91.486  147.381
  382.750    3.335    0.232    0.359   84.016  146.146
  383.000    3.105    0.244    0.356   84.194  145.013
  383.250    2.966    0.238    0.355   77.641  144.086
  383.500    2.855    0.238    0.356   73.720  143.157
  383.750    2.759    0.238    0.349   73.590  143.043
  384.000    2.665    0.232    0.343   73.707  142.726
  384.250    2.567    0.227    0.340   76.208  142.819
  384.500    2.531    0.237    0.336   75.896  143.318
  384.750    2.504    0.250    0.333   66.468  143.817
  385.000    2.470    0.264    0.330   61.385  144.418
  385.250    2.463    0.264    0.330   63.519  144.611
  385.500    2.452    0.261    0.331   63.574  144.498
  385.750    2.436    0.254    0.331   63.079  144.385
  386.000    2.420    0.243    0.329   66.375  143.967
  386.250    2.391    0.233    0.326   65.573  143.547
  386.500    2.371    0.235    0.323   61.101  143.232
  386.750    2.351    0.245    0.321   56.813  143.527
  387.000    2.358    0.242    0.322   59.070  144.127
  387.250    2.436    0.230    0.321   62.244  144.421
  387.500    2.608    0.222    0.324   63.828  144.513
  387.750    2.775    0.215    0.329   63.209  144.605
  388.000    3.149    0.215    0.331   62.959  144.592
  388.250    3.185    0.207    0.332   64.727  144.380
  388.500    3.303    0.197    0.329   67.227  143.858
  388.750    3.349    0.188    0.328   69.852  143.135
  389.000    3.050    0.181    0.333   71.375  142.512
  389.250    2.902    0.177    0.340   72.775  141.992
  389.500    2.593    0.184    0.337   72.708  141.368
  389.750    2.348    0.222    0.334   66.767  140.643
  390.000    2.230    0.242    0.337   62.051  140.327
  390.250    2.151    0.261    0.337   63.756  140.009
  390.500    2.125    0.261    0.338   64.179  139.898
  390.750    2.179    0.254    0.340   69.615  140.295
  391.000    2.273    0.240    0.338   72.301  140.283
  391.250    2.331    0.229    0.335   74.619  140.170
  391.500    2.346    0.239    0.331   76.570  139.957
  391.750    2.348    0.255    0.327   71.976  139.231
  392.000    2.320    0.266    0.325   66.954  139.221
  392.250    2.318    0.259    0.327   69.883  139.618
  392.500    2.355    0.243    0.327   71.957  139.809
  392.750    2.433    0.233    0.329   72.440  140.208
