~VERSION INFORMATION
 VERS.                 2.0:   CWLS LOG ASCII STANDARD -VERSION 2.0
 WRAP.                  NO:   ONE LINE PER DEPTH STEP
~WELL INFORMATION BLOCK
#MNEM.UNIT           DATA                    DESCRIPTION OF MNEMONIC
#---------    -------------------            -------------------------------
# Generated from Intellog Unique Number	CC_84_87/WELL/1049
NULL.         -999.25                        : NULL_VALUE
WELL.         NOVALTA GRANOR                 : Well_name    - WELL              
LOC .         03-02-084-17W4                 : Location     - LOCATION          
UWI .         00/03-02-084-17W400            : Uwi          - UNIQUE WELL ID    
ENTR.         JHS                            : Entered      - ENTERED BY        
SRVC.         DRESSER ATLAS                  : Scn          - SERVICE COMPANY   
DATE.         13 FEB 83                      : Date         - LOG DATE
STRT.M        85                             : top_depth    - START DEPTH       
STOP.M        280.001                        : bot_depth    - STOP DEPTH        
STEP.M        0.3                            : increment    - STEP LENGTH       
~CURVE INFORMATION BLOCK
#MNEM UNIT       ERCB CURVE CODE    CURVE DESCRIPTION
#-----------   ------------------   ----------------------------------
DEPT.M        00 001 00 00         : DEPTH        - DEPTH                       
DPHI.V/V      00 890 00 00         : PHID         - DENSITY POROSITY (LIMESTONE)
NPHI.V/V      00 330 00 00         : PHIN         - NEUTRON POROSITY (LIMESTONE)
GR  .API      00 310 00 00         : GR           - GAMMA RAY                   
ILD .OHMM     00 120 00 00         : RESD         - DEEP RESISTIVITY (DIL)      
~PARAMETER INFORMATION       
#MNEM.UNIT           DATA             DESCRIPTION OF MNEMONIC
#---------         -----------     ------------------------------
GL  .M        542.48               : gl           - GROUND LEVEL ELEVATION      
EREF.M        545.48               : kb           - ELEVATION OF DEPTH REFERENCE
DATM.M        545.48               : datum        - DATUM ELEVATION             
TDD .M        285                  : tdd          - TOTAL DEPTH DRILLER         
RUN .         ONE                  : Run          - RUN NUMBER                  
ENG .         BILL                 : Engineer     - RECORDING ENGINEER          
WIT .         JIM                  : Witness      - WITNESSED BY                
MUD .         GEL                  : Mud_type     - MUD TYPE                    
MATR.         LIMESTONE            : Logunit      - NEUTRON MATRIX              
TMAX.C        24                   : BHT          - MAXIMUM RECORDED TEMPERATURE
BHTD.M        285                  : BHTDEP       - MAXIMUM RECORDED TEMPERATURE
MATR.         1                    : LOGUNIT      - NEUTRON MATRIX              
RMT .C        25                   : MDTP         - TEMPERATURE OF MUD          
NEUT.         1                    : NEUTRON      - NEUTRON TYPE                
RESI.         0                    : RESIST       - RESISTIVITY TYPE            
RMC .OHMM     0.25                 : RMC          - RESISTIVITY OF MUD CAKE     
RMF .OHMM     0.25                 : RMF          - RESISTIVITY OF MUD FILTRATE 
SUFT.C        15                   : SUFT         - SURFACE TEMPERATURE         
~A  DEPTH     PHID     PHIN       GR     RESD
   85.000    0.290    0.458   94.728    2.612
   85.300    0.272    0.463   94.109    2.817
   85.600    0.244    0.410   89.846    3.277
   85.900    0.241    0.361   77.082    3.811
   86.200    0.257    0.386   60.674    4.518
   86.500    0.268    0.384   61.877    4.873
   86.800    0.274    0.381   63.685    4.968
   87.100    0.274    0.391   64.280    4.971
   87.400    0.274    0.400   68.517    4.880
   87.700    0.274    0.397   73.364    4.702
   88.000    0.267    0.377   75.781    4.617
   88.300    0.265    0.375   75.768    4.797
   88.600    0.271    0.377   75.149    4.799
   88.900    0.273    0.392   73.922    4.712
   89.200    0.275    0.397   75.733    4.456
   89.500    0.276    0.400   82.401    4.214
   89.800    0.278    0.413   81.783    4.059
   90.100    0.277    0.453   79.947    3.767
   90.400    0.276    0.468   83.580    3.496
   90.700    0.271    0.455   82.351    3.432
   91.000    0.266    0.468   86.591    3.702
   91.300    0.260    0.470   85.364    4.471
   91.600    0.266    0.396   76.244    4.559
   91.900    0.290    0.352   58.622    4.151
   92.200    0.296    0.444   53.146    3.710
   92.500    0.293    0.518   74.995    3.075
   92.800    0.288    0.564   88.948    2.646
   93.100    0.277    0.553   88.326    2.365
   93.400    0.273    0.506   85.887    2.279
   93.700    0.275    0.488   82.836    2.280
   94.000    0.284    0.488   83.434    2.369
   94.300    0.278    0.521   86.458    2.370
   94.600    0.281    0.530   88.267    2.371
   94.900    0.287    0.510   87.042    2.328
   95.200    0.294    0.515   85.207    2.286
   95.500    0.297    0.536   83.981    2.287
   95.800    0.295    0.553   85.183    2.332
   96.100    0.289    0.538   88.814    2.333
   96.400    0.283    0.519   88.802    2.423
   96.700    0.283    0.499   90.001    2.566
   97.000    0.284    0.507   91.812    2.616
   97.300    0.275    0.518   91.803    2.717
   97.600    0.269    0.487   91.182    2.823
   97.900    0.266    0.506   90.562    2.878
   98.200    0.261    0.530   88.122    2.990
   98.500    0.247    0.522   85.681    3.106
   98.800    0.250    0.486   86.885    3.167
   99.100    0.263    0.458   88.693    3.169
   99.400    0.287    0.509   94.147    3.292
   99.700    0.288    0.530   98.993    3.294
  100.000    0.284    0.515   97.765    3.358
  100.300    0.283    0.481   95.930    3.359
  100.600    0.282    0.460   93.491    3.425
  100.900    0.279    0.463   90.441    3.427
  101.200    0.282    0.482   91.037    3.429
  101.500    0.284    0.494   90.419    3.496
  101.800    0.276    0.482   87.977    3.631
  102.100    0.268    0.467   88.572    3.844
  102.400    0.272    0.479   87.953    3.994
  102.700    0.284    0.488   84.903    3.996
  103.000    0.286    0.486   84.284    4.310
  103.300    0.271    0.483   83.060    4.738
  103.600    0.244    0.403   78.189    5.616
  103.900    0.313    0.340   64.211    7.176
  104.200    0.344    0.359   47.803   10.266
  104.500    0.347    0.399   44.755   12.875
  104.800    0.340    0.404   52.030   12.175
  105.100    0.320    0.387   59.912   11.086
  105.400    0.304    0.393   64.757    9.907
  105.700    0.285    0.383   67.781    8.689
  106.000    0.276    0.378   72.626    7.764
  106.300    0.276    0.373   76.865    7.071
  106.600    0.287    0.379   73.210    6.201
  106.900    0.300    0.406   72.589    5.139
  107.200    0.319    0.405   80.472    4.860
  107.500    0.337    0.387   85.319    6.823
  107.800    0.364    0.351   77.413   10.929
  108.100    0.372    0.354   61.005   15.635
  108.400    0.370    0.390   53.704   20.360
  108.700    0.372    0.417   50.657   23.238
  109.000    0.371    0.433   50.644   23.253
  109.300    0.361    0.418   50.027   22.406
  109.600    0.354    0.385   49.405   21.586
  109.900    0.353    0.377   49.394   20.032
  110.200    0.354    0.391   52.419   18.589
  110.500    0.352    0.406   54.227   17.577
  110.800    0.345    0.408   50.573   16.309
  111.100    0.337    0.410   51.775   14.852
  111.400    0.328    0.414   56.619   16.327
  111.700    0.314    0.405   59.645   18.990
  112.000    0.296    0.405   59.632   20.875
  112.300    0.288    0.410   55.371   21.685
  112.600    0.296    0.404   52.323   21.292
  112.900    0.292    0.405   53.523   17.647
  113.200    0.300    0.424   54.119   11.669
  113.500    0.298    0.435   58.964    7.024
  113.800    0.293    0.430   69.276    4.915
  114.100    0.289    0.452   80.802    4.230
  114.400    0.284    0.459   83.215    3.710
  114.700    0.287    0.483   85.027    3.442
  115.000    0.284    0.484   86.230    3.380
  115.300    0.279    0.455   85.611    3.446
  115.600    0.284    0.431   86.207    3.648
  115.900    0.287    0.444   86.192    3.582
  116.200    0.284    0.493   84.360    3.386
  116.500    0.276    0.511   83.134    3.325
  116.800    0.276    0.523   87.978    3.655
  117.100    0.287    0.492   86.145    4.583
  117.400    0.336    0.427   78.239    7.481
  117.700    0.352    0.384   62.440   14.738
  118.000    0.353    0.389   50.890   16.823
  118.300    0.346    0.383   49.662   13.178
  118.600    0.340    0.385   52.080   12.461
  118.900    0.346    0.396   50.852   11.784
  119.200    0.345    0.407   45.983   10.530
  119.500    0.334    0.421   48.400    8.564
  119.800    0.330    0.420   52.638    7.512
  120.100    0.325    0.413   53.841    6.465
  120.400    0.318    0.415   55.650    4.877
  120.700    0.308    0.410   61.710    4.879
  121.000    0.308    0.419   68.379    5.893
  121.300    0.312    0.425   67.149    7.390
  121.600    0.308    0.423   64.103    7.972
  121.900    0.291    0.429   59.841    7.397
  122.200    0.276    0.468   60.434    6.017
  122.500    0.249    0.464   64.673    5.798
  122.800    0.246    0.446   74.985    6.254
  123.100    0.253    0.421   86.510    7.697
  123.400    0.278    0.402   86.497    9.122
  123.700    0.299    0.405   82.235   10.219
  124.000    0.307    0.400   81.008   11.232
  124.300    0.320    0.383   79.175   12.821
  124.600    0.329    0.377   73.699   14.093
  124.900    0.328    0.410   65.186   14.641
  125.200    0.314    0.412   58.492   13.845
  125.500    0.280    0.404   62.732   12.371
  125.800    0.256    0.376   73.650   11.482
  126.100    0.253    0.382   83.354   11.707
  126.400    0.260    0.389   85.769   11.933
  126.700    0.266    0.389   85.151   11.716
  127.000    0.260    0.396   81.495   11.290
  127.300    0.247    0.400   80.876   10.675
  127.600    0.235    0.392   80.863   10.094
  127.900    0.233    0.386   77.816    9.545
  128.200    0.228    0.391   80.839    9.025
  128.500    0.213    0.387   81.435    8.066
  128.800    0.191    0.355   80.815    7.208
  129.100    0.181    0.354   83.233    6.564
  129.400    0.177    0.418   88.684    5.756
  129.700    0.189    0.468   95.353    5.547
  130.000    0.197    0.453  103.842    5.872
  130.300    0.195    0.435  107.474    5.986
  130.600    0.173    0.409  108.068    5.660
  130.900    0.142    0.392  106.235    5.154
  131.200    0.165    0.422  101.972    4.521
  131.500    0.211    0.456  101.353    4.117
  131.800    0.219    0.459  107.412    3.893
  132.100    0.231    0.471  112.866    3.968
  132.400    0.254    0.475  114.068    4.703
  132.700    0.288    0.450  109.198    7.534
  133.000    0.286    0.405  100.685    9.810
  133.300    0.281    0.379   93.384    9.816
  133.600    0.279    0.374   89.731    9.108
  133.900    0.265    0.369   89.112    8.452
  134.201    0.247    0.372   90.314    8.617
  134.501    0.237    0.379   87.872    7.996
  134.801    0.263    0.380   89.681    7.999
  135.101    0.286    0.396   98.779    8.630
  135.401    0.324    0.409  101.801   11.027
  135.701    0.369    0.368   96.933   17.998
  136.001    0.417    0.239   76.882   29.934
  136.301    0.436    0.211   65.940   39.720
  136.601    0.438    0.197   64.104   43.661
  136.901    0.436    0.196   67.127   47.995
