~VERSION INFORMATION
 VERS.                 2.0:   CWLS LOG ASCII STANDARD -VERSION 2.0
 WRAP.                  NO:   ONE LINE PER DEPTH STEP
~WELL INFORMATION BLOCK
#MNEM.UNIT           DATA                    DESCRIPTION OF MNEMONIC
#---------    -------------------            -------------------------------
# Generated from Intellog Unique Number	CS_71_72/WELL/770
WELL.         SULPETRO LIMITED               : Well_name    - WELL
LOC .         00/06-19-071-10W4/0            : Location     - LOCATION
UWI .         00/06-19-071-10W4/0            : Uwi          - UNIQUE WELL ID
ENTR.         SP                             : Entered      - ENTERED BY
SRVC.         SCHLUMBERGER                   : Scn          - SERVICE COMPANY
STRT.M        300                            : top_depth    - START DEPTH
STOP.M        525                            : bot_depth    - STOP DEPTH
STEP.M        0.25                           : increment    - STEP LENGTH
 NULL. -999.2500:NULL Value
~CURVE INFORMATION BLOCK
#MNEM UNIT       ERCB CURVE CODE    CURVE DESCRIPTION
#-----------   ------------------   ----------------------------------
DEPT.M        00 001 00 00         : DEPTH        - DEPTH
ILD .OHMM     00 120 00 00         : RESD         - DEEP RESISTIVITY (DIL)
DPHI.V/V      00 890 00 00         : PHID         - DENSITY POROSITY (LIMESTONE)
NPHI.V/V      00 330 00 00         : PHIN         - NEUTRON POROSITY (LIMESTONE)
GR  .API      00 310 00 00         : GR           - GAMMA RAY
~PARAMETER INFORMATION
#MNEM.UNIT           DATA             DESCRIPTION OF MNEMONIC
#---------         -----------     ------------------------------
GL  .M        648.81               : gl           - GROUND LEVEL ELEVATION
EREF.M        651.64               : kb           - ELEVATION OF DEPTH REFERENCE
DATM.M        648.81               : datum        - DATUM ELEVATION
TDD .M        538                  : tdd          - TOTAL DEPTH DRILLER
RUN .         ONE                  : Run          - RUN NUMBER
ENG .         BILL                 : Engineer     - RECORDING ENGINEER
WIT .         JIM                  : Witness      - WITNESSED BY
MUD .         GEL                  : Mud_type     - MUD TYPE
MATR.         LIMESTONE            : Logunit      - NEUTRON MATRIX
TMAX.C        24                   : BHT          - MAXIMUM RECORDED TEMPERATURE
BHTD.M        538                  : BHTDEP       - MAXIMUM RECORDED TEMPERATURE
MATR.         1                    : LOGUNIT      - NEUTRON MATRIX
RMT .C        25                   : MDTP         - TEMPERATURE OF MUD
NEUT.         1                    : NEUTRON      - NEUTRON TYPE
RESI.         0                    : RESIST       - RESISTIVITY TYPE
RMC .OHMM     0.25                 : RMC          - RESISTIVITY OF MUD CAKE
RMF .OHMM     0.25                 : RMF          - RESISTIVITY OF MUD FILTRATE
SUFT.C        15                   : SUFT         - SURFACE TEMPERATURE
~A  DEPTH     RESD     PHID     PHIN       GR
  300.000    2.436    0.240    0.433   94.127
  300.250    2.544    0.219    0.415   95.822
  300.500    2.626    0.187    0.403   98.308
  300.750    2.670    0.187    0.392   98.849
  301.000    2.666    0.209    0.401   90.645
  301.250    2.651    0.226    0.425   89.790
  301.500    2.617    0.236    0.426   90.939
  301.750    2.607    0.244    0.434   92.027
  302.000    2.607    0.238    0.456   93.115
  302.250    2.637    0.227    0.444   91.471
  302.500    2.692    0.221    0.470   90.736
  302.750    2.748    0.221    0.477   94.558
  303.000    2.768    0.227    0.453  101.233
  303.250    2.784    0.221    0.463  104.932
  303.500    2.769    0.208    0.471  100.251
  303.750    2.733    0.216    0.484   94.234
  304.000    2.698    0.231    0.502   93.317
  304.250    2.673    0.233    0.520   97.624
  304.500    2.663    0.219    0.522   98.591
  304.750    2.668    0.224    0.489   99.254
  305.000    2.683    0.220    0.505  102.042
  305.250    2.714    0.212    0.458  100.033
  305.500    2.739    0.211    0.443   94.441
  305.750    2.781    0.211    0.417   96.197
  306.000    2.871    0.205    0.422   95.464
  306.250    2.986    0.194    0.427   89.082
  306.500    3.123    0.186    0.427   84.705
  306.750    3.223    0.181    0.440   86.036
  307.000    3.403    0.169    0.399   91.557
  307.250    3.593    0.123    0.388   95.499
  307.500    3.702    0.083    0.381   93.004
  307.750    3.716    0.142    0.423   97.432
  308.000    3.587    0.183    0.413  101.314
  308.250    3.335    0.186    0.423  103.434
  308.500    3.095    0.188    0.487   99.907
  308.750    2.921    0.194    0.525  100.206
  309.000    2.862    0.199    0.475  105.362
  309.250    2.862    0.203    0.436  104.142
  309.500    2.900    0.207    0.408  101.283
  309.750    2.966    0.208    0.379  101.278
  310.000    3.102    0.205    0.355   97.569
  310.250    3.196    0.202    0.380   94.831
  310.500    3.227    0.193    0.393   99.623
  310.750    3.191    0.182    0.417  106.602
  311.000    3.185    0.187    0.425  110.180
  311.250    3.251    0.194    0.426  103.981
  311.500    3.325    0.192    0.435  101.364
  311.750    3.420    0.192    0.447   94.983
  312.000    3.511    0.192    0.438   89.877
  312.250    3.491    0.202    0.445   94.912
  312.500    3.364    0.212    0.443   99.948
  312.750    3.277    0.209    0.431   98.728
  313.000    3.284    0.195    0.409   93.743
  313.250    3.813    0.199    0.427   95.985
  313.500    4.055    0.204    0.428   91.243
  313.750    4.647    0.198    0.319   85.044
  314.000    5.396    0.169    0.286   77.266
  314.250    6.093    0.192    0.284   70.642
  314.500    6.397    0.268    0.320   71.243
  314.750    6.314    0.265    0.369   73.668
  315.000    6.094    0.278    0.429   67.832
  315.250    5.971    0.295    0.432   62.909
  315.500    5.971    0.313    0.370   57.803
  315.750    6.005    0.312    0.368   54.518
  316.000    6.017    0.293    0.384   58.764
  316.250    6.051    0.278    0.420   67.018
  316.500    6.154    0.264    0.452   71.264
  316.750    6.235    0.287    0.442   69.680
  317.000    6.306    0.308    0.414   62.570
  317.250    6.342    0.324    0.383   59.893
  317.500    6.307    0.324    0.369   64.320
  317.750    6.065    0.328    0.356   65.165
  318.000    5.875    0.312    0.366   68.622
  318.250    5.703    0.257    0.377   74.204
  318.500    5.525    0.239    0.374   77.114
  318.750    5.403    0.235    0.386   79.963
  319.000    5.333    0.230    0.402   86.760
  319.250    5.284    0.211    0.414   91.977
  319.500    5.245    0.234    0.390   85.292
  319.750    5.197    0.250    0.384   84.012
  320.000    5.158    0.227    0.396   91.355
  320.250    5.130    0.187    0.403   95.904
  320.500    5.130    0.182    0.396   91.041
  320.750    5.169    0.192    0.369   88.728
  321.000    5.257    0.199    0.376   88.359
  321.250    5.376    0.194    0.376   87.018
  321.500    5.540    0.182    0.360   84.279
  321.750    5.762    0.161    0.354   81.724
  322.000    5.914    0.160    0.348   78.258
  322.250    5.948    0.197    0.355   75.459
  322.500    5.490    0.219    0.346   74.483
  322.750    4.917    0.238    0.351   76.725
  323.000    4.572    0.200    0.378   83.885
  323.250    4.650    0.174    0.394   90.317
  323.500    5.202    0.174    0.398   91.891
  323.750    5.786    0.179    0.402   87.757
  324.000    6.270    0.161    0.353   80.950
  324.250    6.619    0.041    0.319   70.439
  324.500    6.166    0.023    0.294   61.751
  324.750    5.691    0.086    0.326   67.332
  325.000    5.223    0.158    0.365   77.832
  325.250    4.930    0.190    0.378   85.297
  325.500    4.930    0.199    0.370   91.730
  325.750    5.118    0.192    0.392   99.255
  326.000    5.343    0.187    0.446   92.205
  326.250    5.725    0.204    0.356   82.727
  326.500    5.966    0.218    0.326   86.911
  326.750    6.251    0.210    0.323   94.012
  327.000    6.453    0.222    0.360   96.072
  327.250    6.662    0.231    0.374   88.596
  327.500    6.725    0.222    0.357   85.009
  327.750    6.763    0.231    0.347   85.186
  328.000    6.725    0.243    0.339   84.270
  328.250    6.516    0.249    0.334   82.140
  328.500    6.348    0.265    0.424   75.576
  328.750    6.173    0.398    0.440   70.166
  329.000    6.037    0.526    0.410   63.602
  329.250    6.071    0.363    0.380   69.367
  329.500    6.542    0.332    0.380   73.309
  329.750    7.264    0.409    0.483   70.875
  330.000    7.755    0.583    0.526   63.522
  330.250    8.202    0.614    0.479   67.464
  330.500    8.578    0.356    0.439   74.200
  330.750    8.839    0.318    0.419   79.296
  331.000    9.006    0.290    0.436   77.044
  331.250    9.125    0.289    0.451   70.905
  331.500    9.126    0.280    0.429   64.340
  331.750    9.092    0.273    0.387   61.361
  332.000    9.009    0.283    0.364   60.688
  332.250    8.892    0.293    0.377   67.423
  332.500    8.794    0.304    0.396   72.702
  332.750    8.696    0.313    0.412   77.858
  333.000    8.616    0.292    0.388   82.165
  333.250    8.617    0.276    0.367   85.196
  333.500    8.617    0.284    0.373   84.706
  333.750    8.650    0.273    0.390   84.518
  334.000    8.748    0.259    0.385   89.371
  334.250    8.847    0.250    0.364   91.917
  334.500    8.947    0.247    0.344   91.122
  334.750    8.948    0.259    0.351   86.927
  335.000    8.915    0.254    0.370   80.606
  335.250    8.833    0.255    0.361   77.322
  335.500    8.768    0.263    0.334   80.536
  335.750    8.687    0.267    0.324   80.895
  336.000    8.655    0.245    0.345   75.182
  336.250    8.623    0.223    0.368   76.148
  336.500    8.640    0.240    0.401   74.929
  336.750    8.640    0.292    0.410   70.794
  337.000    8.593    0.314    0.365   66.781
  337.250    8.434    0.298    0.344   68.780
  337.500    8.202    0.284    0.334   75.819
  337.750    7.991    0.277    0.326   78.608
  338.000    7.742    0.281    0.321   80.789
  338.250    7.225    0.265    0.316   82.727
  338.500    6.693    0.245    0.338   85.515
  338.750    6.282    0.229    0.377   86.847
  339.000    6.007    0.218    0.401   87.145
  339.250    5.875    0.210    0.405   94.548
  339.500    5.930    0.215    0.380   98.187
  339.750    6.214    0.216    0.361  100.672
  340.000    6.709    0.208    0.352   96.659
  340.250    7.189    0.211    0.343   94.590
  340.500    7.449    0.213    0.335   99.503
  340.750    7.547    0.214    0.336  102.594
  341.000    7.590    0.216    0.376  103.926
  341.250    7.648    0.228    0.397  105.013
  341.500    7.634    0.236    0.356   99.179
  341.750    7.410    0.239    0.328   98.263
  342.000    7.219    0.230    0.313  100.201
  342.250    6.994    0.223    0.356   97.707
  342.500    6.763    0.217    0.377  103.653
  342.750    6.601    0.227    0.391  108.324
  343.000    6.468    0.245    0.384   97.874
  343.250    6.348    0.252    0.338   92.160
