~VERSION INFORMATION
 VERS.                 2.0:   CWLS LOG ASCII STANDARD -VERSION 2.0
 WRAP.                  NO:   ONE LINE PER DEPTH STEP
~WELL INFORMATION BLOCK
#MNEM.UNIT           DATA                    DESCRIPTION OF MNEMONIC
#---------    -------------------            -------------------------------
# Generated from Intellog Unique Number	CW_79_81/WELL/185
WELL.         01-27-079-23W4                 : Well_name    - WELL
LOC .         00/01-27-079-23W4/0            : Location     - LOCATION
UWI .         00/01-27-079-23W4/0            : Uwi          - UNIQUE WELL ID
ENTR.         MAX                            : Entered      - ENTERED BY
SRVC.         COMPUTALOG                     : Scn          - SERVICE COMPANY
STRT.M        225                            : top_depth    - START DEPTH
STOP.M        465                            : bot_depth    - STOP DEPTH
STEP.M        0.25                           : increment    - STEP LENGTH
 NULL. -999.2500:NULL Value
~CURVE INFORMATION BLOCK
#MNEM UNIT       ERCB CURVE CODE    CURVE DESCRIPTION
#-----------   ------------------   ----------------------------------
DEPT.M        00 001 00 00         : DEPTH        - DEPTH
GR  .API      00 310 00 00         : GR           - GAMMA RAY
ILD .OHMM     00 120 00 00         : RESD         - DEEP RESISTIVITY (DIL)
NPHI.V/V      00 330 00 00         : PHIN         - NEUTRON POROSITY (SANDSTONE)
DPHI.V/V      00 890 00 00         : PHID         - DENSITY POROSITY (SANDSTONE)
CALI.MM       00 280 01 00         : CAL          - CALIPER
~PARAMETER INFORMATION
#MNEM.UNIT           DATA             DESCRIPTION OF MNEMONIC
#---------         -----------     ------------------------------
GL  .M        563.6                : gl           - GROUND LEVEL ELEVATION
EREF.M        568.6                : kb           - ELEVATION OF DEPTH REFERENCE
DATM.M        563.6                : datum        - DATUM ELEVATION
TDD .M        580                  : tdd          - TOTAL DEPTH DRILLER
RUN .         ONE                  : Run          - RUN NUMBER
ENG .         BILL                 : Engineer     - RECORDING ENGINEER
WIT .         JIM                  : Witness      - WITNESSED BY
MUD .         GEL                  : Mud_type     - MUD TYPE
MATR.         SANDSTONE            : Logunit      - NEUTRON MATRIX
TMAX.C        28                   : BHT          - MAXIMUM RECORDED TEMPERATURE
BHTD.M        580                  : BHTDEP       - MAXIMUM RECORDED TEMPERATURE
RMT .C        15.6                 : MDTP         - TEMPERATURE OF MUD
MUDD.KG/M     1180                 : MWT          - MUD DENSITY
NEUT.         1                    : NEUTRON      - NEUTRON TYPE
RESI.         0                    : RESIST       - RESISTIVITY TYPE
RM  .OHMM     6.3                  : RM           - RESISTIVITY OF MUD
RMC .OHMM     4.7                  : RMC          - RESISTIVITY OF MUD CAKE
RMF .OHMM     7                    : RMF          - RESISTIVITY OF MUD FILTRATE
SUFT.C        -10                  : SUFT         - SURFACE TEMPERATURE
~A  DEPTH       GR     RESD     PHIN     PHID      CAL
# ...
  444.000   87.900   11.212    0.476    0.394  246.022
  444.250   84.681   11.952    0.498    0.462  246.047
  444.500   74.996   12.740    0.518    0.461  245.584
  444.750   71.775   12.510    0.516    0.402  245.118
  445.000   75.317   11.524    0.510    0.360  244.652
  445.250   85.916    9.959    0.498    0.305  244.676
  445.500   89.752    8.528    0.514    0.302  244.213
  445.750   96.532    7.644    0.531    0.297  243.254
  446.000   98.896    6.852    0.553    0.287  243.281
  446.250   99.792    6.546    0.562    0.265  242.819
  446.500   98.633    6.487    0.509    0.206  242.356
  446.750   98.057    6.606    0.477    0.164  242.377
  447.000   96.018    7.107    0.462    0.172  241.911
  447.250   89.857    7.576    0.451    0.206  241.935
  447.500   87.522    7.857    0.445    0.237  241.956
  447.750   95.471    8.224    0.440    0.233  242.473
  448.000  104.015    8.453    0.438    0.220  242.990
  448.250  104.617    9.011    0.439    0.215  243.011
  448.500  104.043    9.605    0.439    0.243  243.035
  448.750   89.065   10.427    0.439    0.285  243.063
  449.000   77.025   13.219    0.433    0.308  243.580
  449.250   64.105   17.541    0.411    0.304  244.097
  449.500   73.527   19.750    0.379    0.277  244.115
  449.750   78.540   24.141    0.374    0.255  244.632
  450.000   80.613   25.733    0.381    0.248  245.149
  450.250   78.571   26.690    0.386    0.246  245.173
  450.500   73.292   27.683    0.398    0.299  245.197
  450.750   65.959   29.780    0.384    0.326  244.731
  451.000   66.856   31.744    0.364    0.313  244.755
  451.250   69.516   32.330    0.367    0.293  244.289
  451.500   73.352   30.889    0.387    0.278  244.320
  451.750   73.954   28.978    0.387    0.263  244.341
  452.000   76.322   25.974    0.380    0.247  243.385
  452.250   82.510   23.281    0.382    0.238  242.919
  452.500   83.406   22.447    0.377    0.239  241.966
  452.750   64.901   22.243    0.350    0.188  240.517
  453.000   53.450   22.861    0.294    0.105  238.095
  453.250   49.643   23.496    0.277    0.088  238.119
  453.500   63.770   23.497    0.265    0.148  240.106
  453.750   74.371   22.043    0.285    0.161  240.130
  454.000   80.851   20.306    0.316    0.168  240.157
  454.250   85.863   17.709    0.338    0.173  240.178
  454.500   89.995   15.586    0.347    0.184  240.692
  454.750   90.889   14.358    0.360    0.209  242.682
  455.000   90.320   13.347    0.354    0.206  244.173
  455.250   89.450   12.522    0.348    0.181  245.174
  455.500   90.641   11.855    0.350    0.167  246.677
  455.750   79.192   11.535    0.355    0.200  247.188
  456.000   78.914   11.641    0.364    0.198  247.699
  456.250   83.629   11.964    0.375    0.204  248.213
  456.500   88.055   12.297    0.379    0.216  248.733
  456.750   83.365   12.638    0.395    0.224  248.757
  457.000   77.502   12.989    0.429    0.233  249.271
  457.250   76.929   13.472    0.450    0.244  249.788
  457.500   76.354   13.846    0.447    0.271  251.772
  457.750   75.490   13.847    0.430    0.252  252.773
  458.000   80.500   13.974    0.412    0.241  249.367
  458.250   84.044   14.232    0.386    0.258  245.962
  458.500   81.705   14.627    0.372    0.277  245.009
  458.750   78.781   14.761    0.363    0.262  245.030
  459.000   82.619   13.975    0.362    0.245  244.573
  459.250   82.044   12.992    0.368    0.236  244.101
  459.500   76.473   12.413    0.401    0.249  244.129
  459.750   77.959   11.968    0.408    0.247  243.170
  460.000   79.447   11.435    0.387    0.232  241.727
  460.250   72.992   11.126    0.376    0.225  240.281
  460.500   71.831   11.025    0.370    0.215  238.839
  460.750   74.491   11.026    0.364    0.188  237.390
  461.000   81.562   11.229    0.358    0.153  235.947
  461.250   84.515   11.332    0.348    0.134  234.498
  461.500   90.997   11.436    0.362    0.165  233.056
  461.750   97.482   11.332    0.378    0.179  232.100
  462.000   98.084   11.230    0.386    0.179  231.634
  462.250   94.863   10.828    0.378    0.176  231.168
  462.500   89.882   10.536    0.366    0.170  230.705
  462.750   88.133    9.884    0.372    0.156  230.242
  463.000   86.676    9.022    0.391    0.143  230.263
  463.250   81.106    9.189    0.367    0.129  229.798
  463.500   66.715    9.795    0.351    0.126  229.335
  463.750   60.851   10.731    0.307    0.122  228.382
  464.000   55.281   11.439    0.289    0.116  227.423
  464.250   48.534   12.532    0.278    0.100  225.000
  464.500   35.907   13.855    0.286    0.088  224.535
  464.750   35.628   15.458    0.296    0.063  225.046
  465.000   42.698   17.726    0.296    0.089  226.059
