~VERSION INFORMATION
 VERS.                 2.0:   CWLS LOG ASCII STANDARD -VERSION 2.0
 WRAP.                  NO:   ONE LINE PER DEPTH STEP
~WELL INFORMATION BLOCK
#MNEM.UNIT           DATA                    DESCRIPTION OF MNEMONIC
#---------    -------------------            -------------------------------
# Generated from Intellog Unique Number	CW_79_81/WELL/195
WELL.         CAN DELHI WABASCA 06-36        : Well_name    - WELL
LOC .         00/06-36-080-25W4/0            : Location     - LOCATION
UWI .         00/06-36-080-25W4/0            : Uwi          - UNIQUE WELL ID
ENTR.         JJ                             : Entered      - ENTERED BY
SRVC.         SCHLUMBERGER                   : Scn          - SERVICE COMPANY
DATE.         17 FEB 69                      : Date         - LOG DATE
STRT.M        306.019                        : top_depth    - START DEPTH
STOP.M        437.019                        : bot_depth    - STOP DEPTH
STEP.M        0.25                           : increment    - STEP LENGTH
 NULL. -999.2500:NULL Value
~CURVE INFORMATION BLOCK
#MNEM UNIT       ERCB CURVE CODE    CURVE DESCRIPTION
#-----------   ------------------   ----------------------------------
DEPT.M        00 001 00 00         : DEPTH        - DEPTH
DPHI.V/V      00 890 00 00         : PHID         - DENSITY POROSITY (SANDSTONE)
DELT.US/F     00 520 00 00         : DELT         - SONIC TRAVEL TIME
GR  .API      00 310 00 00         : GR           - GAMMA RAY
ILD .OHMM     00 120 00 00         : RESD         - DEEP RESISTIVITY (DIL)
~PARAMETER INFORMATION
#MNEM.UNIT           DATA             DESCRIPTION OF MNEMONIC
#---------         -----------     ------------------------------
GL  .M        557.083              : gl           - GROUND LEVEL ELEVATION
EREF.M        559.979              : kb           - ELEVATION OF DEPTH REFERENCE
DATM.M        559.979              : datum        - DATUM ELEVATION
TDD .M        445.008              : tdd          - TOTAL DEPTH DRILLER
RUN .         ONE                  : Run          - RUN NUMBER
ENG .         STUEHMER             : Engineer     - RECORDING ENGINEER
WIT .         STAFINSKI & WOROBEC  : Witness      - WITNESSED BY
BASE.         EDM                  : Branch       - HOME BASE OF LOGGING UNIT
MUD .         GEL                  : Mud_type     - MUD TYPE
MATR.         SANDSTONE            : Logunit      - NEUTRON MATRIX
TMAX.C        21.1111              : BHT          - MAXIMUM RECORDED TEMPERATURE
BHTD.M        442.57               : BHTDEP       - MAXIMUM RECORDED TEMPERATURE
RMT .C        21.1111              : MDTP         - TEMPERATURE OF MUD
MUDD.KG/M     1152                 : MWT          - MUD DENSITY
NEUT.         1                    : NEUTRON      - NEUTRON TYPE
RESI.         0                    : RESIST       - RESISTIVITY TYPE
RM  .OHMM     6.33                 : RM           - RESISTIVITY OF MUD
RMC .OHMM     0                    : RMC          - RESISTIVITY OF MUD CAKE
RMF .OHMM     5.01                 : RMF          - RESISTIVITY OF MUD FILTRATE
SUFT.C        5                    : SUFT         - SURFACE TEMPERATURE
~A  DEPTH     PHID     DELT       GR     RESD
# ...
  393.019    0.186  394.599   90.013    7.944
  393.269    0.134  404.463   88.569    7.445
  393.519    0.144  409.193   84.468    7.770
  393.769    0.067  382.970   78.562    8.437
  394.019    0.071  331.129   73.809    9.103
  394.269    0.178  315.838   83.042    9.649
  394.519    0.193  354.811   88.263    9.874
  394.769    0.175  377.451   94.389    9.978
  395.019    0.163  385.340   98.158    9.942
  395.269    0.190  395.074   93.504   10.046
  395.519    0.164  390.122   79.478   10.451
  395.769    0.106  350.201   78.335   10.997
  396.019    0.104  339.717   84.059   11.382
  396.269    0.185  365.914   88.429   11.908
  396.519    0.198  378.609   92.297   11.931
  396.769    0.217  382.019   73.860   11.092
  397.019    0.242  396.100   56.627   10.513
  397.269    0.278  403.398   48.265    9.733
  397.519    0.299  396.008   36.846    9.013
  397.769    0.300  381.309   32.745    8.074
  398.019    0.287  371.155   36.665    7.655
  398.269    0.286  354.810   37.477    7.437
  398.519    0.292  349.528   35.278    7.462
  398.769    0.303  353.004   35.538    7.665
  399.019    0.305  357.603   37.953    8.071
  399.269    0.302  362.397   40.671    8.335
  399.519    0.294  366.533   41.732    8.641
  399.769    0.283  371.127   42.795    8.845
  400.019    0.277  374.540   43.405    9.150
  400.269    0.292  378.280   44.718    9.394
  400.519    0.299  382.218   46.831    9.700
  400.769    0.284  386.221   50.249    9.944
  401.019    0.266  380.020   52.663   10.551
  401.269    0.244  350.240   48.913   11.317
  401.519    0.202  332.117   50.277   12.285
  401.769    0.176  330.323   55.048   13.735
  402.019    0.161  343.681   58.816   14.884
  402.269    0.194  360.263   55.917   16.755
  402.519    0.232  367.029   46.153   19.631
  402.769    0.253  369.391   39.345   24.717
  403.019    0.267  372.604   35.044   30.446
  403.269    0.283  373.776   32.947   41.378
  403.519    0.300  368.756   30.350   47.468
  403.769    0.303  365.385   30.559   51.148
  404.019    0.284  364.911   33.827   49.846
  404.269    0.287  365.622   37.845   47.680
  404.519    0.314  368.834   42.617   44.911
  404.769    0.322  369.217   42.678   42.645
  405.019    0.316  366.569   40.381   40.760
  405.269    0.307  365.174   40.038   37.490
  405.519    0.291  369.706   44.308   36.630
  405.769    0.303  373.908   47.475   37.617
  406.019    0.292  368.098   51.045   38.847
  406.269    0.272  362.949   52.907   39.834
  406.519    0.250  367.349   53.868   35.700
  406.769    0.227  347.775   55.181   31.746
  407.019    0.210  326.294   62.058   24.236
  407.269    0.186  324.570   69.034   17.551
  407.519    0.162  344.378   73.555   13.798
  407.769    0.143  361.617   80.431   10.447
  408.019    0.142  371.944   86.905    8.863
  408.269    0.175  379.109   90.924    7.943
  408.519    0.199  385.020   91.836    8.469
  408.769    0.213  392.781   87.986   10.381
  409.019    0.235  392.833   76.066   14.221
  409.269    0.254  381.295   61.488   18.785
  409.519    0.268  382.072   56.685   23.308
  409.769    0.272  373.762   59.402   27.872
  410.019    0.265  360.315   62.068   31.311
  410.269    0.250  350.884   60.973   33.665
  410.519    0.222  338.688   55.869   35.094
  410.769    0.191  324.648   52.019   36.102
  411.019    0.166  308.039   51.377   35.966
  411.269    0.134  279.906   54.393   33.980
  411.519    0.118  269.819   60.368   28.259
  411.769    0.101  308.988   65.440   23.923
  412.019    0.164  346.578   70.261   20.693
  412.269    0.218  362.302   74.782   17.041
  412.519    0.246  369.600   79.251   14.071
  412.769    0.226  374.196   77.707   11.744
  413.019    0.242  370.758   74.358    9.016
  413.269    0.235  377.529   73.114    7.372
  413.519    0.209  395.164   76.782    5.729
  413.769    0.193  412.800   80.149    5.029
  414.019    0.219  393.887   79.808    4.591
  414.269    0.221  412.312   83.326    4.634
  414.519    0.200  397.087   84.939    5.020
  414.769    0.157  362.237   80.938    5.446
  415.019    0.117  343.785   82.351    5.891
  415.269    0.112  370.377   89.778    6.417
  415.519    0.187  395.191   98.509    7.023
  415.769    0.236  407.690   82.628    7.931
  416.019    0.257  398.126   75.420    8.697
  416.269    0.272  389.948   70.417    9.645
  416.519    0.253  383.482   70.276   10.332
  416.769    0.275  396.968   73.142    9.914
  417.019    0.324  422.637   79.417    8.913
  417.269    0.362  437.572   84.087    7.490
  417.519    0.393  446.120   76.980    6.529
  417.769    0.355  453.681   70.121    6.011
  418.019    0.311  431.541   75.344    5.813
  418.269    0.268  413.088   82.019    5.797
  418.519    0.245  402.670   88.645    5.720
  418.769    0.253  413.060   85.195    5.724
  419.019    0.285  425.825   77.435    5.768
  419.269    0.299  418.896   72.332    5.872
  419.519    0.251  401.697   69.683    5.875
  419.769    0.196  398.325   80.019    5.839
  420.019    0.140  410.034   91.556    5.902
  420.269    0.196  419.436   96.227    6.147
  420.519    0.172  381.954   93.931    6.613
  420.769    0.181  350.856   82.260    6.978
  421.019    0.174  338.331   77.609    7.444
  421.269    0.173  356.824   85.789    7.508
  421.519    0.204  384.533   93.316    7.069
  421.769    0.278  396.771   98.037    6.772
  422.019    0.243  417.237  101.404    6.795
  422.269    0.234  418.472   96.852    7.182
  422.519    0.194  413.523   89.844    7.567
  422.769    0.185  383.743   80.731    7.911
  423.019    0.188  360.813   74.475    8.296
  423.269    0.158  343.745   74.684    8.239
  423.519    0.185  371.851   81.811    7.922
  423.769    0.235  395.807   88.889    7.704
  424.019    0.257  404.618   93.357    7.748
  424.269    0.275  404.014   96.626    8.014
  424.519    0.261  396.295   91.572    8.218
  424.769    0.258  407.411   85.065    8.543
  425.019    0.241  403.908   80.813    8.827
  425.269    0.208  366.028   79.720    9.273
  425.519    0.190  351.725   80.330    9.618
  425.769    0.184  363.433   83.598   10.225
  426.019    0.227  371.324   84.609   10.810
  426.269    0.261  359.324   71.737   12.080
  426.519    0.258  348.907   67.084   12.967
  426.769    0.270  356.400   62.532   13.493
  427.019    0.259  360.141   63.895   12.351
  427.269    0.242  357.886   68.214   11.451
  427.519    0.215  359.259   76.746   11.274
  427.769    0.270  378.936   86.629   11.639
  428.019    0.303  388.538   88.993   12.426
  428.269    0.283  389.512   78.226   13.856
  428.519    0.271  374.154   60.140   15.286
  428.769    0.272  362.157   64.510   16.655
  429.019    0.263  360.102   70.133   15.936
  429.269    0.233  356.006   68.288   13.890
  429.519    0.195  344.073   65.941   12.067
  429.769    0.165  324.502   62.191   11.045
  430.019    0.199  343.517   79.844    9.241
  430.269    0.226  356.082   90.430    8.300
  430.519    0.228  364.762   99.161    7.179
  430.769    0.209  372.522  109.947    6.901
  431.019    0.183  361.378  115.871    6.886
  431.269    0.143  353.266  121.293    6.909
  431.519    0.155  348.380  123.909    7.214
  431.769    0.177  359.167  109.482    8.001
  432.019    0.186  362.578  101.521    8.527
  432.269    0.202  356.111  100.027    8.329
  432.519    0.193  362.088   99.435    7.690
  432.769    0.204  373.009   98.842    7.191
  433.019    0.195  377.012   97.098    6.733
  433.269    0.189  358.362   94.552    6.636
  433.519    0.147  345.706   92.053    6.720
  433.769    0.114  338.646   87.049    6.904
  434.019    0.096  344.231   77.986    7.310
  434.269    0.060  307.537   37.895    7.976
  434.519    0.018  160.275   23.319    9.125
  434.769   -0.047  157.297   16.360   11.238
  435.019    0.006  179.939   10.706   13.149
  435.269    0.026  218.319    6.353   15.082
  435.519   -0.009  214.156    1.903   16.933
  435.769   -0.020  148.486    1.008   18.665
  436.019    0.011  194.308    0.718   20.054
  436.269   -0.006  207.728    0.377   20.861
