~VERSION INFORMATION
 VERS.                 2.0:   CWLS LOG ASCII STANDARD -VERSION 2.0
 WRAP.                  NO:   ONE LINE PER DEPTH STEP
~WELL INFORMATION BLOCK
#MNEM.UNIT           DATA                    DESCRIPTION OF MNEMONIC
#---------    -------------------            -------------------------------
# Generated from Intellog Unique Number	CS_77_79/WELL/913
WELL.         NOVALTA VIOLET                 : Well_name    - WELL
LOC .         00/07-32-078-03W4/0            : Location     - LOCATION
UWI .         00/07-32-078-03W4/0            : Uwi          - UNIQUE WELL ID
ENTR.         JHS                            : Entered      - ENTERED BY
SRVC.         SCHLUMBERGER                   : Scn          - SERVICE COMPANY
STRT.M        135                            : top_depth    - START DEPTH
STOP.M        400                            : bot_depth    - STOP DEPTH
STEP.M        0.25                           : increment    - STEP LENGTH
 NULL. -999.2500:NULL Value
~CURVE INFORMATION BLOCK
#MNEM UNIT       ERCB CURVE CODE    CURVE DESCRIPTION
#-----------   ------------------   ----------------------------------
DEPT.M        00 001 00 00         : DEPTH        - DEPTH
DPHI.V/V      00 890 00 00         : PHID         - DENSITY POROSITY (LIMESTONE)
NPHI.V/V      00 330 00 00         : PHIN         - NEUTRON POROSITY (LIMESTONE)
GR  .API      00 310 00 00         : GR           - GAMMA RAY
ILD .OHMM     00 120 00 00         : RESD         - DEEP RESISTIVITY (DIL)
RHOB.KG/M3    00 350 00 00         : DENS         - BULK DENSITY
~PARAMETER INFORMATION
#MNEM.UNIT           DATA             DESCRIPTION OF MNEMONIC
#---------         -----------     ------------------------------
GL  .M        549.79               : gl           - GROUND LEVEL ELEVATION
EREF.M        552.8                : kb           - ELEVATION OF DEPTH REFERENCE
DATM.M        552.8                : datum        - DATUM ELEVATION
TDD .M        405                  : tdd          - TOTAL DEPTH DRILLER
RUN .         ONE                  : Run          - RUN NUMBER
ENG .         BILL                 : Engineer     - RECORDING ENGINEER
WIT .         JIM                  : Witness      - WITNESSED BY
MUD .         GEL                  : Mud_type     - MUD TYPE
MATR.         LIMESTONE            : Logunit      - NEUTRON MATRIX
TMAX.C        23                   : BHT          - MAXIMUM RECORDED TEMPERATURE
BHTD.M        405                  : BHTDEP       - MAXIMUM RECORDED TEMPERATURE
MATR.         1                    : LOGUNIT      - NEUTRON MATRIX
RMT .C        25                   : MDTP         - TEMPERATURE OF MUD
NEUT.         1                    : NEUTRON      - NEUTRON TYPE
RESI.         0                    : RESIST       - RESISTIVITY TYPE
RMC .OHMM     0.25                 : RMC          - RESISTIVITY OF MUD CAKE
RMF .OHMM     0.25                 : RMF          - RESISTIVITY OF MUD FILTRATE
SUFT.C        15                   : SUFT         - SURFACE TEMPERATURE
~A  DEPTH     PHID     PHIN       GR     RESD     DENS
# ...
  208.000    0.216    0.385   79.909   14.477    0.000
  208.250    0.204    0.378   79.936   13.951    0.000
  208.500    0.200    0.362   86.047   13.444    0.000
  208.750    0.210    0.363   89.106   13.200    0.000
  209.000    0.211    0.380   87.925   12.958    0.000
  209.250    0.202    0.368   90.397   12.488    0.000
  209.500    0.198    0.349   92.855   12.035    0.000
  209.750    0.196    0.359   94.698   12.037    0.000
  210.000    0.202    0.360   97.159   12.496    0.000
  210.250    0.200    0.355   97.795   12.733    0.000
  210.500    0.199    0.404   96.612   12.737    0.000
  210.750    0.213    0.411   93.600   12.274    0.000
  211.000    0.219    0.405   86.951   11.609    0.000
  211.250    0.217    0.406   89.410   10.194    0.000
  211.500    0.208    0.408   93.690    9.642    0.000
  211.750    0.198    0.422   94.330    9.120    0.000
  212.000    0.193    0.422   91.930    9.469    0.000
  212.250    0.194    0.429   96.817    9.648    0.000
  212.500    0.191    0.443  101.100   10.592    0.000
  212.750    0.182    0.447   97.492   11.627    0.000
  213.000    0.180    0.407   89.623   13.753    0.000
  213.250    0.191    0.380   70.225   15.097    0.000
  213.500    0.242    0.374   64.791   16.574    0.000
  213.750    0.273    0.390   63.602   16.890    0.000
  214.000    0.297    0.405   62.415   16.894    0.000
  214.250    0.295    0.410   61.848   16.586    0.000
  214.500    0.287    0.412   61.265   16.284    0.000
  214.750    0.285    0.402   55.833   15.988    0.000
  215.000    0.291    0.392   49.784   15.989    0.000
  215.250    0.296    0.381   46.179   15.993    0.000
  215.500    0.303    0.364   48.636   15.997    0.000
  215.750    0.317    0.349   49.272   15.705    0.000
  216.000    0.320    0.354   48.701   15.420    0.000
  216.250    0.300    0.342   48.730   15.137    0.000
  216.500    0.286    0.337   50.576   14.588    0.000
  216.750    0.270    0.352   59.719   14.323    0.000
  217.000    0.253    0.354   68.853   14.061    0.000
  217.250    0.230    0.335   79.820   13.550    0.000
  217.500    0.225    0.336   83.489   13.059    0.000
  217.750    0.223    0.378   84.738   12.821    0.000
  218.000    0.217    0.386   84.769   12.586    0.000
  218.250    0.210    0.380   84.191   12.357    0.000
  218.500    0.224    0.384   83.611   12.132    0.000
  218.750    0.243    0.379   82.426   11.910    0.000
  219.000    0.232    0.379   81.853   11.478    0.000
  219.250    0.217    0.379   81.885   11.268    0.000
  219.500    0.207    0.371   85.554   11.063    0.000
  219.750    0.208    0.374   90.440   11.065    0.000
  220.000    0.212    0.420   94.117   11.277    0.000
  220.250    0.225    0.404   95.365   11.279    0.000
  220.500    0.237    0.390   90.536   11.494    0.000
  220.750    0.232    0.390   85.714   11.496    0.000
  221.000    0.223    0.384   88.176   11.078    0.000
  221.250    0.220    0.388   90.631   10.285    0.000
  221.500    0.218    0.406   91.870    9.201    0.000
  221.750    0.221    0.407   87.649    8.542    0.000
  222.000    0.243    0.384   86.463    7.500    0.000
  222.250    0.243    0.407   92.565    6.112    0.000
  222.500    0.237    0.446   95.026    6.001    0.000
  222.750    0.236    0.451   98.099    6.230    0.000
  223.000    0.240    0.472   99.948    7.232    0.000
  223.250    0.251    0.483   96.332    8.396    0.000
  223.500    0.282    0.450   72.070    9.390    0.000
  223.750    0.312    0.436   66.031   10.901    0.000
  224.000    0.323    0.427   63.027   11.967    0.000
  224.250    0.331    0.413   58.801   11.533    0.000
  224.500    0.340    0.406   55.807    9.939    0.000
  224.750    0.344    0.409   55.830    8.407    0.000
  225.000    0.320    0.411   59.498    7.381    0.000
  225.250    0.269    0.405   73.499    6.853    0.000
  225.500    0.239    0.407   86.894    6.246    0.000
  225.750    0.224    0.421   92.992    5.907    0.000
  226.000    0.214    0.428   97.878    5.485    0.000
  226.250    0.216    0.444  100.339    5.486    0.000
  226.500    0.226    0.434   95.512    5.287    0.000
  226.750    0.276    0.405   90.683    5.288    0.000
  227.000    0.266    0.391  104.072    5.289    0.000
  227.250    0.245    0.426  111.402    5.290    0.000
  227.500    0.234    0.449  108.388    5.391    0.000
  227.750    0.228    0.453   99.312    5.596    0.000
  228.000    0.231    0.447   90.232    6.144    0.000
  228.250    0.243    0.438   82.369    7.001    0.000
  228.500    0.266    0.436   75.715    7.686    0.000
  228.750    0.280    0.441   68.463    8.282    0.000
  229.000    0.287    0.437   64.240    9.263    0.000
  229.250    0.287    0.410   60.633    9.798    0.000
  229.500    0.289    0.387   59.445    9.983    0.000
  229.750    0.292    0.369   62.505    9.443    0.000
  230.000    0.293    0.451   71.646    8.767    0.000
  230.250    0.273    0.474   78.962    7.842    0.000
  230.500    0.251    0.462   85.677    7.015    0.000
  230.750    0.237    0.449   89.956    6.275    0.000
  231.000    0.230    0.459   96.667    5.826    0.000
  231.250    0.230    0.442   99.128    5.614    0.000
  231.500    0.233    0.422   90.657    5.512    0.000
  231.750    0.233    0.405   85.223    5.617    0.000
  232.000    0.222    0.396   83.426    5.831    0.000
  232.250    0.213    0.432   84.675    6.168    0.000
  232.500    0.210    0.438   90.167    6.169    0.000
  232.750    0.216    0.427   89.595    6.170    0.000
  233.000    0.223    0.424   87.197    6.172    0.000
  233.250    0.226    0.431   84.188    6.408    0.000
  233.500    0.230    0.405   81.177    6.529    0.000
  233.750    0.240    0.398   76.956    7.440    0.000
  234.000    0.269    0.398   72.750    8.478    0.000
  234.250    0.290    0.401   70.955    9.135    0.000
  234.500    0.286    0.404   70.372   10.029    0.000
  234.750    0.284    0.410   69.796   10.411    0.000
  235.000    0.291    0.416   66.179   10.808    0.000
  235.250    0.308    0.404   61.962   11.221    0.000
  235.500    0.316    0.400   66.846   11.650    0.000
  235.750    0.315    0.412   70.523   12.096    0.000
  236.000    0.309    0.417   66.912   12.097    0.000
  236.250    0.304    0.441   65.733   12.327    0.000
  236.500    0.309    0.445   68.189   12.102    0.000
  236.750    0.318    0.431   70.646   12.106    0.000
  237.000    0.316    0.423   70.069   12.108    0.000
  237.250    0.311    0.415   65.851   12.111    0.000
  237.500    0.316    0.418   70.744   12.114    0.000
  237.750    0.320    0.433   73.802   11.893    0.000
  238.000    0.312    0.420   70.190   11.676    0.000
  238.250    0.296    0.404   69.004   11.252    0.000
  238.500    0.278    0.397   77.539   11.047    0.000
  238.750    0.268    0.404   81.815   10.845    0.000
  239.000    0.264    0.419   80.629   10.259    0.000
  239.250    0.264    0.440   77.628    9.704    0.000
  239.500    0.254    0.450   80.090    9.351    0.000
  239.750    0.236    0.428   80.723    9.011    0.000
  240.000    0.230    0.417   77.724    8.212    0.000
  240.250    0.226    0.415   78.969    7.624    0.000
  240.500    0.225    0.429   83.245    7.347    0.000
  240.750    0.227    0.444   86.921    6.950    0.000
  241.000    0.233    0.450   87.556    6.823    0.000
  241.250    0.230    0.436   85.763    6.575    0.000
  241.500    0.225    0.431   89.442    6.219    0.000
  241.750    0.226    0.432   91.904    5.882    0.000
  242.000    0.230    0.441   92.533    5.669    0.000
  242.250    0.228    0.446   89.532    5.777    0.000
  242.500    0.223    0.447   87.738    6.110    0.000
  242.750    0.238    0.453   94.445    7.226    0.000
  243.000    0.256    0.467  104.800    8.546    0.000
  243.250    0.302    0.454  107.266    9.922    0.000
  243.500    0.317    0.433  104.255   11.096    0.000
  243.750    0.323    0.427   89.711   12.412    0.000
  244.000    0.325    0.437   76.385   12.647    0.000
  244.250    0.330    0.446   68.518   12.888    0.000
