~VERSION INFORMATION
 VERS.                 2.0:   CWLS LOG ASCII STANDARD -VERSION 2.0
 WRAP.                  NO:   ONE LINE PER DEPTH STEP
~WELL INFORMATION BLOCK
#MNEM.UNIT           DATA                    DESCRIPTION OF MNEMONIC
#---------    -------------------            -------------------------------
# Generated from Intellog Unique Number	CW_79_81/WELL/2459
WELL.         07-20-081-22W4                 : Well_name    - WELL
LOC .         00/07-20-081-22W4/0            : Location     - LOCATION
UWI .         00/07-20-081-22W4/0            : Uwi          - UNIQUE WELL ID
ENTR.         MAX                            : Entered      - ENTERED BY
SRVC.         SCHLUMBERGER                   : Scn          - SERVICE COMPANY
STRT.M        225                            : top_depth    - START DEPTH
STOP.M        439.75                         : bot_depth    - STOP DEPTH
STEP.M        0.25                           : increment    - STEP LENGTH
 NULL. -999.2500:NULL Value
~CURVE INFORMATION BLOCK
#MNEM UNIT       ERCB CURVE CODE    CURVE DESCRIPTION
#-----------   ------------------   ----------------------------------
DEPT.M        00 001 00 00         : DEPTH        - DEPTH
ILD .OHMM     00 120 00 00         : RESD         - DEEP RESISTIVITY (DIL)
NPHI.V/V      00 330 00 00         : PHIN         - NEUTRON POROSITY (SANDSTONE)
DPHI.V/V      00 890 00 00         : PHID         - DENSITY POROSITY (SANDSTONE)
GR  .API      00 310 00 00         : GR           - GAMMA RAY
CALI.MM       00 280 01 00         : CAL          - CALIPER
~PARAMETER INFORMATION
#MNEM.UNIT           DATA             DESCRIPTION OF MNEMONIC
#---------         -----------     ------------------------------
GL  .M        606.19               : gl           - GROUND LEVEL ELEVATION
EREF.M        609.8                : kb           - ELEVATION OF DEPTH REFERENCE
DATM.M        606.19               : datum        - DATUM ELEVATION
TDD .M        449                  : tdd          - TOTAL DEPTH DRILLER
RUN .         ONE                  : Run          - RUN NUMBER
ENG .         BILL                 : Engineer     - RECORDING ENGINEER
WIT .         JIM                  : Witness      - WITNESSED BY
MUD .         GEL                  : Mud_type     - MUD TYPE
MATR.         SANDSTONE            : Logunit      - NEUTRON MATRIX
TMAX.C        28                   : BHT          - MAXIMUM RECORDED TEMPERATURE
BHTD.M        449                  : BHTDEP       - MAXIMUM RECORDED TEMPERATURE
MATR.         1                    : LOGUNIT      - NEUTRON MATRIX
RMT .C        16                   : MDTP         - TEMPERATURE OF MUD
NEUT.         1                    : NEUTRON      - NEUTRON TYPE
RESI.         0                    : RESIST       - RESISTIVITY TYPE
RMC .OHMM     5                    : RMC          - RESISTIVITY OF MUD CAKE
RMF .OHMM     5                    : RMF          - RESISTIVITY OF MUD FILTRATE
SUFT.C        -20                  : SUFT         - SURFACE TEMPERATURE
~A  DEPTH     RESD     PHIN     PHID       GR      CAL
# ...
  334.500   10.553    0.461    0.289   66.719  154.120
  334.750   10.168    0.458    0.295   68.613  154.900
  335.000    9.798    0.448    0.295   71.930  155.681
  335.250    9.514    0.438    0.273   74.297  156.066
  335.500    9.322    0.434    0.240   75.894  156.056
  335.750    9.141    0.440    0.233   80.188  155.962
  336.000    8.932    0.450    0.224   83.889  155.539
  336.250    8.543    0.466    0.258   82.224  155.925
  336.500    8.079    0.477    0.260   80.734  156.014
  336.750    7.617    0.479    0.271   79.541  156.599
  337.000    7.140    0.479    0.308   78.942  158.271
  337.250    6.443    0.501    0.373   79.854  162.246
  337.500    5.794    0.509    0.442   82.075  166.357
  337.750    5.750    0.498    0.460   80.644  160.810
  338.000    6.089    0.487    0.453   74.942  158.230
  338.250    6.712    0.470    0.381   70.545  157.428
  338.500    7.590    0.445    0.273   70.183  157.318
  338.750    8.873    0.421    0.235   73.884  156.992
  339.000    9.580    0.446    0.272   74.620  157.396
  339.250    9.790    0.450    0.263   76.037  158.176
  339.500    9.788    0.447    0.272   76.032  158.365
  339.750    9.462    0.448    0.285   76.620  158.752
  340.000    8.852    0.457    0.293   78.572  159.631
  340.250    8.009    0.471    0.292   82.007  161.053
  340.500    7.535    0.476    0.286   84.967  162.279
  340.750    7.100    0.483    0.291   84.724  161.873
  341.000    6.768    0.489    0.295   83.945  161.172
  341.250    6.548    0.497    0.296   83.227  160.568
  341.500    6.440    0.507    0.296   82.807  160.261
  341.750    6.457    0.516    0.298   82.711  160.166
  342.000    6.555    0.500    0.273   83.447  159.741
  342.250    6.699    0.487    0.283   84.153  159.735
  342.500    6.846    0.478    0.280   85.036  159.428
  342.750    6.997    0.470    0.277   85.979  159.220
  343.000    7.099    0.463    0.275   86.982  159.210
  343.250    7.044    0.460    0.267   88.211  159.279
  343.500    7.043    0.465    0.265   88.452  159.684
  343.750    6.989    0.457    0.258   88.208  160.859
  344.000    6.975    0.451    0.259   87.966  161.442
  344.250    6.973    0.450    0.259   87.842  161.829
  344.500    6.971    0.456    0.258   87.598  162.215
  344.750    6.969    0.462    0.263   86.246  162.680
  345.000    6.967    0.467    0.262   84.262  163.084
  345.250    6.965    0.483    0.273   82.832  163.864
  345.500    6.963    0.495    0.267   83.361  164.348
  345.750    6.961    0.496    0.268   84.779  164.931
  346.000    6.960    0.489    0.275   86.315  165.811
  346.250    6.957    0.488    0.275   87.446  167.482
  346.500    6.955    0.492    0.321   87.192  169.943
  346.750    6.954    0.499    0.342   86.237  174.680
  347.000    6.952    0.515    0.371   83.502  178.230
  347.250    6.975    0.515    0.377   80.528  177.429
  347.500    7.050    0.498    0.360   78.564  174.255
  347.750    7.249    0.483    0.345   78.952  174.919
  348.000    7.473    0.468    0.330   80.924  170.377
  348.250    8.092    0.449    0.314   83.530  164.038
  348.500    8.906    0.446    0.279   85.245  159.477
  348.750    9.699    0.442    0.267   82.984  157.094
  349.000   10.397    0.431    0.277   76.214  156.493
  349.250   11.427    0.423    0.259   66.456  156.480
  349.500   12.244    0.425    0.236   63.977  156.469
  349.750   13.741    0.415    0.202   63.734  156.460
  350.000   18.892    0.377    0.169   59.435  157.134
  350.250   24.285    0.301    0.099   55.208  157.585
  350.500   23.981    0.231    0.032   53.983  157.781
  350.750   21.989    0.287    0.116   60.112  158.723
  351.000   18.660    0.369    0.219   73.244  159.535
  351.250   14.680    0.399    0.232   77.680  160.703
  351.500   12.009    0.440    0.246   78.965  161.288
  351.750   10.552    0.465    0.260   79.083  161.484
  352.000    9.879    0.469    0.271   79.317  161.194
  352.250    9.601    0.465    0.283   80.349  159.785
  352.500    9.605    0.466    0.286   80.836  158.571
  352.750    9.965    0.462    0.281   79.436  158.572
  353.000   10.732    0.456    0.275   74.885  158.573
  353.250   12.079    0.438    0.271   71.851  158.575
  353.500   14.067    0.413    0.270   71.502  159.159
  353.750   16.380    0.409    0.272   71.162  161.820
  354.000   17.291    0.434    0.273   69.461  163.443
  354.250   16.924    0.463    0.273   70.162  167.334
  354.500   15.927    0.472    0.280   73.139  174.728
  354.750   14.753    0.468    0.287   75.241  179.203
  355.000   13.516    0.458    0.289   76.059  175.510
  355.250   11.806    0.454    0.286   78.705  159.721
  355.500   10.396    0.469    0.278   82.597  160.533
  355.750    9.448    0.471    0.287   83.298  162.480
  356.000    9.139    0.468    0.286   81.723  162.967
  356.250    9.144    0.463    0.280   80.557  162.774
  356.500    9.266    0.458    0.277   80.208  161.997
  356.750    9.325    0.456    0.286   78.857  159.973
  357.000    9.259    0.463    0.295   79.101  159.569
  357.250    8.996    0.471    0.271   81.903  162.293
  357.500    8.789    0.473    0.283   82.954  163.268
  357.750    8.539    0.467    0.294   82.488  162.685
  358.000    8.237    0.459    0.295   81.555  162.978
  358.250    7.886    0.472    0.298   82.363  169.465
  358.500    7.596    0.489    0.308   84.066  172.709
  358.750    7.272    0.496    0.302   84.767  171.153
  359.000    7.158    0.501    0.312   84.418  171.057
  359.250    7.394    0.508    0.324   82.551  169.308
  359.500    8.027    0.511    0.335   80.510  166.294
  359.750    9.031    0.492    0.338   81.153  165.745
  360.000    9.316    0.464    0.288   79.695  164.936
  360.250    9.320    0.463    0.270   78.528  162.992
  360.500    9.324    0.458    0.251   77.012  161.923
  360.750    9.397    0.452    0.248   75.612  161.341
  361.000    9.658    0.443    0.255   74.095  161.050
  361.250   10.636    0.409    0.221   70.799  161.052
  361.500   12.518    0.357    0.130   67.152  161.054
  361.750   16.144    0.263    0.068   60.851  160.666
  362.000   19.350    0.244    0.090   61.026  160.278
  362.250   20.913    0.263    0.138   65.930  159.696
  362.500   20.074    0.297    0.179   72.641  159.017
  362.750   16.631    0.353    0.214   77.126  158.629
  363.000   14.010    0.413    0.253   77.370  158.630
  363.250   13.915    0.441    0.259   77.138  158.632
  363.500   13.897    0.437    0.262   77.255  159.217
  363.750   13.905    0.437    0.265   78.073  160.191
  364.000   13.886    0.447    0.265   79.183  161.165
  364.250   13.749    0.443    0.249   79.223  161.393
  364.500   13.549    0.452    0.252   78.251  160.584
  364.750   13.067    0.438    0.258   77.785  160.197
  365.000   12.533    0.428    0.244   79.245  160.101
  365.250   12.136    0.423    0.228   80.763  160.297
  365.500   11.945    0.419    0.219   81.231  160.590
  365.750   11.970    0.415    0.221   80.006  160.673
  366.000   12.067    0.418    0.227   78.548  161.079
  366.250   11.987    0.436    0.215   77.848  161.470
  366.500   11.905    0.427    0.191   76.624  161.277
  366.750   11.910    0.403    0.150   74.874  160.694
  367.000   12.173    0.369    0.105   72.774  159.821
  367.250   13.474    0.322    0.082   71.549  158.655
  367.500   16.365    0.296    0.075   75.927  158.656
  367.750   18.113    0.327    0.125   78.262  158.657
  368.000   18.109    0.374    0.175   79.722  159.826
  368.250   15.462    0.414    0.204   81.007  160.800
  368.500   12.760    0.436    0.211   82.174  161.190
  368.750   12.135    0.437    0.202   81.913  161.419
  369.000   12.140    0.413    0.180   78.266  160.610
  369.250   13.059    0.390    0.171   78.034  159.833
  369.500   13.389    0.396    0.184   79.377  160.515
  369.750   13.396    0.424    0.211   80.662  161.295
  370.000   13.229    0.456    0.237   80.896  161.588
  370.250   12.878    0.458    0.237   79.195  161.266
  370.500   12.982    0.420    0.213   76.521  159.646
  370.750   13.864    0.356    0.165   72.320  159.647
