~VERSION INFORMATION
 VERS.                 2.0:   CWLS LOG ASCII STANDARD -VERSION 2.0
 WRAP.                  NO:   ONE LINE PER DEPTH STEP
~WELL INFORMATION BLOCK
#MNEM.UNIT           DATA                    DESCRIPTION OF MNEMONIC
#---------    -------------------            -------------------------------
# Generated from Intellog Unique Number	CS_73_76/WELL/591
WELL.         BOW VALLLEY INDUSTRIES         : Well_name    - WELL
LOC .         00/02-29-073-15W4/0            : Location     - LOCATION
UWI .         00/02-29-073-15W4/0            : Uwi          - UNIQUE WELL ID
ENTR.         SP                             : Entered      - ENTERED BY
SRVC.         SCHLUMBERGER                   : Scn          - SERVICE COMPANY
STRT.M        270                            : top_depth    - START DEPTH
STOP.M        480                            : bot_depth    - STOP DEPTH
STEP.M        0.25                           : increment    - STEP LENGTH
 NULL. -999.2500:NULL Value
~CURVE INFORMATION BLOCK
#MNEM UNIT       ERCB CURVE CODE    CURVE DESCRIPTION
#-----------   ------------------   ----------------------------------
DEPT.M        00 001 00 00         : DEPTH        - DEPTH
ILD .OHMM     00 120 00 00         : RESD         - DEEP RESISTIVITY (DIL)
DPHI.V/V      00 890 00 00         : PHID         - DENSITY POROSITY (LIMESTONE)
NPHI.V/V      00 330 00 00         : PHIN         - NEUTRON POROSITY (LIMESTONE)
GR  .API      00 310 00 00         : GR           - GAMMA RAY
~PARAMETER INFORMATION
#MNEM.UNIT           DATA             DESCRIPTION OF MNEMONIC
#---------         -----------     ------------------------------
GL  .M        613                  : gl           - GROUND LEVEL ELEVATION
EREF.M        616.57               : kb           - ELEVATION OF DEPTH REFERENCE
DATM.M        613                  : datum        - DATUM ELEVATION
TDD .M        490.2                : tdd          - TOTAL DEPTH DRILLER
RUN .         ONE                  : Run          - RUN NUMBER
ENG .         BILL                 : Engineer     - RECORDING ENGINEER
WIT .         JIM                  : Witness      - WITNESSED BY
MUD .         GEL                  : Mud_type     - MUD TYPE
MATR.         LIMESTONE            : Logunit      - NEUTRON MATRIX
TMAX.C        24                   : BHT          - MAXIMUM RECORDED TEMPERATURE
BHTD.M        490.2                : BHTDEP       - MAXIMUM RECORDED TEMPERATURE
MATR.         1                    : LOGUNIT      - NEUTRON MATRIX
RMT .C        25                   : MDTP         - TEMPERATURE OF MUD
NEUT.         1                    : NEUTRON      - NEUTRON TYPE
RESI.         0                    : RESIST       - RESISTIVITY TYPE
RMC .OHMM     0.25                 : RMC          - RESISTIVITY OF MUD CAKE
RMF .OHMM     0.25                 : RMF          - RESISTIVITY OF MUD FILTRATE
SUFT.C        15                   : SUFT         - SURFACE TEMPERATURE
~A  DEPTH     RESD     PHID     PHIN       GR
# ...
  313.500    5.894    0.282    0.445   80.711
  313.750    6.010    0.308    0.456   77.076
  314.000    6.126    0.324    0.431   80.122
  314.250    6.245    0.304    0.433   83.169
  314.500    6.488    0.300    0.445   86.825
  314.750    6.738    0.325    0.423   91.085
  315.000    6.867    0.335    0.468   86.239
  315.250    7.269    0.288    0.470   84.423
  315.500    7.550    0.333    0.481   82.005
  315.750    7.553    0.410    0.488   91.126
  316.000    7.417    0.413    0.437   89.921
  316.250    7.283    0.337    0.464   86.287
  316.500    6.635    0.377    0.486   85.082
  316.750    6.046    0.495    0.514   83.272
  317.000    6.519    0.544    0.534   78.425
  317.250    7.436    0.365    0.480   72.360
  317.500    8.324    0.285    0.438   65.083
  317.750    9.146    0.291    0.404   60.840
  318.000    9.151    0.282    0.434   72.998
  318.250    8.818    0.273    0.445   82.117
  318.500    8.187    0.290    0.443   88.202
  318.750    7.890    0.294    0.470   90.638
  319.000    7.605    0.307    0.478   89.437
  319.250    7.468    0.323    0.444   88.233
  319.500    7.333    0.279    0.454   88.242
  319.750    7.474    0.297    0.438   80.357
  320.000    7.912    0.311    0.435   72.471
  320.250    8.217    0.302    0.419   62.764
  320.500    8.695    0.299    0.395   64.594
  320.750    9.031    0.307    0.387   60.357
  321.000    9.206    0.306    0.393   65.222
  321.250    9.746    0.318    0.414   73.736
  321.500    9.749    0.303    0.405   79.214
  321.750    9.572    0.281    0.416   78.009
  322.000    8.403    0.280    0.443   82.876
  322.250    8.096    0.284    0.445   91.389
  322.500    7.106    0.316    0.423   89.576
  322.750    6.597    0.336    0.440   85.942
  323.000    6.358    0.308    0.458   87.166
  323.250    6.604    0.280    0.440   81.106
  323.500    7.533    0.279    0.429   78.076
  323.750    8.122    0.287    0.416   74.444
  324.000    9.094    0.296    0.437   73.241
  324.250    9.269    0.297    0.415   66.568
  324.500    9.810    0.307    0.426   53.219
  324.750   10.190    0.323    0.404   45.939
  325.000   10.386    0.325    0.399   47.771
  325.250   10.589    0.323    0.417   49.606
  325.500   10.593    0.319    0.445   50.225
  325.750   10.600    0.318    0.421   51.448
  326.000   10.407    0.321    0.411   51.459
  326.250   10.220    0.329    0.399   47.822
  326.500   10.035    0.334    0.399   46.618
  326.750   10.040    0.329    0.433   47.238
  327.000   10.044    0.323    0.446   46.033
  327.250   10.050    0.325    0.440   44.220
  327.500   10.058    0.335    0.462   43.623
  327.750   10.062    0.325    0.473   45.456
  328.000   10.066    0.331    0.438   47.292
  328.250   10.071    0.325    0.423   47.904
  328.500   10.078    0.316    0.406   47.915
  328.750   10.081    0.343    0.395   45.496
  329.000   10.087    0.354    0.390   44.899
  329.250   10.094    0.367    0.385   44.908
  329.500   10.098    0.364    0.423   44.920
  329.750   10.101    0.354    0.452   47.970
  330.000   10.108    0.355    0.445   49.797
  330.250   10.112    0.333    0.404   52.237
  330.500   10.119    0.322    0.366   51.637
  330.750   10.122    0.325    0.410   48.613
  331.000   10.129    0.343    0.437   48.624
  331.250   10.134    0.371    0.455   49.849
  331.500   10.139    0.387    0.440   49.249
  331.750   10.145    0.382    0.414   47.438
  332.000   10.149    0.375    0.392   46.234
  332.250   10.345    0.366    0.408   46.851
  332.500   10.352    0.370    0.386   48.681
  332.750   10.358    0.371    0.398   53.551
  333.000   10.361    0.370    0.390   52.350
  333.250   10.177    0.360    0.391   49.927
  333.500   10.180    0.356    0.375   47.509
  333.750   10.188    0.369    0.370   49.341
  334.000   10.191    0.367    0.376   52.390
  334.250   10.197    0.356    0.388   53.612
  334.500   10.201    0.354    0.469   53.621
  334.750   10.209    0.353    0.468   54.846
  335.000   10.215    0.356    0.430   53.036
  335.250   10.029    0.357    0.409   51.831
  335.500   10.034    0.356    0.413   52.447
  335.750   10.038    0.355    0.449   54.280
  336.000   10.044    0.360    0.433   51.254
  336.250   10.048    0.367    0.403   47.620
  336.500    9.868    0.370    0.379   46.415
  336.750    9.872    0.361    0.383   49.466
  337.000    9.876    0.359    0.401   52.508
  337.250    9.883    0.365    0.394   61.022
  337.500    9.703    0.370    0.381   61.032
  337.750    9.710    0.370    0.408   54.970
  338.000    9.713    0.366    0.431   48.297
  338.250    9.538    0.368    0.453   52.559
  338.500    9.543    0.360    0.470   54.999
  338.750    9.550    0.355    0.471   56.832
  339.000    9.554    0.358    0.463   55.019
  339.250    9.738    0.350    0.475   58.066
  339.500   10.117    0.341    0.449   60.508
  339.750   10.310    0.334    0.432   61.122
  340.000   10.711    0.327    0.411   56.882
  340.250   10.917    0.322    0.387   53.246
  340.500   11.130    0.326    0.396   48.400
  340.750   10.928    0.337    0.397   47.193
  341.000   10.533    0.352    0.411   52.670
  341.250   10.150    0.375    0.434   55.717
  341.500    9.968    0.370    0.419   52.690
  341.750    9.791    0.351    0.406   50.272
  342.000    9.613    0.337    0.407   49.675
  342.250    9.617    0.326    0.421   47.866
  342.500    9.622    0.334    0.400   45.447
  342.750    9.447    0.343    0.412   44.239
  343.000    9.453    0.354    0.443   44.250
  343.250    9.456    0.353    0.443   47.298
  343.500    9.463    0.346    0.427   50.953
  343.750    9.469    0.358    0.411   52.781
  344.000    9.472    0.363    0.400   52.184
  344.250    9.478    0.365    0.435   52.194
  344.500    9.482    0.360    0.439   52.205
  344.750    9.310    0.359    0.447   52.214
  345.000    9.316    0.375    0.431   49.795
  345.250    9.149    0.382    0.452   47.375
  345.500    9.153    0.387    0.406   49.817
  345.750    9.156    0.392    0.391   50.433
  346.000    8.993    0.378    0.426   49.835
  346.250    8.996    0.359    0.437   51.668
  346.500    9.002    0.349    0.441   50.463
  346.750    9.006    0.348    0.439   49.865
  347.000    9.009    0.375    0.457   54.127
  347.250    9.016    0.390    0.490   50.492
  347.500    9.019    0.385    0.437   45.647
  347.750    9.025    0.376    0.408   44.440
  348.000    9.027    0.379    0.421   48.096
  348.250    9.034    0.380    0.403   52.963
  348.500    9.037    0.366    0.393   50.544
  348.750    9.043    0.355    0.443   50.553
  349.000    9.047    0.350    0.454   52.385
  349.250    9.399    0.343    0.442   51.182
  349.500    9.401    0.341    0.435   49.976
  349.750    9.949    0.347    0.424   53.632
  350.000    9.955    0.312    0.394   54.856
  350.250   10.147    0.342    0.403   50.617
  350.500    9.964    0.351    0.454   48.195
  350.750    9.969    0.366    0.451   53.063
  351.000    9.791    0.377    0.441   55.503
  351.250    9.795    0.373    0.427   59.770
  351.500    9.619    0.367    0.415   60.989
  351.750    9.623    0.355    0.468   61.608
  352.000    9.629    0.350    0.443   60.402
  352.250    9.633    0.337    0.432   59.806
  352.500    9.638    0.330    0.442   60.423
  352.750    9.643    0.322    0.428   59.828
  353.000    9.648    0.307    0.378   57.411
  353.250    9.474    0.295    0.408   56.202
  353.500    9.478    0.288    0.409   58.643
  353.750    9.483    0.308    0.417   64.119
  354.000    9.313    0.327    0.417   62.914
  354.250    8.975    0.341    0.383   60.493
  354.500    8.488    0.327    0.366   69.009
  354.750    7.450    0.302    0.423   74.483
  355.000    6.787    0.292    0.487   71.455
  355.250    6.184    0.296    0.504   70.861
  355.500    5.741    0.275    0.530   75.119
  355.750    5.231    0.267    0.447   81.206
  356.000    4.948    0.252    0.411   83.034
  356.250    4.680    0.229    0.465   85.475
  356.500    4.510    0.246    0.526   87.306
  356.750    4.429    0.254    0.473   87.922
