~VERSION INFORMATION
 VERS.                 2.0:   CWLS LOG ASCII STANDARD -VERSION 2.0
 WRAP.                  NO:   ONE LINE PER DEPTH STEP
~WELL INFORMATION BLOCK
#MNEM.UNIT           DATA                    DESCRIPTION OF MNEMONIC
#---------    -------------------            -------------------------------
# Generated from Intellog Unique Number	CW_79_81/WELL/2456
WELL.         GULF WABASCA                   : Well_name    - WELL
LOC .         00/06-34-081-21W4/0            : Location     - LOCATION
UWI .         00/06-34-081-21W4/0            : Uwi          - UNIQUE WELL ID
ENTR.         MAX                            : Entered      - ENTERED BY
SRVC.         SCHLUMBERGER                   : Scn          - SERVICE COMPANY
STRT.M        204.216                        : top_depth    - START DEPTH
STOP.M        441.716                        : bot_depth    - STOP DEPTH
STEP.M        0.25                           : increment    - STEP LENGTH
 NULL. -999.2500:NULL Value
~CURVE INFORMATION BLOCK
#MNEM UNIT       ERCB CURVE CODE    CURVE DESCRIPTION
#-----------   ------------------   ----------------------------------
DEPT.M        00 001 00 00         : DEPTH        - DEPTH
ILD .OHMM     00 120 00 00         : RESD         - DEEP RESISTIVITY (DIL)
NPHI.V/V      00 330 00 00         : PHIN         - NEUTRON POROSITY (SANDSTONE)
DPHI.V/V      00 890 00 00         : PHID         - DENSITY POROSITY (SANDSTONE)
GR  .API      00 310 00 00         : GR           - GAMMA RAY
CALI.MM       00 280 01 00         : CAL          - CALIPER
~PARAMETER INFORMATION
#MNEM.UNIT           DATA             DESCRIPTION OF MNEMONIC
#---------         -----------     ------------------------------
GL  .M        627.492              : gl           - GROUND LEVEL ELEVATION
EREF.M        630.997              : kb           - ELEVATION OF DEPTH REFERENCE
DATM.M        627.492              : datum        - DATUM ELEVATION
TDD .M        440.436              : tdd          - TOTAL DEPTH DRILLER
RUN .         ONE                  : Run          - RUN NUMBER
ENG .         BILL                 : Engineer     - RECORDING ENGINEER
WIT .         JIM                  : Witness      - WITNESSED BY
MUD .         GEL                  : Mud_type     - MUD TYPE
MATR.         SANDSTONE            : Logunit      - NEUTRON MATRIX
TMAX.C        23.8889              : BHT          - MAXIMUM RECORDED TEMPERATURE
BHTD.M        440.436              : BHTDEP       - MAXIMUM RECORDED TEMPERATURE
MATR.         1                    : LOGUNIT      - NEUTRON MATRIX
RMT .C        16.6667              : MDTP         - TEMPERATURE OF MUD
NEUT.         1                    : NEUTRON      - NEUTRON TYPE
RESI.         0                    : RESIST       - RESISTIVITY TYPE
RMC .OHMM     5.1                  : RMC          - RESISTIVITY OF MUD CAKE
RMF .OHMM     5.24                 : RMF          - RESISTIVITY OF MUD FILTRATE
SUFT.C        -20.5556             : SUFT         - SURFACE TEMPERATURE
~A  DEPTH     RESD     PHIN     PHID       GR      CAL
# ...
  423.216    6.591    0.378    0.200  122.215  164.852
  423.466    6.079    0.396    0.201  121.501  162.834
  423.716    5.833    0.408    0.211  119.177  164.753
  423.966    5.812    0.418    0.219  115.958  166.572
  424.216    5.983    0.435    0.220  115.779  166.573
  424.466    6.453    0.463    0.206  124.356  165.363
  424.716    7.354    0.438    0.197  117.153  165.365
  424.966    9.219    0.340    0.112  105.231  165.770
  425.216    9.951    0.311    0.130  103.859  166.175
  425.466    9.508    0.320    0.171  114.589  166.379
  425.716    8.265    0.354    0.193  131.106  166.481
  425.966    6.479    0.414    0.193  139.812  166.718
  426.216    5.965    0.428    0.199  142.793  165.878
  426.466    5.793    0.439    0.211  140.887  164.264
  426.716    6.004    0.449    0.214  138.265  162.045
  426.966    6.454    0.458    0.211  137.430  160.835
  427.216    7.194    0.464    0.207  137.372  161.037
  427.466    9.048    0.445    0.201  129.387  162.015
  427.716   11.600    0.377    0.206  108.520  162.858
  427.966   14.150    0.357    0.203  100.411  162.859
  428.216   16.803    0.342    0.185   98.742  163.163
  428.466   18.163    0.329    0.164  100.412  163.972
  428.716   17.665    0.321    0.148  103.214  164.883
  428.966   16.019    0.334    0.153  106.137  164.884
  429.216   13.796    0.352    0.174  107.628  164.886
  429.466   11.804    0.350    0.169  107.391  164.483
  429.716   10.353    0.343    0.159  105.544  163.778
  429.966    9.182    0.331    0.148  102.682  163.375
  430.216    8.310    0.316    0.141   99.046  163.679
  430.466    7.782    0.299    0.153   96.604  164.724
  430.716    7.494    0.320    0.190  107.037  163.885
  430.966    7.549    0.337    0.197  113.716  163.886
  431.216    7.854    0.378    0.203  116.638  164.190
  431.466    8.580    0.399    0.204  118.189  164.797
  431.716    9.682    0.394    0.201  119.501  165.606
  431.966   10.639    0.391    0.197  120.257  166.415
  432.216   11.396    0.380    0.207  119.264  166.417
  432.466   12.163    0.350    0.215  117.357  165.611
  432.716   12.710    0.330    0.207  109.727  164.199
  432.966   13.229    0.317    0.178  104.600  162.786
  433.216   13.700    0.314    0.152  104.839  162.081
  433.466   13.801    0.333    0.181  108.736  163.311
  433.716   13.802    0.334    0.182  112.711  165.416
  433.966   13.702    0.318    0.152  114.381  167.840
  434.216   13.453    0.308    0.166  113.726  170.264
  434.466   13.211    0.324    0.178  112.177  172.689
  434.716   13.092    0.361    0.174  111.522  174.507
  434.966   13.268    0.391    0.152  114.156  174.004
  435.216   13.678    0.390    0.090  115.399  171.481
  435.466   14.287    0.366    0.062  111.107  168.252
  435.716   14.844    0.343    0.043  108.425  166.537
  435.966   15.450    0.328    0.033  107.591  165.731
  436.216   16.029    0.322    0.035  107.831  165.329
  436.466   16.339    0.317    0.061  106.709  164.758
  436.716   16.717    0.321    0.071  103.480  163.918
  436.966   16.962    0.322    0.092   93.226  163.516
  437.216   17.118    0.322    0.124   86.550  162.811
  437.466   17.181    0.323    0.165   82.020  161.600
  437.716   17.119    0.325    0.214   79.099  159.785
  437.966   16.846    0.322    0.269   78.494  157.195
  438.216   16.719    0.318    0.263   80.234  156.355
  438.466   16.720    0.317    0.274   84.051  155.953
  438.716   16.812    0.322    0.280   87.151  155.550
  438.966   16.874    0.359    0.282   88.941  155.148
  439.216   16.874    0.405    0.280   89.597  154.544
  439.466   16.875    0.383    0.266   89.926  153.082
  439.716   16.875    0.363    0.253   89.182  151.821
  439.966   16.875    0.351    0.207   87.513  150.207
  440.216   16.876    0.343    0.187   86.203  147.987
  440.466   16.876    0.348    0.186   85.249  146.171
  440.716   16.877    0.363    0.193   84.535  145.264
  440.966   16.903    0.368    0.199   83.771  145.434
  441.216   17.032    0.371    0.204   83.523  146.277
  441.466   17.157    0.375    0.209   82.332  146.682
  441.716   17.505    0.380    0.219   80.245  147.290
