~VERSION INFORMATION
 VERS.                 2.0:   CWLS LOG ASCII STANDARD -VERSION 2.0
 WRAP.                  NO:   ONE LINE PER DEPTH STEP
~WELL INFORMATION BLOCK
#MNEM.UNIT           DATA                    DESCRIPTION OF MNEMONIC
#---------    -------------------            -------------------------------
# Generated from Intellog Unique Number	CS_69_70/WELL/781
NULL.         -999.25                        : NULL_VALUE
WELL.         SULPETRO LIMITED               : Well_name    - WELL              
LOC .         00/06-28-070-10W4/0            : Location     - LOCATION          
UWI .         00/06-28-070-10W4/0            : Uwi          - UNIQUE WELL ID    
ENTR.         SP                             : Entered      - ENTERED BY        
SRVC.         SCHLUMBERGER                   : Scn          - SERVICE COMPANY   
STRT.M        290                            : top_depth    - START DEPTH       
STOP.M        510                            : bot_depth    - STOP DEPTH        
STEP.M        0.25                           : increment    - STEP LENGTH       
~CURVE INFORMATION BLOCK
#MNEM UNIT       ERCB CURVE CODE    CURVE DESCRIPTION
#-----------   ------------------   ----------------------------------
DEPT.M        00 001 00 00         : DEPTH        - DEPTH                       
DPHI.V/V      00 890 00 00         : PHID         - DENSITY POROSITY (LIMESTONE)
NPHI.V/V      00 330 00 00         : PHIN         - NEUTRON POROSITY (LIMESTONE)
GR  .API      00 310 00 00         : GR           - GAMMA RAY                   
ILD .OHMM     00 120 00 00         : RESD         - DEEP RESISTIVITY (DIL)      
~PARAMETER INFORMATION       
#MNEM.UNIT           DATA             DESCRIPTION OF MNEMONIC
#---------         -----------     ------------------------------
GL  .M        633.84               : gl           - GROUND LEVEL ELEVATION      
EREF.M        630.84               : kb           - ELEVATION OF DEPTH REFERENCE
DATM.M        633.84               : datum        - DATUM ELEVATION             
TDD .M        518                  : tdd          - TOTAL DEPTH DRILLER         
RUN .         ONE                  : Run          - RUN NUMBER                  
ENG .         BILL                 : Engineer     - RECORDING ENGINEER          
WIT .         JIM                  : Witness      - WITNESSED BY                
MUD .         GEL                  : Mud_type     - MUD TYPE                    
MATR.         LIMESTONE            : Logunit      - NEUTRON MATRIX              
TMAX.C        27                   : BHT          - MAXIMUM RECORDED TEMPERATURE
BHTD.M        518                  : BHTDEP       - MAXIMUM RECORDED TEMPERATURE
MATR.         1                    : LOGUNIT      - NEUTRON MATRIX              
RMT .C        25                   : MDTP         - TEMPERATURE OF MUD          
NEUT.         1                    : NEUTRON      - NEUTRON TYPE                
RESI.         0                    : RESIST       - RESISTIVITY TYPE            
RMC .OHMM     0.25                 : RMC          - RESISTIVITY OF MUD CAKE     
RMF .OHMM     0.25                 : RMF          - RESISTIVITY OF MUD FILTRATE 
SUFT.C        15                   : SUFT         - SURFACE TEMPERATURE         
~A  DEPTH     PHID     PHIN       GR     RESD
# ...
  333.500    0.268    0.421   85.989    8.850
  333.750    0.259    0.446   89.846    8.660
  334.000    0.246    0.458   92.726    8.350
  334.250    0.237    0.436   91.755    8.307
  334.500    0.248    0.412   88.644    8.253
  334.750    0.260    0.399   84.921    8.319
  335.000    0.270    0.403   79.977    8.434
  335.250    0.276    0.432   74.910    8.662
  335.500    0.268    0.443   76.750    9.046
  335.750    0.253    0.451   78.835    9.325
  336.000    0.247    0.424   73.219    9.687
  336.250    0.254    0.383   70.047    9.873
  336.500    0.250    0.364   72.743   10.159
  336.750    0.272    0.367   73.360   10.513
  337.000    0.292    0.385   69.883   10.757
  337.250    0.308    0.405   67.261   11.071
  337.500    0.313    0.432   66.229   11.223
  337.750    0.307    0.439   67.397   11.418
  338.000    0.299    0.394   69.115   11.532
  338.250    0.292    0.363   71.138   11.626
  338.500    0.284    0.389   71.939   11.703
  338.750    0.287    0.425   69.563   11.684
  339.000    0.292    0.454   67.736   11.501
  339.250    0.287    0.448   66.947   11.422
  339.500    0.281    0.392   70.317   11.514
  339.750    0.275    0.386   72.829   11.958
  340.000    0.261    0.267   72.224   13.084
  340.250    0.152    0.226   66.179   14.235
  340.500    0.109    0.212   62.701   14.811
  340.750    0.083    0.245   65.214   14.333
  341.000    0.147    0.302   68.949   13.094
  341.250    0.231    0.352   72.318   12.209
  341.500    0.265    0.430   73.791   12.727
  341.750    0.276    0.479   68.296   17.085
  342.000    0.233    0.334   55.345   21.488
  342.250    0.120    0.178   48.017   26.479
  342.500    0.044    0.135   43.744   32.692
  342.750   -0.007    0.123   47.052   26.416
  343.000    0.105    0.232   58.977   20.720
  343.250    0.210    0.290   67.664   16.072
  343.500    0.289    0.369   71.033   12.630
  343.750    0.302    0.407   73.240   11.411
  344.000    0.305    0.407   74.285   10.899
  344.250    0.307    0.388   73.498   10.806
  344.500    0.292    0.369   71.671   10.755
  344.750    0.283    0.377   70.698   10.762
  345.000    0.284    0.408   70.094   10.849
  345.250    0.278    0.417   69.737   10.898
  345.500    0.266    0.412   69.742   10.987
  345.750    0.261    0.422   69.746   11.053
  346.000    0.259    0.449   69.939   11.106
  346.250    0.264    0.482   70.432   11.133
  346.500    0.265    0.344   72.397   11.223
  346.750    0.269    0.337   74.053   11.249
  347.000    0.265    0.365   75.954   11.257
  347.250    0.233    0.410   77.855   11.243
  347.500    0.222    0.448   78.534   11.209
  347.750    0.252    0.438   75.790   11.216
  348.000    0.269    0.403   71.517   11.162
  348.250    0.277    0.390   73.786   11.235
  348.500    0.271    0.402   75.015   11.302
  348.750    0.272    0.384   69.032   11.629
  349.000    0.283    0.363   66.715   12.079
  349.250    0.293    0.354   66.539   12.430
  349.500    0.290    0.368   67.096   12.482
  349.750    0.278    0.369   67.958   12.492
  350.000    0.260    0.364   70.653   12.454
  350.250    0.251    0.397   74.084   12.349
  350.500    0.245    0.413   74.517   12.243
  350.750    0.275    0.424   72.752   12.092
  351.000    0.288    0.414   71.841   11.831
  351.250    0.278    0.365   76.188   10.950
  351.500    0.264    0.356   80.474   10.420
  351.750    0.250    0.377   81.947    9.738
  352.000    0.235    0.384   81.343    9.615
  352.250    0.227    0.381   80.188    9.307
  352.500    0.232    0.375   79.704    9.174
  352.750    0.237    0.379   82.096    8.828
  353.000    0.248    0.365   92.004    8.262
  353.250    0.240    0.363   97.451    7.661
  353.500    0.219    0.372  102.165    7.224
  353.750    0.204    0.372  104.860    7.830
  354.000    0.198    0.387   94.293    8.874
  354.250    0.226    0.384   81.952   10.002
  354.500    0.258    0.401   68.511   11.046
  354.750    0.287    0.432   63.871   11.687
  355.000    0.306    0.454   63.633   12.209
  355.250    0.319    0.466   64.068   12.123
  355.500    0.310    0.437   64.931   11.865
  355.750    0.303    0.423   64.081   11.805
  356.000    0.309    0.430   61.887   11.728
  356.250    0.299    0.417   60.121   11.625
  356.500    0.287    0.404   63.184   11.421
  356.750    0.280    0.392   66.186   11.364
  357.000    0.274    0.384   68.209   11.287
  357.250    0.259    0.395   61.737   11.069
  357.500    0.247    0.381   56.548   10.992
  357.750    0.268    0.352   53.131   10.719
  358.000    0.269    0.333   55.889   10.607
  358.250    0.263    0.329   59.808   10.632
  358.500    0.259    0.334   63.481   10.818
  358.750    0.257    0.346   66.727   11.256
  359.000    0.240    0.358   68.323   11.889
  359.250    0.250    0.367   65.824   12.511
  359.500    0.270    0.392   62.471   12.727
  359.750    0.289    0.402   60.948   12.954
  360.000    0.300    0.408   59.308   12.745
  360.250    0.309    0.363   60.961   11.883
  360.500    0.304    0.339   67.263   11.038
  360.750    0.284    0.357   75.705   10.293
  361.000    0.264    0.375   87.264    9.616
  361.250    0.244    0.391   93.934    9.135
  361.500    0.228    0.404   96.812    8.807
  361.750    0.227    0.382   90.523    8.540
  362.000    0.210    0.374   91.569    8.465
  362.250    0.203    0.379   89.864    7.936
  362.500    0.224    0.398   85.165    8.182
  362.750    0.251    0.412   80.587    8.528
  363.000    0.278    0.425   75.214    8.874
  363.250    0.298    0.435   68.619    9.063
  363.500    0.316    0.426   59.090    9.104
  363.750    0.307    0.402   58.608    9.025
  364.000    0.303    0.384   59.347    8.998
  364.250    0.304    0.363   62.044    8.839
  364.500    0.306    0.378   66.084    8.649
  364.750    0.294    0.375   70.922    8.559
  365.000    0.269    0.367   72.516    8.533
  365.250    0.258    0.372   72.217    8.571
  365.500    0.249    0.378   68.679    8.672
  365.750    0.256    0.416   65.689    9.040
  366.000    0.299    0.418   61.906    9.655
  366.250    0.306    0.404   58.918   10.158
  366.500    0.311    0.415   57.580   10.609
  366.750    0.318    0.430   58.504   11.499
  367.000    0.321    0.417   60.038   12.419
  367.250    0.322    0.381   61.512   12.922
  367.500    0.321    0.384   60.235   13.175
  367.750    0.315    0.408   58.286   13.332
  368.000    0.310    0.428   56.643   13.368
  368.250    0.314    0.431   55.792   13.423
  368.500    0.316    0.429   54.637   13.483
  368.750    0.320    0.437   54.644   13.519
  369.000    0.333    0.445   54.895   13.528
  369.250    0.331    0.425   55.635   13.512
  369.500    0.309    0.434   56.314   13.468
  369.750    0.306    0.437   57.483   13.257
  370.000    0.300    0.406   58.589   13.215
  370.250    0.313    0.377   58.840   13.223
  370.500    0.309    0.387   56.402   13.307
  370.750    0.278    0.392   54.452   13.414
  371.000    0.261    0.392   52.686   13.522
  371.250    0.278    0.399   52.265   13.531
  371.500    0.307    0.408   52.518   13.440
  371.750    0.325    0.387   52.646   13.301
  372.000    0.329    0.365   53.202   13.234
  372.250    0.332    0.364   53.819   13.169
  372.500    0.331    0.368   53.707   13.106
  372.750    0.332    0.382   53.102   13.041
  373.000    0.342    0.401   52.739   12.977
  373.250    0.353    0.414   52.807   12.938
  373.500    0.360    0.420   53.241   12.684
  373.750    0.353    0.404   53.858   12.229
  374.000    0.336    0.368   54.660   11.640
  374.250    0.351    0.373   55.706   11.496
  374.500    0.366    0.413   53.573   11.590
  374.750    0.377    0.486   49.667   11.925
  375.000    0.327    0.403   48.757   12.250
  375.250    0.314    0.365   50.842   12.374
  375.500    0.318    0.358   52.682   12.428
  375.750    0.315    0.383   51.894   12.366
  376.000    0.312    0.394   50.862   12.283
  376.250    0.315    0.413   50.624   12.220
  376.500    0.320    0.423   51.303   12.119
  376.750    0.323    0.419   52.288   12.061
