~VERSION INFORMATION
 VERS.                 2.0:   CWLS LOG ASCII STANDARD -VERSION 2.0
 WRAP.                  NO:   ONE LINE PER DEPTH STEP
~WELL INFORMATION BLOCK
#MNEM.UNIT           DATA                    DESCRIPTION OF MNEMONIC
#---------    -------------------            -------------------------------
# Generated from Intellog Unique Number	CS_77_79/WELL/914
WELL.         PCI PCEJ CHARD                 : Well_name    - WELL
LOC .         00/07-32-079-06W4/0            : Location     - LOCATION
UWI .         00/07-32-079-06W4/0            : Uwi          - UNIQUE WELL ID
ENTR.         JHS                            : Entered      - ENTERED BY
SRVC.         SCHLUMBERGER                   : Scn          - SERVICE COMPANY
STRT.M        120                            : top_depth    - START DEPTH
STOP.M        360                            : bot_depth    - STOP DEPTH
STEP.M        0.25                           : increment    - STEP LENGTH
 NULL. -999.2500:NULL Value
~CURVE INFORMATION BLOCK
#MNEM UNIT       ERCB CURVE CODE    CURVE DESCRIPTION
#-----------   ------------------   ----------------------------------
DEPT.M        00 001 00 00         : DEPTH        - DEPTH
DPHI.V/V      00 890 00 00         : PHID         - DENSITY POROSITY (LIMESTONE)
NPHI.V/V      00 330 00 00         : PHIN         - NEUTRON POROSITY (LIMESTONE)
GR  .API      00 310 00 00         : GR           - GAMMA RAY
ILD .OHMM     00 120 00 00         : RESD         - DEEP RESISTIVITY (DIL)
RHOB.KG/M3    00 350 00 00         : DENS         - BULK DENSITY
~PARAMETER INFORMATION
#MNEM.UNIT           DATA             DESCRIPTION OF MNEMONIC
#---------         -----------     ------------------------------
GL  .M        547.4                : gl           - GROUND LEVEL ELEVATION
EREF.M        550.5                : kb           - ELEVATION OF DEPTH REFERENCE
DATM.M        550.5                : datum        - DATUM ELEVATION
TDD .M        365                  : tdd          - TOTAL DEPTH DRILLER
RUN .         ONE                  : Run          - RUN NUMBER
ENG .         BILL                 : Engineer     - RECORDING ENGINEER
WIT .         JIM                  : Witness      - WITNESSED BY
MUD .         GEL                  : Mud_type     - MUD TYPE
MATR.         LIMESTONE            : Logunit      - NEUTRON MATRIX
TMAX.C        20                   : BHT          - MAXIMUM RECORDED TEMPERATURE
BHTD.M        365                  : BHTDEP       - MAXIMUM RECORDED TEMPERATURE
MATR.         1                    : LOGUNIT      - NEUTRON MATRIX
RMT .C        25                   : MDTP         - TEMPERATURE OF MUD
NEUT.         1                    : NEUTRON      - NEUTRON TYPE
RESI.         0                    : RESIST       - RESISTIVITY TYPE
RMC .OHMM     0.25                 : RMC          - RESISTIVITY OF MUD CAKE
RMF .OHMM     0.25                 : RMF          - RESISTIVITY OF MUD FILTRATE
SUFT.C        15                   : SUFT         - SURFACE TEMPERATURE
~A  DEPTH     PHID     PHIN       GR     RESD     DENS
# ...
  339.000    0.274    0.392   85.521    5.849 2242.300
  339.250    0.289    0.387   74.569    5.428 2215.070
  339.500    0.313    0.410   64.837    5.133 2175.300
  339.750    0.330    0.398   58.139    4.765 2145.970
  340.000    0.323    0.389   62.972    4.507 2158.430
  340.250    0.308    0.386   67.205    4.425 2183.410
  340.500    0.302    0.390   72.041    4.346 2193.780
  340.750    0.302    0.416   75.055    4.268 2193.700
  341.000    0.311    0.433   61.679    4.191 2179.010
  341.250    0.329    0.401   43.444    4.116 2147.590
  341.500    0.340    0.384   39.172    4.044 2128.710
  341.750    0.342    0.391   40.970    4.045 2124.450
  342.000    0.347    0.390   41.562    4.049 2116.020
  342.250    0.350    0.393   41.545    4.051 2111.760
  342.500    0.350    0.395   39.093    4.054 2111.680
  342.750    0.348    0.396   37.852    4.057 2115.760
  343.000    0.346    0.410   38.444    3.985 2117.790
  343.250    0.345    0.427   39.638    3.986 2119.820
  343.500    0.337    0.416   43.264    4.143 2134.360
  343.750    0.324    0.360   53.568    4.304 2155.180
  344.000    0.307    0.355   69.332    4.557 2184.340
  344.250    0.267    0.373   83.274    5.106 2253.210
  344.500    0.217    0.364   89.328    5.508 2338.810
  344.750    0.204    0.367   91.131    5.944 2361.700
  345.000    0.228    0.387   88.076    5.836 2319.850
  345.250    0.273    0.407   77.731    5.520 2242.460
  345.500    0.310    0.421   66.178    5.029 2179.710
  345.750    0.313    0.397   52.800    4.667 2175.450
  346.000    0.319    0.418   40.027    4.331 2164.920
  346.250    0.348    0.413   33.328    4.096 2114.710
  346.500    0.359    0.391   27.843    3.875 2095.820
  346.750    0.357    0.389   28.434    3.806 2099.920
  347.000    0.360    0.386   40.557    3.880 2093.580
  347.250    0.357    0.383   59.358    4.108 2099.770
  347.500    0.317    0.380   70.266    4.269 2168.650
  347.750    0.280    0.390   76.925    4.353 2231.250
  348.000    0.280    0.401   72.048    4.275 2231.170
  348.250    0.315    0.402   61.708    4.197 2170.500
  348.500    0.350    0.401   51.972    3.971 2111.920
  348.750    0.374    0.477   45.882    3.973 2070.060
  349.000    0.393    0.492   41.000    3.902 2038.650
  349.250    0.380    0.479   43.412    3.978 2059.470
  349.500    0.371    0.443   48.249    4.135 2076.090
  349.750    0.340    0.425   45.792    4.461 2128.260
  350.000    0.293    0.410   46.386    5.092 2209.660
  350.250    0.233    0.298   79.762    6.508 2311.950
  350.500    0.219    0.295  104.029    7.571 2334.840
  350.750    0.219    0.355  117.365    8.644 2334.780
  351.000    0.232    0.408  113.089    9.152 2313.810
  351.250    0.232    0.422  107.000    8.989 2313.720
  351.500    0.227    0.416  101.518    8.500 2322.010
  351.750    0.235    0.404   94.815    7.742 2307.310
  352.000    0.240    0.392   88.727    7.052 2298.870
  352.250    0.255    0.393   75.352    6.545 2273.720
  352.500    0.286    0.393   80.183    6.190 2221.420
  352.750    0.299    0.386   85.022    5.855 2198.360
  353.000    0.283    0.386   86.219    5.750 2225.450
  353.250    0.271    0.377   72.841    5.753 2246.260
  353.500    0.298    0.362   51.571    5.868 2200.220
  353.750    0.290    0.338   81.908    6.097    0.000
  354.000    0.200    0.304   95.855    6.456    0.000
  354.250    0.091    0.315  107.368    6.707    0.000
  354.500    0.075    0.350  114.638    7.237    0.000
  354.750    0.137    0.368  121.293    7.807    0.000
  355.000    0.138    0.372  118.234    8.584    0.000
  355.250    0.081    0.382  107.289    9.262    0.000
  355.500    0.053    0.394   91.483   10.184    0.000
  355.750    0.047    0.411   82.959   11.850    0.000
  356.000    0.027    0.357   79.908   13.527    0.000
  356.250    0.032    0.301   71.387   14.870    0.000
  356.500    0.043    0.257   70.758   16.658    0.000
  356.750    0.025    0.241   67.704   19.381    0.000
  357.000    0.009    0.246   62.825   19.764    0.000
  357.250    0.018    0.249   63.414   18.341    0.000
  357.500    0.002    0.223   68.860   14.922    0.000
  357.750    0.000    0.223   62.160   13.849    0.000
  358.000    0.000    0.246   57.887   14.391    0.000
  358.250    0.005    0.265   64.549   16.124    0.000
  358.500    0.002    0.176   68.169   20.221    0.000
  358.750    0.007    0.145   66.931   29.485    0.000
  359.000    0.023    0.128   68.124   40.630    0.000
  359.250    0.027    0.127   68.716   63.883    0.000
  359.500    0.029    0.124   69.299   83.200    0.000
  359.750    0.033    0.123   68.674   93.204    0.000
  360.000    0.023    0.123   68.656  106.417    0.000
