~VERSION INFORMATION
 VERS.                 2.0:   CWLS LOG ASCII STANDARD -VERSION 2.0
 WRAP.                  NO:   ONE LINE PER DEPTH STEP
~WELL INFORMATION BLOCK
#MNEM.UNIT           DATA                    DESCRIPTION OF MNEMONIC
#---------    -------------------            -------------------------------
# Generated from Intellog Unique Number	CX_WELLS/WELL/3308
WELL.         PETROREP ET AL HOUSE           : Well_name    - WELL
LOC .         00/04-26-084-15W4/0            : Location     - LOCATION
UWI .         00/04-26-084-15W400            : Uwi          - UNIQUE WELL ID
ENTR.         T                              : Entered      - ENTERED BY
SRVC.         SCHLUMBERGER                   : Scn          - SERVICE COMPANY
DATE.         03/06/92                       : Date         - LOG DATE
STRT.M        95                             : top_depth    - START DEPTH
STOP.M        240                            : bot_depth    - STOP DEPTH
STEP.M        0.25                           : increment    - STEP LENGTH
 NULL. -999.2500:NULL Value
~CURVE INFORMATION BLOCK
#MNEM UNIT       ERCB CURVE CODE    CURVE DESCRIPTION
#-----------   ------------------   ----------------------------------
DEPT.M        00 001 00 00         : DEPTH        - DEPTH
GR  .API      00 310 00 00         : GR           - GAMMA RAY
NPHI.V/V      00 330 00 00         : PHIN         - NEUTRON POROSITY (SANDSTONE)
DPHI.V/V      00 890 00 00         : PHID         - DENSITY POROSITY (SANDSTONE)
ILD .OHMM     00 120 00 00         : RESD         - DEEP RESISTIVITY (DIL)
~PARAMETER INFORMATION
#MNEM.UNIT           DATA             DESCRIPTION OF MNEMONIC
#---------         -----------     ------------------------------
GL  .M        527.7                : gl           - GROUND LEVEL ELEVATION
EREF.M        531.2                : kb           - ELEVATION OF DEPTH REFERENCE
DATM.M        531.2                : datum        - DATUM ELEVATION
TDD .M        242                  : tdd          - TOTAL DEPTH DRILLER
RUN .         ONE                  : Run          - RUN NUMBER
ENG .         JO                   : Engineer     - RECORDING ENGINEER
WIT .         TIM                  : Witness      - WITNESSED BY
MUD .         GEL                  : Mud_type     - MUD TYPE
MATR.         SANDSTONE            : Logunit      - NEUTRON MATRIX
TMAX.C        19                   : BHT          - MAXIMUM RECORDED TEMPERATURE
BHTD.M        242                  : BHTDEP       - MAXIMUM RECORDED TEMPERATURE
RMT .C        20                   : MDTP         - TEMPERATURE OF MUD
MUDD.KG/M     1                    : MWT          - MUD DENSITY
NEUT.         1                    : NEUTRON      - NEUTRON TYPE
RESI.         0                    : RESIST       - RESISTIVITY TYPE
RM  .OHMM     3.12                 : RM           - RESISTIVITY OF MUD
RMC .OHMM     4.5                  : RMC          - RESISTIVITY OF MUD CAKE
RMF .OHMM     4.5                  : RMF          - RESISTIVITY OF MUD FILTRATE
SUFT.C        4                    : SUFT         - SURFACE TEMPERATURE
~A  DEPTH       GR     PHIN     PHID     RESD
   95.000   47.152    0.417    0.295    2.940
   95.250   52.213    0.390    0.305    5.502
   95.500   72.358    0.385    0.304    9.547
   95.750   77.420    0.396    0.297   13.202
   96.000   81.853    0.407    0.295   14.280
   96.250   88.189    0.402    0.292   14.044
   96.500   98.270    0.397    0.286   13.293
   96.750  110.253    0.398    0.252   11.901
   97.000  105.879    0.403    0.205   11.705
   97.250  100.257    0.404    0.217   11.725
   97.500   91.493    0.401    0.245   11.752
   97.750   89.641    0.396    0.258   11.792
   98.000   94.075    0.393    0.254   11.584
   98.250  101.650    0.399    0.244   11.393
   98.500  109.854    0.410    0.233   11.205
   98.750  116.801    0.420    0.223   10.618
   99.000  121.243    0.436    0.207   10.443
   99.250  124.428    0.454    0.192   10.259
   99.500  125.710    0.469    0.169    9.912
   99.750  127.638    0.484    0.178    9.560
  100.000  128.301    0.485    0.179    8.889
  100.250  125.812    0.485    0.180    7.950
  100.500  122.084    0.486    0.182    6.977
  100.750  118.347    0.486    0.180    5.788
  101.000  115.859    0.488    0.180    5.281
  101.250  119.044    0.491    0.195    5.191
  101.500  122.212    0.494    0.206    5.108
  101.750  126.653    0.497    0.214    4.927
  102.000  129.201    0.494    0.212    4.666
  102.250  130.492    0.484    0.218    4.417
  102.500  129.898    0.475    0.237    4.027
  102.750  127.409    0.452    0.266    3.675
  103.000  111.740    0.440    0.293    3.544
  103.250  105.481    0.427    0.312    3.552
  103.500   87.281    0.412    0.304    3.990
  103.750   80.411    0.412    0.299    4.477
  104.000   86.093    0.417    0.294    6.192
  104.250   94.942    0.421    0.284    8.892
  104.500   99.995    0.411    0.263    9.994
  104.750  107.571    0.406    0.256   10.391
  105.000  112.012    0.404    0.245   10.626
  105.250  116.446    0.411    0.238   10.444
  105.500  116.480    0.425    0.239   10.074
  105.750  108.964    0.429    0.247    9.540
  106.000  103.342    0.429    0.256    9.562
  106.250  101.490    0.428    0.265   10.143
  106.500   99.010    0.426    0.309   10.971
  106.750   95.282    0.424    0.331   11.419
  107.000   92.794    0.419    0.345   12.345
  107.250   87.172    0.417    0.360   13.102
  107.500   74.008    0.449    0.375   14.163
  107.750   66.501    0.441    0.396   14.751
  108.000   62.764    0.426    0.385   15.058
  108.250   68.462    0.407    0.359   15.665
  108.500   67.231    0.381    0.331   16.000
  108.750   65.380    0.374    0.318   16.342
  109.000   63.528    0.385    0.319   16.711
  109.250   62.934    0.378    0.320   17.049
  109.500   61.719    0.368    0.322   17.434
  109.750   61.125    0.358    0.323   17.464
  110.000   60.522    0.368    0.326   17.494
  110.250   59.928    0.392    0.331   17.534
  110.500   59.970    0.394    0.336   17.909
  110.750   61.270    0.422    0.337   17.960
  111.000   61.295    0.431    0.336   18.001
  111.250   63.214    0.423    0.336   18.042
  111.500   63.877    0.414    0.335   18.083
  111.750   63.274    0.404    0.339   18.114
  112.000   61.431    0.393    0.343   17.815
  112.250   60.828    0.385    0.346   17.876
  112.500   60.862    0.376    0.346   17.581
  112.750   62.170    0.372    0.343   17.282
  113.000   62.824    0.384    0.339   17.006
  113.250   62.850    0.387    0.332   16.716
  113.500   62.281    0.386    0.331   16.441
  113.750   62.289    0.387    0.329   16.478
  114.000   61.695    0.390    0.326   16.225
  114.250   61.109    0.389    0.321   16.243
  114.500   60.506    0.391    0.318   15.976
  114.750   60.540    0.399    0.313   15.712
  115.000   66.239    0.412    0.320   15.453
  115.250   71.929    0.415    0.328   15.479
  115.500   78.876    0.409    0.342   15.224
  115.750   85.823    0.404    0.346   14.990
  116.000   82.723    0.403    0.340   14.726
  116.250   87.776    0.398    0.319   14.483
  116.500   92.847    0.393    0.294   12.967
  116.750   94.138    0.389    0.241   11.603
  117.000   94.791    0.397    0.241   10.575
  117.250   96.711    0.416    0.246    9.112
  117.500   96.116    0.421    0.247    8.149
  117.750   93.637    0.423    0.245    7.021
  118.000   91.157    0.430    0.243    6.528
  118.250   91.836    0.433    0.240    6.297
  118.500   93.119    0.434    0.239    6.077
  118.750   93.781    0.433    0.236    5.865
  119.000   94.435    0.433    0.236    5.660
  119.250   95.743    0.434    0.235    5.570
  119.500   96.397    0.435    0.236    5.475
  119.750   96.440    0.437    0.236    5.491
  120.000   96.465    0.440    0.236    5.403
  120.250   95.871    0.443    0.237    5.308
  120.500   94.019    0.448    0.240    5.220
  120.750   94.053    0.459    0.243    5.241
  121.000   96.610    0.455    0.245    5.250
  121.250   97.901    0.444    0.237    5.161
  121.500   97.306    0.434    0.231    5.170
  121.750   96.712    0.434    0.228    5.181
  122.000   96.737    0.432    0.228    5.196
  122.250   96.771    0.432    0.228    5.304
  122.500   96.814    0.432    0.228    5.319
  122.750   96.839    0.432    0.228    5.332
  123.000   96.873    0.429    0.228    5.449
  123.250   96.907    0.427    0.230    5.455
  123.500   96.321    0.418    0.231    5.578
  123.750   96.355    0.411    0.235    5.584
  124.000   95.761    0.404    0.238    5.597
  124.250   96.423    0.410    0.242    5.720
  124.500   97.077    0.419    0.250    5.730
  124.750   92.712    0.415    0.271    5.964
  125.000   88.347    0.408    0.280    6.707
  125.250   83.990    0.388    0.291    6.973
  125.500   78.997    0.380    0.301    7.687
  125.750   75.251    0.375    0.308    8.468
  126.000   72.151    0.391    0.300    9.154
  126.250   72.186    0.396    0.287    9.528
  126.500   75.353    0.400    0.262    9.195
  126.750   80.424    0.404    0.244    8.703
  127.000   81.086    0.411    0.248    7.499
  127.250   81.120    0.423    0.274    6.340
  127.500   80.517    0.426    0.288    6.119
  127.750   78.037    0.424    0.288    6.253
  128.000   73.681    0.424    0.286    6.505
  128.250   75.600    0.423    0.286    6.771
  128.500   77.519    0.423    0.289    7.183
  128.750   77.553    0.422    0.295    7.068
  129.000   76.322    0.420    0.300    6.822
  129.250   73.222    0.420    0.307    6.841
  129.500   70.734    0.422    0.314    6.849
  129.750   66.997    0.424    0.326    6.999
  130.000   64.517    0.421    0.340    7.566
  130.250   62.037    0.418    0.345    8.022
  130.500   59.558    0.415    0.348    9.182
  130.750   58.335    0.414    0.333   10.315
  131.000   62.768    0.412    0.325   10.935
  131.250   64.059    0.412    0.323   11.599
  131.500   60.959    0.416    0.319   11.626
  131.750   59.108    0.421    0.320   10.409
  132.000   59.762    0.422    0.324   10.040
  132.250   62.938    0.420    0.326    9.880
  132.500   67.380    0.418    0.330    9.897
  132.750   70.565    0.417    0.327   10.114
  133.000   73.112    0.421    0.300   10.331
  133.250   75.660    0.425    0.287   10.354
  133.500   78.208    0.427    0.291   10.372
  133.750   78.871    0.423    0.300   10.207
  134.000   76.391    0.423    0.303   10.425
  134.250   74.531    0.425    0.311   11.059
  134.500   70.174    0.425    0.316   11.504
  134.750   67.058    0.426    0.316   12.436
  135.000   66.463    0.431    0.317   13.192
  135.250   69.011    0.435    0.319   13.747
  135.500   70.930    0.440    0.318   14.033
  135.750   71.593    0.375    0.310   14.615
  136.000   68.493    0.333    0.293   15.512
  136.250   64.136    0.306    0.106   16.445
  136.500   62.896    0.263    0.077   17.444
  136.750   60.416    0.285    0.087   18.846
  137.000   65.478    0.330    0.149   17.848
  137.250   69.283    0.358    0.250   16.285
  137.500   73.105    0.391    0.320   14.841
  137.750   74.387    0.409    0.322   12.788
  138.000   75.670    0.412    0.323   11.222
  138.250   77.598    0.413    0.328    9.865
