~VERSION INFORMATION
 VERS.                 2.0:   CWLS LOG ASCII STANDARD -VERSION 2.0
 WRAP.                  NO:   ONE LINE PER DEPTH STEP
~WELL INFORMATION BLOCK
#MNEM.UNIT           DATA                    DESCRIPTION OF MNEMONIC
#---------    -------------------            -------------------------------
# Generated from Intellog Unique Number	CS_67_68/WELL/2175
WELL.         MURPHY ET AL SANDHILL          : Well_name    - WELL
LOC .         00/07-07-067-16W4/0            : Location     - LOCATION
UWI .         00/07-07-067-16W4/0            : Uwi          - UNIQUE WELL ID
ENTR.         SP                             : Entered      - ENTERED BY
SRVC.         SCHLUMBERGER                   : Scn          - SERVICE COMPANY
STRT.M        384.048                        : top_depth    - START DEPTH
STOP.M        550.298                        : bot_depth    - STOP DEPTH
STEP.M        0.25                           : increment    - STEP LENGTH
 NULL. -999.2500:NULL Value
~CURVE INFORMATION BLOCK
#MNEM UNIT       ERCB CURVE CODE    CURVE DESCRIPTION
#-----------   ------------------   ----------------------------------
DEPT.M        00 001 00 00         : DEPTH        - DEPTH
CALI.MM       00 280 01 00         : CAL          - CALIPER
GR  .API      00 310 00 00         : GR           - GAMMA RAY
DPHI.V/V      00 890 00 00         : PHID         - DENSITY POROSITY (SANDSTONE)
NPHI.V/V      00 330 00 00         : PHIN         - NEUTRON POROSITY (SANDSTONE)
ILD .OHMM     00 120 00 00         : RESD         - DEEP RESISTIVITY (DIL)
~PARAMETER INFORMATION
#MNEM.UNIT           DATA             DESCRIPTION OF MNEMONIC
#---------         -----------     ------------------------------
GL  .M        609.905              : gl           - GROUND LEVEL ELEVATION
EREF.M        612.953              : kb           - ELEVATION OF DEPTH REFERENCE
DATM.M        612.953              : datum        - DATUM ELEVATION
TDD .M        574.853              : tdd          - TOTAL DEPTH DRILLER
RUN .         ONE                  : Run          - RUN NUMBER
ENG .         BILL                 : Engineer     - RECORDING ENGINEER
WIT .         JIM                  : Witness      - WITNESSED BY
MUD .         GEL                  : Mud_type     - MUD TYPE
MATR.         SANDSTONE            : Logunit      - NEUTRON MATRIX
TMAX.C        14.4444              : BHT          - MAXIMUM RECORDED TEMPERATURE
BHTD.M        574.853              : BHTDEP       - MAXIMUM RECORDED TEMPERATURE
MATR.         1                    : LOGUNIT      - NEUTRON MATRIX
RMT .C        25                   : MDTP         - TEMPERATURE OF MUD
NEUT.         1                    : NEUTRON      - NEUTRON TYPE
RESI.         0                    : RESIST       - RESISTIVITY TYPE
RMC .OHMM     0.25                 : RMC          - RESISTIVITY OF MUD CAKE
RMF .OHMM     0.25                 : RMF          - RESISTIVITY OF MUD FILTRATE
SUFT.C        15                   : SUFT         - SURFACE TEMPERATURE
~A  DEPTH      CAL       GR     PHID     PHIN     RESD
  384.048  198.685   99.980    0.161    0.471    2.678
  384.298  198.328  100.480    0.172    0.481    2.663
  384.548  198.236  101.284    0.181    0.477    2.634
  384.798  198.084  103.188    0.166    0.467    2.573
  385.048  197.634  104.826    0.150    0.470    2.545
  385.298  197.343  103.675    0.162    0.480    2.524
  385.548  197.030  101.625    0.161    0.490    2.484
  385.798  196.150  103.396    0.171    0.482    2.456
  386.048  195.387  101.904    0.190    0.479    2.440
  386.298  194.997   98.989    0.194    0.493    2.433
  386.548  194.764   98.135    0.218    0.486    2.408
  386.798  194.027   98.384    0.196    0.480    2.392
  387.048  196.108   98.606    0.193    0.482    2.431
  387.298  199.475   98.596    0.198    0.501    2.416
  387.548  202.487   98.803    0.232    0.513    2.365
  387.798  220.951   96.188    0.282    0.518    2.474
  388.048  222.664   91.266    0.299    0.520    2.583
  388.298  201.099   85.808    0.310    0.505    2.633
  388.548  184.942   82.528    0.306    0.484    2.617
  388.798  165.630   80.620    0.267    0.463    2.526
  389.048  160.351   82.669    0.242    0.427    2.386
  389.298  160.798   84.241    0.229    0.395    2.256
  389.548  160.798   85.926    0.232    0.390    2.275
  389.798  160.709   89.268    0.236    0.387    2.377
  390.048  160.713   92.808    0.237    0.385    2.508
  390.298  160.718   96.070    0.212    0.384    2.673
  390.548  160.887   99.895    0.201    0.402    2.821
  390.798  160.773  102.237    0.180    0.422    2.898
  391.048  161.123  101.780    0.173    0.406    2.917
  391.298  161.324   94.683    0.184    0.408    2.829
  391.548  161.675   83.279    0.295    0.420    2.393
  391.798  161.509   74.193    0.307    0.424    2.090
  392.048  160.452   62.007    0.319    0.438    1.828
  392.298  158.844   50.155    0.331    0.450    1.675
  392.548  157.389   48.244    0.279    0.387    1.552
  392.798  156.990   52.098    0.262    0.372    1.446
  393.048  157.305   56.730    0.257    0.369    1.444
  393.298  158.283   61.929    0.248    0.373    1.529
  393.548  159.683   66.984    0.255    0.374    1.640
  393.798  161.341   70.505    0.238    0.384    1.774
  394.048  163.189   65.885    0.231    0.406    2.109
  394.298  164.630   66.571    0.256    0.405    2.434
  394.548  166.443   75.179    0.237    0.385    2.821
  394.798  168.094   84.159    0.149    0.379    3.136
  395.048  169.360   85.882    0.111    0.386    3.275
  395.298  170.561   84.534    0.109    0.383    3.341
  395.548  171.011   84.834    0.105    0.380    3.343
  395.798  170.918   86.139    0.120    0.381    3.258
  396.048  170.337   86.950    0.183    0.382    3.124
  396.298  169.628   83.838    0.176    0.389    2.843
  396.548  169.009   77.996    0.157    0.398    2.483
  396.798  168.637   72.996    0.166    0.396    2.228
  397.048  168.310   68.606    0.216    0.404    1.997
  397.298  167.844   65.482    0.251    0.412    1.830
  397.548  166.206   66.041    0.276    0.418    1.724
  397.798  164.507   67.844    0.261    0.422    1.662
  398.048  163.034   69.146    0.251    0.428    1.602
  398.298  161.889   67.734    0.277    0.434    1.566
  398.548  160.645   66.740    0.286    0.419    1.535
  398.798  160.008   66.376    0.293    0.414    1.524
  399.048  159.583   65.794    0.299    0.424    1.519
  399.298  158.946   65.217    0.292    0.432    1.525
  399.548  158.421   64.092    0.291    0.427    1.527
  399.798  158.141   62.992    0.292    0.418    1.533
  400.048  158.271   66.392    0.275    0.425    1.545
  400.298  158.436   68.782    0.269    0.427    1.545
  400.548  159.109   71.252    0.267    0.420    1.559
  400.798  160.047   73.445    0.263    0.420    1.573
  401.048  161.352   72.690    0.272    0.426    1.591
  401.298  162.382   70.772    0.292    0.442    1.609
  401.548  163.416   75.113    0.268    0.457    1.636
  401.798  163.805   78.460    0.250    0.462    1.677
  402.048  163.783   80.838    0.235    0.453    1.728
  402.298  163.766   81.538    0.243    0.444    1.810
  402.548  163.543   77.673    0.258    0.434    1.876
  402.798  162.656   74.478    0.254    0.434    1.924
  403.048  161.669   74.147    0.239    0.447    2.004
  403.298  161.064   76.752    0.232    0.431    2.108
  403.548  161.346   79.697    0.224    0.416    2.221
  403.798  161.432   83.911    0.223    0.408    2.334
  404.048  161.228   87.168    0.210    0.407    2.419
  404.298  161.445   88.581    0.188    0.424    2.443
  404.548  161.741   83.663    0.180    0.437    2.358
  404.798  162.563   80.472    0.194    0.435    2.414
  405.048  163.406   78.143    0.221    0.425    2.554
  405.298  163.805   76.285    0.229    0.414    2.869
  405.548  164.130   74.829    0.211    0.391    3.154
  405.798  163.869   74.193    0.162    0.327    3.459
  406.048  163.951   74.839    0.136    0.290    3.429
  406.298  163.824   76.442    0.072    0.269    3.206
  406.548  163.883   78.639    0.055    0.288    2.901
  406.798  163.887   81.025    0.147    0.344    2.680
  407.048  164.506   82.826    0.214    0.394    2.505
  407.298  165.166   84.480    0.242    0.418    2.455
  407.548  165.969   87.001    0.221    0.418    2.706
  407.798  166.809   89.501    0.197    0.418    2.896
  408.048  167.447   91.233    0.181    0.428    3.114
  408.298  167.948   92.913    0.170    0.418    3.296
  408.548  168.380   94.887    0.169    0.415    3.433
  408.798  168.527   95.844    0.174    0.423    3.498
  409.048  168.636   96.714    0.156    0.429    3.535
  409.298  168.916   97.638    0.150    0.428    3.534
  409.548  168.920   98.194    0.147    0.441    3.534
  409.798  168.643   98.734    0.138    0.455    3.554
  410.048  168.558   99.465    0.130    0.439    3.570
  410.298  169.134  101.820    0.118    0.449    3.542
  410.548  172.143  106.398    0.104    0.457    3.406
  410.798  179.932  113.313    0.133    0.465    3.249
  411.048  187.389  118.265    0.142    0.469    3.222
  411.298  181.666  123.237    0.176    0.450    3.432
  411.548  173.814  115.777    0.173    0.434    3.666
  411.798  166.591  111.952    0.163    0.436    3.855
  412.048  164.215  108.086    0.169    0.428    3.925
  412.298  162.828  107.113    0.175    0.390    3.967
  412.548  162.766  108.371    0.165    0.379    3.980
  412.798  162.474  109.477    0.160    0.393    4.023
  413.048  162.117  109.046    0.157    0.404    4.091
  413.298  162.072  105.812    0.164    0.414    4.137
  413.548  161.641  101.565    0.182    0.422    4.129
  413.798  161.198   99.458    0.178    0.431    4.050
  414.048  160.961  100.953    0.161    0.444    3.929
  414.298  161.034  102.608    0.158    0.432    3.754
  414.548  161.378  104.027    0.164    0.384    3.603
  414.798  161.547  105.191    0.167    0.397    3.442
  415.048  161.533  106.482    0.168    0.413    3.323
  415.298  161.361  108.950    0.131    0.433    3.276
  415.548  161.070  111.631    0.126    0.433    3.259
  415.798  161.380  112.364    0.161    0.426    3.281
  416.048  161.361  109.244    0.192    0.441    3.331
  416.298  162.763  105.971    0.163    0.453    3.361
  416.548  163.378  102.898    0.167    0.461    3.376
  416.798  162.691  101.570    0.182    0.454    3.370
  417.048  160.832  104.184    0.198    0.442    3.352
  417.298  161.301  108.282    0.175    0.419    3.310
  417.548  165.067  112.966    0.150    0.404    3.309
  417.798  167.863  116.324    0.139    0.393    3.418
  418.048  170.591  118.190    0.138    0.405    3.632
  418.298  172.398  119.679    0.149    0.416    3.794
  418.548  173.936  121.767    0.166    0.426    3.861
  418.798  176.483  123.971    0.143    0.434    3.878
  419.048  180.123  125.672    0.117    0.447    3.823
  419.298  182.906  125.668    0.134    0.461    3.656
  419.548  183.668  121.051    0.157    0.471    3.375
  419.798  179.615  116.316    0.155    0.448    2.976
  420.048  174.589  113.537    0.171    0.437    2.860
  420.298  169.088  109.223    0.165    0.428    2.850
