~VERSION INFORMATION
 VERS.                 2.0:   CWLS LOG ASCII STANDARD -VERSION 2.0
 WRAP.                  NO:   ONE LINE PER DEPTH STEP
~WELL INFORMATION BLOCK
#MNEM.UNIT           DATA                    DESCRIPTION OF MNEMONIC
#---------    -------------------            -------------------------------
# Generated from Intellog Unique Number	CW_70_72/WELL/928
NULL.         -999.25                        : NULL_VALUE
WELL.         SUNDANCE MCMORAN SMITH 07-30   : Well_name    - WELL              
LOC .         07-30-072-24W4                 : Location     - LOCATION          
UWI .         00/07-30-072-24W4/0            : Uwi          - UNIQUE WELL ID    
ENTR.         JAYE                           : Entered      - ENTERED BY        
SRVC.         SCHLUMBERGER                   : Scn          - SERVICE COMPANY   
DATE.         17 JAN 75                      : Date         - LOG DATE          
STRT.M        411.48                         : top_depth    - START DEPTH       
STOP.M        624.73                         : bot_depth    - STOP DEPTH        
STEP.M        0.25                           : increment    - STEP LENGTH       
~CURVE INFORMATION BLOCK
#MNEM UNIT       ERCB CURVE CODE    CURVE DESCRIPTION
#-----------   ------------------   ----------------------------------
DEPT.M        00 001 00 00         : DEPTH        - DEPTH                       
DPHI.V/V      00 890 00 00         : PHID         - DENSITY POROSITY (SANDSTONE)
NPHI.V/V      00 330 00 00         : PHIN         - NEUTRON POROSITY (SANDSTONE)
GR  .API      00 310 00 00         : GR           - GAMMA RAY                   
CALI.MM       00 280 01 00         : CAL          - CALIPER                     
ILD .OHMM     00 120 00 00         : RESD         - DEEP RESISTIVITY (DIL)      
~PARAMETER INFORMATION       
#MNEM.UNIT           DATA             DESCRIPTION OF MNEMONIC
#---------         -----------     ------------------------------
GL  .M        633.984              : gl           - GROUND LEVEL ELEVATION      
EREF.M        642.518              : kb           - ELEVATION OF DEPTH REFERENCE
DATM.M        633.984              : datum        - DATUM ELEVATION             
TDD .M        624.84               : tdd          - TOTAL DEPTH DRILLER         
RUN .         ONE                  : Run          - RUN NUMBER                  
ENG .         JENSEN               : Engineer     - RECORDING ENGINEER          
WIT .         COPLAND/RUDD         : Witness      - WITNESSED BY                
BASE.         EDM                  : Branch       - HOME BASE OF LOGGING UNIT   
MUD .         GEL CHEM             : Mud_type     - MUD TYPE                    
MATR.         SANDSTONE            : Logunit      - NEUTRON MATRIX              
TMAX.C        25.5556              : BHT          - MAXIMUM RECORDED TEMPERATURE
BHTD.M        624.84               : BHTDEP       - MAXIMUM RECORDED TEMPERATURE
RMT .C        15.5556              : MDTP         - TEMPERATURE OF MUD          
MUDD.KG/M     1104                 : MWT          - MUD DENSITY                 
NEUT.         1                    : NEUTRON      - NEUTRON TYPE                
RESI.         0                    : RESIST       - RESISTIVITY TYPE            
RM  .OHMM     7.26                 : RM           - RESISTIVITY OF MUD          
RMC .OHMM     0                    : RMC          - RESISTIVITY OF MUD CAKE     
RMF .OHMM     8.24                 : RMF          - RESISTIVITY OF MUD FILTRATE 
SUFT.C        0                    : SUFT         - SURFACE TEMPERATURE         
~A  DEPTH     PHID     PHIN       GR      CAL     RESD
  411.480    0.211    0.370   72.919  179.266    5.207
  411.730    0.202    0.369   78.513  182.761    4.927
  411.980    0.233    0.374   81.256  188.042    4.758
  412.230    0.217    0.396   84.746  193.422    4.715
  412.480    0.208    0.413   87.738  198.175    4.804
  412.730    0.204    0.429   89.804  199.474    5.013
  412.980    0.202    0.441   91.066  192.079    5.299
  413.230    0.210    0.436   84.659  183.430    5.508
  413.480    0.229    0.406   75.652  180.119    5.664
  413.730    0.237    0.391   71.472  180.474    5.738
  413.980    0.235    0.388   75.826  182.094    5.739
  414.230    0.240    0.387   82.283  183.704    5.698
  414.480    0.223    0.379   87.750  185.523    5.584
  414.730    0.203    0.378   82.332  185.569    5.383
  414.980    0.232    0.375   74.501  184.244    5.132
  415.230    0.249    0.362   65.560  183.237    4.965
  415.480    0.274    0.350   57.173  182.033    5.039
  415.730    0.297    0.349   57.753  182.180    5.336
  415.980    0.285    0.358   62.541  182.424    6.254
  416.230    0.261    0.365   65.039  182.255    7.330
  416.480    0.232    0.386   63.516  181.984    9.265
  416.730    0.208    0.406   48.017  181.708   10.918
  416.980    0.274    0.393   29.301  181.026   11.712
  417.230    0.303    0.334   21.657  180.743   11.125
  417.480    0.299    0.318   20.199  180.474    9.339
  417.730    0.307    0.326   20.469  180.513    7.668
  417.980    0.307    0.332   21.607  180.868    6.803
  418.230    0.293    0.321   22.625  181.127    5.970
  418.480    0.309    0.311   23.019  181.171    5.345
  418.730    0.311    0.304   23.168  180.996    4.830
  418.980    0.305    0.299   23.315  180.619    4.270
  419.230    0.312    0.329   23.587  180.344    4.263
  419.480    0.308    0.324   24.236  180.281    4.658
  419.730    0.296    0.323   24.811  180.848    4.987
  419.980    0.298    0.331   26.570  180.584    5.071
  420.230    0.319    0.342   28.573  180.514    5.129
  420.480    0.319    0.345   30.698  180.762    5.177
  420.730    0.309    0.346   33.941  180.804    5.255
  420.980    0.295    0.336   37.240  180.534    5.226
  421.230    0.281    0.322   47.595  180.257    5.208
  421.480    0.263    0.327   57.763  179.992    5.286
  421.730    0.246    0.353   70.836  180.031    5.435
  421.980    0.242    0.369   78.344  179.756    5.426
  422.230    0.230    0.350   80.225  179.489    5.125
  422.480    0.212    0.343   82.105  179.529    4.666
  422.730    0.212    0.354   82.314  179.365    4.102
  422.980    0.229    0.353   78.691  179.292    3.606
  423.230    0.236    0.364   75.067  179.966    3.170
  423.480    0.259    0.389   88.449  180.845    2.918
  423.730    0.241    0.434   95.339  182.566    2.756
  423.980    0.212    0.473   99.817  184.704    2.657
  424.230    0.178    0.520  106.029  187.985    2.604
  424.480    0.162    0.512  109.700  192.537    2.653
  424.730    0.174    0.498  108.551  194.669    2.712
  424.980    0.181    0.498  107.153  195.861    2.915
  425.230    0.203    0.499  108.723  196.849    3.203
  425.480    0.209    0.498  113.757  196.788    3.565
  425.730    0.202    0.504  119.411  198.183    3.931
  425.980    0.209    0.483  123.207  200.426    4.264
  426.230    0.218    0.459  120.881  201.303    4.676
  426.480    0.219    0.434  113.795  199.459    5.026
  426.730    0.201    0.385  108.190  195.940    5.054
  426.980    0.212    0.404  104.132  202.585    4.990
  427.230    0.204    0.438  100.264  211.420    4.927
  427.480    0.234    0.449   95.029  203.403    4.811
  427.730    0.216    0.461   86.272  197.785    4.715
  427.980    0.241    0.450   70.956  188.296    4.638
  428.230    0.261    0.421   59.108  182.054    4.563
  428.480    0.276    0.390   60.741  180.209    4.538
  428.730    0.283    0.390   63.795  178.788    4.539
  428.980    0.278    0.402   63.138  178.622    4.624
  429.230    0.285    0.377   60.442  178.660    4.745
  429.480    0.265    0.366   63.687  179.019    4.861
  429.730    0.237    0.383   67.669  179.370    4.998
  429.980    0.226    0.405   71.159  179.411    5.139
  430.230    0.248    0.422   68.828  179.561    5.323
  430.480    0.282    0.392   63.718  179.600    5.423
  430.730    0.268    0.396   70.053  179.552    5.344
  430.980    0.252    0.413   75.891  179.280    5.219
  431.230    0.251    0.425   77.770  179.318    5.124
  431.480    0.271    0.426   76.557  179.245    4.985
  431.730    0.287    0.415   70.770  178.664    4.886
  431.980    0.299    0.407   65.475  178.076    4.877
  432.230    0.286    0.406   64.077  177.488    4.932
  432.480    0.280    0.404   65.340  177.106    5.071
  432.730    0.276    0.403   64.933  177.569    5.214
  432.980    0.295    0.405   66.192  178.451    5.381
  433.230    0.287    0.404   68.815  179.640    5.402
  433.480    0.264    0.400   74.347  180.940    5.343
  433.730    0.243    0.394   77.954  181.711    5.188
  433.980    0.225    0.391   80.394  182.278    4.928
  434.230    0.221    0.397   81.343  182.850    4.612
  434.480    0.234    0.415   82.606  182.677    4.246
  434.730    0.243    0.413   83.806  182.194    3.865
  434.980    0.246    0.404   83.519  182.654    3.519
  435.230    0.221    0.404   84.041  183.649    3.269
  435.480    0.198    0.421   85.919  185.251    3.475
  435.730    0.190    0.442   89.531  189.586    3.748
  435.980    0.213    0.466   93.455  194.028    4.141
  436.230    0.200    0.467   96.136  197.318    4.618
  436.480    0.212    0.437   98.759  195.057    5.121
  436.730    0.226    0.412  100.392  196.353    5.473
  436.980    0.197    0.404   98.933  199.010    5.586
  437.230    0.206    0.417   92.215  199.682    5.133
  437.480    0.246    0.423   86.736  191.972    4.269
  437.730    0.216    0.410   82.865  187.096    3.505
  437.980    0.158    0.432   85.052  188.287    3.042
  438.230    0.190    0.437   83.469  185.710    3.215
  438.480    0.240    0.421   86.648  182.821    3.686
  438.730    0.211    0.445   91.559  184.647    4.249
  438.980    0.198    0.465   95.912  187.720    4.906
  439.230    0.210    0.484  100.019  190.483    5.604
  439.480    0.201    0.426  101.467  191.156    6.306
  439.730    0.220    0.402   96.420  188.588    5.979
  439.980    0.183    0.400   92.300  186.007    5.217
  440.230    0.223    0.391   88.307  183.848    4.698
  440.480    0.246    0.367   85.733  182.626    4.750
  440.730    0.231    0.427   83.592  186.649    5.105
  440.980    0.244    0.482   84.791  193.183    5.682
  441.230    0.262    0.516   87.599  200.979    6.278
  441.480    0.283    0.531   90.470  208.767    6.563
  441.730    0.239    0.466   87.280  190.379    6.649
  441.980    0.213    0.398   83.220  184.343    6.614
  442.230    0.194    0.394   84.976  183.451    6.458
  442.480    0.199    0.416   89.021  183.809    6.260
  442.730    0.197    0.411   90.531  184.057    6.079
  442.980    0.188    0.413   91.236  184.616    5.979
  443.230    0.183    0.423   92.620  185.286    5.796
  443.480    0.196    0.413   92.769  185.954    5.587
  443.730    0.202    0.396   92.916  186.209    5.356
  443.980    0.183    0.389   92.633  186.774    5.220
  444.230    0.183    0.393   91.977  188.594    5.487
  444.480    0.169    0.410   91.262  192.511    5.919
  444.730    0.162    0.431   90.667  198.944    6.349
  444.980    0.171    0.450   89.702  201.181    6.938
  445.230    0.186    0.464   87.930  198.501    7.293
  445.480    0.193    0.471   85.668  197.811    7.402
  445.730    0.162    0.366   85.691  192.195    7.268
  445.980    0.131    0.358   89.427  184.381    7.123
  446.230    0.148    0.387   92.728  185.681    6.841
  446.480    0.156    0.411   89.724  187.822    6.631
  446.730    0.154    0.399   90.367  188.487    6.535
  446.980    0.150    0.385   92.804  189.367    6.882
  447.230    0.163    0.388   94.002  189.620    7.465
  447.480    0.176    0.409   92.607  188.724    8.232
  447.730    0.190    0.420   88.423  187.291    8.962
