~VERSION INFORMATION
 VERS.                 2.0:   CWLS LOG ASCII STANDARD -VERSION 2.0
 WRAP.                  NO:   ONE LINE PER DEPTH STEP
~WELL INFORMATION BLOCK
#MNEM.UNIT           DATA                    DESCRIPTION OF MNEMONIC
#---------    -------------------            -------------------------------
# Generated from Intellog Unique Number	CS_73_76/WELL/772
WELL.         BOW VALLEY INDUSTRIES LTD      : Well_name    - WELL
LOC .         00/07-27-073-18W4/0            : Location     - LOCATION
UWI .         00/07-27-073-18W4/0            : Uwi          - UNIQUE WELL ID
ENTR.         SP                             : Entered      - ENTERED BY
SRVC.         SCHLUMBERGER                   : Scn          - SERVICE COMPANY
STRT.M        204.216                        : top_depth    - START DEPTH
STOP.M        444.716                        : bot_depth    - STOP DEPTH
STEP.M        0.25                           : increment    - STEP LENGTH
 NULL. -999.2500:NULL Value
~CURVE INFORMATION BLOCK
#MNEM UNIT       ERCB CURVE CODE    CURVE DESCRIPTION
#-----------   ------------------   ----------------------------------
DEPT.M        00 001 00 00         : DEPTH        - DEPTH
GR  .API      00 310 00 00         : GR           - GAMMA RAY
DPHI.V/V      00 890 00 00         : PHID         - DENSITY POROSITY (SANDSTONE)
NPHI.V/V      00 330 00 00         : PHIN         - NEUTRON POROSITY (SANDSTONE)
ILD .OHMM     00 120 00 00         : RESD         - DEEP RESISTIVITY (DIL)
~PARAMETER INFORMATION
#MNEM.UNIT           DATA             DESCRIPTION OF MNEMONIC
#---------         -----------     ------------------------------
GL  .M        582.168              : gl           - GROUND LEVEL ELEVATION
EREF.M        585.216              : kb           - ELEVATION OF DEPTH REFERENCE
DATM.M        582.168              : datum        - DATUM ELEVATION
TDD .M        443.789              : tdd          - TOTAL DEPTH DRILLER
RUN .         ONE                  : Run          - RUN NUMBER
ENG .         BILL                 : Engineer     - RECORDING ENGINEER
WIT .         JIM                  : Witness      - WITNESSED BY
MUD .         GEL                  : Mud_type     - MUD TYPE
MATR.         SANDSTONE            : Logunit      - NEUTRON MATRIX
TMAX.C        22.2222              : BHT          - MAXIMUM RECORDED TEMPERATURE
BHTD.M        443.179              : BHTDEP       - MAXIMUM RECORDED TEMPERATURE
MATR.         1                    : LOGUNIT      - NEUTRON MATRIX
RMT .C        25                   : MDTP         - TEMPERATURE OF MUD
NEUT.         1                    : NEUTRON      - NEUTRON TYPE
RESI.         0                    : RESIST       - RESISTIVITY TYPE
RMC .OHMM     0.25                 : RMC          - RESISTIVITY OF MUD CAKE
RMF .OHMM     0.25                 : RMF          - RESISTIVITY OF MUD FILTRATE
SUFT.C        15                   : SUFT         - SURFACE TEMPERATURE
~A  DEPTH       GR     PHID     PHIN     RESD
# ...
  378.216   68.221    0.213    0.450    6.065
  378.466   69.018    0.208    0.438    6.199
  378.716   70.667    0.205    0.438    6.187
  378.966   70.650    0.209    0.447    6.199
  379.216   70.603    0.211    0.456    6.060
  379.466   68.996    0.212    0.460    6.080
  379.716   66.955    0.212    0.458    5.947
  379.966   65.799    0.212    0.450    5.945
  380.216   65.777    0.212    0.436    5.844
  380.466   66.489    0.215    0.429    5.798
  380.716   66.408    0.217    0.418    5.736
  380.966   65.385    0.225    0.418    5.642
  381.216   64.526    0.219    0.439    5.529
  381.466   65.244    0.213    0.461    5.429
  381.716   66.288    0.224    0.466    5.444
  381.966   66.352    0.225    0.465    5.321
  382.216   64.686    0.233    0.466    5.330
  382.466   63.321    0.233    0.466    5.272
  382.716   62.085    0.243    0.461    5.235
  382.966   60.643    0.251    0.463    5.233
  383.216   57.339    0.253    0.455    5.234
  383.466   54.057    0.268    0.443    5.236
  383.716   51.054    0.280    0.449    5.155
  383.966   49.308    0.290    0.455    5.149
  384.216   47.553    0.303    0.449    5.039
  384.466   46.944    0.315    0.447    5.045
  384.716   46.987    0.323    0.447    5.052
  384.966   46.983    0.326    0.448    4.950
  385.216   48.060    0.327    0.447    5.053
  385.466   48.321    0.325    0.442    5.043
  385.716   49.367    0.320    0.433    5.049
  385.966   49.732    0.320    0.431    4.942
  386.216   49.319    0.324    0.437    4.951
  386.466   47.130    0.322    0.443    4.952
  386.716   47.039    0.317    0.448    4.961
  386.966   47.028    0.310    0.447    4.855
  387.216   49.034    0.305    0.445    4.862
  387.466   50.076    0.302    0.443    4.862
  387.716   50.062    0.301    0.449    4.862
  387.966   49.044    0.305    0.458    4.798
  388.216   48.032    0.309    0.449    4.773
  388.466   47.636    0.319    0.436    4.774
  388.716   47.326    0.326    0.424    4.676
  388.966   46.302    0.318    0.414    4.683
  389.216   45.251    0.319    0.415    4.685
  389.466   44.901    0.324    0.422    4.693
  389.716   44.552    0.312    0.431    4.592
  389.966   43.975    0.311    0.440    4.599
  390.216   43.961    0.319    0.449    4.599
  390.466   44.672    0.328    0.454    4.599
  390.716   45.674    0.320    0.456    4.602
  390.966   46.707    0.323    0.464    4.628
  391.216   47.073    0.317    0.470    4.687
  391.466   47.550    0.318    0.468    4.688
  391.716   47.035    0.330    0.478    4.687
  391.966   46.520    0.320    0.482    4.688
  392.216   46.791    0.310    0.462    4.688
  392.466   47.844    0.311    0.447    4.688
  392.716   48.281    0.313    0.444    4.688
  392.966   48.992    0.312    0.444    4.689
  393.216   48.933    0.323    0.444    4.689
  393.466   48.915    0.327    0.443    4.730
  393.716   48.695    0.321    0.445    5.287
  393.966   48.324    0.310    0.445    5.784
  394.216   46.900    0.281    0.437    6.849
  394.466   44.735    0.210    0.405    8.328
  394.716   42.265    0.153    0.293    9.022
  394.966   42.604    0.108    0.261    8.595
  395.216   43.725    0.128    0.244    7.349
  395.466   45.724    0.231    0.331    6.511
  395.716   48.175    0.284    0.383    5.852
  395.966   49.089    0.303    0.411    5.522
  396.216   49.597    0.307    0.435    5.104
  396.466   49.571    0.316    0.425    4.921
  396.716   49.547    0.300    0.422    4.872
  396.966   48.976    0.302    0.432    4.935
  397.216   47.928    0.296    0.440    5.095
  397.466   46.545    0.281    0.436    5.253
  397.716   46.998    0.266    0.434    5.529
  397.966   47.429    0.245    0.405    5.710
  398.216   48.963    0.215    0.401    5.571
  398.466   49.940    0.234    0.418    5.366
  398.716   50.837    0.264    0.452    4.952
  398.966   51.817    0.289    0.463    4.819
  399.216   55.114    0.286    0.452    4.560
  399.466   58.502    0.297    0.450    4.422
  399.716   62.580    0.304    0.456    4.212
  399.966   67.139    0.295    0.463    4.088
  400.216   71.037    0.250    0.467    3.965
  400.466   72.491    0.228    0.468    3.900
  400.716   72.962    0.215    0.468    3.819
  400.966   73.430    0.206    0.468    3.756
  401.216   73.436    0.205    0.468    3.679
  401.466   73.450    0.207    0.469    3.683
  401.716   72.937    0.214    0.479    3.685
  401.966   71.163    0.235    0.492    3.714
  402.216   70.924    0.244    0.495    3.827
  402.466   70.385    0.237    0.494    3.881
  402.716   70.651    0.237    0.493    4.005
  402.966   70.961    0.230    0.495    4.131
  403.216   70.431    0.224    0.503    4.251
  403.466   69.688    0.222    0.507    4.482
  403.716   70.421    0.230    0.497    4.705
  403.966   71.876    0.237    0.476    5.047
  404.216   73.363    0.227    0.461    5.199
  404.466   75.243    0.226    0.450    5.261
  404.716   78.252    0.223    0.455    5.212
  404.966   80.328    0.213    0.460    5.044
  405.216   81.849    0.213    0.463    4.979
  405.466   82.623    0.219    0.462    4.873
  405.716   82.470    0.223    0.456    4.883
  405.966   79.833    0.221    0.451    4.881
  406.216   78.034    0.213    0.454    4.847
  406.466   77.798    0.204    0.450    4.794
  406.716   78.369    0.195    0.443    4.794
  406.966   79.224    0.184    0.446    4.794
  407.216   80.204    0.189    0.453    4.795
  407.466   80.855    0.192    0.453    4.797
  407.716   80.721    0.181    0.439    4.816
  407.966   79.697    0.177    0.427    4.888
  408.216   77.531    0.190    0.420    4.887
  408.466   73.854    0.198    0.429    4.886
  408.716   71.029    0.209    0.436    4.889
  408.966   64.986    0.220    0.447    4.929
  409.216   61.162    0.233    0.452    4.979
  409.466   58.829    0.243    0.452    4.971
  409.716   61.642    0.253    0.447    5.079
  409.966   65.668    0.248    0.433    5.174
  410.216   67.682    0.233    0.431    5.329
  410.466   68.772    0.218    0.426    5.666
  410.716   64.040    0.190    0.417    6.212
  410.966   58.319    0.144    0.406    7.214
  411.216   54.279    0.088    0.387    8.548
  411.466   53.757    0.066    0.363    9.506
  411.716   59.122    0.075    0.339   10.011
  411.966   63.021    0.114    0.346    9.543
  412.216   67.671    0.136    0.386    8.854
  412.466   69.646    0.152    0.424    8.083
  412.716   69.922    0.158    0.443    7.223
  412.966   69.951    0.162    0.434    6.704
  413.216   70.143    0.176    0.425    6.475
  413.466   70.544    0.183    0.417    6.479
  413.716   71.271    0.176    0.418    6.470
  413.966   70.424    0.184    0.426    6.644
  414.216   68.799    0.187    0.440    6.730
  414.466   68.700    0.179    0.444    6.785
  414.716   69.422    0.171    0.437    6.988
  414.966   68.812    0.176    0.427    7.099
  415.216   68.698    0.174    0.417    7.114
  415.466   69.390    0.167    0.408    7.118
  415.716   69.365    0.159    0.398    7.129
  415.966   69.585    0.168    0.405    6.936
  416.216   69.970    0.160    0.410    6.730
  416.466   70.341    0.160    0.418    6.656
  416.716   71.220    0.167    0.426    6.447
  416.966   71.778    0.175    0.436    6.253
  417.216   72.390    0.170    0.443    6.136
  417.466   73.038    0.167    0.441    6.008
  417.716   74.154    0.165    0.432    6.011
  417.966   74.556    0.172    0.430    6.134
  418.216   74.902    0.187    0.427    6.269
  418.466   73.915    0.180    0.421    6.462
  418.716   72.831    0.166    0.423    6.665
  418.966   71.831    0.171    0.427    6.875
  419.216   71.392    0.175    0.432    6.986
  419.466   72.651    0.175    0.427    7.140
  419.716   76.121    0.167    0.421    7.126
  419.966   78.638    0.170    0.417    7.136
  420.216   79.059    0.177    0.412    6.940
  420.466   78.678    0.176    0.407    6.391
  420.716   74.655    0.172    0.400    6.138
  420.966   72.889    0.169    0.392    5.770
  421.216   72.508    0.168    0.386    5.692
  421.466   71.568    0.167    0.381    5.695
