~VERSION INFORMATION
 VERS.                 2.0:   CWLS LOG ASCII STANDARD -VERSION 2.0
 WRAP.                  NO:   ONE LINE PER DEPTH STEP
~WELL INFORMATION BLOCK
#MNEM.UNIT           DATA                    DESCRIPTION OF MNEMONIC
#---------    -------------------            -------------------------------
# Generated from Intellog Unique Number	CN_91_93/WELL/1069
WELL.         PARAMOUNT RESOURCES LTD.       : Well_name    - WELL
LOC .         00/04-07-091-19W4/0            : Location     - LOCATION
UWI .         00/04-07-091-19W4/0            : Uwi          - UNIQUE WELL ID
ENTR.         JOETTE                         : Entered      - ENTERED BY
SRVC.         SCHLUMBERGER                   : Scn          - SERVICE COMPANY
DATE.         01/31/92                       : Date         - LOG DATE
STRT.F        295.276                        : top_depth    - START DEPTH
STOP.F        761.155                        : bot_depth    - STOP DEPTH
STEP.F        0.82                           : increment    - STEP LENGTH
 NULL. -999.2500:NULL Value
~CURVE INFORMATION BLOCK
#MNEM UNIT       ERCB CURVE CODE    CURVE DESCRIPTION
#-----------   ------------------   ----------------------------------
DEPT.F        00 001 00 00         : DEPTH        - DEPTH
ILD .OHMM     00 120 00 00         : RESD         - DEEP RESISTIVITY (DIL)
DPHI.V/V      00 890 00 00         : PHID         - DENSITY POROSITY (SANDSTONE)
NPHI.V/V      00 330 00 00         : PHIN         - NEUTRON POROSITY (SANDSTONE)
CALI.IN       00 280 01 00         : CAL          - CALIPER
GR  .API      00 310 00 00         : GR           - GAMMA RAY
~PARAMETER INFORMATION
#MNEM.UNIT           DATA             DESCRIPTION OF MNEMONIC
#---------         -----------     ------------------------------
GL  .F        1674.54              : gl           - GROUND LEVEL ELEVATION
EREF.F        1684.71              : kb           - ELEVATION OF DEPTH REFERENCE
DATM.F        1684.71              : datum        - DATUM ELEVATION
TDD .F        766.404              : tdd          - TOTAL DEPTH DRILLER
RUN .         ONE                  : Run          - RUN NUMBER
ENG .         JO                   : Engineer     - RECORDING ENGINEER
WIT .         TIM                  : Witness      - WITNESSED BY
MUD .         GEL                  : Mud_type     - MUD TYPE
MATR.         SANDSTONE            : Logunit      - NEUTRON MATRIX
TMAX.F        71.6                 : BHT          - MAXIMUM RECORDED TEMPERATURE
BHTD.F        766.404              : BHTDEP       - MAXIMUM RECORDED TEMPERATURE
RMT .F        53.6                 : MDTP         - TEMPERATURE OF MUD
MUDD.LB/G     9.5                  : MWT          - MUD DENSITY
NEUT.         1                    : NEUTRON      - NEUTRON TYPE
RESI.         0                    : RESIST       - RESISTIVITY TYPE
RM  .OHMM     1.5                  : RM           - RESISTIVITY OF MUD
RMC .OHMM     6.5                  : RMC          - RESISTIVITY OF MUD CAKE
RMF .OHMM     5.7                  : RMF          - RESISTIVITY OF MUD FILTRATE
SUFT.F        39.2                 : SUFT         - SURFACE TEMPERATURE
~A  DEPTH     RESD     PHID     PHIN      CAL       GR
# ...
  415.026   13.112    0.244    0.489    6.266  100.486
  415.846   13.208    0.247    0.482    6.231   99.051
  416.667   13.217    0.231    0.470    6.231  102.604
  417.487   13.226    0.233    0.456    6.215  104.989
  418.307   13.239    0.236    0.456    6.122  105.014
  419.127   13.341    0.241    0.457    6.124  103.295
  419.948   13.817    0.241    0.458    6.145  100.981
  420.768   14.611    0.238    0.456    6.129   98.675
  421.588   15.237    0.232    0.445    6.092   95.482
  422.408   16.000    0.210    0.432    6.037   89.071
  423.228   17.153    0.187    0.414    5.981   80.899
  424.049   20.113    0.145    0.392    5.906   70.680
  424.869   22.314    0.151    0.394    5.813   72.768
  425.689   23.762    0.174    0.405    5.873   77.785
  426.509   23.129    0.209    0.424    6.125   79.284
  427.329   19.894    0.240    0.414    6.357   79.317
  428.150   17.833    0.253    0.406    6.340   79.937
  428.970   16.661    0.205    0.422    6.228   88.176
  429.790   15.673    0.170    0.435    6.095   95.529
  430.610   15.050    0.143    0.458    5.847  104.647
  431.430   14.551    0.155    0.470    5.773  111.418
  432.251   14.369    0.168    0.464    5.736  111.451
  433.071   13.981    0.135    0.474    5.701  109.727
  433.891   13.334    0.169    0.489    5.703  114.452
  434.711   12.805    0.185    0.492    5.686  116.829
  435.531   12.296    0.199    0.489    5.650  109.251
  436.352   11.725    0.182    0.503    5.614  105.765
  437.172   11.029    0.184    0.511    5.577  107.556
  437.992   10.374    0.208    0.510    5.867  110.527
  438.812    9.894    0.230    0.506    6.062  109.966
  439.633    9.501    0.227    0.495    6.062  107.075
  440.453    9.250    0.226    0.488    6.068  104.472
  441.273    8.883    0.266    0.488    6.069  103.041
  442.093    8.828    0.277    0.501    6.071  103.070
  442.913    8.895    0.276    0.517    6.073  103.983
  443.734    9.150    0.268    0.509    6.133  102.263
  444.554    9.676    0.258    0.491    6.251  104.933
  445.374   10.591    0.239    0.471    6.272  104.385
  446.194   11.751    0.203    0.459    6.275  100.313
  447.014   13.128    0.199    0.431    6.277   95.367
  447.835   14.870    0.193    0.416    6.241   89.538
  448.655   17.195    0.182    0.403    6.241   87.525
  449.475   19.885    0.169    0.403    6.208   88.441
  450.295   22.679    0.173    0.409    6.189   87.010
  451.115   24.996    0.192    0.403    6.189   83.525
  451.936   26.249    0.136    0.381    6.175   78.281
  452.756   26.447    0.115    0.352    6.177   75.683
  453.576   26.466    0.108    0.357    6.199   80.407
  454.396   25.767    0.145    0.361    6.220   83.659
  455.217   24.575    0.207    0.359    6.242   81.353
  456.037   23.114    0.214    0.364    6.282   79.918
  456.857   21.297    0.214    0.375    6.282   79.663
  457.677   20.033    0.211    0.388    6.305   91.120
  458.497   19.237    0.201    0.406    6.305   97.309
  459.318   18.474    0.194    0.412    6.311   97.632
  460.138   18.746    0.191    0.412    6.313   83.605
  460.958   19.956    0.183    0.410    6.313   76.608
  461.778   21.541    0.170    0.401    6.318   70.779
  462.598   23.413    0.188    0.377    6.281   66.419
  463.419   26.340    0.222    0.354    6.283   59.133
  464.239   29.025    0.175    0.324    6.283   56.819
  465.059   31.985    0.164    0.316    6.288   54.802
  465.879   34.528    0.172    0.321    6.251   54.802
  466.699   34.795    0.152    0.320    6.251   54.589
  467.520   33.183    0.138    0.341    6.256   54.614
  468.340   31.429    0.162    0.355    6.239   55.238
  469.160   30.385    0.209    0.360    6.239   62.297
  469.980   27.615    0.235    0.344    6.244   57.066
  470.801   22.480    0.204    0.341    6.246   57.682
  471.621   19.201    0.162    0.364    6.246   84.079
  472.441   17.334    0.180    0.381    6.270   92.025
  473.261   16.642    0.214    0.414    6.271   93.230
  474.081   15.764    0.220    0.429    6.293   89.753
  474.902   15.454    0.176    0.434    6.295   88.318
  475.722   15.575    0.173    0.425    6.295   95.972
  476.542   15.800    0.185    0.415    6.299  102.454
  477.362   16.251    0.170    0.419    6.299   99.261
  478.182   17.422    0.160    0.424    6.267   98.127
  479.003   18.809    0.175    0.427    6.229  100.211
  479.823   18.823    0.177    0.431    6.174   96.432
  480.643   18.324    0.161    0.437    6.174   91.490
  481.463   17.237    0.153    0.442    6.141   95.913
  482.283   17.014    0.167    0.432    6.123   90.088
  483.104   17.621    0.172    0.397    6.123   86.607
  483.924   18.632    0.189    0.396    6.109   81.665
  484.744   20.393    0.197    0.397    6.091   83.452
  485.564   22.940    0.202    0.394    6.113   82.318
  486.385   25.806    0.104    0.363    6.113   78.250
  487.205   27.480    0.108    0.360    6.137   76.522
  488.025   27.500    0.120    0.374    6.196   86.519
  488.845   27.329    0.154    0.377    6.237   91.244
  489.665   27.355    0.164    0.367    6.201   88.934
  490.486   27.370    0.171    0.371    6.145   85.745
  491.306   27.581    0.177    0.374    5.974   82.260
  492.126   27.797    0.181    0.377    5.881   77.606
  492.946   27.812    0.141    0.349    6.132   76.468
  493.766   27.833    0.166    0.349    6.423   79.142
  494.587   27.289    0.206    0.351    6.310   78.293
  495.407   26.020    0.239    0.357    6.274   82.725
  496.227   24.310    0.227    0.371    6.276   83.059
  497.047   23.346    0.208    0.387    6.298   83.382
  497.867   23.682    0.198    0.389    6.300   86.633
  498.688   23.702    0.189    0.394    6.283   90.772
  499.508   24.050    0.172    0.375    6.246   79.670
  500.328   23.252    0.147    0.360    6.153   74.435
  501.148   21.723    0.122    0.371    6.153   81.499
  501.969   20.858    0.141    0.395    6.138   90.910
  502.789   19.485    0.163    0.401    6.138   93.576
  503.609   17.347    0.198    0.412    6.143   99.472
  504.429   17.361    0.203    0.426    6.164   90.128
  505.249   18.355    0.186    0.340    6.205   69.071
  506.070   21.371    0.165    0.306    6.205   56.801
  506.890   26.475    0.105    0.296    6.209   55.663
  507.710   30.195    0.158    0.300    6.209   59.501
  508.530   34.442    0.174    0.308    6.215   60.417
  509.350   30.451    0.208    0.326    6.216   58.400
  510.171   27.866    0.139    0.350    6.216   64.878
  510.991   24.981    0.160    0.365    6.220   75.168
  511.811   22.391    0.174    0.399    6.220   83.111
  512.631   20.349    0.185    0.410    6.226   96.623
  513.451   19.139    0.200    0.414    6.227   88.752
  514.272   18.380    0.198    0.414    6.227   85.266
  515.092   18.521    0.201    0.413    6.251   81.784
  515.912   19.449    0.181    0.408    6.310   80.353
  516.732   19.066    0.180    0.411    6.332   86.831
  517.552   17.934    0.203    0.424    6.332   98.586
  518.373   18.073    0.206    0.430    6.338   90.999
  519.193   20.191    0.185    0.379    6.339   84.300
  520.013   25.357    0.169    0.362    6.339   80.814
  520.833   29.936    0.155    0.342    6.344   62.975
  521.654   35.338    0.121    0.325    6.307   54.514
  522.474   40.303    0.048    0.311    6.329   49.567
  523.294   48.240    0.030    0.304    6.329   48.722
  524.114   52.793    0.038    0.301    6.333   49.639
  524.934   53.564    0.042    0.295    6.297   51.133
  525.755   52.513    0.045    0.282    6.241   55.271
  526.575   49.737    0.054    0.276    6.186   62.921
  527.395   43.673    0.046    0.277    6.150   60.611
  528.215   38.609    0.025    0.284    6.113   60.649
  529.035   34.609    0.057    0.301    6.113   64.197
  529.856   31.023    0.084    0.327    6.118   70.675
  530.676   28.982    0.123    0.346    6.139   82.137
  531.496   25.801    0.182    0.361    6.139   91.548
  532.316   22.969    0.199    0.383    6.164   88.941
  533.136   21.459    0.210    0.396    6.203   87.510
  533.957   20.045    0.218    0.406    6.245   96.629
