~VERSION INFORMATION
 VERS.                 2.0:   CWLS LOG ASCII STANDARD -VERSION 2.0
 WRAP.                  NO:   ONE LINE PER DEPTH STEP
~WELL INFORMATION BLOCK
#MNEM.UNIT           DATA                    DESCRIPTION OF MNEMONIC
#---------    -------------------            -------------------------------
# Generated from Intellog Unique Number	CS_73_76/WELL/1999
WELL.         HOME OIL COMPANY LIMITED       : Well_name    - WELL
LOC .         00/06-36-075-06W4/0            : Location     - LOCATION
UWI .         00/06-36-075-06W4/0            : Uwi          - UNIQUE WELL ID
ENTR.         SP                             : Entered      - ENTERED BY
SRVC.         SCHLUMBERGER                   : Scn          - SERVICE COMPANY
STRT.M        195                            : top_depth    - START DEPTH
STOP.M        425                            : bot_depth    - STOP DEPTH
STEP.M        0.25                           : increment    - STEP LENGTH
 NULL. -999.2500:NULL Value
~CURVE INFORMATION BLOCK
#MNEM UNIT       ERCB CURVE CODE    CURVE DESCRIPTION
#-----------   ------------------   ----------------------------------
DEPT.M        00 001 00 00         : DEPTH        - DEPTH
ILD .OHMM     00 120 00 00         : RESD         - DEEP RESISTIVITY (DIL)
DPHI.V/V      00 890 00 00         : PHID         - DENSITY POROSITY (LIMESTONE)
NPHI.V/V      00 330 00 00         : PHIN         - NEUTRON POROSITY (LIMESTONE)
GR  .API      00 310 00 00         : GR           - GAMMA RAY
~PARAMETER INFORMATION
#MNEM.UNIT           DATA             DESCRIPTION OF MNEMONIC
#---------         -----------     ------------------------------
GL  .M        608.8                : gl           - GROUND LEVEL ELEVATION
EREF.M        612.3                : kb           - ELEVATION OF DEPTH REFERENCE
DATM.M        608.8                : datum        - DATUM ELEVATION
TDD .M        440                  : tdd          - TOTAL DEPTH DRILLER
RUN .         ONE                  : Run          - RUN NUMBER
ENG .         BILL                 : Engineer     - RECORDING ENGINEER
WIT .         JIM                  : Witness      - WITNESSED BY
MUD .         GEL                  : Mud_type     - MUD TYPE
MATR.         LIMESTONE            : Logunit      - NEUTRON MATRIX
TMAX.C        18                   : BHT          - MAXIMUM RECORDED TEMPERATURE
BHTD.M        440                  : BHTDEP       - MAXIMUM RECORDED TEMPERATURE
MATR.         1                    : LOGUNIT      - NEUTRON MATRIX
RMT .C        25                   : MDTP         - TEMPERATURE OF MUD
NEUT.         1                    : NEUTRON      - NEUTRON TYPE
RESI.         0                    : RESIST       - RESISTIVITY TYPE
RMC .OHMM     0.25                 : RMC          - RESISTIVITY OF MUD CAKE
RMF .OHMM     0.25                 : RMF          - RESISTIVITY OF MUD FILTRATE
SUFT.C        15                   : SUFT         - SURFACE TEMPERATURE
~A  DEPTH     RESD     PHID     PHIN       GR
# ...
  325.500    4.341    0.254    0.475   84.282
  325.750    4.675    0.263    0.481   82.477
  326.000    4.851    0.261    0.481   81.878
  326.250    4.505    0.242    0.475   83.085
  326.500    3.541    0.237    0.472   84.291
  326.750    2.491    0.243    0.478   86.100
  327.000    1.818    0.244    0.487   88.512
  327.250    1.429    0.241    0.460   90.924
  327.500    1.166    0.236    0.455   92.733
  327.750    0.969    0.235    0.475   93.940
  328.000    0.883    0.232    0.497   95.148
  328.250    0.820    0.230    0.513   95.752
  328.500    0.805    0.232    0.513   96.356
  328.750    0.805    0.232    0.495   96.961
  329.000    0.851    0.224    0.487   96.964
  329.250    0.917    0.227    0.497   98.172
  329.500    0.791    0.243    0.501   98.775
  329.750    0.556    0.249    0.497   99.982
  330.000    0.480    0.244    0.500  100.587
  330.250    0.429    0.251    0.505   99.986
  330.500    0.721    0.244    0.506   98.181
  330.750    0.952    0.249    0.509   96.376
  331.000    1.598    0.260    0.518   96.981
  331.250    2.735    0.256    0.523   95.779
  331.500    3.291    0.265    0.518   93.973
  331.750    3.611    0.275    0.524   89.759
  332.000    3.747    0.281    0.508   86.749
  332.250    3.889    0.291    0.467   83.739
  332.500    4.188    0.319    0.422   83.138
  332.750    4.768    0.349    0.370   83.141
  333.000    5.428    0.367    0.322   83.746
  333.250    5.955    0.402    0.327   84.351
  333.500    6.414    0.373    0.335   83.750
  333.750    6.414    0.365    0.349   81.945
  334.000    6.181    0.361    0.375   78.333
  334.250    5.531    0.337    0.388   77.130
  334.500    5.136    0.310    0.414   76.529
  334.750    4.770    0.298    0.438   76.532
  335.000    4.512    0.270    0.446   78.944
  335.250    4.597    0.245    0.461   80.151
  335.500    5.043    0.236    0.455   80.756
  335.750    5.331    0.234    0.442   79.553
  336.000    5.332    0.234    0.425   78.953
  336.250    4.951    0.236    0.430   81.364
  336.500    4.861    0.248    0.458   86.186
  336.750    4.772    0.242    0.476   88.599
  337.000    4.861    0.232    0.481   89.203
  337.250    5.045    0.222    0.476   88.603
  337.500    5.045    0.236    0.459   88.605
  337.750    5.140    0.245    0.466   89.812
  338.000    5.140    0.254    0.473   90.416
  338.250    5.140    0.243    0.471   88.611
  338.500    5.046    0.260    0.462   87.409
  338.750    5.046    0.255    0.467   88.013
  339.000    4.954    0.249    0.471   88.618
  339.250    5.047    0.242    0.467   88.620
  339.500    5.047    0.238    0.455   88.020
  339.750    5.141    0.237    0.444   86.817
  340.000    5.238    0.242    0.426   86.217
  340.250    5.336    0.236    0.419   86.822
  340.500    5.336    0.249    0.420   89.234
  340.750    5.336    0.236    0.431   91.645
  341.000    5.239    0.229    0.440   94.058
  341.250    4.956    0.223    0.455   95.264
  341.500    4.776    0.225    0.464   95.267
  341.750    4.518    0.226    0.447   95.268
  342.000    4.435    0.231    0.431   92.861
  342.250    4.274    0.234    0.426   89.851
  342.500    3.969    0.235    0.447   88.046
  342.750    3.487    0.238    0.462   86.844
  343.000    3.063    0.256    0.467   86.243
  343.250    2.545    0.280    0.489   86.245
  343.500    2.278    0.296    0.525   85.645
  343.750    2.195    0.276    0.553   84.443
  344.000    2.155    0.270    0.550   83.842
  344.250    2.195    0.264    0.548   83.845
  344.500    2.321    0.267    0.542   84.449
  344.750    2.364    0.258    0.532   83.247
  345.000    2.453    0.252    0.543   82.043
  345.250    2.499    0.229    0.536   82.046
  345.500    2.454    0.229    0.544   84.458
  345.750    2.365    0.241    0.532   86.871
  346.000    2.237    0.204    0.521   87.474
  346.250    2.196    0.164    0.514   88.079
  346.500    2.279    0.033    0.504   87.479
  346.750    2.953    0.049    0.496   87.481
  347.000    3.555    0.155    0.466   87.483
  347.250    4.278    0.176    0.441   86.281
  347.500    4.693    0.202    0.453   86.282
  347.750    5.149    0.217    0.456   86.286
  348.000    5.649    0.234    0.444   86.890
  348.250    5.972    0.222    0.424   88.699
  348.500    6.083    0.209    0.401   89.907
  348.750    5.972    0.193    0.391   89.908
  349.000    5.150    0.180    0.400   89.910
  349.250    4.441    0.166    0.420   90.515
  349.500    3.901    0.220    0.432   91.722
  349.750    3.760    0.227    0.453   94.134
  350.000    3.691    0.221    0.454   94.739
  350.250    3.691    0.234    0.459   95.343
  350.500    3.691    0.249    0.466   95.948
  350.750    3.691    0.229    0.465   97.154
  351.000    3.691    0.163    0.448   96.554
  351.250    3.691    0.136    0.443   95.954
  351.500    3.692    0.193    0.438   96.559
  351.750    3.624    0.225    0.432   97.163
  352.000    3.558    0.224    0.438   97.769
  352.250    3.429    0.231    0.465   97.771
  352.500    3.243    0.227    0.476   97.170
  352.750    3.184    0.237    0.484   96.571
  353.000    3.068    0.224    0.479   96.572
  353.250    2.903    0.215    0.486   94.165
  353.500    2.746    0.206    0.466   92.962
  353.750    2.696    0.212    0.465   91.759
  354.000    2.598    0.202    0.467   91.762
  354.250    2.646    0.196    0.447   92.366
  354.500    2.903    0.210    0.448   93.573
  354.750    3.127    0.218    0.472   93.576
  355.000    3.494    0.230    0.492   92.975
  355.250    3.694    0.222    0.506   92.978
  355.500    3.905    0.238    0.515   92.377
  355.750    4.700    0.223    0.497   90.572
  356.000    6.683    0.205    0.496   85.755
  356.250    8.823    0.166    0.385   80.335
  356.500   10.424    0.135    0.342   71.302
  356.750   12.315    0.155    0.307   62.268
  357.000   14.821    0.187    0.255   58.053
  357.250   17.510    0.281    0.216   55.043
  357.500   19.568    0.311    0.123   50.226
  357.750   22.694    0.348    0.120   42.999
  358.000   25.837    0.402    0.118   33.965
  358.250   27.824    0.410    0.112   33.365
  358.500   24.442    0.416    0.106   33.970
  358.750   16.264    0.384    0.136   38.189
  359.000   13.023    0.367    0.182   46.022
  359.250   10.429    0.353    0.261   55.663
  359.500    8.198    0.343    0.308   67.111
  359.750    6.812    0.329    0.332   71.933
  360.000    5.767    0.321    0.352   74.947
  360.250    4.973    0.315    0.365   78.564
  360.500    4.533    0.305    0.368   80.975
  360.750    4.288    0.295    0.400   82.785
  361.000    4.057    0.268    0.420   85.197
  361.250    3.909    0.238    0.437   84.596
  361.500    3.767    0.177    0.463   80.984
  361.750    3.631    0.146    0.445   82.793
  362.000    3.910    0.290    0.461   84.001
  362.250    4.706    0.300    0.422   78.581
  362.500    6.213    0.290    0.406   71.957
  362.750    8.202    0.311    0.362   66.537
  363.000   11.880    0.331    0.315   59.913
  363.250   13.277    0.351    0.217   53.891
  363.500   14.036    0.294    0.246   58.713
  363.750   12.561    0.264    0.283   69.559
  364.000   12.104    0.253    0.301   74.380
  364.250   11.665    0.251    0.321   81.008
  364.500   12.332    0.240    0.342   85.830
  364.750   14.040    0.248    0.352   77.399
  365.000   17.535    0.266    0.312   70.172
  365.250   18.883    0.275    0.258   65.957
  365.500   21.103    0.300    0.225   61.742
  365.750   24.932    0.308    0.216   58.733
  366.000   25.874    0.330    0.211   56.325
  366.250   26.852    0.348    0.228   64.159
  366.500   26.852    0.332    0.265   73.198
  366.750   24.030    0.307    0.337   75.609
  367.000   21.109    0.276    0.366   78.021
  367.250   19.603    0.255    0.376   80.433
  367.500   17.221    0.235    0.379   81.037
  367.750   16.595    0.215    0.374   79.233
  368.000   15.992    0.198    0.373   78.632
  368.250   15.412    0.200    0.372   76.826
  368.500   15.129    0.218    0.383   75.624
  368.750   15.130    0.205    0.361   80.445
