~VERSION INFORMATION
 VERS.                 2.0:   CWLS LOG ASCII STANDARD -VERSION 2.0
 WRAP.                  NO:   ONE LINE PER DEPTH STEP
~WELL INFORMATION BLOCK
#MNEM.UNIT           DATA                    DESCRIPTION OF MNEMONIC
#---------    -------------------            -------------------------------
# Generated from Intellog Unique Number	CS_67_68/WELL/843
WELL.         MERLAND EXPLORATIONS           : Well_name    - WELL
LOC .         00/05-27-068-11W4/0            : Location     - LOCATION
UWI .         00/05-27-068-11W4/0            : Uwi          - UNIQUE WELL ID
ENTR.         SP                             : Entered      - ENTERED BY
SRVC.         SCHLUMBERGER                   : Scn          - SERVICE COMPANY
STRT.M        300                            : top_depth    - START DEPTH
STOP.M        505                            : bot_depth    - STOP DEPTH
STEP.M        0.25                           : increment    - STEP LENGTH
 NULL. -999.2500:NULL Value
~CURVE INFORMATION BLOCK
#MNEM UNIT       ERCB CURVE CODE    CURVE DESCRIPTION
#-----------   ------------------   ----------------------------------
DEPT.M        00 001 00 00         : DEPTH        - DEPTH
ILD .OHMM     00 120 00 00         : RESD         - DEEP RESISTIVITY (DIL)
DPHI.V/V      00 890 00 00         : PHID         - DENSITY POROSITY (LIMESTONE)
NPHI.V/V      00 330 00 00         : PHIN         - NEUTRON POROSITY (LIMESTONE)
GR  .API      00 310 00 00         : GR           - GAMMA RAY
~PARAMETER INFORMATION
#MNEM.UNIT           DATA             DESCRIPTION OF MNEMONIC
#---------         -----------     ------------------------------
GL  .M        615.2                : gl           - GROUND LEVEL ELEVATION
EREF.M        618                  : kb           - ELEVATION OF DEPTH REFERENCE
DATM.M        615.2                : datum        - DATUM ELEVATION
TDD .M        515                  : tdd          - TOTAL DEPTH DRILLER
RUN .         ONE                  : Run          - RUN NUMBER
ENG .         BILL                 : Engineer     - RECORDING ENGINEER
WIT .         JIM                  : Witness      - WITNESSED BY
MUD .         GEL                  : Mud_type     - MUD TYPE
MATR.         LIMESTONE            : Logunit      - NEUTRON MATRIX
TMAX.C        22                   : BHT          - MAXIMUM RECORDED TEMPERATURE
BHTD.M        515                  : BHTDEP       - MAXIMUM RECORDED TEMPERATURE
MATR.         1                    : LOGUNIT      - NEUTRON MATRIX
RMT .C        25                   : MDTP         - TEMPERATURE OF MUD
NEUT.         1                    : NEUTRON      - NEUTRON TYPE
RESI.         0                    : RESIST       - RESISTIVITY TYPE
RMC .OHMM     0.25                 : RMC          - RESISTIVITY OF MUD CAKE
RMF .OHMM     0.25                 : RMF          - RESISTIVITY OF MUD FILTRATE
SUFT.C        15                   : SUFT         - SURFACE TEMPERATURE
~A  DEPTH     RESD     PHID     PHIN       GR
# ...
  474.000    3.539    0.269    0.352   51.847
  474.250    3.286    0.268    0.338   57.237
  474.500    2.974    0.273    0.327   65.896
  474.750    2.836    0.275    0.343   74.918
  475.000    2.802    0.268    0.357   83.759
  475.250    2.798    0.257    0.369   89.633
  475.500    2.764    0.240    0.375   89.030
  475.750    2.700    0.222    0.384   80.074
  476.000    2.589    0.218    0.388   58.587
  476.250    2.491    0.256    0.347   46.604
  476.500    2.362    0.278    0.330   38.858
  476.750    2.227    0.293    0.327   34.926
  477.000    2.168    0.285    0.327   32.568
  477.250    2.218    0.282    0.327   31.058
  477.500    2.410    0.287    0.326   29.850
  477.750    2.637    0.297    0.319   29.671
  478.000    3.122    0.273    0.295   29.976
  478.250    3.653    0.240    0.138   34.882
  478.500    4.471    0.206    0.103   39.485
  478.750    4.967    0.113    0.189   46.691
  479.000    5.305    0.021    0.263   56.985
  479.250    5.193    0.107    0.313   63.767
  479.500    4.823    0.160    0.342   60.682
  479.750    4.365    0.202    0.334   66.981
  480.000    4.594    0.233    0.314   85.870
  480.250    5.009    0.204    0.298   95.315
  480.500    5.513    0.177    0.307   94.107
  480.750    5.977    0.164    0.313   85.999
  481.000    6.385    0.153    0.286   79.101
  481.250    6.633    0.131    0.256   73.716
  481.500    6.687    0.098    0.224   69.118
  481.750    6.329    0.132    0.190   65.004
  482.000    5.518    0.165    0.220   67.004
  482.250    4.966    0.195    0.255   76.632
  482.500    4.250    0.217    0.283   83.778
  482.750    3.970    0.214    0.308   86.383
  483.000    3.750    0.201    0.323   82.814
  483.250    3.622    0.207    0.339   78.519
  483.500    3.460    0.239    0.349   74.163
  483.750    3.336    0.215    0.339   70.231
  484.000    3.252    0.245    0.336   65.270
  484.250    3.177    0.259    0.350   62.488
  484.500    3.110    0.264    0.341   60.735
  484.750    3.083    0.259    0.326   65.641
  485.000    3.080    0.240    0.313   70.063
  485.250    3.140    0.227    0.302   72.305
  485.500    3.274    0.245    0.319   73.458
  485.750    3.426    0.233    0.345   79.575
  486.000    3.606    0.242    0.367   86.902
  486.250    3.824    0.251    0.379   97.982
  486.500    3.987    0.198    0.386  107.125
  486.750    4.196    0.134    0.404  109.913
  487.000    4.342    0.100    0.430  111.974
  487.250    4.477    0.113    0.441  112.945
  487.500    4.464    0.103    0.430  113.189
  487.750    4.360    0.110    0.424  113.131
  488.000    4.380    0.125    0.421  111.803
  488.250    4.577    0.149    0.398  110.049
  488.500    4.649    0.159    0.374  103.393
  488.750    4.652    0.188    0.347   94.074
  489.000    4.604    0.169    0.329   89.234
  489.250    4.505    0.208    0.339   85.423
  489.500    4.352    0.232    0.354   82.762
  489.750    4.204    0.214    0.364   86.881
  490.000    4.319    0.225    0.360   91.302
  490.250    4.605    0.194    0.346   96.572
  490.500    4.846    0.166    0.340  100.690
  490.750    5.071    0.153    0.335  104.265
  491.000    5.318    0.153    0.332  107.113
  491.250    5.412    0.154    0.334  109.234
  491.500    5.406    0.155    0.350  108.813
  491.750    5.301    0.170    0.352  107.060
  492.000    5.245    0.187    0.350  106.639
  492.250    5.182    0.191    0.351  107.005
  492.500    4.960    0.187    0.353  107.250
  492.750    4.764    0.188    0.359  106.889
  493.000    4.452    0.193    0.359  105.500
  493.250    4.332    0.198    0.333  102.536
  493.500    4.184    0.185    0.320   97.817
  493.750    4.078    0.168    0.317   89.889
  494.000    4.014    0.182    0.325   83.536
  494.250    4.040    0.196    0.322   77.425
  494.500    4.204    0.208    0.313   72.524
  494.750    4.383    0.218    0.315   80.820
  495.000    4.588    0.197    0.331   94.564
  495.250    4.704    0.219    0.347  100.922
  495.500    4.751    0.214    0.389  103.528
  495.750    4.667    0.245    0.472  105.831
  496.000    4.492    0.273    0.506  107.226
  496.250    4.537    0.233    0.526  106.261
  496.500    4.626    0.169    0.392  103.660
  496.750    4.770    0.094    0.345   88.832
  497.000    4.863    0.108    0.322   83.749
  497.250    4.886    0.138    0.306   92.409
  497.500    4.871    0.162    0.294  113.416
  497.750    4.688    0.142    0.286  123.165
  498.000    4.437    0.160    0.321  133.700
  498.250    4.223    0.173    0.343  136.367
  498.500    4.147    0.189    0.376  132.011
  498.750    4.044    0.191    0.402  127.413
  499.000    3.987    0.153    0.404  130.443
  499.250    3.975    0.151    0.419  132.079
  499.500    4.076    0.168    0.433  128.329
  499.750    4.521    0.180    0.450  111.503
  500.000    5.319    0.184    0.469   96.191
  500.250    7.390    0.167    0.480   72.767
  500.500   10.343    0.086    0.209   54.428
  500.750   13.691    0.008    0.185   42.445
  501.000   16.022   -0.010    0.172   36.273
  501.250   18.167    0.002    0.154   32.705
  501.500   19.590   -0.007    0.141   34.039
  501.750   20.848   -0.005    0.141   35.010
  502.000   22.525   -0.005    0.150   37.555
  502.250   23.352   -0.003    0.156   39.858
  502.500   23.412    0.011    0.154   38.771
  502.750   19.631    0.021    0.150   35.021
  503.000   14.554    0.032    0.177   39.745
  503.250   11.998    0.040    0.212   44.046
  503.500    9.928    0.026    0.243   47.499
  503.750    8.418    0.040    0.270   51.436
  504.000    7.273    0.052    0.294   54.344
  504.250    6.947    0.064    0.314   57.132
  504.500    6.722    0.052    0.329   59.556
  504.750    6.422    0.055    0.336   62.040
  505.000    6.414    0.056    0.341   63.617
