~VERSION INFORMATION
 VERS.                 2.0:   CWLS LOG ASCII STANDARD -VERSION 2.0
 WRAP.                  NO:   ONE LINE PER DEPTH STEP
~WELL INFORMATION BLOCK
#MNEM.UNIT           DATA                    DESCRIPTION OF MNEMONIC
#---------    -------------------            -------------------------------
# Generated from Intellog Unique Number	CS_69_70/WELL/641
NULL.         -999.25                        : NULL_VALUE
WELL.         CHIEFCO TWEEDIE                : Well_name    - WELL              
LOC .         00/05-22-070-13W4/0            : Location     - LOCATION          
UWI .         00/05-22-070-13W4/0            : Uwi          - UNIQUE WELL ID    
ENTR.         SP                             : Entered      - ENTERED BY        
SRVC.         SCHLUMBERGER                   : Scn          - SERVICE COMPANY   
STRT.M        260                            : top_depth    - START DEPTH       
STOP.M        492                            : bot_depth    - STOP DEPTH        
STEP.M        0.25                           : increment    - STEP LENGTH       
~CURVE INFORMATION BLOCK
#MNEM UNIT       ERCB CURVE CODE    CURVE DESCRIPTION
#-----------   ------------------   ----------------------------------
DEPT.M        00 001 00 00         : DEPTH        - DEPTH                       
ILD .OHMM     00 120 00 00         : RESD         - DEEP RESISTIVITY (DIL)      
DPHI.V/V      00 890 00 00         : PHID         - DENSITY POROSITY (LIMESTONE)
NPHI.V/V      00 330 00 00         : PHIN         - NEUTRON POROSITY (LIMESTONE)
GR  .API      00 310 00 00         : GR           - GAMMA RAY                   
~PARAMETER INFORMATION       
#MNEM.UNIT           DATA             DESCRIPTION OF MNEMONIC
#---------         -----------     ------------------------------
GL  .M        581.6                : gl           - GROUND LEVEL ELEVATION      
EREF.M        584.7                : kb           - ELEVATION OF DEPTH REFERENCE
DATM.M        581.6                : datum        - DATUM ELEVATION             
TDD .M        493                  : tdd          - TOTAL DEPTH DRILLER         
RUN .         ONE                  : Run          - RUN NUMBER                  
ENG .         BILL                 : Engineer     - RECORDING ENGINEER          
WIT .         JIM                  : Witness      - WITNESSED BY                
MUD .         GEL                  : Mud_type     - MUD TYPE                    
MATR.         LIMESTONE            : Logunit      - NEUTRON MATRIX              
TMAX.C        33                   : BHT          - MAXIMUM RECORDED TEMPERATURE
BHTD.M        493                  : BHTDEP       - MAXIMUM RECORDED TEMPERATURE
MATR.         1                    : LOGUNIT      - NEUTRON MATRIX              
RMT .C        25                   : MDTP         - TEMPERATURE OF MUD          
NEUT.         1                    : NEUTRON      - NEUTRON TYPE                
RESI.         0                    : RESIST       - RESISTIVITY TYPE            
RMC .OHMM     0.25                 : RMC          - RESISTIVITY OF MUD CAKE     
RMF .OHMM     0.25                 : RMF          - RESISTIVITY OF MUD FILTRATE 
SUFT.C        15                   : SUFT         - SURFACE TEMPERATURE         
~A  DEPTH     RESD     PHID     PHIN       GR
# ...
  303.500    4.487    0.259    0.383   98.434
  303.750    4.740    0.243    0.396  102.095
  304.000    5.071    0.235    0.405  102.702
  304.250    5.307    0.225    0.407   99.156
  304.500    5.430    0.214    0.411   98.786
  304.750    5.577    0.204    0.416  104.707
  305.000    5.611    0.208    0.401  108.796
  305.250    5.583    0.205    0.422  105.494
  305.500    5.525    0.213    0.435   99.077
  305.750    5.559    0.232    0.445   95.898
  306.000    5.625    0.240    0.458   93.390
  306.250    5.660    0.245    0.473   91.126
  306.500    5.791    0.256    0.470   89.107
  306.750    5.893    0.272    0.458   87.821
  307.000    5.874    0.282    0.454   87.024
  307.250    5.610    0.285    0.466   88.120
  307.500    5.298    0.278    0.481   88.971
  307.750    5.098    0.268    0.459   90.677
  308.000    4.997    0.258    0.441   94.704
  308.250    4.935    0.252    0.439   97.450
  308.500    4.643    0.246    0.469   99.889
  308.750    4.320    0.240    0.492  102.267
  309.000    4.042    0.239    0.507  105.378
  309.250    3.897    0.259    0.518  100.672
  309.500    3.906    0.283    0.484   91.874
  309.750    3.997    0.304    0.447   83.808
  310.000    4.229    0.325    0.441   77.330
  310.250    4.467    0.339    0.439   74.823
  310.500    4.709    0.313    0.425   77.872
  310.750    4.928    0.295    0.411   80.801
  311.000    5.090    0.277    0.405   84.339
  311.250    5.149    0.264    0.415   87.206
  311.500    5.201    0.256    0.411   89.951
  311.750    5.213    0.244    0.415   92.024
  312.000    5.111    0.232    0.433   94.525
  312.250    4.954    0.299    0.444   87.742
  312.500    4.929    0.304    0.447   80.043
  312.750    4.997    0.309    0.455   76.252
  313.000    5.047    0.315    0.459   73.195
  313.250    5.107    0.314    0.466   68.794
  313.500    5.148    0.306    0.474   67.874
  313.750    5.209    0.303    0.474   71.168
  314.000    5.261    0.310    0.467   73.180
  314.250    5.323    0.305    0.464   74.643
  314.500    5.437    0.299    0.455   74.761
  314.750    5.470    0.295    0.445   75.246
  315.000    5.535    0.306    0.455   76.281
  315.250    5.601    0.321    0.466   78.353
  315.500    5.635    0.309    0.472   80.366
  315.750    5.514    0.279    0.476   84.271
  316.000    5.476    0.265    0.477   87.748
  316.250    5.635    0.252    0.478   90.859
  316.500    5.842    0.263    0.471   92.505
  316.750    5.966    0.267    0.459   91.158
  317.000    5.947    0.269    0.447   90.910
  317.250    5.690    0.255    0.456   94.815
  317.500    5.245    0.240    0.463   98.843
  317.750    5.123    0.231    0.469  102.625
  318.000    5.165    0.237    0.454  101.156
  318.250    5.344    0.253    0.428   98.832
  318.500    5.665    0.267    0.426   96.202
  318.750    6.096    0.277    0.443   88.930
  319.000    6.180    0.276    0.449   83.674
  319.250    5.257    0.261    0.443   85.746
  319.500    4.626    0.250    0.451   88.797
  319.750    4.409    0.241    0.450   93.374
  320.000    4.395    0.238    0.447   97.157
  320.250    4.765    0.253    0.479   98.742
  320.500    5.137    0.265    0.497   90.065
  320.750    5.601    0.270    0.426   88.535
  321.000    6.106    0.251    0.404   87.065
  321.250    6.510    0.241    0.395   84.252
  321.500    6.748    0.250    0.404   81.683
  321.750    6.803    0.260    0.423   80.764
  322.000    6.461    0.267    0.426   84.791
  322.250    6.170    0.266    0.415   87.108
  322.500    6.026    0.260    0.407   88.937
  322.750    6.052    0.254    0.409   89.422
  323.000    6.250    0.253    0.420   86.914
  323.250    6.638    0.264    0.430   84.223
  323.500    6.869    0.276    0.427   81.655
  323.750    6.748    0.293    0.411   80.674
  324.000    6.638    0.300    0.393   82.990
  324.250    6.592    0.278    0.373   86.957
  324.500    6.658    0.238    0.362   90.557
  324.750    6.889    0.219    0.379   93.546
  325.000    6.971    0.222    0.407   95.070
  325.250    7.053    0.240    0.409   94.577
  325.500    7.057    0.239    0.403   95.490
  325.750    6.921    0.230    0.406   96.891
  326.000    6.820    0.225    0.409   98.536
  326.250    6.648    0.232    0.402  101.035
  326.500    6.432    0.238    0.390  102.193
  326.750    6.247    0.225    0.441  103.411
  327.000    6.158    0.211    0.464  104.691
  327.250    6.082    0.273    0.476   95.342
  327.500    5.996    0.296    0.462   83.062
  327.750    5.943    0.305    0.436   70.966
  328.000    5.892    0.309    0.428   74.444
  328.250    5.874    0.317    0.436   71.386
  328.500    5.811    0.325    0.439   63.687
  328.750    5.729    0.330    0.421   61.057
  329.000    5.818    0.324    0.411   64.535
  329.250    5.945    0.318    0.418   67.646
  329.500    5.979    0.311    0.415   69.352
  329.750    6.153    0.304    0.425   69.899
  330.000    6.260    0.295    0.450   71.850
  330.250    6.395    0.309    0.461   65.616
  330.500    6.506    0.322    0.464   63.108
  330.750    6.644    0.316    0.451   63.471
  331.000    6.837    0.308    0.415   65.300
  331.250    6.905    0.298    0.399   67.128
  331.500    6.961    0.285    0.402   68.285
  331.750    6.913    0.277    0.415   68.709
  332.000    6.765    0.302    0.425   65.469
  332.250    6.460    0.317    0.404   65.465
  332.500    6.205    0.315    0.413   67.660
  332.750    6.173    0.313    0.428   67.107
  333.000    6.213    0.316    0.430   67.530
  333.250    6.250    0.315    0.427   69.176
  333.500    6.505    0.304    0.418   73.325
  333.750    6.680    0.285    0.397   78.085
  334.000    6.964    0.266    0.382   82.846
  334.250    7.098    0.250    0.388   87.668
  334.500    7.304    0.242    0.397   92.305
  334.750    7.502    0.257    0.402   95.112
  335.000    7.661    0.281    0.418   97.368
  335.250    7.668    0.274    0.439   96.814
  335.500    7.659    0.258    0.431   97.909
  335.750    7.635    0.245    0.440  100.105
  336.000    7.623    0.241    0.446   96.681
  336.250    7.630    0.247    0.428   90.265
  336.500    7.590    0.247    0.412   86.963
  336.750    7.467    0.247    0.400   83.112
  337.000    7.306    0.261    0.393   76.634
  337.250    7.149    0.290    0.394   66.492
  337.500    6.942    0.314    0.404   59.404
  337.750    6.718    0.325    0.387   52.499
  338.000    6.560    0.329    0.376   53.839
  338.250    6.443    0.331    0.388   58.965
  338.500    6.399    0.331    0.404   58.962
  338.750    6.308    0.330    0.412   54.927
  339.000    6.288    0.328    0.417   54.068
  339.250    6.269    0.332    0.411   54.126
  339.500    6.192    0.339    0.406   54.121
  339.750    6.160    0.335    0.399   54.180
  340.000    6.095    0.328    0.397   54.846
  340.250    6.121    0.324    0.405   54.966
  340.500    6.136    0.325    0.414   55.085
  340.750    6.106    0.330    0.411   53.616
  341.000    6.041    0.332    0.395   51.352
  341.250    6.045    0.333    0.410   51.775
  341.500    6.118    0.335    0.425   53.116
  341.750    6.238    0.335    0.432   53.967
  342.000    6.276    0.324    0.428   54.208
  342.250    6.188    0.314    0.410   52.617
  342.500    6.200    0.321    0.401   52.185
  342.750    6.170    0.334    0.395   53.159
  343.000    6.185    0.328    0.389   54.926
  343.250    6.142    0.318    0.396   57.793
  343.500    6.009    0.315    0.416   59.928
  343.750    5.880    0.321    0.428   59.863
  344.000    5.905    0.318    0.425   57.660
  344.250    5.953    0.311    0.402   59.611
  344.500    5.990    0.309    0.406   65.593
  344.750    5.994    0.308    0.421   69.193
  345.000    6.055    0.301    0.426   67.479
  345.250    6.068    0.299    0.422   63.138
  345.500    6.083    0.300    0.413   60.448
  345.750    6.133    0.302    0.406   56.901
  346.000    6.113    0.304    0.406   54.148
  346.250    6.105    0.305    0.414   55.429
  346.500    5.985    0.309    0.441   59.334
  346.750    5.911    0.310    0.470   60.857
