~VERSION INFORMATION
 VERS.                 2.0:   CWLS LOG ASCII STANDARD -VERSION 2.0
 WRAP.                  NO:   ONE LINE PER DEPTH STEP
~WELL INFORMATION BLOCK
#MNEM.UNIT           DATA                    DESCRIPTION OF MNEMONIC
#---------    -------------------            -------------------------------
# Generated from Intellog Unique Number	CS_73_76/WELL/2159
WELL.         WAINOCO OIL & GAS LIMITED      : Well_name    - WELL
LOC .         00/06-05-074-12W4/0            : Location     - LOCATION
UWI .         00/06-05-074-12W4/0            : Uwi          - UNIQUE WELL ID
ENTR.         SP                             : Entered      - ENTERED BY
SRVC.         SCHLUMBERGER                   : Scn          - SERVICE COMPANY
STRT.M        295                            : top_depth    - START DEPTH
STOP.M        530                            : bot_depth    - STOP DEPTH
STEP.M        0.25                           : increment    - STEP LENGTH
 NULL. -999.2500:NULL Value
~CURVE INFORMATION BLOCK
#MNEM UNIT       ERCB CURVE CODE    CURVE DESCRIPTION
#-----------   ------------------   ----------------------------------
DEPT.M        00 001 00 00         : DEPTH        - DEPTH
ILD .OHMM     00 120 00 00         : RESD         - DEEP RESISTIVITY (DIL)
DPHI.V/V      00 890 00 00         : PHID         - DENSITY POROSITY (LIMESTONE)
NPHI.V/V      00 330 00 00         : PHIN         - NEUTRON POROSITY (LIMESTONE)
GR  .API      00 310 00 00         : GR           - GAMMA RAY
~PARAMETER INFORMATION
#MNEM.UNIT           DATA             DESCRIPTION OF MNEMONIC
#---------         -----------     ------------------------------
GL  .M        661.2                : gl           - GROUND LEVEL ELEVATION
EREF.M        664.2                : kb           - ELEVATION OF DEPTH REFERENCE
DATM.M        661.2                : datum        - DATUM ELEVATION
TDD .M        543                  : tdd          - TOTAL DEPTH DRILLER
RUN .         ONE                  : Run          - RUN NUMBER
ENG .         BILL                 : Engineer     - RECORDING ENGINEER
WIT .         JIM                  : Witness      - WITNESSED BY
MUD .         GEL                  : Mud_type     - MUD TYPE
MATR.         LIMESTONE            : Logunit      - NEUTRON MATRIX
TMAX.C        23                   : BHT          - MAXIMUM RECORDED TEMPERATURE
BHTD.M        5432                 : BHTDEP       - MAXIMUM RECORDED TEMPERATURE
MATR.         1                    : LOGUNIT      - NEUTRON MATRIX
RMT .C        25                   : MDTP         - TEMPERATURE OF MUD
NEUT.         1                    : NEUTRON      - NEUTRON TYPE
RESI.         0                    : RESIST       - RESISTIVITY TYPE
RMC .OHMM     0.25                 : RMC          - RESISTIVITY OF MUD CAKE
RMF .OHMM     0.25                 : RMF          - RESISTIVITY OF MUD FILTRATE
SUFT.C        15                   : SUFT         - SURFACE TEMPERATURE
~A  DEPTH     RESD     PHID     PHIN       GR
# ...
  425.500    4.569    0.268    0.455   77.459
  425.750    4.569    0.274    0.444   73.809
  426.000    4.569    0.270    0.432   71.376
  426.250    4.569    0.272    0.422   68.942
  426.500    4.569    0.281    0.416   66.506
  426.750    4.569    0.286    0.410   65.895
  427.000    4.484    0.280    0.415   67.709
  427.250    4.484    0.288    0.415   68.921
  427.500    4.485    0.286    0.428   73.772
  427.750    4.485    0.270    0.441   76.198
  428.000    4.401    0.258    0.461   81.049
  428.250    4.401    0.248    0.470   82.260
  428.500    4.319    0.239    0.487   80.434
  428.750    4.319    0.237    0.481   79.820
  429.000    4.238    0.240    0.463   80.423
  429.250    4.238    0.237    0.460   82.240
  429.500    4.238    0.234    0.453   85.270
  429.750    4.320    0.225    0.460   86.481
  430.000    4.487    0.222    0.465   88.296
  430.250    4.487    0.219    0.460   89.505
  430.500    4.573    0.220    0.453   89.500
  430.750    4.660    0.229    0.452   88.281
  431.000    4.750    0.242    0.442   86.454
  431.250    4.750    0.246    0.444   84.626
  431.500    4.750    0.251    0.449   79.761
  431.750    4.934    0.258    0.453   77.936
  432.000    5.028    0.263    0.444   75.502
  432.250    5.124    0.271    0.438   74.891
  432.500    5.222    0.274    0.442   73.670
  432.750    5.322    0.268    0.447   71.235
  433.000    5.424    0.260    0.446   68.192
  433.250    5.425    0.256    0.445   66.974
  433.500    5.425    0.265    0.445   65.755
  433.750    5.224    0.271    0.449   65.748
  434.000    5.126    0.274    0.461   66.352
  434.250    5.030    0.279    0.464   65.737
  434.500    4.936    0.285    0.468   66.342
  434.750    4.753    0.289    0.465   68.765
  435.000    4.753    0.293    0.463   71.188
  435.250    4.664    0.295    0.461   71.792
  435.500    4.664    0.294    0.462   70.571
  435.750    4.577    0.289    0.462   69.959
  436.000    4.577    0.284    0.458   71.169
  436.250    4.578    0.277    0.452   72.379
  436.500    4.578    0.271    0.448   69.335
  436.750    4.578    0.271    0.453   69.331
  437.000    4.578    0.273    0.453   69.934
  437.250    4.578    0.278    0.447   69.929
  437.500    4.579    0.282    0.445   69.922
  437.750    4.579    0.288    0.440   69.917
  438.000    4.579    0.292    0.439   69.911
  438.250    4.579    0.295    0.450   70.515
  438.500    4.667    0.295    0.453   72.332
  438.750    4.667    0.291    0.447   72.932
  439.000    4.667    0.288    0.436   72.928
  439.250    4.757    0.273    0.433   71.709
  439.500    4.757    0.265    0.423   68.666
  439.750    4.757    0.250    0.420   67.447
  440.000    4.757    0.245    0.424   69.263
  440.250    4.849    0.243    0.430   70.474
  440.500    4.849    0.249    0.440   73.504
  440.750    4.758    0.255    0.451   75.928
  441.000    4.758    0.265    0.460   75.923
  441.250    4.669    0.269    0.465   74.704
  441.500    4.670    0.265    0.460   73.481
  441.750    4.670    0.264    0.457   73.479
  442.000    4.496    0.259    0.460   73.474
  442.250    4.497    0.256    0.460   74.682
  442.500    4.497    0.256    0.460   77.105
  442.750    4.497    0.264    0.456   78.315
  443.000    4.497    0.270    0.455   78.919
  443.250    4.497    0.265    0.468   79.520
  443.500    4.413    0.258    0.479   83.158
  443.750    4.331    0.248    0.488   84.368
  444.000    4.250    0.242    0.492   84.970
  444.250    4.250    0.250    0.479   81.929
  444.500    4.331    0.258    0.467   77.674
  444.750    4.499    0.266    0.457   76.454
  445.000    4.762    0.275    0.449   76.446
  445.250    4.853    0.266    0.449   77.049
  445.500    5.335    0.260    0.433   78.867
  445.750    5.541    0.246    0.312   76.433
  446.000    5.977    0.217    0.231   67.319
  446.250    6.447    0.184    0.203   56.990
  446.500    6.824    0.154    0.188   52.126
  446.750    7.088    0.133    0.194   51.513
  447.000    7.088    0.111    0.220   55.153
  447.250    6.955    0.138    0.242   64.255
  447.500    5.867    0.185    0.291   71.538
  447.750    5.237    0.213    0.374   78.819
  448.000    4.948    0.224    0.453   81.852
  448.250    4.675    0.224    0.461   83.668
  448.500    4.588    0.235    0.463   84.270
  448.750    4.588    0.242    0.460   85.480
  449.000    4.502    0.236    0.459   89.117
  449.250    4.503    0.241    0.459   92.149
  449.500    4.503    0.245    0.460   93.359
  449.750    4.254    0.254    0.464   93.353
  450.000    4.175    0.268    0.474   92.740
  450.250    4.175    0.276    0.479   91.522
  450.500    4.255    0.278    0.477   89.087
  450.750    4.255    0.275    0.482   89.082
  451.000    4.337    0.272    0.485   93.327
  451.250    4.337    0.268    0.477   90.892
  451.500    4.504    0.269    0.472   89.067
  451.750    4.591    0.268    0.475   84.810
  452.000    4.859    0.245    0.461   79.339
  452.250    4.952    0.236    0.449   76.905
  452.500    5.047    0.225    0.437   75.686
  452.750    5.144    0.215    0.428   75.677
  453.000    5.144    0.223    0.417   76.281
  453.250    5.048    0.228    0.416   78.707
  453.500    4.953    0.237    0.415   82.345
  453.750    4.861    0.236    0.422   85.983
  454.000    4.770    0.230    0.437   83.548
  454.250    4.770    0.228    0.451   84.150
  454.500    4.681    0.224    0.465   83.539
  454.750    4.681    0.229    0.474   82.319
  455.000    4.681    0.231    0.469   84.743
  455.250    4.681    0.225    0.448   88.988
  455.500    4.682    0.216    0.430   89.591
  455.750    4.682    0.209    0.419   90.193
  456.000    4.682    0.202    0.425   90.796
  456.250    4.594    0.202    0.432   90.182
  456.500    4.508    0.205    0.443   88.356
  456.750    4.260    0.206    0.461   84.098
  457.000    3.875    0.212    0.468   82.880
  457.250    3.526    0.214    0.474   81.660
  457.500    3.207    0.213    0.483   81.046
  457.750    2.655    0.224    0.494   83.471
  458.000    2.461    0.234    0.500   86.501
  458.250    2.282    0.254    0.517   88.926
  458.500    2.116    0.268    0.521   90.136
  458.750    2.037    0.279    0.527   88.309
  459.000    2.037    0.284    0.549   84.661
  459.250    1.999    0.287    0.557   81.619
  459.500    1.999    0.277    0.549   81.612
  459.750    1.999    0.271    0.543   81.608
  460.000    2.038    0.270    0.542   83.425
  460.250    2.077    0.271    0.555   87.670
  460.500    2.116    0.264    0.573   91.913
  460.750    2.198    0.268    0.586   91.910
  461.000    2.283    0.266    0.604   91.906
  461.250    2.510    0.256    0.578   90.079
  461.500    2.812    0.240    0.522   87.037
  461.750    3.210    0.234    0.502   86.425
  462.000    3.596    0.223    0.487   87.025
  462.250    3.879    0.213    0.478   87.022
  462.500    4.029    0.202    0.471   86.409
  462.750    4.106    0.204    0.462   83.974
  463.000    4.106    0.210    0.452   82.753
  463.250    4.106    0.217    0.449   82.750
  463.500    4.107    0.234    0.443   84.565
  463.750    4.185    0.242    0.441   85.774
  464.000    4.430    0.222    0.438   85.163
  464.250    4.515    0.206    0.436   83.337
  464.500    4.601    0.194    0.432   84.545
  464.750    4.515    0.177    0.425   88.183
  465.000    4.186    0.178    0.423   90.001
  465.250    3.737    0.192    0.434   93.032
  465.500    3.465    0.206    0.444   93.635
  465.750    3.274    0.225    0.478   91.201
  466.000    3.093    0.230    0.490   88.765
  466.250    2.978    0.236    0.500   86.939
  466.500    2.923    0.233    0.509   83.898
  466.750    2.923    0.228    0.511   80.856
  467.000    3.036    0.211    0.516   79.028
  467.250    3.153    0.201    0.516   80.845
  467.500    3.275    0.197    0.516   85.090
  467.750    3.401    0.197    0.519   87.514
  468.000    3.533    0.203    0.520   88.117
  468.250    3.811    0.210    0.517   88.719
  468.500    3.884    0.198    0.511   87.500
  468.750    3.958    0.191    0.477   83.243
