~VERSION INFORMATION
 VERS.                 2.0:   CWLS LOG ASCII STANDARD -VERSION 2.0
 WRAP.                  NO:   ONE LINE PER DEPTH STEP
~WELL INFORMATION BLOCK
#MNEM.UNIT           DATA                    DESCRIPTION OF MNEMONIC
#---------    -------------------            -------------------------------
# Generated from Intellog Unique Number	CS_73_76/WELL/2390
WELL.         07-24-076-07W4                 : Well_name    - WELL
LOC .         00/07-24-076-07W4/0            : Location     - LOCATION
UWI .         00/07-24-076-07W4/0            : Uwi          - UNIQUE WELL ID
ENTR.         SP                             : Entered      - ENTERED BY
SRVC.         SCHLUMBERGER                   : Scn          - SERVICE COMPANY
STRT.M        150                            : top_depth    - START DEPTH
STOP.M        375                            : bot_depth    - STOP DEPTH
STEP.M        0.25                           : increment    - STEP LENGTH
 NULL. -999.2500:NULL Value
~CURVE INFORMATION BLOCK
#MNEM UNIT       ERCB CURVE CODE    CURVE DESCRIPTION
#-----------   ------------------   ----------------------------------
DEPT.M        00 001 00 00         : DEPTH        - DEPTH
ILD .OHMM     00 120 00 00         : RESD         - DEEP RESISTIVITY (DIL)
GR  .API      00 310 00 00         : GR           - GAMMA RAY
DPHI.V/V      00 890 00 00         : PHID         - DENSITY POROSITY (LIMESTONE)
NPHI.V/V      00 330 00 00         : PHIN         - NEUTRON POROSITY (LIMESTONE)
~PARAMETER INFORMATION
#MNEM.UNIT           DATA             DESCRIPTION OF MNEMONIC
#---------         -----------     ------------------------------
GL  .M        572.32               : gl           - GROUND LEVEL ELEVATION
EREF.M        575.82               : kb           - ELEVATION OF DEPTH REFERENCE
DATM.M        572.32               : datum        - DATUM ELEVATION
TDD .M        377                  : tdd          - TOTAL DEPTH DRILLER
RUN .         ONE                  : Run          - RUN NUMBER
ENG .         BILL                 : Engineer     - RECORDING ENGINEER
WIT .         JIM                  : Witness      - WITNESSED BY
MUD .         GEL                  : Mud_type     - MUD TYPE
MATR.         LIMESTONE            : Logunit      - NEUTRON MATRIX
TMAX.C        23                   : BHT          - MAXIMUM RECORDED TEMPERATURE
BHTD.M        377                  : BHTDEP       - MAXIMUM RECORDED TEMPERATURE
MATR.         1                    : LOGUNIT      - NEUTRON MATRIX
RMT .C        25                   : MDTP         - TEMPERATURE OF MUD
NEUT.         1                    : NEUTRON      - NEUTRON TYPE
RESI.         0                    : RESIST       - RESISTIVITY TYPE
RMC .OHMM     0.25                 : RMC          - RESISTIVITY OF MUD CAKE
RMF .OHMM     0.25                 : RMF          - RESISTIVITY OF MUD FILTRATE
SUFT.C        15                   : SUFT         - SURFACE TEMPERATURE
~A  DEPTH     RESD       GR     PHID     PHIN
# ...
  324.000   12.402   76.497    0.284    0.391
  324.250   13.364   78.325    0.282    0.427
  324.500   14.402   80.153    0.276    0.462
  324.750   15.234   79.542    0.293    0.562
  325.000   15.235   72.224    0.293    0.507
  325.250   14.140   55.149    0.297    0.314
  325.500   12.409   45.392    0.279    0.282
  325.750   12.181   69.171    0.176    0.255
  326.000   12.183   81.974    0.176    0.261
  326.250   12.183   88.070    0.165    0.270
  326.500   11.959   93.557    0.152    0.352
  326.750   11.522   80.751    0.179    0.354
  327.000   11.101   73.432    0.223    0.320
  327.250   11.102   74.650    0.209    0.287
  327.500   10.899   91.112    0.198    0.292
  327.750   10.698   90.501    0.195    0.293
  328.000   10.307   88.671    0.180    0.281
  328.250   10.308   92.328    0.178    0.311
  328.500   10.118   96.595    0.191    0.340
  328.750    9.932   95.984    0.185    0.322
  329.000    9.750   98.421    0.200    0.315
  329.250    9.750   95.371    0.207    0.323
  329.500    9.571   94.150    0.177    0.336
  329.750    9.572   98.417    0.185    0.323
  330.000    9.396   97.806    0.193    0.338
  330.250    9.397   98.414    0.208    0.325
  330.500    9.224  100.242    0.193    0.328
  330.750    9.225  101.461    0.185    0.333
  331.000    9.055  102.678    0.193    0.328
  331.250    8.724  103.287    0.180    0.307
  331.500    8.564  103.895    0.180    0.315
  331.750    8.565  105.114    0.179    0.340
  332.000    8.727  106.941    0.168    0.370
  332.250    9.231  109.379    0.164    0.364
  332.500   10.521  107.548    0.169    0.347
  332.750   10.922  104.498    0.185    0.336
  333.000   11.129   98.400    0.211    0.318
  333.250   11.130   89.862    0.212    0.292
  333.500   10.925   75.836    0.193    0.284
  333.750   10.140   84.371    0.179    0.295
  334.000   10.141   87.419    0.215    0.296
  334.250    9.955   81.320    0.208    0.295
  334.500    9.956   83.148    0.193    0.291
  334.750   10.145   93.512    0.200    0.301
  335.000   10.146   95.950    0.182    0.327
  335.250   10.147   97.778    0.179    0.381
  335.500   10.148   93.508    0.196    0.373
  335.750   10.149   89.848    0.202    0.362
  336.000   10.149   93.505    0.185    0.296
  336.250    9.963   98.382    0.166    0.317
  336.500    9.599  104.478    0.173    0.346
  336.750    9.422   99.599    0.174    0.349
  337.000    9.423   95.939    0.194    0.346
  337.250    9.424   97.157    0.188    0.345
  337.500    9.425  105.082    0.170    0.337
  337.750    9.604  108.740    0.175    0.317
  338.000    9.786  105.080    0.170    0.283
  338.250    9.786  106.298    0.175    0.271
  338.500    9.788  106.297    0.174    0.290
  338.750    9.789  103.856    0.166    0.296
  339.000    9.790  106.904    0.174    0.291
  339.250    9.975  104.463    0.173    0.296
  339.500    9.977  103.851    0.168    0.324
  339.750    9.977  103.851    0.181    0.353
  340.000    9.978  106.898    0.181    0.360
  340.250    9.980  103.238    0.175    0.354
  340.500    9.980   99.578    0.170    0.349
  340.750   10.169   97.138    0.166    0.331
  341.000   10.171  100.185    0.155    0.322
  341.250   10.172  103.843    0.169    0.315
  341.500   10.173  105.061    0.180    0.338
  341.750   10.174   98.962    0.175    0.371
  342.000   10.175   95.912    0.164    0.354
  342.250   10.176   96.520    0.196    0.338
  342.500   10.177   97.738    0.200    0.321
  342.750   10.178  100.176    0.200    0.330
  343.000   10.179  100.784    0.194    0.321
  343.250   10.180  100.783    0.192    0.302
  343.500   10.181  101.391    0.196    0.310
  343.750   10.971  100.171    0.181    0.315
  344.000   12.505   95.291    0.187    0.313
  344.250   13.988   92.241    0.194    0.307
  344.500   14.796   97.728    0.202    0.317
  344.750   15.076  106.872    0.197    0.330
  345.000   14.799   99.554    0.187    0.345
  345.250   13.482   80.651    0.225    0.352
  345.500   12.748   67.845    0.273    0.345
  345.750   11.399   56.258    0.269    0.335
  346.000   10.779   69.061    0.245    0.280
  346.250   10.780   81.865    0.201    0.306
  346.500   11.191   84.912    0.228    0.359
  346.750   11.403   80.642    0.227    0.361
  347.000   11.620   89.787    0.186    0.316
  347.250   11.621   95.274    0.218    0.378
  347.500   11.622   92.833    0.238    0.363
  347.750   11.409   87.344    0.238    0.324
  348.000   11.625   78.197    0.212    0.297
  348.250   11.626   84.293    0.178    0.305
  348.500   11.845   90.389    0.192    0.292
  348.750   12.297   87.339    0.197    0.275
  349.000   12.767   87.947    0.200    0.294
  349.250   13.254   92.214    0.193    0.357
  349.500   14.283   92.213    0.201    0.388
  349.750   15.682   86.724    0.204    0.390
  350.000   16.280   83.674    0.214    0.345
  350.250   16.901   83.672    0.206    0.318
  350.500   17.547   84.281    0.190    0.325
  350.750   17.879   88.547    0.186    0.380
  351.000   18.218   81.839    0.273    0.431
  351.250   18.220   72.082    0.305    0.426
  351.500   18.222   58.666    0.302    0.334
  351.750   18.224   62.323    0.190    0.292
  352.000   18.919   82.443    0.192    0.338
  352.250   21.164   83.661    0.245    0.367
  352.500   23.236   76.953    0.258    0.358
  352.750   25.993   76.342    0.240    0.367
  353.000   30.753   86.096    0.207    0.385
  353.250   35.050   95.241    0.269    0.421
  353.500   37.072   76.338    0.297    0.409
  353.750   39.212   66.580    0.316    0.391
  354.000   40.708   58.042    0.288    0.377
  354.250   43.870   65.968    0.288    0.362
  354.500   46.403   72.674    0.317    0.371
  354.750   49.080   68.404    0.349    0.390
  355.000   47.286   62.305    0.372    0.434
  355.250   45.558   54.377    0.382    0.542
  355.500   43.081   50.718    0.342    0.527
  355.750   39.244   48.887    0.303    0.463
  356.000   32.564   54.373    0.284    0.419
  356.250   32.568   53.762    0.307    0.428
  356.500   35.097   53.761    0.303    0.395
  356.750   44.742   63.515    0.285    0.357
  357.000   55.984   72.050    0.264    0.440
  357.250   58.120   76.927    0.259    0.465
  357.500   43.929   69.609    0.256    0.481
  357.750   31.985   63.510    0.273    0.438
  358.000   21.214   51.313    0.322    0.363
  358.250   17.934   42.776    0.336    0.312
  358.500   14.882   40.945    0.269    0.305
  358.750   14.073   66.553    0.198    0.356
  359.000   14.339  100.088    0.221    0.406
  359.250   14.611   94.599    0.239    0.443
  359.500   14.888   81.793    0.256    0.463
  359.750   14.614   66.548    0.268    0.410
  360.000   13.313   73.864    0.257    0.402
  360.250   12.356   90.935    0.261    0.430
  360.500   11.048   75.690    0.285    0.450
  360.750   10.447   67.152    0.280    0.400
  361.000   10.255   70.809    0.230    0.352
  361.250   10.646   79.954    0.209    0.322
  361.500   11.473   95.806    0.165    0.286
  361.750   12.597  106.171    0.165    0.283
  362.000   13.831  114.706    0.158    0.325
  362.250   15.472  110.436    0.218    0.370
  362.500   16.673   81.777    0.257    0.368
  362.750   18.652   70.800    0.268    0.328
  363.000   20.101   62.262    0.251    0.319
  363.250   20.866   68.968    0.215    0.324
  363.500   22.487   78.113    0.223    0.335
  363.750   24.233   69.575    0.226    0.364
  364.000   25.158   50.672    0.271    0.425
  364.250   27.112   47.012    0.282    0.396
  364.500   28.145   53.718    0.259    0.375
  364.750   36.557   52.496    0.290    0.355
  365.000   42.450   48.837    0.317    0.356
  365.250   48.382   36.640    0.323    0.363
  365.500   53.121   36.639    0.314    0.400
  365.750   54.128   37.857    0.330    0.425
  366.000   54.133   34.807    0.331    0.400
  366.250   51.191   34.196    0.335    0.380
  366.500   46.634   34.804    0.330    0.346
  366.750   42.483   36.023    0.330    0.344
  367.000   40.928   38.460    0.319    0.347
  367.250   38.703   40.898    0.304    0.394
