~VERSION INFORMATION
 VERS.                 2.0:   CWLS LOG ASCII STANDARD -VERSION 2.0
 WRAP.                  NO:   ONE LINE PER DEPTH STEP
~WELL INFORMATION BLOCK
#MNEM.UNIT           DATA                    DESCRIPTION OF MNEMONIC
#---------    -------------------            -------------------------------
# Generated from Intellog Unique Number	CS_69_70/WELL/829
NULL.         -999.25                        : NULL_VALUE
WELL.         HB CCS PITLOCHRIE              : Well_name    - WELL              
LOC .         00/07-16-070-12W4/0            : Location     - LOCATION          
UWI .         00/07-16-070-12W4/0            : Uwi          - UNIQUE WELL ID    
ENTR.         SP                             : Entered      - ENTERED BY        
SRVC.         SCHLUMBERGER                   : Scn          - SERVICE COMPANY   
STRT.M        286.512                        : top_depth    - START DEPTH       
STOP.M        496.012                        : bot_depth    - STOP DEPTH        
STEP.M        0.25                           : increment    - STEP LENGTH       
~CURVE INFORMATION BLOCK
#MNEM UNIT       ERCB CURVE CODE    CURVE DESCRIPTION
#-----------   ------------------   ----------------------------------
DEPT.M        00 001 00 00         : DEPTH        - DEPTH                       
GR  .API      00 310 00 00         : GR           - GAMMA RAY                   
DPHI.V/V      00 890 00 00         : PHID         - DENSITY POROSITY (SANDSTONE)
NPHI.V/V      00 330 00 00         : PHIN         - NEUTRON POROSITY (SANDSTONE)
ILD .OHMM     00 120 00 00         : RESD         - DEEP RESISTIVITY (DIL)      
~PARAMETER INFORMATION       
#MNEM.UNIT           DATA             DESCRIPTION OF MNEMONIC
#---------         -----------     ------------------------------
GL  .M        604.388              : gl           - GROUND LEVEL ELEVATION      
EREF.M        607.436              : kb           - ELEVATION OF DEPTH REFERENCE
DATM.M        604.388              : datum        - DATUM ELEVATION             
TDD .M        499.872              : tdd          - TOTAL DEPTH DRILLER         
RUN .         ONE                  : Run          - RUN NUMBER                  
ENG .         BILL                 : Engineer     - RECORDING ENGINEER          
WIT .         JIM                  : Witness      - WITNESSED BY                
MUD .         GEL                  : Mud_type     - MUD TYPE                    
MATR.         SANDSTONE            : Logunit      - NEUTRON MATRIX              
TMAX.C        26.1111              : BHT          - MAXIMUM RECORDED TEMPERATURE
BHTD.M        499.872              : BHTDEP       - MAXIMUM RECORDED TEMPERATURE
MATR.         1                    : LOGUNIT      - NEUTRON MATRIX              
RMT .C        25                   : MDTP         - TEMPERATURE OF MUD          
NEUT.         1                    : NEUTRON      - NEUTRON TYPE                
RESI.         0                    : RESIST       - RESISTIVITY TYPE            
RMC .OHMM     0.25                 : RMC          - RESISTIVITY OF MUD CAKE     
RMF .OHMM     0.25                 : RMF          - RESISTIVITY OF MUD FILTRATE 
SUFT.C        15                   : SUFT         - SURFACE TEMPERATURE         
~A  DEPTH       GR     PHID     PHIN     RESD
  286.512  101.314    0.243    0.579    2.847
  286.762  100.024    0.260    0.590    2.920
  287.012  103.796    0.278    0.594    2.926
  287.262  106.393    0.285    0.588    2.933
  287.512  106.596    0.295    0.592    2.955
  287.762  105.770    0.301    0.598    2.981
  288.012  105.544    0.305    0.581    2.999
  288.262  107.282    0.309    0.579    3.035
  288.512  106.702    0.312    0.593    3.071
  288.762  104.389    0.292    0.593    3.052
  289.012  102.372    0.296    0.575    3.008
  289.262  101.056    0.278    0.571    2.934
  289.512   99.097    0.268    0.573    2.861
  289.762   97.090    0.280    0.569    2.771
  290.012   95.883    0.292    0.571    2.686
  290.262   97.788    0.298    0.562    2.629
  290.512   98.260    0.305    0.566    2.577
  290.762   96.716    0.294    0.575    2.637
  291.012   92.262    0.290    0.586    2.818
  291.262   84.962    0.264    0.592    3.056
  291.512   76.245    0.262    0.576    3.285
  291.762   65.537    0.248    0.488    3.348
  292.012   56.916    0.137    0.426    3.236
  292.262   54.069    0.101    0.411    3.066
  292.512   56.154    0.317    0.424    2.913
  292.762   57.428    0.316    0.428    2.797
  293.012   57.132    0.321    0.436    2.691
  293.262   55.523    0.314    0.443    2.677
  293.512   53.549    0.307    0.449    2.768
  293.762   51.891    0.303    0.435    2.887
  294.012   60.677    0.310    0.424    3.110
  294.262   69.278    0.315    0.428    3.385
  294.512   78.443    0.298    0.438    3.710
  294.762   84.496    0.284    0.458    4.008
  295.012   90.366    0.272    0.470    4.283
  295.262   95.531    0.278    0.469    4.527
  295.512  101.158    0.263    0.472    4.724
  295.762  105.499    0.251    0.490    4.895
  296.012  107.466    0.236    0.496    5.035
  296.262  106.663    0.241    0.478    5.097
  296.512  109.061    0.247    0.470    5.141
  296.762  111.984    0.229    0.476    5.154
  297.012  113.494    0.247    0.468    5.113
  297.262  114.400    0.229    0.473    5.081
  297.512  113.819    0.233    0.480    5.037
  297.762  111.663    0.224    0.494    4.995
  298.012  108.255    0.238    0.522    4.945
  298.262  101.712    0.253    0.543    4.859
  298.512   94.778    0.260    0.561    4.727
  298.762   85.312    0.279    0.468    4.500
  299.012   77.017    0.291    0.453    4.293
  299.262   71.810    0.290    0.450    4.120
  299.512   75.162    0.278    0.453    3.941
  299.762   73.920    0.272    0.462    3.791
  300.012   72.590    0.290    0.474    3.668
  300.262   70.217    0.322    0.482    3.616
  300.512   70.192    0.318    0.460    3.651
  300.762   75.992    0.306    0.444    3.796
  301.012   82.390    0.287    0.432    4.092
  301.262   88.149    0.269    0.449    4.417
  301.512   93.315    0.259    0.463    4.827
  301.762   97.359    0.249    0.475    4.921
  302.012   99.167    0.241    0.479    5.161
  302.262  100.981    0.235    0.469    5.239
  302.512  102.023    0.228    0.460    5.124
  302.762  102.781    0.219    0.459    4.575
  303.012  107.171    0.229    0.473    4.093
  303.262  112.832    0.208    0.489    3.597
  303.512  116.471    0.237    0.515    3.144
  303.762  119.142    0.259    0.546    2.752
  304.012  120.688    0.249    0.581    2.585
  304.262  119.707    0.238    0.629    2.547
  304.512  116.009    0.239    0.605    2.870
  304.762  112.827    0.279    0.560    3.374
  305.012  103.291    0.278    0.532    3.832
  305.262   94.173    0.266    0.516    4.180
  305.512   88.736    0.256    0.504    4.500
  305.762   85.078    0.254    0.499    4.633
  306.012   83.662    0.276    0.498    4.639
  306.262   85.711    0.287    0.511    4.562
  306.512   86.438    0.294    0.503    4.423
  306.762   86.452    0.285    0.494    4.383
  307.012   84.029    0.270    0.484    4.392
  307.262   83.099    0.252    0.484    4.434
  307.512   83.272    0.243    0.500    4.550
  307.762   82.723    0.272    0.499    4.750
  308.012   83.556    0.290    0.502    5.028
  308.262   81.751    0.295    0.516    5.411
  308.512   79.751    0.288    0.522    5.945
  308.762   76.466    0.288    0.514    6.113
  309.012   73.482    0.295    0.507    6.147
  309.262   72.974    0.302    0.497    5.952
  309.512   78.138    0.297    0.485    5.755
  309.762   83.525    0.282    0.485    5.623
  310.012   86.933    0.270    0.500    5.496
  310.262   90.968    0.275    0.519    5.404
  310.512   92.528    0.272    0.523    5.264
  310.762   95.620    0.244    0.529    4.948
  311.012   99.862    0.224    0.513    4.677
  311.262  106.208    0.202    0.508    4.441
  311.512  113.255    0.200    0.518    4.212
  311.762  116.966    0.231    0.533    4.043
  312.012  116.024    0.214    0.540    3.917
  312.262  118.446    0.205    0.533    3.863
  312.512  121.017    0.223    0.558    3.950
  312.762  123.770    0.240    0.578    4.139
  313.012  125.714    0.232    0.572    4.454
  313.262  126.473    0.229    0.549    4.734
  313.512  126.408    0.221    0.513    5.055
  313.762  125.431    0.214    0.506    5.463
  314.012  123.926    0.242    0.517    5.596
  314.262  118.217    0.232    0.513    5.296
  314.512  111.293    0.251    0.502    4.805
  314.762  100.664    0.274    0.494    4.439
  315.012   96.104    0.289    0.497    4.131
  315.262   93.535    0.301    0.500    4.045
  315.512   93.593    0.308    0.500    4.302
  315.762   96.774    0.299    0.497    4.661
  316.012   98.501    0.290    0.492    4.948
  316.262   98.833    0.286    0.484    5.159
  316.512  100.523    0.286    0.485    5.278
  316.762  103.444    0.279    0.490    5.386
  317.012  105.660    0.268    0.486    5.483
  317.262  107.838    0.263    0.483    5.549
  317.512  109.252    0.263    0.488    5.544
  317.762  106.376    0.249    0.487    5.496
  318.012  103.400    0.238    0.472    5.463
  318.262  101.545    0.235    0.463    5.507
  318.512  103.926    0.236    0.458    5.638
  318.762  107.358    0.249    0.458    5.847
  319.012  109.991    0.243    0.465    5.939
  319.262  111.429    0.248    0.475    5.968
  319.512  111.768    0.237    0.483    5.892
  319.762  110.365    0.233    0.485    5.720
  320.012  108.390    0.246    0.503    5.518
  320.262  105.512    0.256    0.540    5.266
  320.512  101.783    0.266    0.563    5.066
  320.762  101.430    0.290    0.539    4.929
  321.012  102.781    0.284    0.518    4.938
  321.262  102.922    0.280    0.512    4.996
  321.512  101.088    0.281    0.514    5.057
  321.762   99.091    0.292    0.523    5.068
  322.012   98.190    0.303    0.530    5.012
  322.262  100.173    0.300    0.517    4.844
  322.512  102.375    0.301    0.516    4.556
  322.762  104.087    0.278    0.530    4.166
  323.012  104.465    0.263    0.565    3.823
  323.262  103.873    0.246    0.585    3.579
  323.512  102.784    0.254    0.599    3.552
  323.762  104.473    0.252    0.607    3.723
  324.012  105.686    0.252    0.602    4.044
  324.262  106.998    0.260    0.604    4.357
  324.512  106.915    0.264    0.584    4.556
  324.762  104.750    0.268    0.557    4.717
  325.012   98.283    0.270    0.536    4.757
  325.262   92.429    0.265    0.526    4.748
  325.512   86.436    0.286    0.529    4.692
  325.762   82.307    0.315    0.519    4.790
  326.012   80.675    0.330    0.503    5.033
  326.262   79.795    0.320    0.493    5.277
  326.512   78.693    0.310    0.482    5.473
  326.762   81.057    0.310    0.478    5.605
  327.012   84.268    0.312    0.481    5.641
  327.262   88.094    0.294    0.481    5.686
  327.512   91.841    0.275    0.487    5.686
  327.762   94.043    0.262    0.483    5.742
  328.012   94.483    0.249    0.498    5.833
  328.262   89.739    0.233    0.512    5.970
  328.512   88.930    0.254    0.504    6.231
  328.762   89.572    0.273    0.516    6.540
  329.012   90.219    0.280    0.531    6.735
  329.262   89.215    0.264    0.523    6.787
  329.512   88.168    0.257    0.529    6.626
  329.762   86.936    0.255    0.517    6.434
