~VERSION INFORMATION
 VERS.                 2.0:   CWLS LOG ASCII STANDARD -VERSION 2.0
 WRAP.                  NO:   ONE LINE PER DEPTH STEP
~WELL INFORMATION BLOCK
#MNEM.UNIT           DATA                    DESCRIPTION OF MNEMONIC
#---------    -------------------            -------------------------------
# Generated from Intellog Unique Number	CC_84_87/WELL/1065
NULL.         -999.25                        : NULL_VALUE
WELL.         SUNCOR NEWBY                   : Well_name    - WELL              
LOC .         06-08-084-04W4                 : Location     - LOCATION          
UWI .         00/06-08-084-04W4/0            : Uwi          - UNIQUE WELL ID    
ENTR.         JHS                            : Entered      - ENTERED BY        
SRVC.         SCHLUMBERGER                   : Scn          - SERVICE COMPANY   
DATE.         16 FEB 85                      : Date         - LOG DATE
STRT.M        85                             : top_depth    - START DEPTH       
STOP.M        229.901                        : bot_depth    - STOP DEPTH        
STEP.M        0.3                            : increment    - STEP LENGTH       
~CURVE INFORMATION BLOCK
#MNEM UNIT       ERCB CURVE CODE    CURVE DESCRIPTION
#-----------   ------------------   ----------------------------------
DEPT.M        00 001 00 00         : DEPTH        - DEPTH                       
DPHI.V/V      00 890 00 00         : PHID         - DENSITY POROSITY (LIMESTONE)
NPHI.V/V      00 330 00 00         : PHIN         - NEUTRON POROSITY (LIMESTONE)
GR  .API      00 310 00 00         : GR           - GAMMA RAY                   
ILD .OHMM     00 120 00 00         : RESD         - DEEP RESISTIVITY (DIL)      
~PARAMETER INFORMATION       
#MNEM.UNIT           DATA             DESCRIPTION OF MNEMONIC
#---------         -----------     ------------------------------
GL  .M        461.6                : gl           - GROUND LEVEL ELEVATION      
EREF.M        464.6                : kb           - ELEVATION OF DEPTH REFERENCE
DATM.M        464.6                : datum        - DATUM ELEVATION             
TDD .M        240                  : tdd          - TOTAL DEPTH DRILLER         
RUN .         ONE                  : Run          - RUN NUMBER                  
ENG .         BILL                 : Engineer     - RECORDING ENGINEER          
WIT .         JIM                  : Witness      - WITNESSED BY                
MUD .         GEL                  : Mud_type     - MUD TYPE                    
MATR.         LIMESTONE            : Logunit      - NEUTRON MATRIX              
TMAX.C        25                   : BHT          - MAXIMUM RECORDED TEMPERATURE
BHTD.M        240                  : BHTDEP       - MAXIMUM RECORDED TEMPERATURE
MATR.         1                    : LOGUNIT      - NEUTRON MATRIX              
RMT .C        25                   : MDTP         - TEMPERATURE OF MUD          
NEUT.         1                    : NEUTRON      - NEUTRON TYPE                
RESI.         0                    : RESIST       - RESISTIVITY TYPE            
RMC .OHMM     0.25                 : RMC          - RESISTIVITY OF MUD CAKE     
RMF .OHMM     0.25                 : RMF          - RESISTIVITY OF MUD FILTRATE 
SUFT.C        15                   : SUFT         - SURFACE TEMPERATURE         
~A  DEPTH     PHID     PHIN       GR     RESD
# ...
  189.401    0.267    0.367   79.274    2.965
  189.701    0.263    0.365   77.359    3.019
  190.001    0.271    0.376   76.072    3.075
  190.301    0.276    0.399   77.920    3.073
  190.601    0.270    0.400   79.769    3.015
  190.901    0.271    0.387   75.346    3.014
  191.201    0.298    0.399   73.421    2.957
  191.501    0.299    0.416   75.904    2.901
  191.801    0.280    0.416   85.284    2.900
  192.101    0.236    0.409   95.912    2.953
  192.401    0.238    0.393   85.841    3.064
  192.701    0.271    0.395   74.515    3.178
  193.001    0.254    0.402   75.111    3.118
  193.301    0.242    0.396   83.861    3.117
  193.601    0.246    0.407   89.474    3.115
  193.901    0.228    0.426   98.852    3.293
  194.201    0.211    0.424  101.326    3.480
  194.501    0.223    0.412   93.766    3.479
  194.801    0.268    0.395   78.669    3.477
  195.101    0.277    0.382   71.728    3.287
  195.401    0.265    0.354   76.090    2.993
  195.701    0.276    0.359   75.436    2.937
  196.001    0.294    0.378   72.889    2.881
  196.301    0.272    0.392   82.268    2.989
  196.601    0.228    0.388   85.370    3.044
  196.901    0.236    0.380   80.944    3.278
  197.201    0.239    0.372   82.163    3.664
  197.501    0.219    0.366   70.212    3.463
  197.801    0.266    0.366   60.768    3.095
  198.101    0.313    0.358   58.225    2.872
  198.401    0.292    0.351   69.480    2.715
  198.701    0.285    0.360   71.957    2.713
  199.001    0.269    0.373   78.202    2.922
  199.301    0.228    0.369   90.086    3.266
  199.601    0.220    0.346   86.290    3.650
  199.901    0.246    0.357   68.689    3.515
  200.201    0.316    0.361   54.851    2.917
  200.501    0.334    0.361   48.541    2.164
  200.801    0.346    0.362   48.509    1.864
  201.101    0.345    0.368   64.789    1.729
  201.401    0.311    0.374   76.050    1.665
  201.701    0.331    0.385   59.704    1.827
  202.001    0.362    0.401   46.492    1.792
  202.301    0.376    0.405   45.825    1.663
  202.601    0.377    0.387   45.169    1.514
  202.901    0.384    0.378   41.368    1.405
  203.201    0.382    0.374   40.083    1.353
  203.501    0.385    0.363   40.049    1.303
  203.801    0.382    0.369   41.900    1.302
  204.101    0.368    0.381   53.787    1.377
  204.401    0.262    0.386   91.401    1.658
  204.701    0.278    0.388   77.562    1.887
  205.001    0.317    0.404   53.687    1.817
  205.301    0.368    0.403   54.281    1.686
  205.601    0.300    0.386   90.637    1.685
  205.901    0.244    0.385   96.253    1.955
  206.201    0.227    0.385   89.939    2.399
  206.501    0.267    0.384   72.966    3.054
  206.801    0.304    0.393   60.387    3.053
  207.101    0.356    0.398   49.059    2.351
  207.401    0.361    0.392   44.004    1.845
  207.701    0.368    0.374   44.588    1.560
  208.001    0.372    0.379   43.309    1.447
  208.301    0.362    0.372   50.179    1.529
  208.601    0.330    0.355   55.794    1.678
  208.901    0.330    0.370   51.366    1.677
  209.201    0.363    0.385   45.056    1.527
  209.501    0.385    0.387   43.139    1.471
  209.801    0.381    0.381   38.087    1.365
  210.101    0.387    0.393   34.910    1.314
  210.401    0.382    0.407   38.020    1.363
  210.701    0.357    0.402   54.931    1.524
  211.001    0.287    0.395   78.739    1.735
  211.301    0.306    0.396   64.272    1.868
  211.601    0.358    0.400   49.810    1.833
  211.901    0.360    0.410   58.559    1.669
  212.201    0.328    0.408   58.522    1.638
  212.501    0.321    0.406   61.003    1.668
  212.801    0.335    0.394   58.459    1.698
  213.101    0.363    0.389   43.995    1.605
  213.401    0.384    0.403   42.072    1.489
  213.701    0.378    0.403   43.924    1.408
  214.001    0.370    0.398   42.010    1.381
  214.301    0.377    0.372   37.585    1.407
  214.601    0.367    0.350   36.923    1.459
  214.901    0.343    0.341   38.769    1.458
  215.201    0.357    0.355   45.641    1.431
  215.501    0.371    0.396   54.390    1.353
  215.801    0.401    0.405   55.608    1.278
  216.101    0.404    0.413   56.207    1.231
  216.401    0.406    0.409   56.801    1.231
  216.701    0.411    0.401   58.022    1.253
  217.001    0.395    0.385   71.165    1.276
  217.301    0.374    0.384   69.875    1.349
  217.601    0.364    0.403   69.841    1.374
  217.901    0.367    0.402   72.947    1.348
  218.201    0.351    0.385   82.947    1.372
  218.501    0.308    0.374   90.448    1.451
  218.801    0.285    0.379   92.922    1.779
  219.101    0.277    0.383   94.770    1.952
  219.401    0.306    0.382   90.345    1.880
  219.701    0.359    0.375   85.292    1.589
  220.001    0.371    0.381   81.488    1.343
  220.301    0.375    0.381   80.204    1.293
  220.601    0.385    0.383   83.930    1.246
  220.901    0.385    0.393   87.033    1.222
  221.201    0.379    0.393   87.632    1.199
  221.501    0.363    0.362   83.209    1.221
  221.801    0.360    0.352   75.016    1.244
  222.101    0.359    0.358   65.567    1.243
  222.401    0.357    0.353   54.873    1.266
  222.701    0.354    0.350   28.482    1.289
  223.001    0.350    0.344   26.569    1.337
  223.301    0.338    0.331   29.041    1.467
  223.601    0.316    0.306   36.543    1.766
  223.901    0.000    0.283   42.781    2.610
  224.201    0.007    0.263   38.352    4.394
  224.501    0.033    0.234   34.560    8.120
  224.801    0.021    0.195   30.129   14.727
  225.101    0.003    0.160   28.845   17.731
  225.401    0.006    0.155   28.178   20.191
  225.701    0.017    0.154   28.772   20.182
  226.001    0.017    0.156   29.999   19.797
  226.301    0.021    0.169   33.098   20.162
  226.601    0.035    0.172   34.950   21.311
  226.901    0.047    0.174   23.618   25.658
  227.201    0.059    0.149   19.194   25.648
  227.501    0.042    0.152   21.040   24.244
  227.801    0.046    0.170   29.169   20.878
  228.101    0.046    0.196   46.075   18.319
  228.401    0.023    0.197   34.123   16.996
  228.701    0.022    0.174   31.579   18.646
  229.001    0.039    0.184   54.758   17.299
  229.301    0.030    0.203   60.374   16.661
  229.601    0.025    0.203   49.048   19.327
  229.901    0.027    0.173   31.434   25.072
