~VERSION INFORMATION
 VERS.                 2.0:   CWLS LOG ASCII STANDARD -VERSION 2.0
 WRAP.                  NO:   ONE LINE PER DEPTH STEP
~WELL INFORMATION BLOCK
#MNEM.UNIT           DATA                    DESCRIPTION OF MNEMONIC
#---------    -------------------            -------------------------------
# Generated from Intellog Unique Number	CS_71_72/WELL/771
WELL.         BVX ET AL CALL                 : Well_name    - WELL
LOC .         00/06-19-071-17W4/0            : Location     - LOCATION
UWI .         00/06-19-071-17W4/0            : Uwi          - UNIQUE WELL ID
ENTR.         SP                             : Entered      - ENTERED BY
SRVC.         SCHLUMBERGER                   : Scn          - SERVICE COMPANY
STRT.M        289.56                         : top_depth    - START DEPTH
STOP.M        469.06                         : bot_depth    - STOP DEPTH
STEP.M        0.25                           : increment    - STEP LENGTH
 NULL. -999.2500:NULL Value
~CURVE INFORMATION BLOCK
#MNEM UNIT       ERCB CURVE CODE    CURVE DESCRIPTION
#-----------   ------------------   ----------------------------------
DEPT.M        00 001 00 00         : DEPTH        - DEPTH
GR  .API      00 310 00 00         : GR           - GAMMA RAY
DPHI.V/V      00 890 00 00         : PHID         - DENSITY POROSITY (SANDSTONE)
NPHI.V/V      00 330 00 00         : PHIN         - NEUTRON POROSITY (SANDSTONE)
ILD .OHMM     00 120 00 00         : RESD         - DEEP RESISTIVITY (DIL)
~PARAMETER INFORMATION
#MNEM.UNIT           DATA             DESCRIPTION OF MNEMONIC
#---------         -----------     ------------------------------
GL  .M        588.569              : gl           - GROUND LEVEL ELEVATION
EREF.M        591.617              : kb           - ELEVATION OF DEPTH REFERENCE
DATM.M        588.569              : datum        - DATUM ELEVATION
TDD .M        487.68               : tdd          - TOTAL DEPTH DRILLER
RUN .         ONE                  : Run          - RUN NUMBER
ENG .         BILL                 : Engineer     - RECORDING ENGINEER
WIT .         JIM                  : Witness      - WITNESSED BY
MUD .         GEL                  : Mud_type     - MUD TYPE
MATR.         SANDSTONE            : Logunit      - NEUTRON MATRIX
TMAX.C        25.5556              : BHT          - MAXIMUM RECORDED TEMPERATURE
BHTD.M        487.68               : BHTDEP       - MAXIMUM RECORDED TEMPERATURE
MATR.         1                    : LOGUNIT      - NEUTRON MATRIX
RMT .C        25                   : MDTP         - TEMPERATURE OF MUD
NEUT.         1                    : NEUTRON      - NEUTRON TYPE
RESI.         0                    : RESIST       - RESISTIVITY TYPE
RMC .OHMM     0.25                 : RMC          - RESISTIVITY OF MUD CAKE
RMF .OHMM     0.25                 : RMF          - RESISTIVITY OF MUD FILTRATE
SUFT.C        15                   : SUFT         - SURFACE TEMPERATURE
~A  DEPTH       GR     PHID     PHIN     RESD
# ...
  376.560   51.938    0.126    0.243    6.625
  376.810   53.642    0.127    0.271    5.634
  377.060   56.982    0.193    0.304    4.940
  377.310   54.895    0.314    0.343    4.508
  377.560   55.673    0.334    0.406    4.116
  377.810   59.207    0.344    0.504    3.951
  378.060   62.069    0.349    0.489    3.941
  378.310   63.260    0.356    0.463    3.976
  378.560   63.120    0.346    0.453    4.057
  378.810   62.630    0.335    0.445    4.134
  379.060   60.632    0.343    0.446    4.138
  379.310   61.110    0.342    0.436    4.069
  379.560   61.295    0.326    0.449    4.034
  379.810   61.558    0.325    0.458    4.035
  380.060   60.579    0.317    0.489    4.034
  380.310   61.511    0.306    0.522    4.078
  380.560   64.372    0.307    0.536    4.155
  380.810   66.406    0.302    0.523    4.210
  381.060   68.343    0.293    0.520    4.290
  381.310   69.530    0.288    0.522    4.322
  381.560   71.452    0.299    0.527    4.274
  381.810   72.809    0.298    0.531    4.272
  382.060   73.366    0.293    0.532    4.237
  382.310   72.349    0.300    0.539    4.247
  382.560   70.709    0.309    0.531    4.256
  382.810   70.063    0.306    0.514    4.261
  383.060   69.095    0.287    0.511    4.269
  383.310   67.900    0.279    0.505    4.279
  383.560   66.418    0.287    0.484    4.306
  383.810   64.809    0.291    0.485    4.303
  384.060   64.601    0.288    0.473    4.276
  384.310   66.341    0.293    0.478    4.213
  384.560   68.224    0.304    0.495    4.183
  384.810   68.650    0.311    0.500    4.064
  385.060   66.562    0.316    0.495    4.026
  385.310   65.168    0.318    0.500    4.007
  385.560   65.318    0.316    0.496    4.013
  385.810   64.914    0.323    0.494    4.001
  386.060   64.214    0.312    0.499    3.921
  386.310   63.150    0.313    0.505    3.865
  386.560   61.207    0.312    0.517    3.823
  386.810   59.718    0.313    0.508    3.790
  387.060   59.038    0.323    0.517    3.786
  387.310   60.605    0.320    0.519    3.768
  387.560   63.287    0.315    0.512    3.757
  387.810   64.780    0.326    0.508    3.783
  388.060   64.710    0.322    0.499    3.775
  388.310   63.279    0.318    0.486    3.745
  388.560   63.228    0.313    0.510    3.737
  388.810   63.834    0.320    0.499    3.693
  389.060   65.278    0.327    0.488    3.679
  389.310   65.766    0.337    0.472    3.655
  389.560   64.432    0.329    0.471    3.650
  389.810   66.509    0.328    0.497    3.669
  390.060   69.088    0.331    0.494    3.765
  390.310   68.767    0.333    0.482    3.868
  390.560   66.183    0.330    0.474    3.956
  390.810   64.160    0.324    0.487    3.998
  391.060   65.684    0.321    0.488    4.024
  391.310   66.918    0.315    0.477    4.042
  391.560   67.941    0.314    0.475    4.074
  391.810   68.843    0.321    0.480    4.112
  392.060   68.962    0.313    0.480    4.151
  392.310   70.018    0.319    0.486    4.160
  392.560   71.511    0.314    0.503    4.143
  392.810   71.872    0.303    0.516    4.071
  393.060   70.735    0.309    0.523    3.990
  393.310   69.070    0.317    0.514    3.919
  393.560   66.850    0.319    0.506    3.915
  393.810   65.572    0.319    0.502    3.910
  394.060   65.273    0.316    0.497    3.919
  394.310   66.751    0.304    0.482    3.898
  394.560   68.956    0.296    0.474    3.889
  394.810   70.973    0.291    0.479    3.876
  395.060   72.235    0.304    0.470    3.856
  395.310   73.267    0.318    0.467    3.851
  395.560   73.118    0.328    0.484    3.873
  395.810   71.355    0.322    0.495    3.922
  396.060   69.059    0.314    0.511    3.928
  396.310   67.640    0.305    0.525    3.996
  396.560   66.464    0.298    0.524    4.116
  396.810   65.965    0.297    0.514    4.245
  397.060   67.384    0.290    0.508    4.340
  397.310   69.963    0.283    0.502    4.329
  397.560   71.764    0.283    0.488    4.248
  397.810   73.153    0.307    0.465    3.916
  398.060   73.126    0.294    0.440    3.702
  398.310   73.316    0.276    0.437    3.399
  398.560   75.876    0.295    0.472    3.099
  398.810   81.494    0.277    0.492    2.800
  399.060   87.638    0.257    0.516    2.549
  399.310   94.350    0.245    0.591    2.413
  399.560   98.154    0.278    0.608    2.351
  399.810   99.766    0.249    0.601    2.669
  400.060  100.220    0.243    0.591    2.958
  400.310   99.123    0.251    0.576    3.250
  400.560   96.414    0.236    0.557    3.507
  400.810   93.941    0.236    0.499    3.749
  401.060   92.927    0.240    0.491    3.987
  401.310   92.395    0.243    0.477    4.194
  401.560   91.623    0.287    0.467    4.319
  401.810   90.987    0.270    0.467    4.359
  402.060   90.291    0.250    0.471    4.343
  402.310   89.731    0.233    0.478    4.304
  402.560   89.611    0.211    0.488    4.409
  402.810   90.343    0.218    0.497    4.545
  403.060   91.699    0.217    0.479    4.644
  403.310   92.082    0.199    0.468    4.656
  403.560   90.857    0.201    0.455    4.665
  403.810   88.409    0.212    0.453    4.686
  404.060   86.025    0.226    0.463    4.643
  404.310   85.791    0.230    0.477    4.624
  404.560   88.181    0.234    0.484    4.593
  404.810   89.374    0.242    0.487    4.558
  405.060   89.582    0.236    0.493    4.562
  405.310   89.494    0.224    0.483    4.570
  405.560   88.944    0.214    0.472    4.491
  405.810   88.360    0.227    0.466    4.414
  406.060   87.754    0.210    0.472    4.322
  406.310   86.727    0.195    0.490    4.339
  406.560   86.357    0.231    0.503    4.545
  406.810   85.924    0.231    0.497    4.908
  407.060   84.846    0.233    0.498    5.303
  407.310   82.969    0.258    0.507    5.645
  407.560   78.624    0.265    0.514    6.134
  407.810   74.550    0.237    0.478    5.497
  408.060   71.328    0.205    0.439    6.591
  408.310   69.924    0.119    0.372    6.600
  408.560   73.955    0.125    0.319    6.404
  408.810   78.570    0.235    0.336    6.126
  409.060   81.593    0.262    0.379    5.765
  409.310   71.616    0.288    0.418    5.329
  409.560   61.450    0.267    0.379    4.827
  409.810   60.764    0.157    0.348    4.295
  410.060   65.168    0.231    0.354    4.107
  410.310   68.436    0.258    0.409    3.947
  410.560   69.825    0.282    0.441    3.920
  410.810   70.441    0.275    0.451    4.097
  411.060   70.850    0.270    0.435    4.441
  411.310   70.884    0.272    0.423    4.669
  411.560   70.397    0.273    0.420    4.980
  411.810   68.672    0.258    0.409    5.285
  412.060   68.063    0.247    0.388    5.467
  412.310   66.447    0.225    0.361    5.084
  412.560   66.088    0.160    0.334    4.690
  412.810   66.140    0.214    0.370    4.424
  413.060   66.512    0.250    0.426    4.150
  413.310   67.585    0.254    0.449    4.314
  413.560   67.627    0.246    0.429    4.670
  413.810   66.561    0.268    0.424    4.997
  414.060   65.629    0.274    0.408    5.252
  414.310   66.043    0.238    0.386    5.488
  414.560   65.932    0.211    0.360    5.616
  414.810   67.262    0.167    0.357    5.325
  415.060   68.036    0.199    0.377    5.063
  415.310   69.249    0.242    0.397    4.772
  415.560   69.304    0.249    0.410    4.590
  415.810   68.673    0.241    0.405    4.515
  416.060   68.074    0.242    0.396    4.550
  416.310   67.593    0.247    0.408    4.612
  416.560   68.528    0.241    0.414    4.715
  416.810   70.171    0.244    0.411    4.781
  417.060   72.520    0.231    0.419    4.801
  417.310   75.249    0.231    0.415    4.793
  417.560   76.285    0.228    0.426    4.726
  417.810   76.868    0.223    0.440    4.596
  418.060   76.703    0.241    0.452    4.533
  418.310   74.475    0.275    0.456    4.614
  418.560   70.729    0.275    0.453    4.692
  418.810   69.227    0.258    0.452    4.705
  419.060   71.159    0.251    0.461    4.659
  419.310   74.229    0.266    0.468    4.465
  419.560   77.051    0.252    0.477    4.356
  419.810   79.027    0.266    0.467    4.489
