~VERSION INFORMATION
 VERS.                 2.0:   CWLS LOG ASCII STANDARD -VERSION 2.0
 WRAP.                  NO:   ONE LINE PER DEPTH STEP
~WELL INFORMATION BLOCK
#MNEM.UNIT           DATA                    DESCRIPTION OF MNEMONIC
#---------    -------------------            -------------------------------
# Generated from Intellog Unique Number	CX_WELLS/WELL/3976
WELL.         HOL BVX UNIGAS LYLE            : Well_name    - WELL
LOC .         00/06-34-071-16W4/0            : Location     - LOCATION
UWI .         00/06-34-071-16W4/0            : Uwi          - UNIQUE WELL ID
ENTR.         TIM                            : Entered      - ENTERED BY
SRVC.         SCHLUMBERGER                   : Scn          - SERVICE COMPANY
DATE.         04/14/92                       : Date         - LOG DATE
STRT.M        289.56                         : top_depth    - START DEPTH
STOP.M        484.56                         : bot_depth    - STOP DEPTH
STEP.M        0.25                           : increment    - STEP LENGTH
 NULL. -999.2500:NULL Value
~CURVE INFORMATION BLOCK
#MNEM UNIT       ERCB CURVE CODE    CURVE DESCRIPTION
#-----------   ------------------   ----------------------------------
DEPT.M        00 001 00 00         : DEPTH        - DEPTH
GR  .API      00 310 00 00         : GR           - GAMMA RAY
NPHI.V/V      00 330 00 00         : PHIN         - NEUTRON POROSITY (SANDSTONE)
ILD .OHMM     00 120 00 00         : RESD         - DEEP RESISTIVITY (DIL)
~PARAMETER INFORMATION
#MNEM.UNIT           DATA             DESCRIPTION OF MNEMONIC
#---------         -----------     ------------------------------
GL  .M        594.055              : gl           - GROUND LEVEL ELEVATION
EREF.M        596.189              : kb           - ELEVATION OF DEPTH REFERENCE
DATM.M        596.189              : datum        - DATUM ELEVATION
TDD .M        486.461              : tdd          - TOTAL DEPTH DRILLER
RUN .         ONE                  : Run          - RUN NUMBER
ENG .         JO                   : Engineer     - RECORDING ENGINEER
WIT .         TIM                  : Witness      - WITNESSED BY
MUD .         GEL                  : Mud_type     - MUD TYPE
MATR.         SANDSTONE            : Logunit      - NEUTRON MATRIX
TMAX.C        26.6667              : BHT          - MAXIMUM RECORDED TEMPERATURE
BHTD.M        486.156              : BHTDEP       - MAXIMUM RECORDED TEMPERATURE
RMT .C        25.5556              : MDTP         - TEMPERATURE OF MUD
MUDD.KG/M     9100                 : MWT          - MUD DENSITY
NEUT.         1                    : NEUTRON      - NEUTRON TYPE
RESI.         0                    : RESIST       - RESISTIVITY TYPE
RM  .OHMM     3.8                  : RM           - RESISTIVITY OF MUD
RMC .OHMM     3.74                 : RMC          - RESISTIVITY OF MUD CAKE
RMF .OHMM     3.74                 : RMF          - RESISTIVITY OF MUD FILTRATE
SUFT.C        4                    : SUFT         - SURFACE TEMPERATURE
~A  DEPTH       GR     PHIN     RESD
# ...
  398.060   84.356    0.457    5.243
  398.310   82.548    0.454    5.250
  398.560   86.813    0.454    5.255
  398.810   88.647    0.456    5.260
  399.060   89.875    0.457    5.265
  399.310   89.887    0.456    5.268
  399.560   86.251    0.455    5.273
  399.810   82.624    0.455    5.279
  400.060   81.418    0.457    5.286
  400.310   77.786    0.460    5.288
  400.560   72.938    0.458    5.293
  400.810   69.305    0.456    5.299
  401.060   72.962    0.458    5.304
  401.310   78.442    0.465    5.308
  401.560   74.809    0.446    5.415
  401.810   74.214    0.418    5.627
  402.060   75.441    0.405    5.736
  402.310   77.276    0.438    5.741
  402.560   79.113    0.466    5.537
  402.810   73.655    0.488    5.339
  403.060   70.630    0.504    5.147
  403.310   73.078    0.496    4.872
  403.560   76.130    0.490    4.613
  403.810   77.352    0.481    4.530
  404.060   79.186    0.468    4.368
  404.310   78.591    0.457    4.292
  404.560   76.173    0.449    4.297
  404.810   71.936    0.495    4.300
  405.060   65.873    0.515    4.303
  405.310   61.023    0.499    4.389
  405.560   56.785    0.459    4.562
  405.810   56.794    0.437    4.737
  406.060   58.022    0.441    5.016
  406.310   61.074    0.465    5.309
  406.560   62.301    0.480    5.217
  406.810   62.313    0.486    4.845
  407.060   61.111    0.480    4.673
  407.310   59.300    0.467    5.429
  407.560   56.275    0.322    7.056
  407.810   55.072    0.277   12.833
  408.060   56.303    0.273   16.997
  408.310   58.745    0.308   13.099
  408.560   61.187    0.344   10.097
  408.810   63.626    0.376    8.078
  409.060   66.068    0.432    6.464
  409.310   67.902    0.498    5.469
  409.560   70.344    0.501    4.987
  409.810   74.004    0.500    4.548
  410.060   76.447    0.500    4.385
  410.310   73.421    0.499    4.228
  410.560   69.184    0.499    4.233
  410.810   65.548    0.499    4.316
  411.060   61.916    0.498    4.402
  411.310   62.535    0.494    4.488
  411.560   63.155    0.489    4.665
  411.810   63.170    0.485    4.668
  412.060   63.185    0.492    4.760
  412.310   63.191    0.494    4.855
  412.560   63.814    0.489    4.861
  412.810   66.864    0.482    4.864
  413.060   65.661    0.480    4.868
  413.310   61.421    0.474    4.872
  413.560   59.614    0.475    4.787
  413.810   63.875    0.470    4.792
  414.060   69.354    0.465    4.621
  414.310   73.011    0.468    4.457
  414.560   76.064    0.469    4.376
  414.810   77.899    0.467    4.380
  415.060   80.948    0.463    4.146
  415.310   83.387    0.459    3.711
  415.560   88.870    0.461    3.449
  415.810   91.312    0.464    3.324
  416.060   87.682    0.465    3.205
  416.310   85.872    0.466    3.208
  416.560   85.884    0.461    3.398
  416.810   86.501    0.455    3.464
  417.060   88.949    0.456    3.532
  417.310   90.170    0.460    3.603
  417.560   91.403    0.461    3.673
  417.810   92.017    0.462    3.676
  418.060   92.636    0.463    3.546
  418.310   93.256    0.465    3.548
  418.560   93.271    0.467    3.422
  418.810   93.286    0.471    3.361
  419.060   93.299    0.477    3.241
  419.310   93.308    0.467    3.246
  419.560   94.538    0.458    3.249
  419.810   95.157    0.451    3.251
  420.060   94.562    0.443    3.254
  420.310   92.141    0.437    3.256
  420.560   89.724    0.433    3.579
  420.810   86.094    0.438    3.859
  421.060   83.066    0.452    4.320
  421.310   78.825    0.458    4.836
  421.560   76.407    0.392    5.414
  421.810   76.420    0.340    6.413
  422.060   84.332    0.337    7.179
  422.310   88.597    0.356    7.744
  422.560   89.824    0.402    7.747
  422.810   88.624    0.408    7.613
  423.060   87.421    0.396    7.344
  423.310   87.430    0.402    7.211
  423.560   86.835    0.412    7.084
  423.810   83.810    0.409    7.224
  424.060   78.962    0.392    7.942
  424.310   71.684    0.379    8.247
  424.560   66.229    0.347    9.588
  424.810   61.382    0.328   10.733
  425.060   63.824    0.308   10.158
  425.310   69.911    0.304    9.264
  425.560   76.608    0.340    8.764
  425.810   79.056    0.371    7.992
  426.060   79.062    0.389    7.562
  426.310   79.075    0.394    7.026
  426.560   79.694    0.380    6.775
  426.810   82.744    0.385    6.656
  427.060   86.404    0.414    6.538
  427.310   87.631    0.423    6.423
  427.560   88.251    0.414    6.310
  427.810   88.263    0.414    6.316
  428.060   88.879    0.407    6.323
  428.310   88.891    0.397    6.332
  428.560   87.087    0.390    6.336
  428.810   84.666    0.386    6.463
  429.060   84.077    0.378    6.466
  429.310   85.906    0.365    6.473
  429.560   88.955    0.371    6.479
  429.810   91.397    0.380    6.485
  430.060   93.235    0.395    6.492
  430.310   94.462    0.414    6.496
  430.560   94.477    0.427    6.502
  430.810   93.876    0.425    6.502
  431.060   93.281    0.413    6.278
  431.310   92.081    0.402    6.769
  431.560   92.096    0.386    6.903
  431.810   90.286    0.379    6.909
  432.060   86.043    0.391    6.915
  432.310   83.017    0.402    6.670
  432.560   81.814    0.404    6.551
  432.810   79.397    0.362    6.316
  433.060   81.234    0.366    6.091
  433.310   84.281    0.394    5.452
  433.560   88.549    0.417    4.362
  433.810   90.383    0.438    3.361
  434.060   92.218    0.462    2.845
  434.310   92.837    0.471    2.546
  434.560   94.067    0.468    2.237
  434.810   94.077    0.464    2.157
  435.060   89.229    0.461    2.119
  435.310   83.774    0.454    2.201
  435.560   81.966    0.443    2.374
  435.810   83.801    0.434    3.029
  436.060   80.773    0.417    5.507
  436.310   72.888    0.406    6.768
  436.560   63.788    0.399    8.321
  436.810   66.837    0.387    8.022
  437.060   73.532    0.359    7.881
  437.310   80.834    0.333    7.888
  437.560   86.921    0.382    7.895
  437.810   83.288    0.373    7.756
  438.060   66.898    0.361    8.524
  438.310   59.623    0.329   10.282
  438.560   64.492    0.280   11.948
  438.810   71.797    0.234   11.521
  439.060   76.669    0.269   10.704
  439.310   80.329    0.303   10.131
  439.560   83.376    0.383    9.413
  439.810   86.426    0.373    9.074
  440.060   89.475    0.368    8.433
  440.310   91.917    0.373    8.130
  440.560   94.970    0.378    7.837
  440.810   96.197    0.380    7.282
  441.060   96.209    0.383    6.639
  441.310   93.791    0.384    5.513
  441.560   90.162    0.389    4.249
  441.810   85.311    0.386    3.732
  442.060   83.501    0.382    3.600
  442.310   87.161    0.373    3.740
  442.560   87.173    0.369    4.267
  442.810   87.182    0.379    4.957
  443.060   87.805    0.379    5.653
  443.310   85.994    0.367    5.875
  443.560   83.574    0.355    5.457
  443.810   86.623    0.326    4.706
  444.060   92.710    0.333    4.290
  444.310   96.370    0.343    3.911
  444.560   96.993    0.361    3.771
  444.810   97.612    0.385    3.775
  445.060   97.017    0.399    3.850
  445.310   91.559    0.405    4.000
  445.560   90.359    0.395    4.314
  445.810   89.761    0.376    4.654
  446.060   93.421    0.383    4.926
  446.310   95.252    0.388    5.214
  446.560   99.520    0.395    5.316
  446.810   94.062    0.402    5.524
  447.060   78.890    0.398    5.529
  447.310   83.762    0.382    5.333
  447.560   88.631    0.384    5.238
  447.810   94.721    0.391    4.689
  448.060   98.378    0.402    4.521
  448.310  100.216    0.424    4.277
  448.560   99.617    0.425    3.974
  448.810   99.022    0.415    3.762
  449.060   95.997    0.401    3.695
  449.310   88.112    0.382    3.911
  449.560   82.656    0.376    4.545
  449.810   76.594    0.343    5.483
  450.060   69.316    0.320    8.431
  450.310   59.609    0.306   11.806
  450.560   54.761    0.297   13.466
  450.810   52.951    0.402   15.081
  451.060   59.645    0.449   16.575
  451.310   59.657    0.470   17.213
  451.560   58.458    0.475   18.913
  451.810   56.040    0.480   21.571
  452.060   51.800    0.482   28.042
