~VERSION INFORMATION
 VERS.                 2.0:   CWLS LOG ASCII STANDARD -VERSION 2.0
 WRAP.                  NO:   ONE LINE PER DEPTH STEP
~WELL INFORMATION BLOCK
#MNEM.UNIT           DATA                    DESCRIPTION OF MNEMONIC
#---------    -------------------            -------------------------------
# Generated from Intellog Unique Number	CW_73_75/WELL/877
WELL.         CDN SUP ER AL FRANCIS 07-35    : Well_name    - WELL
LOC .         00/07-35-074-21W4/0            : Location     - LOCATION
UWI .         00/07-35-074-21W4/0            : Uwi          - UNIQUE WELL ID
ENTR.         JAYE                           : Entered      - ENTERED BY
SRVC.         SCHLUMBERGER                   : Scn          - SERVICE COMPANY
DATE.         11 MAR 75                      : Date         - LOG DATE
STRT.M        387.096                        : top_depth    - START DEPTH
STOP.M        606.596                        : bot_depth    - STOP DEPTH
STEP.M        0.25                           : increment    - STEP LENGTH
 NULL. -999.2500:NULL Value
~CURVE INFORMATION BLOCK
#MNEM UNIT       ERCB CURVE CODE    CURVE DESCRIPTION
#-----------   ------------------   ----------------------------------
DEPT.M        00 001 00 00         : DEPTH        - DEPTH
ILD .OHMM     00 120 00 00         : RESD         - DEEP RESISTIVITY (DIL)
DPHI.V/V      00 890 00 00         : PHID         - DENSITY POROSITY (SANDSTONE)
NPHI.V/V      00 330 00 00         : PHIN         - NEUTRON POROSITY (SANDSTONE)
GR  .API      00 310 00 00         : GR           - GAMMA RAY
CALI.IN       00 280 01 00         : CAL          - CALIPER
~PARAMETER INFORMATION
#MNEM.UNIT           DATA             DESCRIPTION OF MNEMONIC
#---------         -----------     ------------------------------
GL  .M        691.896              : gl           - GROUND LEVEL ELEVATION
EREF.M        695.615              : kb           - ELEVATION OF DEPTH REFERENCE
DATM.M        691.896              : datum        - DATUM ELEVATION
TDD .M        669.036              : tdd          - TOTAL DEPTH DRILLER
RUN .         ONE                  : Run          - RUN NUMBER
BASE.         EDM                  : Branch       - HOME BASE OF LOGGING UNIT
MATR.         SANDSTONE            : Logunit      - NEUTRON MATRIX
TMAX.C        28.8889              : BHT          - MAXIMUM RECORDED TEMPERATURE
BHTD.M        669.036              : BHTDEP       - MAXIMUM RECORDED TEMPERATURE
RMT .C        15.5556              : MDTP         - TEMPERATURE OF MUD
MUDD.KG/M     0                    : MWT          - MUD DENSITY
NEUT.         1                    : NEUTRON      - NEUTRON TYPE
RESI.         0                    : RESIST       - RESISTIVITY TYPE
RM  .OHMM     2.8                  : RM           - RESISTIVITY OF MUD
RMC .OHMM     0                    : RMC          - RESISTIVITY OF MUD CAKE
RMF .OHMM     3.83                 : RMF          - RESISTIVITY OF MUD FILTRATE
SUFT.C        -17.7778             : SUFT         - SURFACE TEMPERATURE
~A  DEPTH     RESD     PHID     PHIN       GR      CAL
# ...
  460.096    5.067    0.333    0.456   52.348    8.114
  460.346    5.055    0.332    0.445   52.316    8.109
  460.596    5.042    0.325    0.444   52.294    8.109
  460.846    5.047    0.321    0.463   52.845    8.119
  461.096    5.026    0.333    0.474   53.114    8.115
  461.346    4.976    0.336    0.478   53.085    8.110
  461.596    4.955    0.332    0.482   52.768    8.110
  461.846    4.961    0.326    0.483   52.159    8.119
  462.096    4.993    0.327    0.475   51.839    8.114
  462.346    4.999    0.331    0.464   51.814    8.114
  462.596    5.004    0.340    0.466   51.788    8.104
  462.846    4.992    0.336    0.471   51.766    8.100
  463.096    4.980    0.325    0.475   51.737    8.092
  463.346    4.975    0.318    0.478   51.420    8.071
  463.596    4.972    0.318    0.466   50.805    8.046
  463.846    4.987    0.316    0.457   50.779    8.021
  464.096    5.020    0.317    0.459   51.045    7.997
  464.346    5.044    0.325    0.462   51.020    7.972
  464.596    5.058    0.324    0.464   50.991    7.967
  464.846    5.083    0.319    0.464   51.260    7.963
  465.096    5.117    0.310    0.464   51.523    7.978
  465.346    5.159    0.307    0.460   51.501    7.978
  465.596    5.184    0.303    0.457   52.055    7.967
  465.846    5.238    0.303    0.455   52.613    7.967
  466.096    5.262    0.295    0.455   52.873    7.974
  466.346    5.278    0.265    0.459   52.850    7.972
  466.596    5.294    0.167    0.475   51.950    7.972
  466.846    5.309    0.128    0.477   51.630    7.981
  467.096    5.324    0.089    0.469   51.316    7.997
  467.346    5.340    0.021    0.456   50.989    7.993
  467.596    5.327    0.003    0.448   50.678    8.007
  467.846    5.323    0.032    0.453   50.653    8.007
  468.096    5.339    0.092    0.447   50.624    7.995
  468.346    5.325    0.290    0.438   50.598    8.012
  468.596    5.302    0.307    0.443   50.281    8.007
  468.846    5.280    0.302    0.457   50.252    8.007
  469.096    5.285    0.310    0.466   49.935    8.017
  469.346    5.291    0.318    0.471   49.910    8.017
  469.596    5.297    0.317    0.473   49.884    8.005
  469.846    5.313    0.311    0.474   49.849    8.003
  470.096    5.309    0.304    0.460   49.824    8.017
  470.346    5.305    0.300    0.452   49.804    8.012
  470.596    5.272    0.296    0.453   49.769    8.026
  470.846    5.250    0.289    0.465   50.035    8.043
  471.096    5.227    0.281    0.460   50.016    8.056
  471.346    5.205    0.271    0.448   50.279    8.071
  471.596    5.163    0.320    0.451   50.542    8.066
  471.846    5.122    0.321    0.466   50.808    8.062
  472.096    5.100    0.325    0.478   50.783    8.062
  472.346    5.087    0.323    0.474   51.049    8.052
  472.596    5.102    0.318    0.468   51.315    8.067
  472.846    5.117    0.315    0.469   51.289    8.082
  473.096    5.160    0.313    0.473   51.549    8.077
  473.346    5.185    0.310    0.472   52.395    8.092
  473.596    5.219    0.301    0.459   52.956    8.106
  473.846    5.263    0.301    0.459   53.808    8.121
  474.096    5.317    0.295    0.470   55.820    8.155
  474.346    5.361    0.284    0.470   58.127    8.151
  474.596    5.397    0.278    0.461   60.435    8.146
  474.846    5.433    0.291    0.453   60.989    8.146
  475.096    5.410    0.309    0.453   60.675    8.174
  475.346    5.366    0.316    0.458   59.772    8.190
  475.596    5.304    0.312    0.464   59.163    8.183
  475.846    5.271    0.303    0.459   62.928    8.200
  476.096    5.249    0.288    0.454   71.067    8.254
  476.346    5.207    0.266    0.452   76.873    8.288
  476.596    5.194    0.239    0.451   81.513    8.304
  476.846    5.172    0.266    0.455   87.610    8.397
  477.096    5.103    0.245    0.460   94.000    8.491
  477.346    4.962    0.248    0.484   94.846    8.623
  477.596    4.781    0.234    0.468   89.863    8.736
  477.846    4.540    0.214    0.457   84.003    8.830
  478.096    4.249    0.206    0.483   83.103    8.962
  478.346    4.050    0.218    0.491   83.657    9.056
  478.596    3.881    0.216    0.502   83.051    9.149
  478.846    3.788    0.214    0.500   81.558    9.242
  479.096    3.697    0.223    0.498   80.370    9.355
  479.346    3.608    0.224    0.503   79.764    9.429
  479.596    3.534    0.240    0.527   79.736    9.523
  479.846    3.531    0.265    0.561   79.704    9.616
  480.096    3.613    0.282    0.560   78.803    9.671
  480.346    3.799    0.297    0.533   76.445    9.450
  480.596    4.024    0.328    0.503   72.341    9.150
  480.846    4.209    0.314    0.486   65.897    8.791
  481.096    4.268    0.340    0.478   60.915    8.589
  481.346    4.233    0.352    0.473   58.556    8.466
  481.596    4.177    0.355    0.465   57.653    8.438
  481.846    4.144    0.354    0.459   59.085    8.396
  482.096    4.133    0.342    0.450   60.226    8.373
  482.346    4.138    0.335    0.455   59.031    8.348
  482.596    4.196    0.349    0.482   57.836    8.344
  482.846    4.262    0.353    0.494   57.513    8.337
  483.096    4.298    0.352    0.488   57.788    8.337
  483.346    4.326    0.350    0.486   58.631    8.327
  483.596    4.324    0.344    0.487   58.602    8.343
  483.846    4.367    0.337    0.483   58.583    8.358
  484.096    4.373    0.346    0.475   58.846    8.358
  484.346    4.410    0.348    0.475   58.526    8.347
  484.596    4.463    0.347    0.479   59.087    8.363
  484.846    4.484    0.344    0.479   59.932    8.363
  485.096    4.506    0.340    0.474   59.615    8.351
  485.346    4.527    0.340    0.476   60.756    8.368
  485.596    4.524    0.340    0.484   63.640    8.362
  485.846    4.488    0.336    0.502   65.950    8.378
  486.096    4.461    0.326    0.488   70.004    8.373
  486.346    4.449    0.297    0.472   73.772    8.388
  486.596    4.454    0.266    0.490   74.621    8.382
  486.846    4.484    0.325    0.493   71.094    8.378
  487.096    4.505    0.339    0.505   68.149    8.378
  487.346    4.560    0.329    0.512   66.957    8.366
  487.596    4.590    0.297    0.512   66.932    8.383
  487.846    4.620    0.296    0.509   69.527    8.383
  488.096    4.642    0.298    0.511   71.834    8.373
  488.346    4.647    0.294    0.496   74.725    8.387
  488.596    4.636    0.286    0.482   74.994    8.382
  488.846    4.633    0.276    0.503   73.802    8.397
  489.096    4.604    0.228    0.516   72.024    8.393
  489.346    4.575    0.314    0.488   69.371    8.388
  489.596    4.556    0.345    0.458   66.715    8.383
  489.846    4.561    0.340    0.451   64.651    8.378
  490.096    4.616    0.339    0.455   61.710    8.373
  490.346    4.767    0.338    0.451   61.389    8.373
  490.596    5.049    0.331    0.445   61.659    8.363
  490.846    5.486    0.325    0.442   61.050    8.355
  491.096    5.896    0.313    0.443   59.563    8.334
  491.346    6.454    0.297    0.450   59.535    8.334
  491.596    6.713    0.329    0.473   59.509    8.323
  491.846    6.660    0.365    0.464   59.483    8.300
  492.096    6.558    0.362    0.462   59.455    8.274
  492.346    6.471    0.362    0.468   59.141    8.271
  492.596    6.455    0.370    0.480   58.824    8.246
  492.846    6.299    0.359    0.483   57.629    8.240
  493.096    6.048    0.354    0.476   56.437    8.235
  493.346    5.817    0.347    0.468   56.120    8.250
  493.596    5.474    0.347    0.461   56.091    8.250
  493.846    5.198    0.352    0.458   56.066    8.239
  494.096    5.009    0.358    0.454   56.040    8.256
  494.346    4.835    0.358    0.451   56.598    8.256
  494.596    4.736    0.354    0.453   57.149    8.246
  494.846    4.698    0.348    0.452   57.418    8.246
  495.096    4.619    0.339    0.449   57.684    8.234
  495.346    4.582    0.331    0.455   58.235    8.231
  495.596    4.571    0.332    0.461   58.505    8.231
  495.846    4.567    0.341    0.459   59.059    8.220
  496.096    4.564    0.337    0.470   59.322    8.217
  496.346    4.586    0.333    0.483   59.585    8.217
