~VERSION INFORMATION
 VERS.                 2.0:   CWLS LOG ASCII STANDARD -VERSION 2.0
 WRAP.                  NO:   ONE LINE PER DEPTH STEP
~WELL INFORMATION BLOCK
#MNEM.UNIT           DATA                    DESCRIPTION OF MNEMONIC
#---------    -------------------            -------------------------------
# Generated from Intellog Unique Number	CS_77_79/WELL/838
WELL.         CANADIAN WORLDWIDE ENERGY      : Well_name    - WELL
LOC .         00/02-14-077-04W4/0            : Location     - LOCATION
UWI .         00/02-14-077-04W4/0            : Uwi          - UNIQUE WELL ID
ENTR.         SP                             : Entered      - ENTERED BY
SRVC.         SCHLUMBERGER                   : Scn          - SERVICE COMPANY
STRT.M        195                            : top_depth    - START DEPTH
STOP.M        470                            : bot_depth    - STOP DEPTH
STEP.M        0.25                           : increment    - STEP LENGTH
 NULL. -999.2500:NULL Value
~CURVE INFORMATION BLOCK
#MNEM UNIT       ERCB CURVE CODE    CURVE DESCRIPTION
#-----------   ------------------   ----------------------------------
DEPT.M        00 001 00 00         : DEPTH        - DEPTH
ILD .OHMM     00 120 00 00         : RESD         - DEEP RESISTIVITY (DIL)
DPHI.V/V      00 890 00 00         : PHID         - DENSITY POROSITY (LIMESTONE)
NPHI.V/V      00 330 00 00         : PHIN         - NEUTRON POROSITY (LIMESTONE)
GR  .API      00 310 00 00         : GR           - GAMMA RAY
~PARAMETER INFORMATION
#MNEM.UNIT           DATA             DESCRIPTION OF MNEMONIC
#---------         -----------     ------------------------------
GL  .M        572.1                : gl           - GROUND LEVEL ELEVATION
EREF.M        575.75               : kb           - ELEVATION OF DEPTH REFERENCE
DATM.M        572.1                : datum        - DATUM ELEVATION
TDD .M        471.9                : tdd          - TOTAL DEPTH DRILLER
RUN .         ONE                  : Run          - RUN NUMBER
ENG .         BILL                 : Engineer     - RECORDING ENGINEER
WIT .         JIM                  : Witness      - WITNESSED BY
MUD .         GEL                  : Mud_type     - MUD TYPE
MATR.         LIMESTONE            : Logunit      - NEUTRON MATRIX
TMAX.C        25                   : BHT          - MAXIMUM RECORDED TEMPERATURE
BHTD.M        471.9                : BHTDEP       - MAXIMUM RECORDED TEMPERATURE
MATR.         1                    : LOGUNIT      - NEUTRON MATRIX
RMT .C        25                   : MDTP         - TEMPERATURE OF MUD
NEUT.         1                    : NEUTRON      - NEUTRON TYPE
RESI.         0                    : RESIST       - RESISTIVITY TYPE
RMC .OHMM     0.25                 : RMC          - RESISTIVITY OF MUD CAKE
RMF .OHMM     0.25                 : RMF          - RESISTIVITY OF MUD FILTRATE
SUFT.C        15                   : SUFT         - SURFACE TEMPERATURE
~A  DEPTH     RESD     PHID     PHIN       GR
# ...
  238.500   22.485    0.294    0.368   92.743
  238.750   22.933    0.297    0.358   90.269
  239.000   23.837    0.284    0.353   87.186
  239.250   26.229    0.278    0.357   72.268
  239.500   29.406    0.296    0.365   53.624
  239.750   35.578    0.312    0.368   48.669
  240.000   39.132    0.304    0.337   46.209
  240.250   47.322    0.275    0.317   44.363
  240.500   48.285    0.167    0.299   49.372
  240.750   48.316    0.189    0.269   54.380
  241.000   46.575    0.236    0.257   51.283
  241.250   44.894    0.283    0.329   46.343
  241.500   44.076    0.308    0.374   45.733
  241.750   41.692    0.324    0.396   42.646
  242.000   40.195    0.332    0.377   40.803
  242.250   40.228    0.330    0.367   47.051
  242.500   39.507    0.328    0.344   51.434
  242.750   38.792    0.329    0.348   54.569
  243.000   37.395    0.331    0.365   57.086
  243.250   36.731    0.335    0.376   63.963
  243.500   36.061    0.328    0.361   66.470
  243.750   34.117    0.319    0.346   66.500
  244.000   33.501    0.316    0.337   65.901
  244.250   32.910    0.310    0.351   64.679
  244.500   32.931    0.295    0.368   64.706
  244.750   32.968    0.276    0.385   65.976
  245.000   32.998    0.315    0.372   66.621
  245.250   33.022    0.338    0.359   67.272
  245.500   33.046    0.337    0.373   67.295
  245.750   33.729    0.336    0.377   64.830
  246.000   33.750    0.346    0.367   64.237
  246.250   33.770    0.349    0.359   65.507
  246.500   33.178    0.350    0.353   65.531
  246.750   32.578    0.341    0.370   71.160
  247.000   31.413    0.332    0.380   74.912
  247.250   30.840    0.326    0.387   73.071
  247.500   29.723    0.328    0.391   68.115
  247.750   27.585    0.317    0.391   73.122
  248.000   26.087    0.306    0.382   78.750
  248.250   24.208    0.286    0.367   81.886
  248.500   22.462    0.286    0.375   84.405
  248.750   20.456    0.292    0.398   88.169
  249.000   19.341    0.301    0.412   90.676
  249.250   17.612    0.307    0.405   95.055
  249.500   16.345    0.303    0.399  105.666
  249.750   15.456    0.296    0.397  113.150
  250.000   14.342    0.278    0.387  118.780
  250.250   13.310    0.229    0.387  114.452
  250.500   12.825    0.210    0.387  113.226
  250.750   12.134    0.217    0.391  113.875
  251.000   11.691    0.226    0.412  115.768
  251.250   11.268    0.239    0.422  115.181
  251.500   11.276    0.256    0.431  113.952
  251.750   11.289    0.251    0.426  110.869
  252.000   11.089    0.246    0.405  111.513
  252.250   11.309    0.246    0.404  113.407
  252.500   11.753    0.243    0.403  114.670
  252.750   13.952    0.262    0.421  109.718
  253.000   15.353    0.284    0.426   88.584
  253.250   15.953    0.301    0.412   85.496
  253.500   16.903    0.296    0.408   91.750
  253.750   17.571    0.290    0.408   97.992
  254.000   17.592    0.275    0.408   88.681
  254.250   17.938    0.279    0.404   84.356
  254.500   17.295    0.284    0.409   89.361
  254.750   16.662    0.291    0.421   94.985
  255.000   16.368    0.277    0.436  104.966
  255.250   16.390    0.258    0.431  116.191
  255.500   16.712    0.238    0.410  113.733
  255.750   17.374    0.218    0.394  106.282
  256.000   18.057    0.229    0.400   85.772
  256.250   18.417    0.262    0.409   60.278
  256.500   18.784    0.330    0.398   49.104
  256.750   18.455    0.331    0.390   53.488
  257.000   17.448    0.311    0.389   63.468
  257.250   15.898    0.248    0.398   74.072
  257.500   15.321    0.235    0.406   92.143
  257.750   14.761    0.259    0.417   81.589
  258.000   14.493    0.285    0.423   74.145
  258.250   13.710    0.309    0.424   83.510
  258.500   13.213    0.311    0.423   89.136
  258.750   13.474    0.322    0.421   81.078
  259.000   14.827    0.332    0.414   76.742
  259.250   16.947    0.323    0.408   73.656
  259.500   17.947    0.317    0.419   76.791
  259.750   20.509    0.324    0.423   79.924
  260.000   21.731    0.316    0.411   78.084
  260.250   21.347    0.300    0.399   77.483
  260.500   20.962    0.287    0.394   81.250
  260.750   20.583    0.285    0.387   83.137
  261.000   19.464    0.293    0.386   84.408
  261.250   18.074    0.286    0.396   85.062
  261.500   17.748    0.272    0.399   86.945
  261.750   17.430    0.264    0.403   89.457
  262.000   17.443    0.270    0.409   83.259
  262.250   18.477    0.263    0.422   72.085
  262.500   20.725    0.259    0.442   67.129
  262.750   21.955    0.262    0.453   60.933
  263.000   22.820    0.268    0.438   57.844
  263.250   23.272    0.276    0.414   59.740
  263.500   22.873    0.290    0.395   61.629
  263.750   22.459    0.295    0.390   57.298
  264.000   22.052    0.304    0.379   46.117
  264.250   21.655    0.322    0.375   46.779
  264.500   20.879    0.316    0.374   50.536
  264.750   20.893    0.300    0.379   53.041
  265.000   20.520    0.270    0.375   58.045
  265.250   19.411    0.254    0.363   63.674
  265.500   18.705    0.248    0.356   67.428
  265.750   18.366    0.254    0.359   69.947
  266.000   17.707    0.258    0.367   69.971
  266.250   17.386    0.260    0.381   69.384
  266.500   17.079    0.264    0.392   69.398
  266.750   17.091    0.271    0.391   70.042
  267.000   16.784    0.279    0.384   71.939
  267.250   16.802    0.275    0.373   73.835
  267.500   16.818    0.264    0.368   73.230
  267.750   16.516    0.261    0.367   69.529
  268.000   16.226    0.265    0.374   72.037
  268.250   16.235    0.255    0.369   75.172
  268.500   15.357    0.245    0.366   80.805
  268.750   14.250    0.240    0.373   87.062
  269.000   13.474    0.235    0.394   90.189
  269.250   12.270    0.231    0.404   94.569
  269.500   11.607    0.242    0.400   95.838
  269.750   11.614    0.248    0.404   93.995
  270.000   11.629    0.258    0.394   90.910
  270.250   11.637    0.262    0.386   90.313
  270.500   11.869    0.268    0.402   90.958
  270.750   12.111    0.268    0.427   86.627
  271.000   12.354    0.263    0.418   84.789
  271.250   12.599    0.262    0.386   86.679
  271.500   12.609    0.258    0.402   88.567
  271.750   12.383    0.252    0.407   88.594
  272.000   11.941    0.249    0.402   86.756
  272.250   11.949    0.255    0.397   88.029
  272.500   11.959    0.259    0.406   88.666
  272.750   11.973    0.259    0.415   88.070
  273.000   11.983    0.254    0.419   88.726
  273.250   11.992    0.253    0.428   88.121
  273.500   12.001    0.253    0.423   83.169
  273.750   12.243    0.253    0.410   82.574
  274.000   12.253    0.278    0.406   81.972
  274.250   12.264    0.282    0.420   81.385
  274.500   12.510    0.276    0.425   81.399
  274.750   12.527    0.281    0.432   82.676
  275.000   12.773    0.297    0.438   79.583
  275.250   13.031    0.310    0.442   72.138
  275.500   14.074    0.321    0.441   67.809
  275.750   14.626    0.317    0.431   65.970
  276.000   14.915    0.326    0.413   64.126
  276.250   15.804    0.322    0.420   66.647
  276.500   15.815    0.316    0.432   71.648
  276.750   15.246    0.312    0.434   77.269
  277.000   14.969    0.305    0.419   72.936
  277.250   14.428    0.307    0.423   66.740
  277.500   14.718    0.312    0.435   63.651
  277.750   15.896    0.321    0.441   60.567
  278.000   16.519    0.316    0.388   58.730
  278.250   17.506    0.312    0.383   60.624
  278.500   17.853    0.309    0.399   63.755
  278.750   17.864    0.306    0.407   66.895
  279.000   17.557    0.304    0.405   66.297
  279.250   17.570    0.311    0.400   64.458
  279.500   17.579    0.314    0.395   61.366
  279.750   17.936    0.319    0.407   58.278
  280.000   19.001    0.315    0.405   61.419
  280.250   19.380    0.316    0.404   63.929
  280.500   19.035    0.331    0.400   63.329
  280.750   18.350    0.339    0.401   59.619
  281.000   18.014    0.350    0.401   59.035
  281.250   18.377    0.358    0.395   59.055
  281.500   19.469    0.358    0.389   59.695
  281.750   19.485    0.340    0.391   57.853
