~VERSION INFORMATION
 VERS.                 2.0:   CWLS LOG ASCII STANDARD -VERSION 2.0
 WRAP.                  NO:   ONE LINE PER DEPTH STEP
~WELL INFORMATION BLOCK
#MNEM.UNIT           DATA                    DESCRIPTION OF MNEMONIC
#---------    -------------------            -------------------------------
# Generated from Intellog Unique Number	CW_73_75/WELL/56
WELL.         AMOCO ET AL JO-1 MARTIN HILLS  : Well_name    - WELL
LOC .         00/06-11-075-03W5/0            : Location     - LOCATION
UWI .         00/06-11-075-03W5/0            : Uwi          - UNIQUE WELL ID
ENTR.         JJ                             : Entered      - ENTERED BY
SRVC.         SCHLUMBERGER                   : Scn          - SERVICE COMPANY
DATE.         4 MAR 73                       : Date         - LOG DATE
STRT.M        542.794                        : top_depth    - START DEPTH
STOP.M        670.544                        : bot_depth    - STOP DEPTH
STEP.M        0.25                           : increment    - STEP LENGTH
 NULL. -999.2500:NULL Value
~CURVE INFORMATION BLOCK
#MNEM UNIT       ERCB CURVE CODE    CURVE DESCRIPTION
#-----------   ------------------   ----------------------------------
DEPT.M        00 001 00 00         : DEPTH        - DEPTH
NPHI.V/V      00 330 00 00         : PHIN         - NEUTRON POROSITY (SANDSTONE)
GR  .API      00 310 00 00         : GR           - GAMMA RAY
DELT.US/F     00 520 00 00         : DELT         - SONIC TRAVEL TIME
ILD .OHMM     00 120 00 00         : RESD         - DEEP RESISTIVITY (DIL)
~PARAMETER INFORMATION
#MNEM.UNIT           DATA             DESCRIPTION OF MNEMONIC
#---------         -----------     ------------------------------
GL  .M        716.067              : gl           - GROUND LEVEL ELEVATION
EREF.M        720.547              : kb           - ELEVATION OF DEPTH REFERENCE
DATM.M        716.067              : datum        - DATUM ELEVATION
TDD .M        659.587              : tdd          - TOTAL DEPTH DRILLER
RUN .         ONE                  : Run          - RUN NUMBER
ENG .         BOYKO                : Engineer     - RECORDING ENGINEER
WIT .         HUCULAK              : Witness      - WITNESSED BY
BASE.         EDM                  : Branch       - HOME BASE OF LOGGING UNIT
MUD .         CHEM GEL             : Mud_type     - MUD TYPE
MATR.         SANDSTONE            : Logunit      - NEUTRON MATRIX
TMAX.C        27.7778              : BHT          - MAXIMUM RECORDED TEMPERATURE
BHTD.M        659.282              : BHTDEP       - MAXIMUM RECORDED TEMPERATURE
RMT .C        20                   : MDTP         - TEMPERATURE OF MUD
MUDD.KG/M     1104                 : MWT          - MUD DENSITY
NEUT.         1                    : NEUTRON      - NEUTRON TYPE
RESI.         0                    : RESIST       - RESISTIVITY TYPE
RM  .OHMM     4.96                 : RM           - RESISTIVITY OF MUD
RMC .OHMM     0                    : RMC          - RESISTIVITY OF MUD CAKE
RMF .OHMM     4.75                 : RMF          - RESISTIVITY OF MUD FILTRATE
SUFT.C        5                    : SUFT         - SURFACE TEMPERATURE
~A  DEPTH     PHIN       GR     DELT     RESD
# ...
  629.794    0.320   94.747   90.894    8.257
  630.044    0.348  100.966   97.047    7.303
  630.294    0.332  102.469   99.878    6.555
  630.544    0.328  103.970  104.566    5.538
  630.794    0.298   99.364  107.396    4.989
  631.044    0.279   82.705  109.738    4.862
  631.294    0.268   85.922  111.883    5.250
  631.544    0.272   83.454  109.533    5.999
  631.794    0.277   79.453  106.400    6.513
  632.044    0.292   81.208  105.907    6.829
  632.294    0.306   86.073  107.368    6.992
  632.544    0.306   85.132  107.071    6.570
  632.794    0.277   85.539  109.803    6.379
  633.044    0.268   84.354  117.228    6.628
  633.294    0.246   78.337  110.576    6.862
  633.544    0.215   71.524  109.007    7.408
  633.794    0.210   67.774  118.680    7.882
  634.044    0.223   70.622  110.465    8.342
  634.294    0.229   74.021   86.999    9.308
  634.544    0.234   74.367   89.732   10.482
  634.794    0.243   75.693   93.540   11.612
  635.044    0.257   77.197   95.685   10.672
  635.294    0.271   78.207   96.561    9.387
  635.544    0.269   82.100   98.805    8.395
  635.794    0.266   86.172  100.853    7.844
  636.044    0.265   90.369  102.608    7.079
  636.294    0.263   85.092  104.460    6.519
  636.544    0.257   84.085  105.824    5.970
  636.794    0.268   78.130  104.745    5.839
  637.044    0.267   77.372  105.033    5.774
  637.294    0.248   84.446  104.736    5.721
  637.544    0.258   89.677  102.874    5.804
  637.794    0.267   86.169  100.718    5.761
  638.044    0.288   82.606  103.842    5.635
  638.294    0.294   80.923  105.401    5.432
  638.544    0.287   77.906  106.667    5.333
  638.794    0.265   75.863  107.249    5.420
  639.044    0.247   76.819  106.463    5.767
  639.294    0.242   81.201  103.135    6.170
  639.544    0.259   88.573  100.882    6.590
  639.794    0.259   91.118  103.224    6.922
  640.044    0.260   89.876  105.858    6.660
  640.294    0.278   92.723  113.087    6.144
  640.544    0.317   85.730  128.430    3.316
  640.794    0.359   79.347  142.502    2.262
  641.044    0.440   79.686  143.084    1.588
  641.294    0.468   84.865  143.080    1.308
  641.544    0.455   88.087  142.976    1.060
  641.794    0.451   88.301  142.875    0.997
  642.044    0.460   83.880  142.675    1.167
  642.294    0.466   82.570  140.911    1.481
  642.544    0.342   81.384  109.527    1.969
  642.794    0.300   79.406   99.454    2.582
  643.044    0.295   80.972  100.329    3.060
  643.294    0.304   75.991   96.805    3.997
  643.544    0.272   79.518   96.019    5.201
  643.794    0.259   80.469   99.924    6.500
  644.044    0.287   79.410  100.213    6.942
  644.294    0.301   79.078   99.133    7.043
  644.544    0.323   78.873  100.008    6.902
  644.794    0.371   75.850  102.448    6.544
  645.044    0.398   77.971  106.060    5.874
  645.294    0.387   81.679  107.522    5.167
  645.544    0.374   85.017  110.352    4.595
  645.794    0.372   88.050  109.957    4.094
  646.044    0.362   92.310  111.027    3.459
  646.294    0.385   88.437  116.497    3.026
  646.544    0.393   88.289  118.349    2.797
  646.794    0.386   89.363  117.172    2.666
  647.044    0.400   91.050  116.385    2.651
  647.294    0.433   90.301  115.403    2.868
  647.544    0.427   93.572  112.662    3.253
  647.794    0.433   90.738  110.115    3.532
  648.044    0.449   87.231  106.983    3.842
  648.294    0.423   85.062  105.707    4.171
  648.544    0.413   81.430  108.733    4.545
  648.794    0.345   76.578  108.924    4.670
  649.044    0.325   69.399  105.791    4.704
  649.294    0.240   59.344  106.666    4.825
  649.544    0.209   36.452   78.802    4.995
  649.794    0.056   28.421   63.645    5.533
  650.044    0.037   29.678   58.069    6.312
  650.294    0.043   35.951   57.575    7.468
  650.544    0.053   41.617   60.112   11.209
  650.794    0.059   45.078   64.213   24.571
  651.044    0.066   49.396   66.946   35.489
  651.294    0.078   55.550   70.363   34.271
  651.544    0.091   61.580   72.802   28.745
  651.794    0.117   54.586   79.836   22.781
  652.044    0.105   48.629   83.742   17.824
  652.294    0.096   56.311   76.014   15.060
  652.544    0.112   66.077   78.551   13.468
  652.794    0.119   70.207   80.991   12.793
  653.044    0.122   70.307   85.092   12.422
  653.294    0.122   75.115   86.651   11.886
  653.544    0.134   76.929   86.060   11.500
  653.794    0.142   77.584   87.522   10.903
  654.044    0.135   79.579   88.396   10.226
  654.294    0.140   86.335   89.467    9.416
  654.544    0.141   90.104   90.832    8.718
  654.794    0.144   92.592   93.174    8.236
  655.044    0.147   93.786   94.733    7.880
  655.294    0.147   91.992   96.195    7.779
  655.544    0.143   91.354   95.994    7.806
  655.794    0.136   94.211   95.012    7.791
  656.044    0.139   98.586   95.105    7.649
  656.294    0.149  104.987   96.176    7.400
  656.544    0.162  107.347   97.150    7.159
  656.794    0.184  107.814   99.588    6.713
  657.044    0.221  108.767  102.614    6.366
  657.294    0.259  114.917  103.978    5.905
  657.544    0.279  129.391  106.125    5.388
  657.794    0.297  122.699  108.173    4.970
  658.044    0.273  111.913  111.003    4.879
  658.294    0.261   96.784  113.344    5.033
  658.544    0.180   77.376   87.044    5.657
  658.794    0.149   68.669   83.814    6.817
  659.044    0.125   62.345   81.267    8.259
  659.294    0.111   60.733   79.210   10.380
  659.544    0.101   66.945   76.370   12.975
  659.794    0.120   78.663   78.125   16.823
  660.044    0.150   86.110   80.662   16.546
  660.294    0.162   87.913   86.034   14.661
  660.544    0.170   88.808   89.353   12.967
  660.794    0.153   90.434   93.846   11.200
  661.044    0.144   94.147   92.081    9.515
  661.294    0.141   98.092   90.708    8.810
  661.544    0.158  106.150   90.802    8.172
  661.794    0.186  104.529   95.000    7.334
  662.044    0.192  112.455   97.928    6.841
  662.294    0.204  121.730  100.270    6.185
  662.544    0.218  126.173  101.634    5.571
  662.794    0.211  128.528  104.464    5.283
  663.044    0.213  132.910  105.534    4.999
  663.294    0.230  133.619  106.507    4.953
  663.544    0.225  136.534  107.481    4.889
  663.794    0.219  141.217  108.552    4.853
  664.044    0.239  139.362  109.133    4.755
  664.294    0.238  144.006  109.324    4.660
  664.544    0.241  140.108  110.590    4.642
  664.794    0.234  113.236  109.511    4.710
  665.044    0.216  112.240  106.085    4.805
  665.294    0.202  117.902  103.539    5.020
  665.544    0.197  112.067  101.481    5.541
  665.794    0.191  105.498  101.281    5.949
  666.044    0.171  108.353  100.787    6.204
  666.294    0.173  105.512   99.806    6.446
  666.544    0.193  105.434  100.387    6.540
  666.794    0.196  108.340  101.263    6.515
  667.044    0.192  109.723  101.454    6.396
  667.294    0.185  105.174  102.622    6.165
  667.544    0.188  104.305  103.301    6.053
  667.794    0.189  102.865  100.658    6.041
  668.044    0.187   99.361   98.502    6.151
  668.294    0.182  101.534   96.837    6.391
  668.544    0.174  108.360   97.223    6.629
  668.794    0.188  114.520   99.466    6.862
  669.044    0.204  117.491  100.928    7.130
  669.294    0.204  117.040  102.684    7.247
  669.544    0.198  115.917  101.994    7.326
  669.794    0.195  122.740  101.110    7.245
  670.044    0.210  127.361  100.421    6.920
  670.294    0.227  126.239  102.469    6.744
  670.544    0.238  129.090  103.736    6.657
