~VERSION INFORMATION
 VERS.                 2.0:   CWLS LOG ASCII STANDARD -VERSION 2.0
 WRAP.                  NO:   ONE LINE PER DEPTH STEP
~WELL INFORMATION BLOCK
#MNEM.UNIT           DATA                    DESCRIPTION OF MNEMONIC
#---------    -------------------            -------------------------------
# Generated from Intellog Unique Number	CC_80_83/WELL/1173
NULL.         -999.25                        : NULL_VALUE
WELL.         NOVALTA NEWBY                  : Well_name    - WELL
LOC .         07-06-083-04W4                 : Location     - LOCATION          
UWI .         00/07-06-083-04W4/0            : Uwi          - UNIQUE WELL ID    
ENTR.         DW                             : Entered      - ENTERED BY        
SRVC.         COMPUTALOG                     : Scn          - SERVICE COMPANY   
DATE.         26 JAN 84                      : Date         - LOG DATE
STRT.M        65                             : top_depth    - START DEPTH       
STOP.M        323.899                        : bot_depth    - STOP DEPTH        
STEP.M        0.3                            : increment    - STEP LENGTH       
~CURVE INFORMATION BLOCK
#MNEM UNIT       ERCB CURVE CODE    CURVE DESCRIPTION
#-----------   ------------------   ----------------------------------
DEPT.M        00 001 00 00         : DEPTH        - DEPTH                       
DPHI.V/V      00 890 00 00         : PHID         - DENSITY POROSITY (LIMESTONE)
NPHI.V/V      00 330 00 00         : PHIN         - NEUTRON POROSITY (LIMESTONE)
GR  .API      00 310 00 00         : GR           - GAMMA RAY                   
ILD .OHMM     00 120 00 00         : RESD         - DEEP RESISTIVITY (DIL)      
~PARAMETER INFORMATION       
#MNEM.UNIT           DATA             DESCRIPTION OF MNEMONIC
#---------         -----------     ------------------------------
GL  .M        462.5                : gl           - GROUND LEVEL ELEVATION      
EREF.M        465.5                : kb           - ELEVATION OF DEPTH REFERENCE
DATM.M        465.5                : datum        - DATUM ELEVATION             
TDD .M        325                  : tdd          - TOTAL DEPTH DRILLER         
RUN .         ONE                  : Run          - RUN NUMBER                  
ENG .         BILL                 : Engineer     - RECORDING ENGINEER          
WIT .         JIM                  : Witness      - WITNESSED BY                
MUD .         GEL                  : Mud_type     - MUD TYPE                    
MATR.         LIMESTONE            : Logunit      - NEUTRON MATRIX              
TMAX.C        26                   : BHT          - MAXIMUM RECORDED TEMPERATURE
BHTD.M        325                  : BHTDEP       - MAXIMUM RECORDED TEMPERATURE
MATR.         1                    : LOGUNIT      - NEUTRON MATRIX              
RMT .C        25                   : MDTP         - TEMPERATURE OF MUD          
NEUT.         1                    : NEUTRON      - NEUTRON TYPE                
RESI.         0                    : RESIST       - RESISTIVITY TYPE            
RMC .OHMM     0.25                 : RMC          - RESISTIVITY OF MUD CAKE     
RMF .OHMM     0.25                 : RMF          - RESISTIVITY OF MUD FILTRATE 
SUFT.C        15                   : SUFT         - SURFACE TEMPERATURE         
~A  DEPTH     PHID     PHIN       GR     RESD
# ...
  221.602    0.302    0.362   55.857    1.505
  221.902    0.288    0.361   72.897    1.784
  222.202    0.230    0.355   92.983    2.036
  222.502    0.222    0.383   97.840    2.280
  222.802    0.253    0.368   92.341    2.367
  223.102    0.269    0.358   83.187    2.279
  223.402    0.270    0.345   81.346    2.073
  223.702    0.274    0.331   67.320    1.621
  224.002    0.286    0.333   69.130    1.561
  224.302    0.285    0.346   72.162    1.621
  224.602    0.259    0.344   74.582    1.715
  224.902    0.259    0.356   70.305    1.781
  225.202    0.287    0.355   61.151    1.884
  225.502    0.294    0.346   70.881    1.884
  225.802    0.290    0.344   77.566    1.813
  226.102    0.287    0.366   64.152    1.779
  226.402    0.263    0.361   73.270    1.779
  226.702    0.244    0.350   79.954    1.847
  227.002    0.254    0.393   81.768    1.991
  227.302    0.272    0.400   72.616    2.107
  227.602    0.284    0.344   73.208    2.107
  227.902    0.274    0.327   78.066    2.067
  228.202    0.264    0.338   80.488    2.067
  228.502    0.259    0.364   81.689    2.105
  228.802    0.250    0.370   84.113    2.186
  229.102    0.242    0.373   88.969    2.270
  229.402    0.269    0.364   74.944    2.269
  229.702    0.282    0.341   75.537    2.026
  230.002    0.260    0.362   85.878    1.914
  230.302    0.241    0.379   93.782    1.987
  230.602    0.267    0.380   68.183    1.913
  230.902    0.320    0.377   60.248    1.614
  231.202    0.318    0.359   63.886    1.554
  231.502    0.245    0.354   96.156    1.644
  231.802    0.238    0.369   97.359    1.806
  232.102    0.244    0.377   86.981    1.985
  232.402    0.257    0.371   82.703    2.140
  232.702    0.277    0.363   80.256    2.140
  233.002    0.285    0.367   83.896    1.874
  233.302    0.278    0.388   82.052    1.673
  233.602    0.286    0.393   68.638    1.522
  233.902    0.294    0.351   60.701    1.493
  234.202    0.286    0.325   66.167    1.465
  234.502    0.287    0.327   69.197    1.465
  234.802    0.323    0.357   70.400    1.493
  235.102    0.328    0.404   70.384    1.521
  235.402    0.306    0.428   71.587    1.609
  235.702    0.289    0.372   72.789    1.671
  236.002    0.287    0.349   72.164    1.670
  236.302    0.284    0.355   70.934    1.639
  236.602    0.285    0.386   61.169    1.548
  236.902    0.301    0.353   53.235    1.463
  237.202    0.326    0.342   56.269    1.382
  237.502    0.324    0.354   54.423    1.305
  237.802    0.364    0.361   40.400    1.143
  238.102    0.381    0.371   33.682    1.060
  238.402    0.379    0.371   36.712    1.021
  238.702    0.359    0.371   52.535    1.040
  239.002    0.293    0.390   75.667    1.209
  239.302    0.240    0.390   84.788    1.488
  239.602    0.256    0.375   83.554    1.731
  239.902    0.285    0.389   76.837    1.730
  240.202    0.344    0.407   65.859    1.516
  240.502    0.353    0.394   47.568    1.231
  240.802    0.338    0.373   58.518    1.163
  241.102    0.292    0.357   67.640    1.163
  241.402    0.300    0.351   57.877    1.278
  241.702    0.286    0.347   59.690    1.431
  242.002    0.265    0.337   70.029    1.664
  242.302    0.257    0.332   75.495    1.794
  242.602    0.272    0.342   67.562    1.695
  242.902    0.321    0.378   55.971    1.485
  243.202    0.358    0.401   48.646    1.183
  243.502    0.376    0.409   43.760    1.077
  243.802    0.371    0.399   37.044    0.961
  244.102    0.355    0.372   27.890    0.925
  244.402    0.350    0.355   26.658    0.943
  244.702    0.358    0.381   33.341    0.942
  245.002    0.365    0.393   41.244    0.960
  245.302    0.370    0.387   41.839    0.960
  245.602    0.368    0.384   40.605    0.960
  245.902    0.365    0.384   38.151    0.942
  246.202    0.367    0.387   37.524    0.942
  246.502    0.375    0.407   39.339    0.959
  246.802    0.378    0.412   42.368    0.996
  247.102    0.371    0.372   48.445    1.095
  247.402    0.301    0.361   73.406    1.322
  247.702    0.267    0.360   81.307    1.508
  248.002    0.262    0.358   83.116    1.721
  248.302    0.259    0.354   81.885    1.928
  248.602    0.265    0.402   71.516    1.721
  248.902    0.331    0.392   47.744    1.398
  249.202    0.345    0.376   38.593    1.114
  249.502    0.357    0.365   32.480    1.013
  249.802    0.360    0.349   34.295    1.013
  250.102    0.306    0.370   69.797    1.353
  250.402    0.324    0.376   53.873    1.254
  250.702    0.347    0.377   38.562    1.099
  251.002    0.327    0.378   43.455    1.038
  251.302    0.311    0.372   53.858    1.019
  251.602    0.316    0.363   53.853    1.019
  251.902    0.344    0.350   43.440    1.038
  252.202    0.371    0.359   39.148    1.038
  252.502    0.377    0.372   38.532    1.038
  252.802    0.355    0.361   34.854    1.018
  253.102    0.349    0.359   29.338    1.018
  253.402    0.352    0.361   30.558    1.038
  253.702    0.341    0.364   31.777    1.077
  254.002    0.314    0.355   32.384    1.119
  254.302    0.318    0.323   29.930    1.140
  254.602    0.333    0.332   31.763    1.119
  254.902    0.341    0.339   34.207    1.077
  255.202    0.344    0.340   32.977    1.018
  255.502    0.343    0.337   31.747    1.037
  255.802    0.311    0.318   32.355    1.140
  256.102    0.258    0.301   59.901    1.456
  256.402    0.281    0.346   59.284    1.600
  256.702    0.296    0.329   53.769    1.693
  257.002    0.297    0.328   54.376    1.693
  257.302    0.280    0.342   65.392    1.693
  257.602    0.253    0.365   92.326    1.861
  257.902    0.138    0.420  106.402    2.290
  258.202    0.126    0.427  110.683    2.663
  258.502    0.224    0.419  116.800    2.926
  258.802    0.251    0.397  116.183    3.039
  259.102    0.235    0.367  113.117    3.038
  259.402    0.230    0.356   99.644    2.764
  259.702    0.277    0.396   84.332    2.163
  260.002    0.337    0.381   73.306    1.511
  260.302    0.347    0.361   48.811    1.075
  260.602    0.342    0.339   41.458    0.960
  260.902    0.348    0.374   39.005    0.925
  261.202    0.367    0.398   42.061    0.907
  261.502    0.374    0.388   38.995    0.907
  261.802    0.367    0.352   33.480    0.924
  262.102    0.358    0.322   33.475    0.960
  262.402    0.356    0.304   38.981    0.960
  262.702    0.353    0.320   46.322    0.978
  263.002    0.345    0.333   42.032    0.997
  263.302    0.339    0.343   38.352    0.996
  263.602    0.339    0.341   38.959    0.996
  263.902    0.365    0.343   38.957    0.996
  264.202    0.375    0.360   40.788    0.996
  264.502    0.359    0.368   42.617    0.959
  264.802    0.348    0.352   43.227    0.959
  265.102    0.348    0.347   43.835    0.941
  265.402    0.361    0.391   46.278    0.959
  265.702    0.360    0.399   49.947    0.996
  266.002    0.333    0.366   53.002    1.034
  266.302    0.322    0.333   54.223    1.054
  266.602    0.315    0.328   46.258    1.074
  266.901    0.303    0.331   41.968    1.202
  267.201    0.273    0.315   50.534    1.346
  267.501    0.247    0.301   46.244    1.479
  267.801    0.239    0.305   51.137    1.721
  268.101    0.246    0.333   68.888    1.927
  268.401    0.229    0.352   76.229    2.117
  268.701    0.189    0.341   78.061    2.240
  269.001    0.217    0.338   78.056    2.157
  269.301    0.261    0.369   76.826    2.000
  269.601    0.281    0.377   75.597    1.855
  269.901    0.284    0.357   74.367    1.820
  270.201    0.265    0.353   74.363    1.820
  270.501    0.243    0.357   80.480    1.925
  270.801    0.229    0.342   84.761    2.076
  271.101    0.243    0.333   81.082    2.116
  271.401    0.250    0.338   78.016    2.197
  271.701    0.234    0.341   82.909    2.239
  272.001    0.232    0.357   85.965    2.238
  272.301    0.232    0.349   84.736    2.238
  272.601    0.234    0.344   79.221    2.075
  272.901    0.249    0.376   71.258    1.784
  273.201    0.267    0.381   62.069    1.686
  273.501    0.286    0.374   62.063    1.751
