~VERSION INFORMATION
 VERS.                 2.0:   CWLS LOG ASCII STANDARD -VERSION 2.0
 WRAP.                  NO:   ONE LINE PER DEPTH STEP
~WELL INFORMATION BLOCK
#MNEM.UNIT           DATA                    DESCRIPTION OF MNEMONIC
#---------    -------------------            -------------------------------
# Generated from Intellog Unique Number	CS_67_68/WELL/701
WELL.         AMOCO CANADA PETROLEUM         : Well_name    - WELL
LOC .         00/06-27-068-18W4/0            : Location     - LOCATION
UWI .         00/06-27-068-18W4/0            : Uwi          - UNIQUE WELL ID
ENTR.         SP                             : Entered      - ENTERED BY
SRVC.         SCHLUMBERGER                   : Scn          - SERVICE COMPANY
STRT.M        274.32                         : top_depth    - START DEPTH
STOP.M        514.82                         : bot_depth    - STOP DEPTH
STEP.M        0.25                           : increment    - STEP LENGTH
 NULL. -999.2500:NULL Value
~CURVE INFORMATION BLOCK
#MNEM UNIT       ERCB CURVE CODE    CURVE DESCRIPTION
#-----------   ------------------   ----------------------------------
DEPT.M        00 001 00 00         : DEPTH        - DEPTH
GR  .API      00 310 00 00         : GR           - GAMMA RAY
DPHI.V/V      00 890 00 00         : PHID         - DENSITY POROSITY (SANDSTONE)
NPHI.V/V      00 330 00 00         : PHIN         - NEUTRON POROSITY (SANDSTONE)
ILD .OHMM     00 120 00 00         : RESD         - DEEP RESISTIVITY (DIL)
~PARAMETER INFORMATION
#MNEM.UNIT           DATA             DESCRIPTION OF MNEMONIC
#---------         -----------     ------------------------------
GL  .M        546.659              : gl           - GROUND LEVEL ELEVATION
EREF.M        550.164              : kb           - ELEVATION OF DEPTH REFERENCE
DATM.M        546.659              : datum        - DATUM ELEVATION
TDD .M        521.208              : tdd          - TOTAL DEPTH DRILLER
RUN .         ONE                  : Run          - RUN NUMBER
ENG .         BILL                 : Engineer     - RECORDING ENGINEER
WIT .         JIM                  : Witness      - WITNESSED BY
MUD .         GEL                  : Mud_type     - MUD TYPE
MATR.         SANDSTONE            : Logunit      - NEUTRON MATRIX
TMAX.C        22.2222              : BHT          - MAXIMUM RECORDED TEMPERATURE
BHTD.M        521.208              : BHTDEP       - MAXIMUM RECORDED TEMPERATURE
MATR.         1                    : LOGUNIT      - NEUTRON MATRIX
RMT .C        25                   : MDTP         - TEMPERATURE OF MUD
NEUT.         1                    : NEUTRON      - NEUTRON TYPE
RESI.         0                    : RESIST       - RESISTIVITY TYPE
RMC .OHMM     0.25                 : RMC          - RESISTIVITY OF MUD CAKE
RMF .OHMM     0.25                 : RMF          - RESISTIVITY OF MUD FILTRATE
SUFT.C        15                   : SUFT         - SURFACE TEMPERATURE
~A  DEPTH       GR     PHID     PHIN     RESD
# ...
  361.320   73.974    0.306    0.425    4.533
  361.570   72.904    0.301    0.430    4.466
  361.820   72.964    0.297    0.430    4.364
  362.070   73.257    0.299    0.427    4.221
  362.320   75.606    0.285    0.426    4.066
  362.570   79.379    0.277    0.429    3.950
  362.820   83.234    0.268    0.441    3.793
  363.070   87.204    0.258    0.459    3.735
  363.320   90.802    0.243    0.474    3.742
  363.570   93.429    0.235    0.463    3.819
  363.820   94.171    0.248    0.455    3.904
  364.070   96.492    0.240    0.453    4.101
  364.320  100.103    0.198    0.456    4.284
  364.570  104.474    0.174    0.461    4.392
  364.820  107.410    0.170    0.464    4.434
  365.070  109.484    0.192    0.472    4.367
  365.320  110.876    0.190    0.481    4.260
  365.570  110.021    0.205    0.468    4.157
  365.820  103.809    0.227    0.454    4.148
  366.070   99.430    0.227    0.463    4.410
  366.320   95.929    0.221    0.470    4.684
  366.570   95.406    0.239    0.463    4.885
  366.820   97.251    0.238    0.454    5.107
  367.070   97.765    0.231    0.448    5.190
  367.320   97.603    0.227    0.441    5.129
  367.570   99.424    0.225    0.432    4.880
  367.820  101.477    0.222    0.463    4.702
  368.070  104.095    0.217    0.472    4.566
  368.320  105.789    0.218    0.465    4.493
  368.570  107.181    0.224    0.465    4.397
  368.820  107.492    0.232    0.465    4.306
  369.070  107.098    0.235    0.495    4.147
  369.320  103.691    0.223    0.519    3.850
  369.570   98.427    0.224    0.535    3.652
  369.820  104.912    0.219    0.532    3.564
  370.070  109.287    0.221    0.512    3.608
  370.320  109.184    0.245    0.498    3.749
  370.570  106.929    0.228    0.476    4.052
  370.820  104.549    0.225    0.453    4.281
  371.070  102.701    0.228    0.430    4.593
  371.320  101.485    0.241    0.425    4.912
  371.570  100.725    0.249    0.438    5.090
  371.820  100.175    0.237    0.456    5.228
  372.070   91.312    0.238    0.477    5.365
  372.320   79.889    0.342    0.508    5.568
  372.570   65.092    0.450    0.531    5.867
  372.820   56.026    0.546    0.569    6.117
  373.070   49.515    0.581    0.581    6.416
  373.320   54.600    0.545    0.491    5.445
  373.570   58.443    0.496    0.462    4.629
  373.820   61.599    0.409    0.431    3.885
  374.070   63.699    0.351    0.420    3.427
  374.320   63.842    0.306    0.419    3.116
  374.570   65.056    0.315    0.422    2.919
  374.820   66.555    0.319    0.427    2.827
  375.070   66.857    0.307    0.430    2.746
  375.320   66.484    0.301    0.429    2.697
  375.570   64.413    0.302    0.425    2.661
  375.820   63.166    0.308    0.427    2.613
  376.070   63.454    0.319    0.438    2.587
  376.320   64.173    0.324    0.448    2.551
  376.570   63.936    0.306    0.447    2.529
  376.820   63.132    0.299    0.439    2.504
  377.070   64.691    0.308    0.445    2.476
  377.320   63.396    0.314    0.445    2.465
  377.570   61.818    0.316    0.436    2.453
  377.820   61.065    0.323    0.433    2.436
  378.070   61.532    0.321    0.429    2.432
  378.320   62.388    0.321    0.416    2.419
  378.570   63.687    0.330    0.404    2.405
  378.820   64.673    0.336    0.396    2.386
  379.070   65.817    0.327    0.390    2.383
  379.320   66.192    0.318    0.387    2.387
  379.570   66.175    0.322    0.404    2.399
  379.820   65.413    0.327    0.419    2.437
  380.070   64.772    0.339    0.417    2.414
  380.320   64.876    0.331    0.411    2.467
  380.570   68.543    0.296    0.415    2.553
  380.820   76.152    0.260    0.438    2.671
  381.070   82.648    0.241    0.458    2.866
  381.320   88.596    0.222    0.467    3.093
  381.570   90.423    0.286    0.459    3.271
  381.820   88.039    0.278    0.450    3.431
  382.070   86.556    0.272    0.443    3.566
  382.320   88.383    0.271    0.439    3.708
  382.570   90.563    0.290    0.447    3.767
  382.820   92.145    0.298    0.454    3.771
  383.070   93.942    0.290    0.466    3.763
  383.320   93.964    0.289    0.477    3.764
  383.570   93.814    0.275    0.473    3.772
  383.820   90.101    0.248    0.470    3.826
  384.070   81.718    0.232    0.471    3.937
  384.320   73.457    0.236    0.445    4.119
  384.570   72.469    0.209    0.408    4.288
  384.820   75.873    0.190    0.379    4.461
  385.070   78.379    0.198    0.380    4.424
  385.320   79.441    0.233    0.416    4.065
  385.570   77.619    0.269    0.433    3.756
  385.820   75.250    0.290    0.450    3.445
  386.070   73.327    0.303    0.461    3.198
  386.320   72.198    0.313    0.463    2.995
  386.570   71.721    0.297    0.455    2.937
  386.820   73.060    0.304    0.452    2.898
  387.070   74.702    0.313    0.454    2.906
  387.320   76.655    0.296    0.453    2.961
  387.570   75.936    0.290    0.440    3.013
  387.820   73.115    0.305    0.428    3.028
  388.070   72.606    0.282    0.422    3.003
  388.320   74.502    0.269    0.432    2.924
  388.570   77.841    0.263    0.441    2.790
  388.820   80.913    0.269    0.445    2.660
  389.070   82.843    0.295    0.440    2.570
  389.320   84.134    0.291    0.436    2.477
  389.570   84.377    0.305    0.446    2.443
  389.820   84.317    0.309    0.456    2.464
  390.070   82.375    0.300    0.463    2.500
  390.320   80.105    0.294    0.451    2.571
  390.570   79.667    0.293    0.439    2.638
  390.820   81.658    0.299    0.436    2.709
  391.070   84.711    0.304    0.437    2.780
  391.320   85.054    0.297    0.447    2.839
  391.570   81.905    0.297    0.444    2.893
  391.820   80.194    0.299    0.434    2.937
  392.070   79.524    0.286    0.432    2.976
  392.320   79.622    0.275    0.447    3.013
  392.570   80.295    0.268    0.467    3.050
  392.820   80.893    0.276    0.456    3.069
  393.070   82.291    0.279    0.453    3.079
  393.320   80.751    0.286    0.457    3.069
  393.570   83.251    0.304    0.462    3.058
  393.820   86.166    0.305    0.453    3.039
  394.070   89.891    0.299    0.447    3.039
  394.320   92.584    0.298    0.446    3.049
  394.570   96.564    0.277    0.448    3.073
  394.820   99.990    0.237    0.461    3.114
  395.070  100.219    0.202    0.483    3.152
  395.320   99.246    0.204    0.495    3.195
  395.570   95.115    0.221    0.492    3.283
  395.820   93.469    0.244    0.485    3.344
  396.070   93.376    0.270    0.484    3.414
  396.320   93.172    0.291    0.482    3.477
  396.570   91.446    0.279    0.472    3.510
  396.820   87.930    0.264    0.462    3.530
  397.070   85.318    0.263    0.453    3.483
  397.320   85.121    0.270    0.449    3.454
  397.570   86.120    0.273    0.445    3.452
  397.820   87.910    0.269    0.451    3.483
  398.070   88.572    0.264    0.461    3.555
  398.320   88.743    0.248    0.475    3.653
  398.570   89.372    0.234    0.482    3.811
  398.820   90.492    0.221    0.469    4.037
  399.070   92.171    0.216    0.463    4.283
  399.320   93.895    0.224    0.457    4.524
  399.570   96.292    0.220    0.451    4.741
  399.820   97.435    0.215    0.453    4.935
  400.070   98.031    0.217    0.464    5.037
  400.320   98.298    0.224    0.452    5.067
  400.570   98.589    0.217    0.445    5.048
  400.820   98.861    0.212    0.441    5.002
  401.070  100.070    0.211    0.439    4.883
  401.320  103.698    0.218    0.442    4.810
  401.570  106.445    0.210    0.445    4.747
  401.820  107.468    0.203    0.447    4.682
  402.070  106.503    0.199    0.446    4.967
  402.320  104.348    0.200    0.446    4.904
  402.570  102.262    0.209    0.450    4.853
  402.820   99.185    0.220    0.454    4.779
  403.070   96.924    0.233    0.440    4.691
  403.320   97.627    0.237    0.427    4.632
  403.570   99.234    0.223    0.418    4.562
  403.820   99.759    0.217    0.430    4.509
  404.070   98.015    0.210    0.424    4.446
  404.320   94.254    0.206    0.427    4.433
  404.570   92.389    0.212    0.432    4.429
