~VERSION INFORMATION
 VERS.                 2.0:   CWLS LOG ASCII STANDARD -VERSION 2.0
 WRAP.                  NO:   ONE LINE PER DEPTH STEP
~WELL INFORMATION BLOCK
#MNEM.UNIT           DATA                    DESCRIPTION OF MNEMONIC
#---------    -------------------            -------------------------------
# Generated from Intellog Unique Number	CS_69_70/WELL/782
WELL.         UNIVERSAL EXPLORATIONS LT      : Well_name    - WELL
LOC .         00/06-30-069-09W4/0            : Location     - LOCATION
UWI .         00/06-30-069-09W4/0            : Uwi          - UNIQUE WELL ID
ENTR.         SP                             : Entered      - ENTERED BY
SRVC.         SCHLUMBERGER                   : Scn          - SERVICE COMPANY
STRT.M        420                            : top_depth    - START DEPTH
STOP.M        635                            : bot_depth    - STOP DEPTH
STEP.M        0.25                           : increment    - STEP LENGTH
 NULL. -999.2500:NULL Value
~CURVE INFORMATION BLOCK
#MNEM UNIT       ERCB CURVE CODE    CURVE DESCRIPTION
#-----------   ------------------   ----------------------------------
DEPT.M        00 001 00 00         : DEPTH        - DEPTH
ILD .OHMM     00 120 00 00         : RESD         - DEEP RESISTIVITY (DIL)
DPHI.V/V      00 890 00 00         : PHID         - DENSITY POROSITY (LIMESTONE)
NPHI.V/V      00 330 00 00         : PHIN         - NEUTRON POROSITY (LIMESTONE)
GR  .API      00 310 00 00         : GR           - GAMMA RAY
~PARAMETER INFORMATION
#MNEM.UNIT           DATA             DESCRIPTION OF MNEMONIC
#---------         -----------     ------------------------------
GL  .M        749.7                : gl           - GROUND LEVEL ELEVATION
EREF.M        753.2                : kb           - ELEVATION OF DEPTH REFERENCE
DATM.M        749.7                : datum        - DATUM ELEVATION
TDD .M        643                  : tdd          - TOTAL DEPTH DRILLER
RUN .         ONE                  : Run          - RUN NUMBER
ENG .         BILL                 : Engineer     - RECORDING ENGINEER
WIT .         JIM                  : Witness      - WITNESSED BY
MUD .         GEL                  : Mud_type     - MUD TYPE
MATR.         LIMESTONE            : Logunit      - NEUTRON MATRIX
TMAX.C        22                   : BHT          - MAXIMUM RECORDED TEMPERATURE
BHTD.M        643                  : BHTDEP       - MAXIMUM RECORDED TEMPERATURE
MATR.         1                    : LOGUNIT      - NEUTRON MATRIX
RMT .C        25                   : MDTP         - TEMPERATURE OF MUD
NEUT.         1                    : NEUTRON      - NEUTRON TYPE
RESI.         0                    : RESIST       - RESISTIVITY TYPE
RMC .OHMM     0.25                 : RMC          - RESISTIVITY OF MUD CAKE
RMF .OHMM     0.25                 : RMF          - RESISTIVITY OF MUD FILTRATE
SUFT.C        15                   : SUFT         - SURFACE TEMPERATURE
~A  DEPTH     RESD     PHID     PHIN       GR
# ...
  594.000    7.682    0.210    0.348   83.192
  594.250    7.842    0.226    0.349   84.842
  594.500    7.318    0.240    0.361   82.755
  594.750    6.654    0.252    0.373   80.608
  595.000    5.993    0.268    0.380   80.542
  595.250    5.731    0.270    0.383   71.659
  595.500    5.419    0.259    0.360   61.613
  595.750    5.269    0.264    0.334   53.527
  596.000    5.172    0.254    0.317   53.216
  596.250    5.191    0.236    0.304   65.150
  596.500    5.270    0.226    0.296   77.941
  596.750    5.522    0.220    0.296   89.080
  597.000    5.742    0.212    0.303   95.625
  597.250    5.950    0.205    0.322   99.846
  597.500    6.074    0.203    0.344  105.413
  597.750    6.200    0.200    0.358  105.897
  598.000    6.281    0.196    0.346  100.016
  598.250    6.246    0.191    0.330   94.807
  598.500    5.862    0.192    0.317   89.475
  598.750    5.380    0.202    0.320   92.532
  599.000    4.846    0.210    0.337   88.915
  599.250    4.406    0.218    0.316   78.440
  599.500    3.917    0.233    0.306   69.741
  599.750    3.515    0.248    0.322   63.553
  600.000    3.250    0.260    0.333   57.119
  600.250    3.068    0.271    0.320   50.319
  600.500    2.994    0.295    0.311   54.539
  600.750    3.281    0.280    0.330   74.432
  601.000    3.684    0.250    0.343   86.611
  601.250    3.911    0.225    0.354   96.035
  601.500    4.120    0.206    0.371  103.867
  601.750    4.358    0.190    0.393  112.985
  602.000    4.541    0.173    0.427  116.347
  602.250    4.601    0.137    0.449  117.628
  602.500    4.592    0.049    0.459  118.971
  602.750    4.490    0.029    0.450  104.272
  603.000    4.342    0.075    0.481  109.287
  603.250    4.129    0.142    0.515  117.426
  603.500    3.948    0.166    0.454  124.707
  603.750    3.832    0.197    0.419  113.926
  604.000    3.657    0.227    0.373   83.738
  604.250    3.477    0.279    0.355   70.692
  604.500    3.356    0.308    0.351   62.911
  604.750    3.203    0.298    0.349   62.539
  605.000    3.162    0.286    0.345   64.248
  605.250    3.115    0.276    0.340   68.836
  605.500    3.138    0.267    0.336   73.852
  605.750    3.204    0.266    0.348   71.337
  606.000    3.270    0.290    0.364   73.720
  606.250    3.326    0.288    0.358   78.796
  606.500    3.433    0.266    0.358   83.200
  606.750    3.617    0.253    0.365   86.073
  607.000    3.862    0.245    0.359   88.884
  607.250    4.232    0.240    0.349   92.859
  607.500    4.585    0.233    0.342   96.773
  607.750    4.923    0.218    0.336  100.503
  608.000    5.255    0.198    0.337   99.580
  608.250    5.642    0.181    0.344   95.167
  608.500    5.791    0.196    0.341   97.427
  608.750    5.857    0.199    0.343  105.260
  609.000    5.846    0.196    0.349  112.602
  609.250    5.835    0.194    0.361  117.495
  609.500    5.956    0.193    0.373  121.225
  609.750    6.183    0.199    0.384  123.914
  610.000    6.347    0.221    0.396  120.848
  610.250    6.626    0.246    0.406   94.027
  610.500    6.814    0.267    0.388   82.634
  610.750    7.100    0.289    0.374   61.078
  611.000    7.467    0.300    0.362   58.746
  611.250    7.722    0.116    0.322   61.435
  611.500    6.764    0.069    0.236   61.064
  611.750    5.913    0.053    0.326   63.692
  612.000    5.008    0.167    0.352   68.951
  612.250    4.562    0.262    0.336   71.335
  612.500    4.362    0.280    0.327   76.228
  612.750    4.179    0.262    0.319   80.264
  613.000    4.071    0.248    0.321   83.688
  613.250    4.156    0.236    0.320   87.662
  613.500    4.210    0.226    0.335   89.740
  613.750    4.282    0.220    0.351   86.246
  614.000    4.363    0.237    0.334   80.485
  614.250    4.445    0.232    0.329   79.563
  614.500    4.529    0.216    0.334   83.660
  614.750    4.588    0.203    0.343   86.532
  615.000    4.632    0.191    0.333   87.446
  615.250    4.658    0.206    0.329   84.442
  615.500    4.658    0.226    0.324   72.130
  615.750    4.623    0.224    0.319   70.043
  616.000    4.597    0.217    0.319   74.080
  616.250    4.546    0.212    0.322   78.116
  616.500    4.471    0.216    0.328   80.192
  616.750    4.380    0.213    0.332   82.576
  617.000    4.307    0.213    0.335   85.020
  617.250    4.283    0.229    0.335   75.831
  617.500    4.299    0.243    0.334   71.235
  617.750    4.299    0.240    0.334   73.618
  618.000    4.356    0.225    0.334   77.163
  618.250    4.397    0.223    0.334   79.058
  618.500    4.438    0.229    0.336   81.072
  618.750    4.463    0.217    0.336   81.803
  619.000    4.488    0.208    0.339   81.921
  619.250    4.531    0.207    0.346   82.589
  619.500    4.582    0.220    0.340   75.483
  619.750    4.633    0.232    0.335   75.294
  620.000    4.703    0.235    0.341   80.739
  620.250    4.783    0.188    0.353   88.326
  620.500    4.882    0.168    0.365   97.076
  620.750    4.947    0.176    0.365   98.051
  621.000    5.040    0.195    0.355   92.107
  621.250    5.116    0.203    0.353   90.817
  621.500    5.154    0.190    0.359   91.669
  621.750    5.222    0.181    0.363   92.644
  622.000    5.271    0.186    0.350   92.639
  622.250    5.321    0.193    0.341   89.941
  622.500    5.321    0.202    0.332   87.854
  622.750    5.184    0.207    0.327   86.503
  623.000    5.003    0.211    0.346   87.293
  623.250    4.847    0.208    0.348   88.636
  623.500    4.758    0.203    0.347   89.059
  623.750    4.731    0.198    0.351   87.034
  624.000    4.722    0.190    0.354   86.723
  624.250    4.749    0.189    0.344   86.841
  624.500    4.776    0.181    0.350   81.571
  624.750    4.803    0.183    0.355   80.709
  625.000    4.812    0.199    0.358   83.276
  625.250    4.812    0.197    0.358   85.781
  625.500    4.812    0.185    0.357   88.226
  625.750    4.812    0.199    0.349   89.874
  626.000    4.785    0.194    0.338   91.460
  626.250    4.794    0.184    0.340   91.334
  626.500    4.813    0.177    0.339   91.574
  626.750    4.885    0.187    0.344   95.182
  627.000    4.949    0.192    0.360  102.095
  627.250    4.950    0.181    0.370  107.540
  627.500    4.913    0.170    0.370  110.474
  627.750    4.689    0.181    0.358   99.509
  628.000    4.450    0.208    0.347   86.770
  628.250    4.092    0.233    0.343   79.173
  628.500    4.024    0.233    0.341   74.087
  628.750    3.891    0.226    0.338   75.796
  629.000    3.847    0.227    0.334   76.404
  629.250    3.819    0.235    0.331   73.093
  629.500    3.876    0.227    0.335   72.537
  629.750    3.906    0.217    0.342   72.654
  630.000    3.957    0.221    0.343   74.303
  630.250    3.994    0.228    0.350   81.706
  630.500    4.002    0.216    0.355   84.150
  630.750    3.965    0.207    0.342   82.187
  631.000    3.735    0.219    0.333   79.487
  631.250    3.505    0.228    0.347   75.871
  631.500    3.314    0.251    0.365   67.723
  631.750    3.146    0.283    0.375   61.229
  632.000    3.002    0.280    0.363   56.816
  632.250    3.229    0.277    0.357   57.361
  632.500    3.714    0.281    0.371   57.051
  632.750    4.570    0.283    0.365   45.964
  633.000    5.771    0.128    0.228   35.980
  633.250    8.494    0.104    0.193   19.077
  633.500   10.868    0.088    0.177   12.827
  633.750   13.751    0.083    0.170   12.270
  634.000   16.026    0.083    0.167   12.082
  634.250   16.981    0.090    0.174   12.016
  634.500   17.627    0.097    0.180   12.134
  634.750   17.562    0.098    0.190   12.497
  635.000   17.270    0.104    0.200   12.857
