~VERSION INFORMATION
 VERS.                 2.0:   CWLS LOG ASCII STANDARD -VERSION 2.0
 WRAP.                  NO:   ONE LINE PER DEPTH STEP
~WELL INFORMATION BLOCK
#MNEM.UNIT           DATA                    DESCRIPTION OF MNEMONIC
#---------    -------------------            -------------------------------
# Generated from Intellog Unique Number	CS_77_79/WELL/907
WELL.         HOME OIL COMPANY LIMITED       : Well_name    - WELL
LOC .         00/07-25-077-06W4/0            : Location     - LOCATION
UWI .         00/07-25-077-06W4/0            : Uwi          - UNIQUE WELL ID
ENTR.         SP                             : Entered      - ENTERED BY
SRVC.         SCHLUMBERGER                   : Scn          - SERVICE COMPANY
STRT.M        145                            : top_depth    - START DEPTH
STOP.M        420                            : bot_depth    - STOP DEPTH
STEP.M        0.25                           : increment    - STEP LENGTH
 NULL. -999.2500:NULL Value
~CURVE INFORMATION BLOCK
#MNEM UNIT       ERCB CURVE CODE    CURVE DESCRIPTION
#-----------   ------------------   ----------------------------------
DEPT.M        00 001 00 00         : DEPTH        - DEPTH
ILD .OHMM     00 120 00 00         : RESD         - DEEP RESISTIVITY (DIL)
DPHI.V/V      00 890 00 00         : PHID         - DENSITY POROSITY (LIMESTONE)
NPHI.V/V      00 330 00 00         : PHIN         - NEUTRON POROSITY (LIMESTONE)
GR  .API      00 310 00 00         : GR           - GAMMA RAY
~PARAMETER INFORMATION
#MNEM.UNIT           DATA             DESCRIPTION OF MNEMONIC
#---------         -----------     ------------------------------
GL  .M        565.83               : gl           - GROUND LEVEL ELEVATION
EREF.M        568.85               : kb           - ELEVATION OF DEPTH REFERENCE
DATM.M        565.83               : datum        - DATUM ELEVATION
TDD .M        420.8                : tdd          - TOTAL DEPTH DRILLER
RUN .         ONE                  : Run          - RUN NUMBER
ENG .         BILL                 : Engineer     - RECORDING ENGINEER
WIT .         JIM                  : Witness      - WITNESSED BY
MUD .         GEL                  : Mud_type     - MUD TYPE
MATR.         LIMESTONE            : Logunit      - NEUTRON MATRIX
TMAX.C        16                   : BHT          - MAXIMUM RECORDED TEMPERATURE
BHTD.M        420.8                : BHTDEP       - MAXIMUM RECORDED TEMPERATURE
MATR.         1                    : LOGUNIT      - NEUTRON MATRIX
RMT .C        25                   : MDTP         - TEMPERATURE OF MUD
NEUT.         1                    : NEUTRON      - NEUTRON TYPE
RESI.         0                    : RESIST       - RESISTIVITY TYPE
RMC .OHMM     0.25                 : RMC          - RESISTIVITY OF MUD CAKE
RMF .OHMM     0.25                 : RMF          - RESISTIVITY OF MUD FILTRATE
SUFT.C        15                   : SUFT         - SURFACE TEMPERATURE
~A  DEPTH     RESD     PHID     PHIN       GR
# ...
  362.500  723.250    0.315    0.467   30.295
  362.750  671.435    0.326    0.474   32.144
  363.000  647.035    0.330    0.440   35.202
  363.250  647.396    0.330    0.384   30.949
  363.500  698.164    0.306    0.396   32.188
  363.750  781.492    0.308    0.423   34.642
  364.000  874.952    0.312    0.432   31.612
  364.250  926.052    0.317    0.419   29.186
  364.500  712.834    0.327    0.397   31.034
  364.750  569.726    0.291    0.398   37.756
  365.000  528.442    0.327    0.533   38.578
  365.250  813.936    0.327    0.482   39.826
  365.500 1141.430    0.321    0.472   39.838
  365.750 1600.710    0.328    0.433   41.694
  366.000 1327.100    0.323    0.407   38.034
  366.250  946.793    0.328    0.422   33.154
  366.500  701.351    0.329    0.458   33.169
  366.750  626.778    0.306    0.446   33.797
  367.000 1255.810    0.309    0.414   35.041
  367.250 1405.750    0.315    0.380   31.380
  367.500 1863.400    0.301    0.376   27.723
  367.750 1604.070    0.298    0.384   31.413
  368.000  896.548    0.301    0.358   36.333
  368.250  464.877    0.285    0.338   36.957
  368.500  423.337    0.277    0.360   31.463
  368.750  492.091    0.272    0.392   34.540
  369.000  571.946    0.270    0.430   30.889
  369.250  832.746    0.296    0.432   29.066
  369.500 1189.990    0.309    0.410   29.690
  369.750 1519.340    0.298    0.413   32.157
  370.000 1332.550    0.306    0.422   32.785
  370.250  915.640    0.319    0.432   31.578
  370.500  704.205    0.323    0.422   30.981
  370.750  594.905    0.315    0.416   32.224
  371.000  573.160    0.318    0.462   34.077
  371.250  606.500    0.309    0.478   34.715
  371.500  641.791    0.310    0.453   34.113
  371.750  542.133    0.310    0.411   30.451
  372.000  291.872    0.295    0.389   28.632
  372.250  224.473    0.287    0.373   29.872
  372.500  148.557    0.269    0.310   31.113
  372.750   67.547    0.261    0.306   29.294
  373.000   58.141    0.245    0.330   42.792
  373.250   53.953    0.239    0.360   48.316
  373.500   53.969    0.255    0.347   52.611
  373.750   58.192    0.273    0.324   61.201
  374.000   62.742    0.280    0.357   43.460
  374.250   66.391    0.269    0.389   34.291
  374.500   77.168    0.276    0.392   30.634
  374.750   89.700    0.295    0.398   30.043
  375.000   98.554    0.303    0.412   28.221
  375.250  102.346    0.312    0.415   27.630
  375.500  104.309    0.298    0.410   28.253
  375.750  100.497    0.285    0.388   28.885
  376.000   91.513    0.292    0.409   28.900
  376.250   80.267    0.292    0.405   28.913
  376.500   73.095    0.285    0.346   31.382
  376.750   67.829    0.256    0.353   36.906
  377.000   66.578    0.266    0.387   45.500
  377.250   67.855    0.282    0.439   45.513
  377.500   73.169    0.293    0.382   35.119
  377.750   78.898    0.253    0.338   24.112
  378.000   81.930    0.273    0.318   21.067
  378.250   91.729    0.244    0.315   20.472
  378.500   95.259    0.248    0.310   23.549
  378.750   95.290    0.233    0.316   24.790
  379.000   98.949    0.244    0.337   24.195
  379.250  108.713    0.229    0.344   22.379
  379.500  117.218    0.216    0.315   22.392
  379.750  115.071    0.210    0.251   23.020
  380.000  104.785    0.222    0.289   23.042
  380.250   82.116    0.239    0.333   23.055
  380.500   63.156    0.255    0.386   23.692
  380.750   53.353    0.291    0.406   24.315
  381.000   49.508    0.275    0.378   25.555
  381.250   47.692    0.281    0.369   24.959
  381.500   47.704    0.287    0.390   23.750
  381.750   48.621    0.290    0.408   23.152
  382.000   50.492    0.287    0.390   23.782
  382.250   50.508    0.281    0.380   27.472
  382.500   47.754    0.280    0.357   32.388
  382.750   46.003    0.282    0.370   28.729
  383.000   41.895    0.274    0.372   25.073
  383.250   38.873    0.272    0.355   24.476
  383.500   33.462    0.278    0.345   28.172
  383.750   30.473    0.269    0.334   30.632
  384.000   29.355    0.253    0.326   30.649
  384.250   27.756    0.277    0.315   28.220
  384.500   26.242    0.260    0.329   25.176
  384.750   23.897    0.260    0.334   23.967
  385.000   22.174    0.254    0.342   23.372
  385.250   19.087    0.260    0.334   23.995
  385.500   16.430    0.261    0.327   25.855
  385.750   14.961    0.272    0.350   26.484
  386.000   13.370    0.288    0.377   28.331
  386.250   11.950    0.294    0.397   28.352
  386.500   10.286    0.310    0.413   27.755
  386.750    6.808    0.313    0.422   30.225
  387.000    5.539    0.339    0.450   30.238
  387.250    4.768    0.338    0.466   28.416
  387.500    4.104    0.329    0.451   28.432
  387.750    3.737    0.319    0.450   28.448
  388.000    3.403    0.315    0.459   27.238
  388.250    3.218    0.318    0.464   26.642
  388.500    3.159    0.323    0.443   29.721
  388.750    3.101    0.331    0.419   23.003
  389.000    3.220    0.331    0.397   19.346
  389.250    3.161    0.320    0.405   23.035
  389.500    3.046    0.319    0.397   31.012
  389.750    3.104    0.331    0.413   34.093
  390.000    3.105    0.325    0.425   32.882
  390.250    3.164    0.325    0.442   26.776
  390.500    3.165    0.326    0.414   27.407
  390.750    3.226    0.323    0.419   24.974
  391.000    3.350    0.314    0.438   21.927
  391.250    3.415    0.294    0.425   22.557
  391.500    3.546    0.275    0.393   24.414
  391.750    3.614    0.265    0.414   29.328
  392.000    3.824    0.264    0.437   34.239
  392.250    3.898    0.259    0.429   46.506
  392.500    3.826    0.281    0.402   47.743
  392.750    3.756    0.315    0.433   40.417
  393.000    3.551    0.322    0.388   35.532
  393.250    3.486    0.332    0.395   31.260
  393.500    3.689    0.321    0.386   26.990
  393.750    4.053    0.258    0.262   35.584
  394.000    4.984    0.152    0.340   47.844
  394.250    6.129    0.122    0.378   66.231
  394.500    7.259    0.120    0.418   88.903
  394.750    7.826    0.145    0.403   92.594
  395.000    8.282    0.141    0.312   91.998
  395.250    8.131    0.137    0.313   90.790
  395.500    7.833    0.132    0.367   87.134
  395.750    7.268    0.143    0.375   95.113
  396.000    6.375    0.209    0.360  100.635
  396.250    5.697    0.308    0.396  104.939
  396.500    5.488    0.421    0.571  111.080
  396.750    5.288    0.427    0.572  117.225
  397.000    5.389    0.382    0.580  120.912
  397.250    5.598    0.435    0.622  120.925
  397.500    5.705    0.437    0.703  117.882
  397.750    5.814    0.113    0.436  118.509
  398.000    5.926    0.130    0.439  124.650
  398.250    5.927    0.142    0.469  128.956
  398.500    5.819    0.182    0.471  132.031
  398.750    5.930    0.404    0.567  131.438
  399.000    6.159    0.449    0.538  126.553
  399.250    6.517    0.443    0.592  120.447
  399.500    6.768    0.493    0.626  125.360
  399.750    7.436    0.623    0.551   86.800
  400.000    7.722    0.316    0.494   89.266
  400.250    8.328    0.147    0.429  113.164
  400.500    8.648    0.112    0.371  122.978
  400.750    8.813    0.110    0.303  105.239
  401.000    8.983    0.134    0.262   92.395
  401.250    8.985    0.145    0.294   83.839
  401.500    8.987    0.139    0.335   81.404
  401.750    8.990    0.131    0.372   99.791
  402.000    8.992    0.147    0.356   94.296
  402.250    8.826    0.164    0.323   73.496
  402.500    8.829    0.171    0.293   69.840
  402.750    8.668    0.174    0.317   68.018
  403.000    8.508    0.165    0.352   70.484
  403.250    8.352    0.158    0.349   72.336
  403.500    8.199    0.158    0.332   73.576
  403.750    7.899    0.142    0.282   63.190
  404.000    7.753    0.158    0.315   59.529
  404.250    7.470    0.185    0.355   63.829
  404.500    7.333    0.186    0.359   73.645
  404.750    7.198    0.192    0.349   62.639
  405.000    6.935    0.187    0.317   51.019
  405.250    6.936    0.137    0.323   45.526
  405.500    6.683    0.127    0.360   50.444
  405.750    6.438    0.172    0.375   60.868
