~VERSION INFORMATION
 VERS.                 2.0:   CWLS LOG ASCII STANDARD -VERSION 2.0
 WRAP.                  NO:   ONE LINE PER DEPTH STEP
~WELL INFORMATION BLOCK
#MNEM.UNIT           DATA                    DESCRIPTION OF MNEMONIC
#---------    -------------------            -------------------------------
# Generated from Intellog Unique Number	CS_71_72/WELL/662
WELL.         BOW VALLEY EXPLORATION         : Well_name    - WELL
LOC .         00/05-13-071-10W4/0            : Location     - LOCATION
UWI .         00/05-13-071-10W4/0            : Uwi          - UNIQUE WELL ID
ENTR.         SP                             : Entered      - ENTERED BY
SRVC.         SCHLUMBERGER                   : Scn          - SERVICE COMPANY
STRT.M        325                            : top_depth    - START DEPTH
STOP.M        535                            : bot_depth    - STOP DEPTH
STEP.M        0.25                           : increment    - STEP LENGTH
 NULL. -999.2500:NULL Value
~CURVE INFORMATION BLOCK
#MNEM UNIT       ERCB CURVE CODE    CURVE DESCRIPTION
#-----------   ------------------   ----------------------------------
DEPT.M        00 001 00 00         : DEPTH        - DEPTH
ILD .OHMM     00 120 00 00         : RESD         - DEEP RESISTIVITY (DIL)
DPHI.V/V      00 890 00 00         : PHID         - DENSITY POROSITY (LIMESTONE)
NPHI.V/V      00 330 00 00         : PHIN         - NEUTRON POROSITY (LIMESTONE)
GR  .API      00 310 00 00         : GR           - GAMMA RAY
~PARAMETER INFORMATION
#MNEM.UNIT           DATA             DESCRIPTION OF MNEMONIC
#---------         -----------     ------------------------------
GL  .M        679.68               : gl           - GROUND LEVEL ELEVATION
EREF.M        684.3                : kb           - ELEVATION OF DEPTH REFERENCE
DATM.M        679.68               : datum        - DATUM ELEVATION
TDD .M        535                  : tdd          - TOTAL DEPTH DRILLER
RUN .         ONE                  : Run          - RUN NUMBER
ENG .         BILL                 : Engineer     - RECORDING ENGINEER
WIT .         JIM                  : Witness      - WITNESSED BY
MUD .         GEL                  : Mud_type     - MUD TYPE
MATR.         LIMESTONE            : Logunit      - NEUTRON MATRIX
TMAX.C        21                   : BHT          - MAXIMUM RECORDED TEMPERATURE
BHTD.M        535                  : BHTDEP       - MAXIMUM RECORDED TEMPERATURE
MATR.         1                    : LOGUNIT      - NEUTRON MATRIX
RMT .C        25                   : MDTP         - TEMPERATURE OF MUD
NEUT.         1                    : NEUTRON      - NEUTRON TYPE
RESI.         0                    : RESIST       - RESISTIVITY TYPE
RMC .OHMM     0.25                 : RMC          - RESISTIVITY OF MUD CAKE
RMF .OHMM     0.25                 : RMF          - RESISTIVITY OF MUD FILTRATE
SUFT.C        15                   : SUFT         - SURFACE TEMPERATURE
~A  DEPTH     RESD     PHID     PHIN       GR
# ...
  368.500    8.608    0.305    0.429   72.084
  368.750   10.373    0.303    0.422   65.136
  369.000   11.376    0.305    0.414   68.733
  369.250   12.359    0.312    0.401   75.194
  369.500   12.955    0.298    0.386   80.254
  369.750   12.665    0.279    0.401   84.948
  370.000   11.162    0.268    0.414   87.386
  370.250   10.158    0.257    0.412   90.617
  370.500    9.367    0.240    0.408   92.203
  370.750    8.902    0.234    0.404   94.093
  371.000    9.054    0.247    0.400   93.606
  371.250    9.402    0.272    0.411   87.816
  371.500    9.707    0.291    0.435   80.624
  371.750    9.910    0.291    0.470   76.419
  372.000   10.023    0.285    0.457   80.381
  372.250   10.022    0.288    0.460   81.052
  372.500    9.909    0.285    0.462   79.225
  372.750    9.724    0.281    0.469   76.665
  373.000    9.488    0.281    0.480   74.106
  373.250    9.293    0.278    0.486   78.982
  373.500    9.154    0.283    0.472   80.690
  373.750    9.068    0.294    0.456   75.936
  374.000    8.982    0.303    0.442   78.009
  374.250    8.864    0.296    0.433   81.667
  374.500    8.698    0.304    0.449   83.862
  374.750    8.504    0.301    0.464   84.959
  375.000    8.297    0.286    0.461   85.752
  375.250    8.173    0.278    0.450   82.949
  375.500    8.142    0.281    0.444   81.121
  375.750    8.234    0.278    0.440   81.487
  376.000    8.406    0.268    0.450   83.133
  376.250    8.598    0.261    0.471   84.902
  376.500    8.778    0.271    0.484   87.645
  376.750    8.695    0.261    0.494   90.449
  377.000    8.421    0.246    0.483   92.827
  377.250    8.171    0.256    0.484   93.986
  377.500    8.063    0.272    0.477   92.219
  377.750    8.063    0.263    0.449   89.537
  378.000    8.170    0.267    0.431   87.466
  378.250    8.451    0.272    0.414   86.735
  378.500    8.809    0.266    0.400   87.101
  378.750    9.027    0.255    0.393   87.284
  379.000    9.077    0.244    0.408   90.820
  379.250    8.857    0.234    0.410   94.295
  379.500    8.610    0.224    0.378   95.576
  379.750    8.354    0.231    0.398   92.833
  380.000    8.121    0.246    0.427   86.922
  380.250    8.030    0.261    0.460   83.387
  380.500    8.136    0.254    0.474   86.252
  380.750    8.290    0.247    0.484   86.009
  381.000    8.528    0.256    0.469   84.364
  381.250    8.772    0.268    0.463   82.841
  381.500    9.091    0.279    0.472   81.988
  381.750    9.404    0.286    0.484   80.892
  382.000    9.655    0.280    0.498   80.100
  382.250    9.839    0.277    0.487   80.222
  382.500    9.913    0.278    0.479   81.625
  382.750    9.894    0.282    0.476   81.747
  383.000    9.727    0.269    0.465   81.138
  383.250    9.491    0.259    0.459   83.455
  383.500    9.105    0.258    0.460   84.918
  383.750    8.752    0.268    0.424   82.481
  384.000    8.524    0.277    0.432   83.518
  384.250    8.333    0.274    0.456   87.236
  384.500    8.208    0.255    0.461   89.492
  384.750    8.115    0.239    0.463   91.199
  385.000    8.039    0.230    0.471   90.651
  385.250    8.023    0.222    0.475   89.372
  385.500    8.053    0.224    0.484   86.142
  385.750    8.206    0.249    0.492   82.668
  386.000    8.634    0.269    0.481   80.475
  386.250    9.292    0.276    0.471   79.013
  386.500    9.851    0.264    0.464   78.282
  386.750   10.384    0.253    0.454   78.404
  387.000   10.844    0.239    0.447   78.649
  387.250   11.217    0.251    0.454   78.954
  387.500   11.517    0.263    0.454   78.772
  387.750   11.802    0.272    0.468   77.126
  388.000   11.981    0.276    0.477   72.861
  388.250   12.139    0.279    0.444   70.423
  388.500   12.323    0.282    0.430   68.230
  388.750   12.628    0.276    0.424   72.375
  389.000   12.868    0.268    0.406   78.714
  389.250   13.137    0.261    0.393   80.665
  389.500   13.361    0.253    0.388   82.190
  389.750   13.538    0.249    0.383   82.068
  390.000   13.614    0.252    0.379   80.850
  390.250   13.588    0.267    0.387   80.911
  390.500   13.435    0.287    0.394   82.375
  390.750   13.085    0.270    0.404   84.814
  391.000   12.624    0.251    0.417   85.972
  391.250   12.088    0.246    0.418   87.923
  391.500   11.402    0.238    0.427   88.106
  391.750   11.252    0.237    0.436   85.730
  392.000   10.959    0.245    0.424   83.110
  392.250   10.633    0.244    0.409   83.903
  392.500   10.220    0.235    0.399   90.730
  392.750    9.658    0.218    0.417   98.959
  393.000    9.248    0.200    0.437  104.262
  393.250    8.756    0.187    0.449  108.346
  393.500    8.104    0.205    0.433  109.078
  393.750    7.616    0.241    0.447   90.672
  394.000    7.036    0.263    0.470   81.773
  394.250    6.427    0.259    0.494   81.774
  394.500    6.154    0.263    0.526   76.289
  394.750    7.075    0.288    0.449   67.756
  395.000    7.892    0.320    0.426   62.393
  395.250    8.869    0.309    0.420   58.980
  395.500   10.177    0.309    0.416   62.760
  395.750   11.721    0.322    0.413   61.359
  396.000   13.123    0.336    0.412   57.702
  396.250   13.808    0.340    0.412   54.716
  396.500   14.150    0.331    0.413   54.534
  396.750   14.337    0.330    0.420   59.655
  397.000   14.472    0.333    0.433   61.301
  397.250   14.471    0.332    0.451   59.595
  397.500   14.444    0.340    0.399   51.062
  397.750   14.254    0.334    0.376   49.173
  398.000   13.778    0.317    0.366   58.073
  398.250   13.343    0.299    0.359   63.925
  398.500   12.705    0.281    0.371   67.643
  398.750   12.006    0.269    0.385   71.545
  399.000   11.197    0.261    0.403   74.897
  399.250   10.522    0.251    0.386   77.763
  399.500    9.868    0.241    0.402   80.079
  399.750    9.238    0.236    0.422   80.446
  400.000    8.632    0.245    0.453   78.069
  400.250    8.829    0.264    0.449   73.072
  400.500    9.628    0.298    0.437   68.196
  400.750   10.382    0.311    0.453   63.930
  401.000   11.236    0.317    0.462   60.335
  401.250   11.979    0.323    0.465   57.714
  401.500   12.771    0.331    0.442   54.180
  401.750   13.667    0.338    0.421   50.889
  402.000   14.626    0.343    0.417   48.086
  402.250   15.534    0.347    0.417   46.075
  402.500   16.406    0.348    0.412   44.979
  402.750   17.067    0.344    0.418   47.173
  403.000   17.789    0.341    0.425   46.321
  403.250   17.889    0.340    0.405   45.102
  403.500   17.956    0.338    0.390   46.505
  403.750   17.956    0.334    0.381   48.212
  404.000   17.853    0.335    0.391   49.127
  404.250   17.786    0.338    0.391   49.981
  404.500   17.652    0.340    0.370   50.469
  404.750   17.584    0.345    0.385   50.591
  405.000   17.419    0.348    0.399   50.775
  405.250   17.288    0.346    0.395   51.812
  405.500   17.060    0.345    0.390   53.031
  405.750   16.836    0.348    0.414   52.727
  406.000   16.552    0.346    0.457   50.899
  406.250   16.397    0.343    0.455   52.606
  406.500   16.242    0.343    0.441   55.106
  406.750   16.180    0.350    0.438   56.996
  407.000   16.180    0.351    0.435   58.215
  407.250   16.179    0.349    0.437   58.521
  407.500   16.209    0.348    0.448   57.363
  407.750   16.270    0.349    0.447   54.804
  408.000   16.269    0.351    0.441   51.513
  408.250   16.238    0.355    0.442   49.868
  408.500   16.176    0.359    0.447   50.783
  408.750   16.054    0.361    0.442   49.077
  409.000   15.933    0.362    0.446   47.858
  409.250   15.813    0.361    0.450   50.907
  409.500   15.693    0.360    0.441   53.589
  409.750   15.693    0.356    0.442   56.576
  410.000   15.751    0.351    0.451   57.308
  410.250   15.810    0.354    0.460   54.505
  410.500   15.810    0.359    0.439   52.616
  410.750   15.839    0.363    0.418   52.312
  411.000   15.838    0.363    0.407   52.434
  411.250   15.838    0.358    0.402   52.191
  411.500   15.837    0.350    0.413   52.009
  411.750   15.807    0.355    0.422   51.522
