~VERSION INFORMATION
 VERS.                 2.0:   CWLS LOG ASCII STANDARD -VERSION 2.0
 WRAP.                  NO:   ONE LINE PER DEPTH STEP
~WELL INFORMATION BLOCK
#MNEM.UNIT           DATA                    DESCRIPTION OF MNEMONIC
#---------    -------------------            -------------------------------
# Generated from Intellog Unique Number	CS_67_68/WELL/784
WELL.         BOW VALLEY EXPLORATION         : Well_name    - WELL
LOC .         00/07-34-068-14W4/0            : Location     - LOCATION
UWI .         00/07-34-068-14W4/0            : Uwi          - UNIQUE WELL ID
ENTR.         SP                             : Entered      - ENTERED BY
SRVC.         SCHLUMBERGER                   : Scn          - SERVICE COMPANY
STRT.M        268.224                        : top_depth    - START DEPTH
STOP.M        472.224                        : bot_depth    - STOP DEPTH
STEP.M        0.25                           : increment    - STEP LENGTH
 NULL. -999.2500:NULL Value
~CURVE INFORMATION BLOCK
#MNEM UNIT       ERCB CURVE CODE    CURVE DESCRIPTION
#-----------   ------------------   ----------------------------------
DEPT.M        00 001 00 00         : DEPTH        - DEPTH
GR  .API      00 310 00 00         : GR           - GAMMA RAY
DPHI.V/V      00 890 00 00         : PHID         - DENSITY POROSITY (SANDSTONE)
NPHI.V/V      00 330 00 00         : PHIN         - NEUTRON POROSITY (SANDSTONE)
ILD .OHMM     00 120 00 00         : RESD         - DEEP RESISTIVITY (DIL)
~PARAMETER INFORMATION
#MNEM.UNIT           DATA             DESCRIPTION OF MNEMONIC
#---------         -----------     ------------------------------
GL  .M        561.289              : gl           - GROUND LEVEL ELEVATION
EREF.M        564.49               : kb           - ELEVATION OF DEPTH REFERENCE
DATM.M        561.289              : datum        - DATUM ELEVATION
TDD .M        472.44               : tdd          - TOTAL DEPTH DRILLER
RUN .         ONE                  : Run          - RUN NUMBER
ENG .         BILL                 : Engineer     - RECORDING ENGINEER
WIT .         JIM                  : Witness      - WITNESSED BY
MUD .         GEL                  : Mud_type     - MUD TYPE
MATR.         SANDSTONE            : Logunit      - NEUTRON MATRIX
TMAX.C        23.3333              : BHT          - MAXIMUM RECORDED TEMPERATURE
BHTD.M        472.44               : BHTDEP       - MAXIMUM RECORDED TEMPERATURE
MATR.         1                    : LOGUNIT      - NEUTRON MATRIX
RMT .C        25                   : MDTP         - TEMPERATURE OF MUD
NEUT.         1                    : NEUTRON      - NEUTRON TYPE
RESI.         0                    : RESIST       - RESISTIVITY TYPE
RMC .OHMM     0.25                 : RMC          - RESISTIVITY OF MUD CAKE
RMF .OHMM     0.25                 : RMF          - RESISTIVITY OF MUD FILTRATE
SUFT.C        15                   : SUFT         - SURFACE TEMPERATURE
~A  DEPTH       GR     PHID     PHIN     RESD
# ...
  311.724   75.425    0.281    0.495    2.917
  311.974   76.178    0.299    0.502    3.022
  312.224   77.806    0.299    0.498    3.111
  312.474   79.877    0.301    0.479    3.187
  312.724   81.927    0.292    0.469    3.245
  312.974   83.352    0.283    0.484    3.310
  313.224   84.590    0.274    0.494    3.299
  313.474   81.729    0.269    0.486    3.270
  313.724   76.582    0.267    0.480    3.235
  313.974   73.022    0.274    0.490    3.187
  314.224   70.391    0.279    0.481    3.111
  314.474   68.631    0.287    0.485    3.054
  314.724   67.079    0.295    0.493    3.055
  314.974   64.373    0.309    0.478    3.073
  315.224   61.781    0.298    0.463    3.118
  315.474   59.808    0.291    0.455    3.223
  315.724   59.938    0.290    0.440    3.356
  315.974   60.107    0.292    0.432    3.187
  316.224   58.107    0.294    0.427    2.945
  316.474   54.507    0.318    0.459    2.792
  316.724   51.649    0.336    0.474    2.661
  316.974   50.402    0.339    0.472    2.742
  317.224   49.649    0.329    0.479    3.128
  317.474   48.060    0.298    0.390    3.600
  317.724   44.589    0.186    0.320    4.228
  317.974   40.693    0.106    0.250    5.319
  318.224   35.951    0.032    0.202    7.354
  318.474   33.014    0.003    0.179    9.157
  318.724   34.523    0.009    0.163    9.307
  318.974   40.359    0.057    0.385    7.414
  319.224   45.910    0.128    0.441    5.214
  319.474   51.513    0.295    0.477    3.833
  319.724   55.748    0.314    0.478    3.199
  319.974   59.101    0.325    0.464    2.852
  320.224   60.259    0.318    0.470    2.670
  320.474   59.116    0.315    0.472    2.531
  320.724   58.151    0.320    0.480    2.638
  320.974   58.042    0.322    0.500    2.730
  321.224   58.686    0.319    0.514    2.795
  321.474   59.404    0.313    0.505    2.843
  321.724   59.754    0.307    0.488    2.869
  321.974   60.547    0.301    0.493    2.877
  322.224   60.809    0.304    0.502    2.835
  322.474   61.090    0.304    0.508    2.800
  322.724   61.446    0.290    0.510    2.856
  322.974   62.474    0.279    0.501    2.994
  323.224   64.594    0.275    0.489    3.157
  323.474   67.765    0.257    0.477    3.346
  323.724   70.775    0.247    0.484    3.502
  323.974   72.305    0.239    0.486    3.601
  324.224   72.984    0.234    0.488    3.733
  324.474   73.113    0.243    0.503    3.812
  324.724   71.041    0.251    0.500    3.842
  324.974   65.176    0.262    0.488    3.848
  325.224   61.921    0.267    0.479    3.789
  325.474   62.388    0.265    0.473    3.741
  325.724   65.084    0.257    0.454    3.680
  325.974   69.115    0.250    0.444    3.685
  326.224   72.394    0.244    0.464    3.704
  326.474   74.740    0.240    0.493    3.716
  326.724   76.382    0.249    0.515    3.758
  326.974   76.898    0.257    0.540    3.845
  327.224   75.255    0.257    0.557    4.020
  327.474   72.377    0.250    0.516    4.139
  327.724   70.493    0.245    0.488    4.267
  327.974   69.792    0.246    0.465    4.272
  328.224   70.378    0.252    0.483    4.181
  328.474   64.621    0.261    0.469    3.995
  328.724   65.859    0.275    0.450    3.970
  328.974   65.051    0.273    0.440    4.054
  329.224   66.959    0.257    0.449    4.166
  329.474   68.849    0.248    0.460    4.319
  329.724   67.953    0.244    0.464    4.529
  329.974   70.236    0.241    0.428    4.693
  330.224   72.696    0.230    0.413    4.826
  330.474   72.325    0.217    0.415    4.924
  330.724   71.464    0.210    0.416    4.971
  330.974   69.042    0.221    0.439    5.028
  331.224   70.532    0.227    0.455    5.031
  331.474   72.265    0.227    0.463    5.032
  331.724   74.848    0.234    0.455    5.013
  331.974   76.644    0.226    0.458    4.959
  332.224   78.712    0.225    0.460    4.914
  332.474   79.933    0.234    0.466    4.855
  332.724   79.296    0.228    0.481    4.760
  332.974   74.312    0.243    0.475    4.464
  333.224   67.828    0.264    0.463    4.044
  333.474   61.836    0.282    0.450    3.512
  333.724   57.679    0.295    0.446    3.149
  333.974   55.534    0.308    0.457    2.902
  334.224   57.677    0.321    0.455    2.690
  334.474   58.122    0.313    0.467    2.597
  334.724   53.170    0.307    0.470    2.493
  334.974   51.499    0.313    0.458    2.457
  335.224   50.347    0.325    0.452    2.435
  335.474   50.931    0.331    0.446    2.405
  335.724   51.202    0.333    0.453    2.356
  335.974   51.525    0.333    0.466    2.397
  336.224   52.661    0.325    0.473    2.474
  336.474   53.169    0.317    0.465    2.536
  336.724   52.530    0.311    0.449    2.581
  336.974   51.489    0.306    0.465    2.589
  337.224   50.294    0.312    0.478    2.553
  337.474   48.471    0.318    0.489    2.484
  337.724   47.878    0.322    0.489    2.379
  337.974   48.526    0.331    0.474    2.306
  338.224   50.086    0.331    0.455    2.321
  338.474   50.542    0.325    0.441    2.356
  338.724   50.778    0.330    0.438    2.439
  338.974   51.018    0.332    0.456    2.622
  339.224   52.169    0.324    0.472    2.797
  339.474   55.349    0.304    0.473    3.071
  339.724   56.836    0.290    0.458    3.254
  339.974   56.982    0.273    0.447    3.481
  340.224   56.583    0.265    0.442    3.712
  340.474   57.547    0.269    0.438    3.877
  340.724   60.556    0.269    0.435    3.968
  340.974   63.229    0.267    0.438    4.010
  341.224   65.202    0.264    0.442    4.008
  341.474   67.132    0.262    0.445    3.958
  341.724   68.703    0.261    0.448    3.820
  341.974   68.750    0.260    0.459    3.554
  342.224   66.553    0.264    0.467    3.326
  342.474   61.760    0.269    0.447    3.248
  342.724   58.523    0.273    0.427    3.259
  342.974   55.438    0.274    0.419    3.265
  343.224   55.143    0.274    0.414    3.201
  343.474   59.177    0.259    0.410    3.012
  343.724   61.218    0.247    0.420    2.846
  343.974   60.095    0.272    0.430    2.680
  344.224   56.489    0.298    0.442    2.642
  344.474   52.328    0.318    0.455    2.662
  344.724   49.386    0.327    0.463    2.720
  344.974   49.638    0.324    0.467    2.806
  345.224   52.229    0.323    0.469    2.953
  345.474   56.279    0.316    0.460    3.114
  345.724   59.849    0.306    0.460    3.245
  345.974   64.622    0.295    0.463    3.331
  346.224   68.435    0.286    0.458    3.375
  346.474   70.977    0.270    0.456    3.338
  346.724   71.707    0.257    0.469    3.216
  346.974   73.150    0.254    0.501    3.039
  347.224   75.621    0.244    0.531    2.791
  347.474   75.109    0.235    0.568    2.821
  347.724   73.214    0.231    0.594    2.980
  347.974   71.278    0.251    0.503    3.192
  348.224   68.564    0.240    0.487    3.308
  348.474   66.750    0.231    0.479    3.451
  348.724   65.311    0.248    0.488    3.490
  348.974   58.975    0.257    0.499    3.261
  349.224   51.668    0.272    0.509    2.973
  349.474   50.789    0.294    0.495    2.890
  349.724   51.327    0.295    0.473    2.854
  349.974   51.191    0.286    0.458    2.799
  350.224   50.627    0.280    0.447    2.758
  350.474   49.453    0.281    0.425    2.715
  350.724   49.061    0.302    0.437    2.660
  350.974   49.914    0.313    0.467    2.622
  351.224   51.884    0.322    0.469    2.627
  351.474   52.493    0.321    0.466    2.650
  351.724   53.100    0.317    0.465    2.678
  351.974   53.273    0.311    0.452    2.687
  352.224   53.530    0.306    0.443    2.703
  352.474   55.082    0.303    0.438    2.801
  352.724   57.051    0.305    0.462    3.037
  352.974   59.591    0.306    0.472    3.507
  353.224   61.722    0.286    0.476    4.542
  353.474   63.049    0.107    0.502    5.871
  353.724   60.762    0.099    0.526    7.296
  353.974   54.046    0.082    0.556    8.497
  354.224   49.108    0.063    0.293    9.299
  354.474   46.113    0.048    0.269    8.968
  354.724   44.684    0.063    0.234    6.242
  354.974   47.115    0.068    0.237    4.412
