~VERSION INFORMATION
 VERS.                 2.0:   CWLS LOG ASCII STANDARD -VERSION 2.0
 WRAP.                  NO:   ONE LINE PER DEPTH STEP
~WELL INFORMATION BLOCK
#MNEM.UNIT           DATA                    DESCRIPTION OF MNEMONIC
#---------    -------------------            -------------------------------
# Generated from Intellog Unique Number	CN_91_93/WELL/2644
WELL.         07-33-091-18W4                 : Well_name    - WELL
LOC .         00/07-33-091-18W4/0            : Location     - LOCATION
UWI .         00/07-33-091-18W400            : Uwi          - UNIQUE WELL ID
ENTR.         joette                         : Entered      - ENTERED BY
SRVC.         SCHLUMBERGER                   : Scn          - SERVICE COMPANY
DATE.         02/05/92                       : Date         - LOG DATE
STRT.M        90                             : top_depth    - START DEPTH
STOP.M        250                            : bot_depth    - STOP DEPTH
STEP.M        0.25                           : increment    - STEP LENGTH
 NULL. -999.2500:NULL Value
~CURVE INFORMATION BLOCK
#MNEM UNIT       ERCB CURVE CODE    CURVE DESCRIPTION
#-----------   ------------------   ----------------------------------
DEPT.M        00 001 00 00         : DEPTH        - DEPTH
GR  .API      00 310 00 00         : GR           - GAMMA RAY
CALI.MM       00 280 01 00         : CAL          - CALIPER
NPHI.V/V      00 330 00 00         : PHIN         - NEUTRON POROSITY (SANDSTONE)
ILD .OHMM     00 120 00 00         : RESD         - DEEP RESISTIVITY (DIL)
DPHI.V/V      00 890 00 00         : PHID         - DENSITY POROSITY (SANDSTONE)
~PARAMETER INFORMATION
#MNEM.UNIT           DATA             DESCRIPTION OF MNEMONIC
#---------         -----------     ------------------------------
GL  .M        517.2                : gl           - GROUND LEVEL ELEVATION
EREF.M        520.4                : kb           - ELEVATION OF DEPTH REFERENCE
DATM.M        520.4                : datum        - DATUM ELEVATION
TDD .M        249.5                : tdd          - TOTAL DEPTH DRILLER
RUN .         ONE                  : Run          - RUN NUMBER
ENG .         JO                   : Engineer     - RECORDING ENGINEER
WIT .         TIM                  : Witness      - WITNESSED BY
MUD .         GEL                  : Mud_type     - MUD TYPE
MATR.         SANDSTONE            : Logunit      - NEUTRON MATRIX
TMAX.C        28                   : BHT          - MAXIMUM RECORDED TEMPERATURE
BHTD.M        249.5                : BHTDEP       - MAXIMUM RECORDED TEMPERATURE
RMT .C        18                   : MDTP         - TEMPERATURE OF MUD
MUDD.KG/M     1140                 : MWT          - MUD DENSITY
NEUT.         1                    : NEUTRON      - NEUTRON TYPE
RESI.         0                    : RESIST       - RESISTIVITY TYPE
RM  .OHMM     4.81                 : RM           - RESISTIVITY OF MUD
RMC .OHMM     4.81                 : RMC          - RESISTIVITY OF MUD CAKE
RMF .OHMM     4.81                 : RMF          - RESISTIVITY OF MUD FILTRATE
SUFT.C        4                    : SUFT         - SURFACE TEMPERATURE
~A  DEPTH       GR      CAL     PHIN     RESD     PHID
# ...
  199.500   93.982  171.111    0.477   23.522    0.207
  199.750   80.099  167.220    0.439   34.301    0.206
  200.000   33.693  154.319    0.187   59.261    0.224
  200.250   18.846  153.444    0.116  149.255    0.345
  200.500   15.342  149.563    0.124  201.834    0.335
  200.750   16.290  149.681    0.121  213.629    0.335
  201.000   16.063  150.766    0.122  213.683    0.343
  201.250   14.934  149.381    0.127  213.737    0.338
  201.500   14.111  148.989    0.133  217.872    0.324
  201.750   14.464  148.624    0.139  226.298    0.323
  202.000   14.817  148.219    0.136  244.079    0.345
  202.250   15.186  147.814    0.109  263.257    0.355
  202.500   15.241  146.952    0.065  283.923    0.370
  202.750   14.707  146.050    0.066  306.232    0.384
  203.000   14.175  146.651    0.072  343.001    0.385
  203.250   13.955  146.743    0.075  377.013    0.376
  203.500   14.300  146.351    0.066  356.380    0.383
  203.750   14.975  145.972    0.063  336.896    0.386
  204.000   15.617  145.568    0.080  336.939    0.370
  204.250   16.582  145.672    0.095  330.733    0.336
  204.500   18.134  145.294    0.116  324.640    0.329
  204.750   19.090  144.902    0.120  318.660    0.333
  205.000   19.443  145.006    0.126  301.220    0.356
  205.250   17.727  146.601    0.137  259.129    0.368
  205.500   16.896  146.718    0.145  218.758    0.369
  205.750   17.844  146.797    0.155  141.849    0.373
  206.000   20.000  146.902    0.180   73.362    0.379
  206.250   21.866  147.019    0.216   34.530    0.386
  206.500   22.807  147.111    0.244   25.070    0.363
  206.750   23.771  147.738    0.319   21.567    0.339
  207.000   23.238  147.817    0.364   21.573    0.328
  207.250   21.216  147.921    0.364   21.580    0.328
  207.500   20.071  148.026    0.364   22.416    0.332
  207.750   19.241  148.131    0.365   22.846    0.342
  208.000   19.601  148.235    0.371   24.183    0.341
  208.250   19.962  147.844    0.375   24.646    0.340
  208.500   19.742  147.961    0.380   26.584    0.339
  208.750   18.896  148.549    0.385   28.671    0.339
  209.000   17.775  149.151    0.370   32.723    0.340
  209.250   16.936  149.268    0.365   39.519    0.343
  209.500   17.297  149.373    0.399   51.464    0.348
  209.750   17.956  149.974    0.408   62.153    0.354
  210.000   19.806  151.059    0.415   80.944    0.363
  210.250   21.374  151.673    0.445   97.756    0.368
  210.500   21.444  150.301    0.431  122.594    0.356
  210.750   21.194  149.387    0.392  137.305    0.347
  211.000   21.554  149.505    0.376  137.340    0.341
  211.250   28.767  150.093    0.372  134.810    0.338
  211.500   31.824  150.211    0.372  129.856    0.341
  211.750   30.687  150.302    0.378  127.472    0.344
  212.000   30.445  149.923    0.393  122.796    0.344
  212.250   30.821  149.545    0.392  120.527    0.344
  212.500   32.663  149.127    0.400  118.299    0.344
  212.750   35.415  148.735    0.413  116.127    0.344
  213.000   34.278  148.853    0.430  116.156    0.344
  213.250   33.157  148.448    0.433  118.389    0.339
  213.500   35.313  148.069    0.409  118.419    0.333
  213.750   37.743  148.174    0.387  120.702    0.329
  214.000   42.573  147.782    0.395  120.733    0.328
  214.250   43.545  147.900    0.425  123.077    0.323
  214.500   41.804  148.004    0.427  123.108    0.315
  214.750   40.088  148.083    0.415  125.474    0.308
  215.000   39.861  148.684    0.408  125.514    0.306
  215.250   41.115  148.802    0.408  127.934    0.309
  215.500   40.872  149.416    0.411  120.924    0.317
  215.750   38.262  150.004    0.409  100.179    0.321
  216.000   38.607  150.096    0.412   75.530    0.315
  216.250   47.614  150.227    0.394   58.029    0.308
  216.500   55.736  150.318    0.392   42.934    0.289
  216.750   61.451  150.423    0.404   36.245    0.246
  217.000   67.181  150.528    0.410   25.342    0.262
  217.250   72.010  150.619    0.417   20.603    0.280
  217.500   74.158  150.737    0.427   19.111    0.284
  217.750   75.115  152.828    0.427   18.066    0.277
  218.000   73.986  154.409    0.421   18.070    0.271
  218.250   70.780  154.017    0.424   20.238    0.270
  218.500   67.268  153.129    0.428   23.539    0.283
  218.750   64.352  152.737    0.429   26.864    0.299
  219.000   61.718  151.848    0.402   30.662    0.315
  219.250   57.908  151.953    0.377   31.848    0.317
  219.500   55.298  152.058    0.390   31.854    0.301
  219.750   60.715  152.659    0.405   29.548    0.295
  220.000   72.105  154.266    0.416   27.410    0.269
  220.250   75.445  156.357    0.444   23.140    0.277
  220.500   74.026  156.958    0.432   13.655    0.262
  220.750   84.217  157.063    0.426    8.368    0.249
  221.000   92.331  156.658    0.424    6.803    0.235
  221.250   95.373  156.279    0.430    6.310    0.223
  221.500   89.180  155.404    0.442    6.432    0.239
  221.750   77.319  154.502    0.457    7.069    0.244
  222.000   74.991  153.131    0.432    9.034    0.251
  222.250   72.373  152.242    0.365   11.989    0.301
  222.500   72.741  151.341    0.330   17.482    0.313
  222.750   80.251  150.453    0.330   20.334    0.290
  223.000   87.479  150.544    0.337   20.339    0.264
  223.250   89.032  151.172    0.356   19.963    0.271
  223.500   90.286  151.276    0.385   19.595    0.285
  223.750   90.953  151.355    0.398   19.235    0.274
  224.000   89.816  151.460    0.418   18.880    0.253
  224.250   86.304  151.577    0.419   18.885    0.239
  224.500   84.862  151.577    0.395   19.249    0.229
  224.750   83.435  152.336    0.348   20.376    0.213
  225.000   84.995  152.401    0.348   21.162    0.206
  225.250   87.449  152.506    0.355   24.152    0.221
  225.500   84.815  152.597    0.320   31.452    0.276
  225.750   79.218  152.271    0.299   40.959    0.310
  226.000   71.826  152.297    0.276   55.387    0.337
  226.250   68.612  151.918    0.235   76.329    0.336
  226.500   64.802  151.540    0.227   95.723    0.339
  226.750   60.090  151.618    0.220  122.328    0.354
  227.000   58.664  151.239    0.222  142.270    0.349
  227.250   59.628  150.861    0.232  159.343    0.333
  227.500   57.598  151.031    0.251  181.859    0.317
  227.750   52.596  150.574    0.226  203.682    0.306
  228.000   48.183  150.665    0.188  236.902    0.311
  228.250   41.692  150.260    0.186  260.377    0.328
  228.500   37.874  150.378    0.183  280.817    0.337
  228.750   33.469  150.378    0.181  308.644    0.339
  229.000   30.255  150.640    0.179  332.894    0.344
  229.250   27.637  151.189    0.178  345.769    0.346
  229.500   27.700  151.280    0.181  359.141    0.348
  229.750   26.571  151.411    0.195  359.232    0.349
  230.000   23.357  151.490    0.216  352.660    0.346
  230.250   23.130  151.490    0.248  352.727    0.341
  230.500   22.894  151.751    0.288  346.251    0.335
  230.750   21.162  151.817    0.351  346.339    0.330
  231.000   21.217  151.817    0.376  346.427    0.325
  231.250   22.785  152.039    0.376  340.024    0.324
  231.500   24.329  152.118    0.361  340.110    0.323
  231.750   26.477  152.222    0.353  333.845    0.326
  232.000   27.442  152.340    0.365  327.716    0.329
  232.250   26.015  152.458    0.380  321.680    0.330
  232.500   26.062  152.040    0.395  315.754    0.331
  232.750   28.210  152.145    0.396  309.918    0.330
  233.000   30.672  152.249    0.375  292.975    0.325
  233.250   28.046  152.367    0.372  282.209    0.320
  233.500   26.619  152.472    0.369  261.784    0.324
  233.750   29.959  152.563    0.371  233.854    0.327
  234.000   33.902  152.668    0.374  208.891    0.323
  234.250   36.654  152.289    0.380  166.653    0.316
  234.500   38.794  151.897    0.378  135.485    0.304
  234.750   41.248  150.996    0.373  106.072    0.292
  235.000   43.090  151.101    0.375   91.250    0.289
  235.250   44.940  151.101    0.372   83.076    0.290
  235.500   46.790  150.866    0.386   81.535    0.283
  235.750   48.641  150.918    0.365   80.033    0.280
