~VERSION INFORMATION
 VERS.                 2.0:   CWLS LOG ASCII STANDARD -VERSION 2.0
 WRAP.                  NO:   ONE LINE PER DEPTH STEP
~WELL INFORMATION BLOCK
#MNEM.UNIT           DATA                    DESCRIPTION OF MNEMONIC
#---------    -------------------            -------------------------------
# Generated from Intellog Unique Number	CS_67_68/WELL/782
WELL.         MURPHY OIL COMPANY LTD         : Well_name    - WELL
LOC .         00/07-30-068-17W4/0            : Location     - LOCATION
UWI .         00/07-30-068-17W4/0            : Uwi          - UNIQUE WELL ID
ENTR.         SP                             : Entered      - ENTERED BY
SRVC.         SCHLUMBERGER                   : Scn          - SERVICE COMPANY
STRT.M        298.704                        : top_depth    - START DEPTH
STOP.M        493.454                        : bot_depth    - STOP DEPTH
STEP.M        0.152                          : increment    - STEP LENGTH
 NULL. -999.2500:NULL Value
~CURVE INFORMATION BLOCK
#MNEM UNIT       ERCB CURVE CODE    CURVE DESCRIPTION
#-----------   ------------------   ----------------------------------
DEPT.M        00 001 00 00         : DEPTH        - DEPTH
GR  .API      00 310 00 00         : GR           - GAMMA RAY
NPHI.V/V      00 330 00 00         : PHIN         - NEUTRON POROSITY (SANDSTONE)
DPHI.V/V      00 890 00 00         : PHID         - DENSITY POROSITY (SANDSTONE)
ILD .OHMM     00 120 00 00         : RESD         - DEEP RESISTIVITY (DIL)
~PARAMETER INFORMATION
#MNEM.UNIT           DATA             DESCRIPTION OF MNEMONIC
#---------         -----------     ------------------------------
GL  .M        543.154              : gl           - GROUND LEVEL ELEVATION
EREF.M        547.116              : kb           - ELEVATION OF DEPTH REFERENCE
DATM.M        543.154              : datum        - DATUM ELEVATION
TDD .M        502.92               : tdd          - TOTAL DEPTH DRILLER
RUN .         ONE                  : Run          - RUN NUMBER
ENG .         BILL                 : Engineer     - RECORDING ENGINEER
WIT .         JIM                  : Witness      - WITNESSED BY
MUD .         GEL                  : Mud_type     - MUD TYPE
MATR.         SANDSTONE            : Logunit      - NEUTRON MATRIX
TMAX.C        22.2222              : BHT          - MAXIMUM RECORDED TEMPERATURE
BHTD.M        502.92               : BHTDEP       - MAXIMUM RECORDED TEMPERATURE
MATR.         1                    : LOGUNIT      - NEUTRON MATRIX
RMT .C        25                   : MDTP         - TEMPERATURE OF MUD
NEUT.         1                    : NEUTRON      - NEUTRON TYPE
RESI.         0                    : RESIST       - RESISTIVITY TYPE
RMC .OHMM     0.25                 : RMC          - RESISTIVITY OF MUD CAKE
RMF .OHMM     0.25                 : RMF          - RESISTIVITY OF MUD FILTRATE
SUFT.C        15                   : SUFT         - SURFACE TEMPERATURE
~A  DEPTH       GR     PHIN     PHID     RESD
# ...
  342.204   83.050    0.444    0.266    2.271
  342.454   83.130    0.454    0.247    2.287
  342.704   85.426    0.451    0.240    2.307
  342.954   88.284    0.453    0.256    2.214
  343.204   90.974    0.446    0.262    2.241
  343.454   91.979    0.449    0.259    2.266
  343.704   80.140    0.450    0.256    2.330
  343.954   77.187    0.443    0.255    2.556
  344.204   78.358    0.432    0.263    2.851
  344.454   78.460    0.417    0.262    3.177
  344.704   77.651    0.403    0.240    3.807
  344.954   75.611    0.376    0.218    4.429
  345.204   73.889    0.339    0.191    5.635
  345.454   70.362    0.284    0.105    6.879
  345.704   65.380    0.190    0.077    7.741
  345.954   59.752    0.187    0.051    8.556
  346.204   61.093    0.228    0.063    8.724
  346.454   70.005    0.265    0.113    7.490
  346.704   76.837    0.306    0.124    5.569
  346.954   80.548    0.284    0.113    4.104
  347.204   78.159    0.311    0.132    3.391
  347.454   78.587    0.406    0.183    2.974
  347.704   79.194    0.432    0.218    2.757
  347.954   79.727    0.445    0.261    2.587
  348.204   80.356    0.451    0.246    2.545
  348.454   80.407    0.434    0.249    2.564
  348.704   84.995    0.425    0.246    2.591
  348.954   93.581    0.417    0.222    2.643
  349.204  105.955    0.416    0.214    2.696
  349.454  111.262    0.436    0.220    2.797
  349.704  113.778    0.449    0.205    2.886
  349.954  114.434    0.458    0.205    3.029
  350.204  113.428    0.466    0.216    3.157
  350.454  111.565    0.472    0.226    3.289
  350.704  106.828    0.475    0.218    3.358
  350.954  101.317    0.445    0.220    3.324
  351.204  100.597    0.427    0.223    3.268
  351.454  103.613    0.414    0.212    3.212
  351.704  106.389    0.414    0.210    3.120
  351.954  107.996    0.439    0.196    2.975
  352.204  109.276    0.455    0.180    2.826
  352.454  112.015    0.467    0.178    2.720
  352.704  113.594    0.469    0.201    2.693
  352.954  115.595    0.485    0.211    2.838
  353.204  114.428    0.517    0.212    2.939
  353.454  116.857    0.545    0.214    3.206
  353.704  120.110    0.521    0.213    3.474
  353.954  122.049    0.497    0.207    3.759
  354.204  122.785    0.478    0.220    3.942
  354.454  122.250    0.464    0.202    4.116
  354.704  120.722    0.448    0.185    4.149
  354.954  115.978    0.433    0.179    4.041
  355.204  112.414    0.416    0.196    3.953
  355.454  114.247    0.428    0.195    3.797
  355.704  114.872    0.418    0.193    3.674
  355.954  112.303    0.419    0.204    3.568
  356.204  107.170    0.428    0.212    3.436
  356.454   99.484    0.434    0.223    3.392
  356.704   91.865    0.419    0.234    3.360
  356.954   88.985    0.412    0.240    3.431
  357.204   92.026    0.409    0.224    3.534
  357.454   97.019    0.410    0.210    3.616
  357.704  102.808    0.414    0.208    3.663
  357.954  105.193    0.417    0.211    3.560
  358.204   99.178    0.432    0.228    3.099
  358.454   84.566    0.469    0.265    2.773
  358.704   75.021    0.527    0.332    2.407
  358.954   75.886    0.462    0.325    2.121
  359.204   76.628    0.414    0.298    1.935
  359.454   72.962    0.396    0.291    1.784
  359.704   70.139    0.389    0.294    1.659
  359.954   68.845    0.386    0.298    1.657
  360.204   70.146    0.383    0.299    1.693
  360.454   71.812    0.387    0.292    1.714
  360.704   72.464    0.393    0.295    1.736
  360.954   72.176    0.402    0.297    1.752
  361.204   72.572    0.390    0.308    1.770
  361.454   74.109    0.397    0.298    1.797
  361.704   74.652    0.404    0.287    1.808
  361.954   73.970    0.407    0.281    1.808
  362.204   74.402    0.409    0.285    1.798
  362.454   76.043    0.416    0.290    1.819
  362.704   75.302    0.423    0.291    1.877
  362.954   76.444    0.416    0.300    1.936
  363.204   79.094    0.415    0.296    1.986
  363.454   80.969    0.417    0.287    2.046
  363.704   81.368    0.418    0.283    2.083
  363.954   80.898    0.422    0.273    2.130
  364.204   82.401    0.429    0.264    2.226
  364.454   84.830    0.423    0.273    2.359
  364.704   88.094    0.413    0.290    2.533
  364.954   91.818    0.403    0.290    2.729
  365.204   95.674    0.395    0.291    2.916
  365.454   98.047    0.390    0.260    3.091
  365.704  100.087    0.392    0.238    3.249
  365.954  101.211    0.400    0.221    3.337
  366.204  100.379    0.406    0.211    3.349
  366.454   97.244    0.416    0.214    3.296
  366.704   94.884    0.406    0.214    3.254
  366.954   95.384    0.408    0.222    3.220
  367.204   96.468    0.402    0.226    3.199
  367.454   97.228    0.408    0.222    3.179
  367.704   97.926    0.419    0.224    3.174
  367.954   99.553    0.427    0.232    3.178
  368.204  102.637    0.437    0.231    3.198
  368.454  106.701    0.445    0.230    3.242
  368.704  110.887    0.450    0.231    3.292
  368.954  114.576    0.454    0.219    3.370
  369.204  119.209    0.446    0.209    3.454
  369.454  122.197    0.427    0.199    3.516
  369.704  125.625    0.409    0.190    3.587
  369.954  128.077    0.399    0.183    3.632
  370.204  129.607    0.397    0.175    3.639
  370.454  123.039    0.401    0.175    3.559
  370.704  115.883    0.414    0.182    3.385
  370.954  103.440    0.436    0.202    3.234
  371.204   97.016    0.448    0.213    3.014
  371.454   94.787    0.450    0.214    2.809
  371.704   91.645    0.444    0.233    2.532
  371.954   86.875    0.438    0.226    2.318
  372.204   83.923    0.436    0.237    2.130
  372.454   80.941    0.428    0.253    2.014
  372.704   84.491    0.428    0.282    1.956
  372.954   89.436    0.427    0.290    1.961
  373.204   93.186    0.419    0.291    1.973
  373.454   95.072    0.427    0.291    1.970
  373.704   95.627    0.435    0.293    1.973
  373.954   95.006    0.422    0.280    1.983
  374.204   93.358    0.425    0.277    1.991
  374.454   91.666    0.412    0.275    2.009
  374.704   88.597    0.410    0.262    2.047
  374.954   83.448    0.415    0.252    2.107
  375.204   77.106    0.407    0.257    2.165
  375.454   81.260    0.395    0.258    2.252
  375.704   84.087    0.388    0.259    2.339
  375.954   87.948    0.380    0.259    2.429
  376.204   92.119    0.370    0.230    2.484
  376.454   91.752    0.396    0.230    2.516
  376.704   94.155    0.404    0.241    2.524
  376.954   95.038    0.400    0.247    2.523
  377.204   91.344    0.401    0.255    2.476
  377.454   88.961    0.406    0.262    2.447
  377.704   91.823    0.403    0.268    2.424
  377.954   93.056    0.408    0.269    2.398
  378.204   93.575    0.416    0.258    2.396
  378.454   94.748    0.419    0.251    2.448
  378.704   98.921    0.422    0.257    2.512
  378.954  103.063    0.427    0.247    2.585
  379.204  107.896    0.418    0.221    2.640
  379.454  112.138    0.436    0.195    2.692
  379.704  114.665    0.454    0.186    2.747
  379.954  114.443    0.472    0.202    2.777
  380.204  110.348    0.471    0.206    2.835
  380.454  104.996    0.486    0.197    2.882
  380.704  103.118    0.509    0.203    2.948
  380.954   97.749    0.499    0.211    3.010
  381.204   94.708    0.479    0.216    3.057
  381.454   96.487    0.455    0.209    3.095
  381.704   99.064    0.439    0.215    3.148
  381.954  100.643    0.455    0.210    3.205
  382.204  102.211    0.452    0.209    3.246
  382.454  103.111    0.443    0.201    3.261
  382.704  104.290    0.447    0.192    3.206
  382.954  104.915    0.438    0.188    3.142
  383.204  105.064    0.443    0.189    3.113
  383.454  105.192    0.455    0.190    3.092
  383.704  104.984    0.453    0.196    3.103
  383.954  105.054    0.444    0.188    3.221
  384.204  105.358    0.433    0.180    3.409
  384.454  107.258    0.434    0.178    3.686
  384.704  106.261    0.441    0.194    3.991
  384.954  104.436    0.448    0.206    4.242
  385.204  101.311    0.419    0.185    4.392
  385.454   97.818    0.337    0.162    4.482
