~VERSION INFORMATION
 VERS.                 2.0:   CWLS LOG ASCII STANDARD -VERSION 2.0
 WRAP.                  NO:   ONE LINE PER DEPTH STEP
~WELL INFORMATION BLOCK
#MNEM.UNIT           DATA                    DESCRIPTION OF MNEMONIC
#---------    -------------------            -------------------------------
# Generated from Intellog Unique Number	CS_73_76/WELL/641
WELL.         BOW VALLEY INDUSTRIES LTD      : Well_name    - WELL
LOC .         00/06-24-073-17W4/0            : Location     - LOCATION
UWI .         00/06-24-073-17W4/0            : Uwi          - UNIQUE WELL ID
ENTR.         SP                             : Entered      - ENTERED BY
SRVC.         SCHLUMBERGER                   : Scn          - SERVICE COMPANY
STRT.M        237.744                        : top_depth    - START DEPTH
STOP.M        426.494                        : bot_depth    - STOP DEPTH
STEP.M        0.25                           : increment    - STEP LENGTH
 NULL. -999.2500:NULL Value
~CURVE INFORMATION BLOCK
#MNEM UNIT       ERCB CURVE CODE    CURVE DESCRIPTION
#-----------   ------------------   ----------------------------------
DEPT.M        00 001 00 00         : DEPTH        - DEPTH
GR  .API      00 310 00 00         : GR           - GAMMA RAY
DPHI.V/V      00 890 00 00         : PHID         - DENSITY POROSITY (SANDSTONE)
NPHI.V/V      00 330 00 00         : PHIN         - NEUTRON POROSITY (SANDSTONE)
ILD .OHMM     00 120 00 00         : RESD         - DEEP RESISTIVITY (DIL)
~PARAMETER INFORMATION
#MNEM.UNIT           DATA             DESCRIPTION OF MNEMONIC
#---------         -----------     ------------------------------
GL  .M        571.988              : gl           - GROUND LEVEL ELEVATION
EREF.M        574.853              : kb           - ELEVATION OF DEPTH REFERENCE
DATM.M        571.988              : datum        - DATUM ELEVATION
TDD .M        427.939              : tdd          - TOTAL DEPTH DRILLER
RUN .         ONE                  : Run          - RUN NUMBER
ENG .         BILL                 : Engineer     - RECORDING ENGINEER
WIT .         JIM                  : Witness      - WITNESSED BY
MUD .         GEL                  : Mud_type     - MUD TYPE
MATR.         SANDSTONE            : Logunit      - NEUTRON MATRIX
TMAX.C        24.4444              : BHT          - MAXIMUM RECORDED TEMPERATURE
BHTD.M        427.939              : BHTDEP       - MAXIMUM RECORDED TEMPERATURE
MATR.         1                    : LOGUNIT      - NEUTRON MATRIX
RMT .C        25                   : MDTP         - TEMPERATURE OF MUD
NEUT.         1                    : NEUTRON      - NEUTRON TYPE
RESI.         0                    : RESIST       - RESISTIVITY TYPE
RMC .OHMM     0.25                 : RMC          - RESISTIVITY OF MUD CAKE
RMF .OHMM     0.25                 : RMF          - RESISTIVITY OF MUD FILTRATE
SUFT.C        15                   : SUFT         - SURFACE TEMPERATURE
~A  DEPTH       GR     PHID     PHIN     RESD
# ...
  324.744   60.097    0.241    0.369    7.493
  324.994   62.195    0.307    0.404    7.655
  325.244   60.263    0.333    0.434    7.808
  325.494   58.298    0.331    0.461    7.915
  325.744   56.163    0.331    0.446    7.938
  325.994   55.208    0.319    0.450    7.939
  326.244   54.611    0.327    0.456    7.680
  326.494   54.896    0.334    0.460    7.614
  326.744   57.612    0.328    0.464    7.511
  326.994   59.517    0.330    0.467    7.506
  327.244   62.213    0.332    0.480    7.480
  327.494   64.165    0.335    0.491    7.368
  327.744   65.067    0.337    0.489    7.373
  327.994   62.816    0.334    0.483    7.388
  328.244   61.432    0.329    0.476    7.508
  328.494   60.662    0.324    0.477    7.444
  328.744   60.681    0.335    0.468    7.368
  328.994   59.091    0.343    0.467    7.364
  329.244   58.133    0.345    0.482    7.363
  329.494   57.813    0.344    0.498    7.363
  329.744   59.137    0.339    0.503    7.362
  329.994   62.027    0.343    0.502    7.360
  330.244   63.796    0.339    0.487    7.361
  330.494   64.492    0.332    0.467    7.439
  330.744   64.474    0.321    0.464    7.491
  330.994   63.992    0.327    0.453    7.494
  331.244   61.767    0.331    0.445    7.492
  331.494   60.344    0.329    0.455    7.491
  331.744   61.469    0.329    0.467    7.490
  331.994   60.377    0.335    0.480    7.489
  332.244   59.765    0.348    0.490    7.488
  332.494   60.136    0.347    0.495    7.487
  332.744   60.985    0.344    0.477    7.483
  332.994   61.588    0.342    0.464    7.486
  333.244   61.597    0.337    0.475    7.335
  333.494   61.647    0.343    0.484    7.342
  333.744   61.117    0.350    0.480    7.354
  333.994   60.496    0.345    0.463    7.284
  334.244   59.913    0.353    0.469    7.193
  334.494   60.487    0.346    0.480    7.208
  334.744   61.680    0.340    0.478    7.203
  334.994   62.991    0.333    0.479    7.195
  335.244   65.061    0.328    0.490    7.065
  335.494   66.179    0.324    0.485    7.073
  335.744   66.531    0.319    0.479    7.073
  335.994   66.133    0.339    0.483    7.119
  336.244   65.951    0.340    0.494    7.073
  336.494   66.534    0.332    0.501    7.067
  336.744   67.178    0.337    0.502    7.065
  336.994   67.981    0.337    0.497    7.063
  337.244   68.384    0.331    0.502    7.074
  337.494   69.161    0.328    0.499    6.986
  337.744   67.586    0.317    0.493    7.057
  337.994   65.078    0.301    0.487    7.075
  338.244   64.525    0.307    0.493    6.967
  338.494   64.947    0.313    0.497    7.051
  338.744   68.149    0.312    0.493    6.921
  338.994   68.491    0.316    0.488    6.927
  339.244   67.940    0.322    0.482    6.926
  339.494   66.617    0.331    0.475    6.925
  339.744   67.531    0.334    0.471    6.924
  339.994   68.034    0.325    0.475    6.923
  340.244   66.660    0.328    0.478    6.922
  340.494   67.677    0.329    0.481    6.921
  340.744   70.280    0.313    0.483    6.920
  340.994   71.634    0.301    0.486    6.919
  341.244   72.270    0.309    0.490    6.918
  341.494   72.357    0.313    0.492    6.917
  341.744   71.645    0.295    0.496    6.915
  341.994   69.872    0.275    0.489    6.914
  342.244   70.249    0.276    0.491    7.005
  342.494   71.173    0.302    0.496    7.040
  342.744   70.553    0.303    0.483    7.038
  342.994   68.272    0.308    0.473    7.263
  343.244   66.230    0.292    0.467    7.294
  343.494   65.055    0.297    0.462    7.429
  343.744   69.064    0.309    0.459    7.507
  343.994   69.171    0.316    0.456    7.574
  344.244   67.140    0.314    0.463    7.562
  344.494   65.663    0.314    0.475    7.729
  344.744   66.493    0.313    0.477    7.714
  344.994   67.534    0.314    0.473    7.712
  345.244   67.657    0.312    0.467    7.711
  345.494   67.683    0.325    0.461    7.710
  345.744   69.467    0.332    0.455    7.710
  345.994   70.725    0.340    0.452    7.717
  346.244   73.559    0.351    0.456    7.572
  346.494   74.634    0.354    0.464    7.489
  346.744   74.799    0.320    0.473    7.427
  346.994   74.772    0.312    0.480    7.433
  347.244   76.576    0.332    0.485    7.273
  347.494   76.048    0.325    0.486    7.285
  347.744   73.548    0.316    0.490    7.285
  347.994   72.413    0.302    0.494    7.283
  348.244   71.423    0.292    0.491    7.282
  348.494   72.953    0.295    0.488    7.296
  348.744   73.354    0.295    0.491    7.143
  348.994   74.443    0.298    0.512    7.018
  349.244   74.164    0.304    0.523    6.934
  349.494   73.341    0.303    0.510    6.862
  349.744   74.454    0.291    0.491    6.753
  349.994   74.296    0.281    0.482    6.703
  350.244   77.285    0.269    0.474    6.504
  350.494   80.180    0.270    0.478    6.509
  350.744   81.948    0.272    0.473    6.463
  350.994   84.315    0.265    0.470    6.257
  351.244   88.829    0.255    0.467    5.892
  351.494   91.183    0.261    0.481    5.410
  351.744   95.545    0.249    0.490    4.750
  351.994   97.159    0.237    0.498    4.309
  352.244  100.007    0.229    0.504    3.637
  352.494  100.901    0.222    0.507    3.353
  352.744  101.544    0.217    0.509    3.213
  352.994  102.253    0.220    0.510    3.220
  353.244  101.675    0.223    0.518    3.268
  353.494  100.236    0.226    0.530    3.467
  353.744   97.243    0.228    0.530    3.681
  353.994   95.735    0.232    0.510    3.973
  354.244   95.689    0.235    0.490    4.257
  354.494   95.695    0.238    0.477    4.670
  354.744   94.899    0.238    0.469    4.878
  354.994   93.892    0.240    0.457    5.249
  355.244   94.487    0.240    0.451    5.492
  355.494   97.419    0.241    0.448    5.787
  355.744   98.037    0.236    0.459    5.833
  355.994   95.309    0.228    0.466    5.913
  356.244   94.183    0.235    0.476    6.037
  356.494   94.651    0.239    0.500    6.026
  356.744   95.072    0.231    0.485    6.024
  356.994   95.927    0.229    0.474    6.024
  357.244   95.204    0.236    0.476    6.025
  357.494   93.303    0.240    0.481    5.937
  357.744   92.158    0.245    0.484    5.914
  357.994   93.499    0.250    0.479    5.910
  358.244   90.657    0.253    0.471    5.835
  358.494   89.574    0.248    0.474    5.801
  358.744   91.703    0.241    0.476    5.803
  358.994   91.469    0.232    0.477    5.683
  359.244   89.619    0.218    0.478    5.689
  359.494   87.060    0.206    0.474    5.697
  359.744   87.900    0.213    0.466    5.565
  359.994   84.938    0.262    0.459    5.696
  360.244   79.464    0.283    0.459    5.677
  360.494   75.757    0.291    0.466    5.797
  360.744   71.386    0.296    0.470    5.909
  360.994   66.431    0.300    0.472    6.005
  361.244   62.764    0.313    0.459    6.161
  361.494   60.249    0.322    0.455    6.349
  361.744   60.369    0.319    0.452    6.347
  361.994   58.695    0.314    0.463    6.348
  362.244   57.332    0.319    0.473    6.347
  362.494   56.552    0.309    0.465    6.333
  362.744   58.165    0.306    0.429    6.471
  362.994   59.626    0.316    0.380    6.548
  363.244   58.929    0.293    0.326    6.937
  363.494   57.264    0.261    0.274    7.528
  363.744   55.595    0.123    0.243    8.496
  363.994   56.425    0.106    0.249    9.423
  364.244   57.400    0.125    0.256   10.449
  364.494   57.763    0.151    0.273   11.306
  364.744   58.798    0.187    0.331   10.802
  364.994   59.794    0.236    0.463    9.387
  365.244   60.703    0.316    0.479    8.125
  365.494   62.306    0.323    0.483    7.358
  365.744   63.249    0.331    0.476    6.723
  365.994   64.614    0.330    0.475    6.367
  366.244   62.121    0.336    0.468    6.320
  366.494   61.258    0.337    0.468    6.210
  366.744   60.484    0.330    0.474    6.214
  366.994   60.553    0.321    0.484    6.214
  367.244   62.022    0.313    0.490    6.213
  367.494   63.097    0.307    0.494    6.212
  367.744   64.762    0.300    0.482    6.211
  367.994   64.799    0.303    0.468    6.210
