~VERSION INFORMATION
 VERS.                 2.0:   CWLS LOG ASCII STANDARD -VERSION 2.0
 WRAP.                  NO:   ONE LINE PER DEPTH STEP
~WELL INFORMATION BLOCK
#MNEM.UNIT           DATA                    DESCRIPTION OF MNEMONIC
#---------    -------------------            -------------------------------
# Generated from Intellog Unique Number	CS_77_79/WELL/901
WELL.         CWWE WINEFRED                  : Well_name    - WELL
LOC .         00/07-19-078-03W4/0            : Location     - LOCATION
UWI .         00/07-19-078-03W4/0            : Uwi          - UNIQUE WELL ID
ENTR.         JHS                            : Entered      - ENTERED BY
SRVC.         SCHLUMBERGER                   : Scn          - SERVICE COMPANY
STRT.M        135                            : top_depth    - START DEPTH
STOP.M        415                            : bot_depth    - STOP DEPTH
STEP.M        0.25                           : increment    - STEP LENGTH
 NULL. -999.2500:NULL Value
~CURVE INFORMATION BLOCK
#MNEM UNIT       ERCB CURVE CODE    CURVE DESCRIPTION
#-----------   ------------------   ----------------------------------
DEPT.M        00 001 00 00         : DEPTH        - DEPTH
DPHI.V/V      00 890 00 00         : PHID         - DENSITY POROSITY (LIMESTONE)
NPHI.V/V      00 330 00 00         : PHIN         - NEUTRON POROSITY (LIMESTONE)
GR  .API      00 310 00 00         : GR           - GAMMA RAY
ILD .OHMM     00 120 00 00         : RESD         - DEEP RESISTIVITY (DIL)
RHOB.KG/M3    00 350 00 00         : DENS         - BULK DENSITY
~PARAMETER INFORMATION
#MNEM.UNIT           DATA             DESCRIPTION OF MNEMONIC
#---------         -----------     ------------------------------
GL  .M        556.2                : gl           - GROUND LEVEL ELEVATION
EREF.M        560.15               : kb           - ELEVATION OF DEPTH REFERENCE
DATM.M        560.15               : datum        - DATUM ELEVATION
TDD .M        423                  : tdd          - TOTAL DEPTH DRILLER
RUN .         ONE                  : Run          - RUN NUMBER
ENG .         BILL                 : Engineer     - RECORDING ENGINEER
WIT .         JIM                  : Witness      - WITNESSED BY
MUD .         GEL                  : Mud_type     - MUD TYPE
MATR.         LIMESTONE            : Logunit      - NEUTRON MATRIX
TMAX.C        24                   : BHT          - MAXIMUM RECORDED TEMPERATURE
BHTD.M        423                  : BHTDEP       - MAXIMUM RECORDED TEMPERATURE
MATR.         1                    : LOGUNIT      - NEUTRON MATRIX
RMT .C        25                   : MDTP         - TEMPERATURE OF MUD
NEUT.         1                    : NEUTRON      - NEUTRON TYPE
RESI.         0                    : RESIST       - RESISTIVITY TYPE
RMC .OHMM     0.25                 : RMC          - RESISTIVITY OF MUD CAKE
RMF .OHMM     0.25                 : RMF          - RESISTIVITY OF MUD FILTRATE
SUFT.C        15                   : SUFT         - SURFACE TEMPERATURE
~A  DEPTH     PHID     PHIN       GR     RESD     DENS
# ...
  208.000    0.245    0.398   80.598   16.852    0.000
  208.250    0.237    0.408   65.544   16.870    0.000
  208.500    0.248    0.385   58.022   17.209    0.000
  208.750    0.258    0.366   59.288   16.911    0.000
  209.000    0.247    0.359   67.456   16.608    0.000
  209.250    0.235    0.354   75.625   16.009    0.000
  209.500    0.225    0.351   83.166   15.147    0.000
  209.750    0.223    0.357   87.569   14.877    0.000
  210.000    0.226    0.367   81.304   14.340    0.000
  210.250    0.220    0.369   79.431   13.823    0.000
  210.500    0.216    0.385   81.320   13.326    0.000
  210.750    0.216    0.397   87.608   13.095    0.000
  211.000    0.222    0.410   91.380   12.857    0.000
  211.250    0.217    0.390   86.997   12.874    0.000
  211.500    0.210    0.385   83.872   12.889    0.000
  211.750    0.204    0.395   85.763   13.153    0.000
  212.000    0.199    0.395   88.911   13.161    0.000
  212.250    0.196    0.392   89.550   13.954    0.000
  212.500    0.220    0.387   87.672   14.505    0.000
  212.750    0.249    0.379   77.642   15.367    0.000
  213.000    0.289    0.379   66.355   16.279    0.000
  213.250    0.326    0.380   61.973   17.915    0.000
  213.500    0.339    0.394   58.841   19.725    0.000
  213.750    0.347    0.406   51.318   20.128    0.000
  214.000    0.355    0.422   51.327   19.763    0.000
  214.250    0.353    0.439   51.340   19.415    0.000
  214.500    0.339    0.419   51.973   19.435    0.000
  214.750    0.319    0.387   57.004   20.207    0.000
  215.000    0.240    0.348   64.545   21.823    0.000
  215.250    0.196    0.321   60.792   23.562    0.000
  215.500    0.121    0.304   63.936   25.439    0.000
  215.750    0.148    0.296   66.457   25.489    0.000
  216.000    0.264    0.329   63.328   25.502    0.000
  216.250    0.317    0.386   56.437   24.580    0.000
  216.500    0.312    0.383   56.444   24.150    0.000
  216.750    0.312    0.371   55.828   23.287    0.000
  217.000    0.299    0.364   54.579   22.865    0.000
  217.250    0.283    0.359   62.751   22.462    0.000
  217.500    0.273    0.359   64.018   21.248    0.000
  217.750    0.283    0.377   64.650   20.096    0.000
  218.000    0.288    0.391   67.797   19.369    0.000
  218.250    0.283    0.387   72.200   17.647    0.000
  218.500    0.271    0.360   73.466   17.008    0.000
  218.750    0.257    0.349   75.359   16.088    0.000
  219.000    0.240    0.367   77.879   15.800    0.000
  219.250    0.221    0.375   77.889   15.522    0.000
  219.500    0.220    0.361   76.014   14.961    0.000
  219.750    0.240    0.373   70.376   14.703    0.000
  220.000    0.310    0.397   67.245   14.713    0.000
  220.250    0.319    0.394   64.119   15.010    0.000
  220.500    0.305    0.377   66.010   15.320    0.000
  220.750    0.288    0.361   74.806   15.044    0.000
  221.000    0.268    0.376   82.347   14.505    0.000
  221.250    0.248    0.387   88.004   14.519    0.000
  221.500    0.248    0.388   86.135   14.535    0.000
  221.750    0.260    0.394   84.886   14.835    0.000
  222.000    0.261    0.410   90.543   15.135    0.000
  222.250    0.264    0.434   93.065   15.151    0.000
  222.500    0.290    0.440   81.775   15.165    0.000
  222.750    0.317    0.427   67.978   14.895    0.000
  223.000    0.330    0.410   58.573   14.365    0.000
  223.250    0.336    0.424   59.838   14.378    0.000
  223.500    0.338    0.440   63.613   13.857    0.000
  223.750    0.329    0.456   59.857   12.625    0.000
  224.000    0.312    0.452   57.984   11.937    0.000
  224.250    0.296    0.422   65.526   10.468    0.000
  224.500    0.274    0.410   74.321    9.354    0.000
  224.750    0.254    0.423   83.743    7.752    0.000
  225.000    0.236    0.448   90.030    6.926    0.000
  225.250    0.232    0.479   89.412    6.428    0.000
  225.500    0.237    0.486   86.285    6.083    0.000
  225.750    0.246    0.476   83.155    6.090    0.000
  226.000    0.262    0.457   78.772    6.331    0.000
  226.250    0.267    0.444   76.897    6.459    0.000
  226.500    0.276    0.471   85.694    6.845    0.000
  226.750    0.283    0.491   90.724    7.253    0.000
  227.000    0.283    0.495   91.361    7.980    0.000
  227.250    0.279    0.502   82.585    9.295    0.000
  227.500    0.307    0.485   70.668   10.423    0.000
  227.750    0.334    0.441   60.008   11.687    0.000
  228.000    0.342    0.420   55.626   13.877    0.000
  228.250    0.347    0.419   58.773   14.699    0.000
  228.500    0.350    0.428   58.153   15.285    0.000
  228.750    0.344    0.427   55.653   14.187    0.000
  229.000    0.324    0.438   57.546   11.535    0.000
  229.250    0.274    0.447   70.736    9.028    0.000
  229.500    0.238    0.450   80.786    7.202    0.000
  229.750    0.224    0.449   89.582    5.746    0.000
  230.000    0.234    0.453   88.340    5.038    0.000
  230.250    0.249    0.461   88.349    4.590    0.000
  230.500    0.258    0.470   92.122    4.595    0.000
  230.750    0.250    0.470   97.153    4.601    0.000
  231.000    0.241    0.475  101.554    4.692    0.000
  231.250    0.237    0.481  102.194    4.788    0.000
  231.500    0.239    0.486  100.319    5.074    0.000
  231.750    0.251    0.502   95.308    5.276    0.000
  232.000    0.270    0.488   87.160    5.484    0.000
  232.250    0.261    0.476   82.773    5.923    0.000
  232.500    0.251    0.492   79.644    5.930    0.000
  232.750    0.234    0.480   79.028    5.935    0.000
  233.000    0.223    0.459   81.548    5.831    0.000
  233.250    0.218    0.451   85.322    5.948    0.000
  233.500    0.225    0.445   90.353    6.185    0.000
  233.750    0.243    0.450   83.458    6.553    0.000
  234.000    0.256    0.456   73.425    7.079    0.000
  234.250    0.244    0.440   79.083    7.359    0.000
  234.500    0.238    0.424   82.861    7.509    0.000
  234.750    0.251    0.418   80.987    7.660    0.000
  235.000    0.262    0.429   80.996    8.115    0.000
  235.250    0.257    0.439   80.378    8.598    0.000
  235.500    0.260    0.419   72.227    9.284    0.000
  235.750    0.290    0.402   64.080   10.217    0.000
  236.000    0.315    0.413   64.715   11.247    0.000
  236.250    0.330    0.429   70.375   12.144    0.000
  236.500    0.327    0.430   71.013   12.870    0.000
  236.750    0.327    0.441   69.137   13.124    0.000
  237.000    0.326    0.451   63.500   13.907    0.000
  237.250    0.319    0.434   61.625   14.463    0.000
  237.500    0.322    0.413   60.379   14.753    0.000
  237.750    0.327    0.404   59.134   15.342    0.000
  238.000    0.329    0.400   65.421   15.355    0.000
  238.250    0.325    0.403   67.311   15.374    0.000
  238.500    0.321    0.408   67.948   15.101    0.000
  238.750    0.320    0.416   67.333   14.563    0.000
  239.000    0.319    0.435   67.969   14.299    0.000
  239.250    0.316    0.452   71.742   13.529    0.000
  239.500    0.311    0.444   74.891   12.559    0.000
  239.750    0.300    0.433   73.646   11.658    0.000
  240.000    0.288    0.448   75.539   11.234    0.000
  240.250    0.277    0.462   74.293   10.428    0.000
  240.500    0.268    0.442   76.813    9.862    0.000
  240.750    0.263    0.427   81.214    9.152    0.000
  241.000    0.254    0.422   86.874    8.496    0.000
  241.250    0.243    0.436   88.766    7.738    0.000
  241.500    0.242    0.446   91.283    7.181    0.000
  241.750    0.238    0.444   95.061    6.540    0.000
  242.000    0.238    0.447   93.186    6.304    0.000
  242.250    0.244    0.470   88.175    5.851    0.000
  242.500    0.241    0.480   88.185    5.432    0.000
  242.750    0.236    0.462   90.706    5.436    0.000
  243.000    0.237    0.455   92.598    5.444    0.000
  243.250    0.239    0.445   91.979    5.448    0.000
  243.500    0.252    0.442   88.223    5.773    0.000
  243.750    0.271    0.452   83.211    6.353    0.000
  244.000    0.307    0.442   73.805    7.401    0.000
  244.250    0.332    0.424   63.145    8.458    0.000
