~VERSION INFORMATION
 VERS.                 2.0:   CWLS LOG ASCII STANDARD -VERSION 2.0
 WRAP.                  NO:   ONE LINE PER DEPTH STEP
~WELL INFORMATION BLOCK
#MNEM.UNIT           DATA                    DESCRIPTION OF MNEMONIC
#---------    -------------------            -------------------------------
# Generated from Intellog Unique Number	CW_76_78/WELL/528
WELL.         ASHLAND ET AL PELICAN 06-17    : Well_name    - WELL
LOC .         00/06-17-076-19W4/0            : Location     - LOCATION
UWI .         00/06-17-076-19W4/0            : Uwi          - UNIQUE WELL ID
ENTR.         JAYE                           : Entered      - ENTERED BY
SRVC.         SCHLUMBERGER                   : Scn          - SERVICE COMPANY
DATE.         18 FEB 73                      : Date         - LOG DATE
STRT.M        243.84                         : top_depth    - START DEPTH
STOP.M        417.59                         : bot_depth    - STOP DEPTH
STEP.M        0.25                           : increment    - STEP LENGTH
 NULL. -999.2500:NULL Value
~CURVE INFORMATION BLOCK
#MNEM UNIT       ERCB CURVE CODE    CURVE DESCRIPTION
#-----------   ------------------   ----------------------------------
DEPT.M        00 001 00 00         : DEPTH        - DEPTH
ILD .OHMM     00 120 00 00         : RESD         - DEEP RESISTIVITY (DIL)
NPHI.V/V      00 330 00 00         : PHIN         - NEUTRON POROSITY (SANDSTONE)
DPHI.V/V      00 890 00 00         : PHID         - DENSITY POROSITY (SANDSTONE)
GR  .API      00 310 00 00         : GR           - GAMMA RAY
CALI.MM       00 280 01 00         : CAL          - CALIPER
~PARAMETER INFORMATION
#MNEM.UNIT           DATA             DESCRIPTION OF MNEMONIC
#---------         -----------     ------------------------------
GL  .M        577.596              : gl           - GROUND LEVEL ELEVATION
EREF.M        581.558              : kb           - ELEVATION OF DEPTH REFERENCE
DATM.M        577.596              : datum        - DATUM ELEVATION
TDD .M        507.492              : tdd          - TOTAL DEPTH DRILLER
RUN .         ONE                  : Run          - RUN NUMBER
ENG .         KEITH                : Engineer     - RECORDING ENGINEER
BASE.         EDM                  : Branch       - HOME BASE OF LOGGING UNIT
MUD .         GEL CHEM             : Mud_type     - MUD TYPE
MATR.         SANDSTONE            : Logunit      - NEUTRON MATRIX
TMAX.C        21.1111              : BHT          - MAXIMUM RECORDED TEMPERATURE
BHTD.M        507.797              : BHTDEP       - MAXIMUM RECORDED TEMPERATURE
RMT .C        13.8889              : MDTP         - TEMPERATURE OF MUD
MUDD.KG/M     0                    : MWT          - MUD DENSITY
NEUT.         1                    : NEUTRON      - NEUTRON TYPE
RESI.         0                    : RESIST       - RESISTIVITY TYPE
RM  .OHMM     2.32                 : RM           - RESISTIVITY OF MUD
RMC .OHMM     0                    : RMC          - RESISTIVITY OF MUD CAKE
RMF .OHMM     2.38                 : RMF          - RESISTIVITY OF MUD FILTRATE
SUFT.C        -17.7778             : SUFT         - SURFACE TEMPERATURE
~A  DEPTH     RESD     PHIN     PHID       GR      CAL
# ...
  353.340    0.377    0.529    0.196   80.808  170.080
  353.590    0.375    0.537    0.212   81.267  173.326
  353.840    0.379    0.511    0.190   80.264  170.297
  354.090    0.382    0.491    0.214   80.237  155.018
  354.340    0.385    0.468    0.191   79.419  156.305
  354.590    0.386    0.491    0.166   77.692  158.527
  354.840    0.388    0.515    0.173   80.276  162.696
  355.090    0.387    0.499    0.190   83.895  166.563
  355.340    0.384    0.481    0.207   88.791  171.252
  355.590    0.380    0.526    0.207   87.549  175.725
  355.840    0.375    0.529    0.172   84.663  177.020
  356.090    0.372    0.517    0.187   85.607  177.285
  356.340    0.371    0.498    0.179   86.309  177.648
  356.590    0.369    0.489    0.196   85.614  178.109
  356.840    0.364    0.514    0.212   85.464  178.685
  357.090    0.356    0.511    0.176   86.469  179.764
  357.340    0.339    0.528    0.160   85.468  180.136
  357.590    0.322    0.505    0.197   86.293  180.697
  357.840    0.306    0.510    0.187   89.239  181.061
  358.090    0.291    0.498    0.197   90.735  181.015
  358.340    0.277    0.483    0.212   92.528  180.974
  358.590    0.274    0.523    0.200   94.568  180.617
  358.840    0.276    0.566    0.171   92.717  180.670
  359.090    0.285    0.558    0.158   89.956  180.830
  359.340    0.302    0.520    0.162   92.966  180.991
  359.590    0.317    0.543    0.183   91.480  181.048
  359.840    0.347    0.554    0.166   92.605  181.201
  360.090    0.367    0.539    0.180   94.828  181.369
  360.340    0.377    0.551    0.185   97.231  181.315
  360.590    0.376    0.532    0.201   97.930  180.965
  360.840    0.377    0.519    0.194   94.378  179.684
  361.090    0.383    0.519    0.184   90.582  176.135
  361.340    0.389    0.494    0.186   88.733  173.308
  361.590    0.398    0.487    0.189   85.969  171.925
  361.840    0.402    0.478    0.196   84.241  171.776
  362.090    0.407    0.466    0.209   80.564  172.447
  362.340    0.407    0.434    0.179   81.812  172.810
  362.590    0.406    0.438    0.182   83.913  172.971
  362.840    0.402    0.466    0.201   85.767  173.130
  363.090    0.401    0.468    0.202   87.322  173.382
  363.340    0.399    0.472    0.175   89.053  173.347
  363.590    0.399    0.453    0.187   89.758  173.501
  363.840    0.399    0.516    0.200   90.093  173.660
  364.090    0.401    0.488    0.195   89.581  173.720
  364.340    0.404    0.454    0.173   88.460  173.564
  364.590    0.406    0.449    0.160   84.906  173.620
  364.840    0.411    0.474    0.193   83.481  173.678
  365.090    0.416    0.469    0.203   84.424  173.837
  365.340    0.421    0.451    0.201   86.889  173.790
  365.590    0.421    0.434    0.194   88.502  173.746
  365.840    0.415    0.456    0.189   87.868  173.491
  366.090    0.406    0.440    0.174   86.681  173.031
  366.340    0.394    0.476    0.185   86.232  172.469
  366.590    0.376    0.478    0.197   87.113  172.118
  366.840    0.359    0.477    0.199   88.240  173.512
  367.090    0.351    0.513    0.183   88.881  177.270
  367.340    0.355    0.535    0.179   89.218  181.133
  367.590    0.367    0.512    0.208   89.009  184.484
  367.840    0.418    0.510    0.221   88.191  177.849
  368.090    0.513    0.521    0.190   82.936  181.201
  368.340    0.602    0.492    0.228   78.048  169.934
  368.590    0.740    0.420    0.210   73.096  163.715
  368.840    0.977    0.320    0.182   67.843  166.847
  369.090    1.161    0.270    0.119   62.587  170.926
  369.340    1.050    0.377    0.088   57.090  165.731
  369.590    0.917    0.478    0.255   51.471  160.541
  369.840    0.823    0.532    0.295   49.437  160.698
  370.090    0.727    0.523    0.289   49.229  161.882
  370.340    0.661    0.523    0.288   49.625  161.944
  370.590    0.593    0.509    0.287   52.697  161.069
  370.840    0.544    0.530    0.287   56.679  160.820
  371.090    0.515    0.566    0.287   55.860  162.516
  371.340    0.494    0.523    0.296   54.680  165.151
  371.590    0.478    0.501    0.297   54.409  169.220
  371.840    0.461    0.498    0.298   56.566  170.615
  372.090    0.446    0.504    0.290   59.277  168.198
  372.340    0.429    0.486    0.282   62.227  163.111
  372.590    0.416    0.476    0.268   65.418  160.486
  372.840    0.403    0.465    0.254   68.066  160.748
  373.090    0.398    0.447    0.248   70.895  162.344
  373.340    0.395    0.438    0.260   72.202  164.666
  373.590    0.394    0.442    0.214   73.331  166.580
  373.840    0.393    0.460    0.213   74.638  168.070
  374.090    0.391    0.458    0.242   76.799  168.947
  374.340    0.386    0.470    0.222   75.254  169.519
  374.590    0.376    0.489    0.201   75.590  169.786
  374.840    0.360    0.494    0.235   79.391  170.564
  375.090    0.344    0.506    0.212   85.198  171.539
  375.340    0.329    0.532    0.214   88.878  173.350
  375.590    0.320    0.549    0.195   86.175  175.153
  375.840    0.315    0.568    0.216   84.992  175.831
  376.090    0.316    0.553    0.230   83.989  175.578
  376.340    0.322    0.544    0.211   82.930  175.011
  376.590    0.330    0.554    0.197   81.992  174.659
  376.840    0.340    0.563    0.217   80.689  173.991
  377.090    0.352    0.515    0.226   79.261  172.918
  377.340    0.364    0.498    0.251   77.108  166.899
  377.590    0.373    0.496    0.247   74.223  161.907
  377.840    0.383    0.508    0.230   73.284  159.400
  378.090    0.389    0.523    0.238   73.741  158.011
  378.340    0.391    0.530    0.243   74.261  157.241
  378.590    0.395    0.529    0.239   74.355  156.991
  378.840    0.398    0.529    0.228   74.754  157.351
  379.090    0.400    0.527    0.229   78.675  158.239
  379.340    0.404    0.519    0.209   78.102  160.959
  379.590    0.409    0.497    0.224   77.283  162.876
  379.840    0.420    0.493    0.225   77.194  165.089
  380.090    0.440    0.481    0.197   75.647  166.486
  380.340    0.459    0.453    0.174   71.487  167.982
  380.590    0.466    0.444    0.181   69.573  168.554
  380.840    0.466    0.451    0.207   72.035  168.299
  381.090    0.461    0.450    0.195   73.225  170.004
  381.340    0.456    0.433    0.170   71.556  171.910
  381.590    0.451    0.416    0.144   69.401  171.140
  381.840    0.445    0.406    0.173   70.772  169.346
  382.090    0.442    0.416    0.190   72.507  168.065
  382.340    0.440    0.444    0.203   73.573  167.094
  382.590    0.437    0.462    0.209   73.728  164.984
  382.840    0.432    0.464    0.212   73.394  161.545
  383.090    0.441    0.460    0.216   72.759  158.615
  383.340    0.470    0.450    0.209   72.004  158.362
  383.590    0.496    0.437    0.170   70.760  160.987
  383.840    0.527    0.385    0.118   68.302  164.135
  384.090    0.533    0.346    0.091   67.118  166.556
  384.340    0.515    0.415    0.085   71.163  167.436
  384.590    0.498    0.423    0.162   74.599  167.590
  384.840    0.481    0.414    0.182   75.481  167.848
  385.090    0.472    0.416    0.191   75.332  168.219
  385.340    0.466    0.428    0.195   74.942  168.581
  385.590    0.462    0.421    0.181   74.184  168.836
  385.840    0.459    0.409    0.182   74.218  168.696
  386.090    0.454    0.430    0.167   77.411  167.414
  386.340    0.450    0.475    0.213   81.091  165.204
  386.590    0.446    0.511    0.193   81.545  164.647
  386.840    0.445    0.492    0.210   81.521  165.417
  387.090    0.441    0.472    0.194   80.399  166.606
  387.340    0.440    0.459    0.156   78.123  167.993
  387.590    0.436    0.489    0.168   80.584  168.885
  387.840    0.434    0.492    0.186   84.631  170.583
  388.090    0.430    0.485    0.203   88.493  171.667
  388.340    0.428    0.481    0.204   90.104  172.139
  388.590    0.427    0.474    0.183   89.289  172.602
  388.840    0.422    0.474    0.176   89.258  173.073
  389.090    0.420    0.465    0.168   90.689  174.056
  389.340    0.417    0.457    0.148   91.695  175.039
  389.590    0.415    0.482    0.112   89.966  176.016
