~VERSION INFORMATION
 VERS.                 2.0:   CWLS LOG ASCII STANDARD -VERSION 2.0
 WRAP.                  NO:   ONE LINE PER DEPTH STEP
~WELL INFORMATION BLOCK
#MNEM.UNIT           DATA                    DESCRIPTION OF MNEMONIC
#---------    -------------------            -------------------------------
# Generated from Intellog Unique Number	CW_70_72/WELL/554
NULL.         -999.25                        : NULL_VALUE
WELL.         BOWRIO ET AL SMITH 06-06       : Well_name    - WELL              
LOC .         06-06-071-25W4                 : Location     - LOCATION          
UWI .         00/06-06-071-25W4/0            : Uwi          - UNIQUE WELL ID    
ENTR.         JAYE                           : Entered      - ENTERED BY        
SRVC.         SCHLUMBERGER                   : Scn          - SERVICE COMPANY   
DATE.         25 MAY 80                      : Date         - LOG DATE          
STRT.M        463                            : top_depth    - START DEPTH       
STOP.M        680                            : bot_depth    - STOP DEPTH        
STEP.M        0.25                           : increment    - STEP LENGTH       
~CURVE INFORMATION BLOCK
#MNEM UNIT       ERCB CURVE CODE    CURVE DESCRIPTION
#-----------   ------------------   ----------------------------------
DEPT.M        00 001 00 00         : DEPTH        - DEPTH                       
DPHI.V/V      00 890 00 00         : PHID         - DENSITY POROSITY (SANDSTONE)
NPHI.V/V      00 330 00 00         : PHIN         - NEUTRON POROSITY (SANDSTONE)
GR  .API      00 310 00 00         : GR           - GAMMA RAY                   
CALI.MM       00 280 01 00         : CAL          - CALIPER                     
ILD .OHMM     00 120 00 00         : RESD         - DEEP RESISTIVITY (DIL)      
~PARAMETER INFORMATION       
#MNEM.UNIT           DATA             DESCRIPTION OF MNEMONIC
#---------         -----------     ------------------------------
GL  .M        647.5                : gl           - GROUND LEVEL ELEVATION      
EREF.M        651                  : kb           - ELEVATION OF DEPTH REFERENCE
DATM.M        647.5                : datum        - DATUM ELEVATION             
TDD .M        690                  : tdd          - TOTAL DEPTH DRILLER         
RUN .         ONE                  : Run          - RUN NUMBER                  
ENG .         BRANDSTROM           : Engineer     - RECORDING ENGINEER          
WIT .         GRANT                : Witness      - WITNESSED BY                
BASE.         EDM                  : Branch       - HOME BASE OF LOGGING UNIT   
MUD .         GEL CHEM             : Mud_type     - MUD TYPE                    
MATR.         SANDSTONE            : Logunit      - NEUTRON MATRIX              
TMAX.C        25.4                 : BHT          - MAXIMUM RECORDED TEMPERATURE
BHTD.M        692                  : BHTDEP       - MAXIMUM RECORDED TEMPERATURE
RMT .C        15                   : MDTP         - TEMPERATURE OF MUD          
MUDD.KG/M     1160                 : MWT          - MUD DENSITY                 
NEUT.         1                    : NEUTRON      - NEUTRON TYPE                
RESI.         0                    : RESIST       - RESISTIVITY TYPE            
RM  .OHMM     3.13                 : RM           - RESISTIVITY OF MUD          
RMC .OHMM     0                    : RMC          - RESISTIVITY OF MUD CAKE     
RMF .OHMM     2.62                 : RMF          - RESISTIVITY OF MUD FILTRATE 
SUFT.C        32                   : SUFT         - SURFACE TEMPERATURE         
~A  DEPTH     PHID     PHIN       GR      CAL     RESD
# ...
  645.500    0.117    0.329   83.433  206.923    5.630
  645.750    0.111    0.338   86.744  207.256    5.499
  646.000    0.091    0.350   92.174  207.284    5.391
  646.250    0.069    0.352   89.451  207.310    5.207
  646.500    0.088    0.342   90.466  207.339    4.899
  646.750    0.101    0.347   91.971  207.576    4.636
  647.000    0.109    0.360   93.606  207.912    4.512
  647.250    0.133    0.361   95.180  208.558    4.499
  647.500    0.117    0.363   95.753  208.895    4.511
  647.750    0.136    0.361   96.328  209.130    4.522
  648.000    0.129    0.356   94.912  209.154    4.560
  648.250    0.095    0.350   94.929  208.764    4.581
  648.500    0.047    0.343   90.900  208.791    4.593
  648.750    0.030    0.333   90.045  208.922    4.598
  649.000    0.064    0.326   94.353  209.049    4.575
  649.250    0.093    0.325   92.689  209.490    4.520
  649.500    0.120    0.329   94.138  210.036    4.481
  649.750    0.094    0.342   96.827  211.002    4.427
  650.000    0.112    0.358  101.137  211.750    4.204
  650.250    0.097    0.374  106.316  213.125    3.977
  650.500    0.116    0.384  109.940  214.393    3.806
  650.750    0.120    0.376  100.500  215.041    3.718
  651.000    0.116    0.391   98.337  215.169    3.693
  651.250    0.099    0.391   95.428  213.745    3.703
  651.500    0.070    0.374   96.564  211.180    3.734
  651.750    0.110    0.362   99.256  211.412    3.772
  652.000    0.083    0.366  103.689  213.203    3.846
  652.250    0.092    0.397  105.010  213.645    3.945
  652.500    0.112    0.366   91.650  213.670    4.030
  652.750    0.092    0.340   84.262  213.280    4.078
  653.000    0.094    0.314   84.715  212.685    4.166
  653.250    0.102    0.340   90.205  213.231    4.280
  653.500    0.113    0.356   98.247  213.255    4.515
  653.750    0.111    0.375  102.056  212.142    4.897
  654.000    0.119    0.380   90.064  208.955    5.422
  654.250    0.112    0.305   79.566  205.456    5.958
  654.500    0.110    0.273   64.712  204.442    6.426
  654.750    0.101    0.259   68.088  205.609    6.804
  655.000    0.096    0.276   72.584  207.917    6.937
  655.250    0.084    0.305   79.816  209.188    6.789
  655.500    0.076    0.320   78.153  208.905    6.632
  655.750    0.084    0.304   71.511  204.780    6.624
  656.000    0.108    0.290   63.749  204.185    6.692
  656.250    0.112    0.281   64.760  206.080    6.850
  656.500    0.088    0.279   69.133  208.078    7.025
  656.750    0.085    0.286   72.694  208.722    7.056
  657.000    0.099    0.294   75.011  208.957    7.075
  657.250    0.091    0.306   77.516  208.778    7.108
  657.500    0.093    0.312   80.082  208.699    7.034
  657.750    0.072    0.344   87.564  208.516    6.988
  658.000    0.054    0.357  103.570  208.543    6.902
  658.250    0.034    0.331  100.847  208.881    6.704
  658.500    0.079    0.317   85.808  209.535    6.548
  658.750    0.084    0.306   79.414  209.868    6.421
  659.000    0.077    0.310   81.299  210.416    6.295
  659.250    0.081    0.327   86.289  210.755    6.137
  659.500    0.086    0.325   93.522  210.879    6.051
  659.750    0.105    0.313   95.964  210.906    5.921
  660.000    0.110    0.319   92.807  210.829    5.783
  660.250    0.095    0.337   91.330  210.545    5.639
  660.500    0.111    0.330   92.466  210.778    5.569
  660.750    0.119    0.324   96.402  210.491    5.513
  661.000    0.105    0.331   96.418  210.003    5.475
  661.250    0.116    0.340   94.753  207.228    5.429
  661.500    0.132    0.349   93.959  203.415    5.485
  661.750    0.123    0.345   96.526  205.412    5.541
  662.000    0.118    0.344   99.094  208.238    5.587
  662.250    0.096    0.337   98.486  209.406    5.613
  662.500    0.077    0.326   92.841  209.331    5.670
  662.750    0.097    0.316   93.727  209.043    5.696
  663.000    0.080    0.394  100.213  208.036    5.700
  663.250    0.104    0.395  102.657  207.544    5.684
  663.500    0.084    0.378  101.178  206.846    5.593
  663.750    0.079    0.354   95.097  206.246    5.453
  664.000    0.098    0.342   87.087  205.545    5.336
  664.250    0.117    0.357   86.978  205.053    5.281
  664.500    0.128    0.370   86.185  205.290    5.355
  664.750    0.116    0.354   83.651  205.937    5.744
  665.000    0.100    0.342   83.978  206.687    6.253
  665.250    0.126    0.331   80.135  206.922    6.938
  665.500    0.098    0.304   65.718  207.059    7.581
  665.750    0.048    0.235   55.468  207.078    8.300
  666.000    0.014    0.214   48.142  206.792    8.770
  666.250    0.006    0.191   76.341  206.926    8.518
  666.500    0.034    0.271   88.863  206.844    7.548
  666.750    0.077    0.395   91.430  206.872    6.301
  667.000    0.101    0.401   92.813  206.492    5.626
  667.250    0.106    0.376   94.324  206.098    5.254
  667.500    0.098    0.354   95.955  205.919    5.123
  667.750    0.103    0.370   99.395  206.045    5.041
  668.000    0.127    0.401  103.204  206.278    4.970
  668.250    0.146    0.395  108.695  207.241    4.827
  668.500    0.136    0.392  113.627  208.096    4.517
  668.750    0.121    0.390  109.100  208.847    4.274
  669.000    0.104    0.402  110.111  208.353    4.254
  669.250    0.084    0.404  114.233  201.949    4.361
  669.500    0.185    0.403  100.624  192.850    4.643
  669.750    0.251    0.392   78.180  190.906    4.788
  670.000    0.236    0.362   60.404  195.391    4.582
  670.250    0.228    0.356   65.768  202.056    4.319
  670.500    0.247    0.369   71.947  204.361    4.026
  670.750    0.237    0.370   76.874  204.597    3.809
  671.000    0.200    0.337   85.973  203.899    3.598
  671.250    0.163    0.308  105.089  203.611    3.372
  671.500    0.130    0.345  152.949  203.637    3.120
  671.750    0.090    0.378  160.305  203.663    2.865
  672.000    0.116    0.400  128.031  202.863    2.701
  672.250    0.158    0.417  122.324  202.473    2.599
  672.500    0.145    0.440  114.811  201.983    2.553
  672.750    0.152    0.425   93.238  201.594    2.522
  673.000    0.181    0.365   62.208  200.998    2.547
  673.250    0.237    0.360   65.833  200.301    2.564
  673.500    0.179    0.390   77.545  199.808    2.556
  673.750    0.150    0.358   89.755  199.004    2.558
  674.000    0.112    0.343  104.143  197.991    2.575
  674.250    0.108    0.365  122.636  197.190    2.606
  674.500    0.111    0.389  106.601  196.488    2.623
  674.750    0.125    0.409   99.712  196.306    2.630
  675.000    0.222    0.429  101.095  196.542    2.637
  675.250    0.215    0.444   99.991  197.604    2.625
  675.500    0.212    0.454  108.219  198.668    2.617
  675.750    0.221    0.463  134.677  199.625    2.644
  676.000    0.207    0.474  143.215  200.899    2.680
  676.250    0.154    0.468  158.598  201.754    2.770
  676.500    0.122    0.388  113.197  202.299    2.861
  676.750    0.114    0.367   94.984  202.219    2.973
  677.000    0.102    0.375   44.979  202.246    2.942
  677.250    0.090    0.361   37.467  202.375    2.545
  677.500    0.060    0.355   30.887  202.092    2.403
  677.750    0.103    0.385   28.354  201.809    2.410
  678.000    0.159    0.413   30.235  201.525    2.551
  678.250    0.173    0.373   33.051  201.031    2.851
  678.500    0.108    0.281   32.259  200.641    3.308
  678.750    0.064    0.243   30.654  200.355    3.962
  679.000    0.034    0.225   30.359  200.070    4.862
  679.250    0.086    0.226   29.566  199.377    4.661
  679.500    0.121    0.239   26.596  198.882    4.185
  679.750    0.158    0.266   27.984  198.605    3.858
  680.000    0.171    0.293   29.241  198.416    3.712
