~VERSION INFORMATION
 VERS.                 2.0:   CWLS LOG ASCII STANDARD -VERSION 2.0
 WRAP.                  NO:   ONE LINE PER DEPTH STEP
~WELL INFORMATION BLOCK
#MNEM.UNIT           DATA                    DESCRIPTION OF MNEMONIC
#---------    -------------------            -------------------------------
# Generated from Intellog Unique Number	CW_70_72/WELL/875
NULL.         -999.25                        : NULL_VALUE
WELL.         PETROREP ET AL SMITH 07-06     : Well_name    - WELL              
LOC .         07-06-072-25W4                 : Location     - LOCATION          
UWI .         00/07-06-072-25W4/0            : Uwi          - UNIQUE WELL ID    
ENTR.         JAYE                           : Entered      - ENTERED BY        
SRVC.         SCHLUMBERGER                   : Scn          - SERVICE COMPANY   
DATE.         24 NOV 77                      : Date         - LOG DATE          
STRT.M        393.192                        : top_depth    - START DEPTH       
STOP.M        618.692                        : bot_depth    - STOP DEPTH        
STEP.M        0.25                           : increment    - STEP LENGTH       
~CURVE INFORMATION BLOCK
#MNEM UNIT       ERCB CURVE CODE    CURVE DESCRIPTION
#-----------   ------------------   ----------------------------------
DEPT.M        00 001 00 00         : DEPTH        - DEPTH                       
DPHI.V/V      00 890 00 00         : PHID         - DENSITY POROSITY (SANDSTONE)
NPHI.V/V      00 330 00 00         : PHIN         - NEUTRON POROSITY (SANDSTONE)
GR  .API      00 310 00 00         : GR           - GAMMA RAY                   
CALI.MM       00 280 01 00         : CAL          - CALIPER                     
ILD .OHMM     00 120 00 00         : RESD         - DEEP RESISTIVITY (DIL)      
~PARAMETER INFORMATION       
#MNEM.UNIT           DATA             DESCRIPTION OF MNEMONIC
#---------         -----------     ------------------------------
GL  .M        582.473              : gl           - GROUND LEVEL ELEVATION      
EREF.M        586.13               : kb           - ELEVATION OF DEPTH REFERENCE
DATM.M        582.473              : datum        - DATUM ELEVATION             
TDD .M        621.792              : tdd          - TOTAL DEPTH DRILLER         
RUN .         ONE                  : Run          - RUN NUMBER                  
ENG .         KUBICA/RIVOLLIER     : Engineer     - RECORDING ENGINEER          
WIT .         HERB                 : Witness      - WITNESSED BY                
BASE.         EDM                  : Branch       - HOME BASE OF LOGGING UNIT   
MUD .         GEL                  : Mud_type     - MUD TYPE                    
MATR.         SANDSTONE            : Logunit      - NEUTRON MATRIX              
TMAX.C        27.7778              : BHT          - MAXIMUM RECORDED TEMPERATURE
BHTD.M        621.487              : BHTDEP       - MAXIMUM RECORDED TEMPERATURE
RMT .C        13.3333              : MDTP         - TEMPERATURE OF MUD          
MUDD.KG/M     1164                 : MWT          - MUD DENSITY                 
NEUT.         1                    : NEUTRON      - NEUTRON TYPE                
RESI.         0                    : RESIST       - RESISTIVITY TYPE            
RM  .OHMM     3.86                 : RM           - RESISTIVITY OF MUD          
RMC .OHMM     0                    : RMC          - RESISTIVITY OF MUD CAKE     
RMF .OHMM     3.1                  : RMF          - RESISTIVITY OF MUD FILTRATE 
SUFT.C        0                    : SUFT         - SURFACE TEMPERATURE         
~A  DEPTH     PHID     PHIN       GR      CAL     RESD
# ...
  539.192    0.186    0.398   92.761  168.948    5.561
  539.442    0.176    0.385   89.468  168.721    5.764
  539.692    0.169    0.372   86.118  168.605    6.054
  539.942    0.173    0.367   82.821  168.682    6.310
  540.192    0.155    0.359   80.273  168.033    6.455
  540.442    0.162    0.341   80.319  167.072    6.385
  540.692    0.172    0.361   83.961  166.011    6.256
  540.942    0.184    0.374   85.618  165.871    6.107
  541.192    0.193    0.362   89.326  165.533    5.862
  541.442    0.182    0.359   90.920  165.635    5.658
  541.692    0.173    0.363   88.741  166.148    5.503
  541.942    0.167    0.364   87.058  166.960    5.442
  542.192    0.171    0.369   89.031  167.456    5.403
  542.442    0.179    0.378   91.865  167.956    5.384
  542.692    0.164    0.377   89.625  167.937    5.396
  542.942    0.148    0.383   88.002  166.980    5.397
  543.192    0.150    0.384   90.590  167.065    5.388
  543.442    0.166    0.386   93.429  167.456    5.389
  543.692    0.156    0.391   92.488  167.967    5.411
  543.942    0.146    0.384   92.289  168.572    5.443
  544.192    0.143    0.384   92.342  169.183    5.516
  544.442    0.145    0.382   92.645  169.784    5.580
  544.692    0.144    0.368   93.184  169.986    5.613
  544.942    0.156    0.375   96.391  170.371    5.625
  545.192    0.162    0.384  100.836  170.679    5.616
  545.442    0.147    0.393  101.260  171.074    5.617
  545.692    0.132    0.411  100.443  171.069    5.736
  545.942    0.145    0.428   95.416  171.238    5.956
  546.192    0.159    0.407   90.697  172.262    6.519
  546.442    0.166    0.380   85.050  172.146    7.147
  546.692    0.174    0.366   80.331  171.497    8.416
  546.942    0.189    0.359   76.356  171.174    9.743
  547.192    0.194    0.365   72.075  171.244   11.029
  547.442    0.190    0.369   70.945  171.243   12.139
  547.692    0.195    0.368   73.412  171.215   12.535
  547.942    0.202    0.364   75.195  171.208   12.191
  548.192    0.197    0.371   78.530  171.054   11.967
  548.442    0.196    0.382   78.831  170.617   11.770
  548.692    0.191    0.383   77.822  169.786   11.533
  548.942    0.187    0.366   79.297  169.341   11.216
  549.192    0.189    0.348   82.073  169.200   10.331
  549.442    0.173    0.340   85.713  169.077    9.641
  549.692    0.166    0.351   89.173  169.169    8.896
  549.942    0.157    0.365   91.759  169.134    7.863
  550.192    0.152    0.384   91.256  169.114    7.283
  550.442    0.155    0.392   84.245  169.204    7.971
  550.692    0.087    0.373   75.003  168.767    9.385
  550.942    0.054    0.285   68.060  167.693   11.259
  551.192    0.029    0.256   59.877  165.788   13.133
  551.442    0.032    0.279   54.970  164.190   14.728
  551.692    0.061    0.294   58.365  162.930   14.843
  551.942    0.073    0.296   63.549  162.694   12.126
  552.192    0.087    0.307   70.101  162.561   10.112
  552.442    0.111    0.327   76.902  162.653    8.354
  552.692    0.140    0.366   81.348  162.327    7.274
  552.942    0.131    0.382   83.939  162.294    6.917
  553.192    0.118    0.374   85.107  162.702    6.880
  553.442    0.117    0.354   87.941  162.880    6.894
  553.692    0.121    0.335   85.764  163.187    6.922
  553.942    0.108    0.331   81.412  163.480    6.976
  554.192    0.125    0.351   84.627  163.873    7.017
  554.442    0.133    0.362   85.356  164.180    7.112
  554.692    0.122    0.352   83.611  164.456    7.153
  554.942    0.105    0.351   84.590  164.962    7.223
  555.192    0.121    0.356   85.199  165.484    7.320
  555.442    0.151    0.356   84.192  165.552    7.446
  555.692    0.166    0.363   81.145  165.633    7.718
  555.942    0.145    0.371   83.621  165.303    7.985
  556.192    0.112    0.362   83.475  164.761    8.307
  556.442    0.093    0.336   79.688  164.419    8.725
  556.692    0.080    0.327   73.299  164.512    8.909
  556.942    0.098    0.371   72.422  165.750    8.844
  557.192    0.143    0.374   76.805  166.890    8.732
  557.442    0.153    0.366   82.487  166.964    8.620
  557.692    0.165    0.365   84.579  166.628    8.622
  557.942    0.169    0.359   86.740  166.610    8.624
  558.192    0.156    0.357   90.129  166.693    8.675
  558.442    0.131    0.355   85.287  167.412    8.677
  558.692    0.110    0.342   85.529  168.339    8.566
  558.942    0.081    0.329   86.259  168.431    8.284
  559.192    0.058    0.311   82.095  168.189    7.892
  559.442    0.097    0.332   83.943  167.016    7.504
  559.692    0.128    0.350   88.763  165.854    7.271
  559.942    0.150    0.345   93.703  165.195    7.137
  560.192    0.145    0.340   96.722  165.177    7.220
  560.442    0.148    0.337   96.277  165.367    7.526
  560.692    0.117    0.310   85.247  165.574    7.889
  560.942    0.099    0.302   77.803  165.649    8.086
  561.192    0.092    0.304   77.853  166.260    7.461
  561.442    0.112    0.325   82.799  166.649    6.153
  561.692    0.139    0.359   88.729  167.256    4.869
  561.942    0.151    0.383   93.049  168.383    3.889
  562.192    0.168    0.424   97.308  169.311    3.286
  562.442    0.202    0.490   99.962  171.284    2.684
  562.692    0.228    0.494   99.088  175.143    2.333
  562.942    0.207    0.447   97.646  173.335    2.303
  563.192    0.184    0.450   99.989  171.850    2.347
  563.442    0.193    0.460  101.462  173.094    2.428
  563.692    0.188    0.476  100.582  175.171    2.648
  563.942    0.169    0.486   98.032  176.715    2.969
  564.192    0.187    0.484   95.052  175.651    3.336
  564.442    0.167    0.374   93.557  173.854    3.734
  564.692    0.131    0.370   94.288  172.363    4.565
  564.942    0.155    0.370   95.012  171.922    4.968
  565.192    0.148    0.375   96.117  171.072    5.149
  565.442    0.144    0.383   97.037  169.797    5.209
  565.692    0.142    0.387   96.652  168.819    5.298
  565.942    0.135    0.372   94.476  167.868    5.586
  566.192    0.139    0.352   92.665  167.738    6.136
  566.442    0.087    0.327   89.247  167.299    6.920
  566.692    0.046    0.298   82.918  166.969    7.295
  566.942    0.014    0.276   75.724  166.735    7.434
  567.192    0.057    0.325   73.233  166.307    7.326
  567.442    0.094    0.354   79.477  165.855    7.259
  567.692    0.142    0.362   88.814  165.318    7.166
  567.942    0.119    0.357   89.054  165.285    7.317
  568.192    0.111    0.344   83.528  165.366    7.743
  568.442    0.102    0.328   78.196  165.156    8.040
  568.692    0.089    0.339   77.568  165.442    7.820
  568.942    0.137    0.360   80.029  165.839    7.463
  569.192    0.142    0.362   83.421  165.711    7.177
  569.442    0.146    0.357   86.564  164.765    6.993
  569.692    0.145    0.355   88.352  164.420    6.942
  569.942    0.154    0.364   87.596  164.400    6.905
  570.192    0.155    0.355   82.879  164.582    6.715
  570.442    0.138    0.346   75.930  164.468    6.386
  570.692    0.123    0.337   68.673  163.913    5.498
  570.942    0.139    0.327   60.055  162.426    4.707
  571.192    0.173    0.323   50.691  159.574    4.090
  571.442    0.241    0.315   40.400  156.614    3.636
  571.692    0.238    0.306   35.991  154.181    3.355
  571.942    0.225    0.333   37.531  153.225    3.251
  572.192    0.248    0.332   38.013  153.096    3.144
  572.442    0.261    0.314   34.657  153.085    3.063
  572.692    0.257    0.308   35.450  153.071    3.024
  572.942    0.251    0.317   35.562  153.139    3.002
  573.192    0.254    0.319   33.695  153.342    2.997
  573.442    0.265    0.317   32.566  153.525    2.959
  573.692    0.262    0.313   33.482  153.818    2.883
  573.942    0.262    0.309   33.598  153.899    2.867
  574.192    0.258    0.303   31.173  154.422    2.884
  574.442    0.265    0.310   28.184  154.602    2.923
  574.692    0.271    0.313   25.756  154.171    2.962
  574.942    0.265    0.317   26.120  154.235    2.963
  575.192    0.256    0.326   27.592  154.641    2.942
  575.442    0.237    0.333   30.119  155.038    2.829
