~VERSION INFORMATION
 VERS.                 2.0:   CWLS LOG ASCII STANDARD -VERSION 2.0
 WRAP.                  NO:   ONE LINE PER DEPTH STEP
~WELL INFORMATION BLOCK
#MNEM.UNIT           DATA                    DESCRIPTION OF MNEMONIC
#---------    -------------------            -------------------------------
# Generated from Intellog Unique Number	CS_71_72/WELL/737
WELL.         KISSINGER ET AL CORRIGAL       : Well_name    - WELL
LOC .         00/06-07-072-11W4/0            : Location     - LOCATION
UWI .         00/06-07-072-11W4/0            : Uwi          - UNIQUE WELL ID
ENTR.         SP                             : Entered      - ENTERED BY
SRVC.         SCHLUMBERGER                   : Scn          - SERVICE COMPANY
STRT.M        300                            : top_depth    - START DEPTH
STOP.M        529                            : bot_depth    - STOP DEPTH
STEP.M        0.25                           : increment    - STEP LENGTH
 NULL. -999.2500:NULL Value
~CURVE INFORMATION BLOCK
#MNEM UNIT       ERCB CURVE CODE    CURVE DESCRIPTION
#-----------   ------------------   ----------------------------------
DEPT.M        00 001 00 00         : DEPTH        - DEPTH
ILD .OHMM     00 120 00 00         : RESD         - DEEP RESISTIVITY (DIL)
DPHI.V/V      00 890 00 00         : PHID         - DENSITY POROSITY (LIMESTONE)
NPHI.V/V      00 330 00 00         : PHIN         - NEUTRON POROSITY (LIMESTONE)
GR  .API      00 310 00 00         : GR           - GAMMA RAY
~PARAMETER INFORMATION
#MNEM.UNIT           DATA             DESCRIPTION OF MNEMONIC
#---------         -----------     ------------------------------
GL  .M        641.09               : gl           - GROUND LEVEL ELEVATION
EREF.M        644.99               : kb           - ELEVATION OF DEPTH REFERENCE
DATM.M        641.09               : datum        - DATUM ELEVATION
TDD .M        513                  : tdd          - TOTAL DEPTH DRILLER
RUN .         ONE                  : Run          - RUN NUMBER
ENG .         BILL                 : Engineer     - RECORDING ENGINEER
WIT .         JIM                  : Witness      - WITNESSED BY
MUD .         GEL                  : Mud_type     - MUD TYPE
MATR.         LIMESTONE            : Logunit      - NEUTRON MATRIX
TMAX.C        30                   : BHT          - MAXIMUM RECORDED TEMPERATURE
BHTD.M        513                  : BHTDEP       - MAXIMUM RECORDED TEMPERATURE
MATR.         1                    : LOGUNIT      - NEUTRON MATRIX
RMT .C        25                   : MDTP         - TEMPERATURE OF MUD
NEUT.         1                    : NEUTRON      - NEUTRON TYPE
RESI.         0                    : RESIST       - RESISTIVITY TYPE
RMC .OHMM     0.25                 : RMC          - RESISTIVITY OF MUD CAKE
RMF .OHMM     0.25                 : RMF          - RESISTIVITY OF MUD FILTRATE
SUFT.C        15                   : SUFT         - SURFACE TEMPERATURE
~A  DEPTH     RESD     PHID     PHIN       GR
# ...
  430.500    5.965    0.226    0.434   76.140
  430.750    5.563    0.220    0.434   75.544
  431.000    5.161    0.215    0.411   74.944
  431.250    4.920    0.210    0.418   74.344
  431.500    5.000    0.228    0.426   73.744
  431.750    4.919    0.243    0.458   72.535
  432.000    4.919    0.261    0.433   71.326
  432.250    5.079    0.272    0.411   70.118
  432.500    5.159    0.279    0.449   68.913
  432.750    5.400    0.284    0.467   68.311
  433.000    5.560    0.284    0.409   68.318
  433.250    5.801    0.262    0.387   71.971
  433.500    5.961    0.251    0.373   76.230
  433.750    6.042    0.234    0.418   78.666
  434.000    6.122    0.229    0.401   78.064
  434.250    6.121    0.233    0.378   74.428
  434.500    6.201    0.234    0.367   73.222
  434.750    6.201    0.233    0.389   73.835
  435.000    6.281    0.229    0.379   73.236
  435.250    6.361    0.223    0.371   72.639
  435.500    6.522    0.219    0.364   73.254
  435.750    6.682    0.224    0.376   73.259
  436.000    6.762    0.229    0.396   73.873
  436.250    6.842    0.233    0.411   75.099
  436.500    7.002    0.235    0.402   75.711
  436.750    7.002    0.230    0.394   75.717
  437.000    7.002    0.225    0.391   74.509
  437.250    7.002    0.218    0.393   73.302
  437.500    7.001    0.216    0.384   73.921
  437.750    7.001    0.211    0.373   74.532
  438.000    7.001    0.206    0.371   76.363
  438.250    6.840    0.202    0.370   77.583
  438.500    6.599    0.201    0.388   79.414
  438.750    6.438    0.202    0.384   80.028
  439.000    6.357    0.206    0.379   80.642
  439.250    6.036    0.212    0.390   81.259
  439.500    5.794    0.217    0.416   80.656
  439.750    5.634    0.214    0.428   80.057
  440.000    5.232    0.207    0.426   80.066
  440.250    4.990    0.202    0.422   81.895
  440.500    4.589    0.220    0.435   83.118
  440.750    4.187    0.235    0.452   83.729
  441.000    3.785    0.252    0.458   83.737
  441.250    3.463    0.266    0.455   83.137
  441.500    3.383    0.253    0.448   80.108
  441.750    3.543    0.238    0.443   79.509
  442.000    3.864    0.235    0.408   80.732
  442.250    4.024    0.227    0.355   82.560
  442.500    4.265    0.234    0.335   85.605
  442.750    4.345    0.240    0.360   87.434
  443.000    4.506    0.238    0.389   88.047
  443.250    4.586    0.236    0.414   86.233
  443.500    4.585    0.233    0.424   83.206
  443.750    4.746    0.226    0.409   82.001
  444.000    4.906    0.223    0.395   81.399
  444.250    5.066    0.221    0.383   81.406
  444.500    5.227    0.220    0.396   80.808
  444.750    5.387    0.221    0.403   79.601
  445.000    5.548    0.210    0.416   78.393
  445.250    5.708    0.201    0.430   76.577
  445.500    5.949    0.179    0.408   73.547
  445.750    6.270    0.157    0.418   71.125
  446.000    6.751    0.128    0.426   66.275
  446.250    7.233    0.104    0.373   61.423
  446.500    7.956    0.063    0.325   56.572
  446.750    8.518    0.035    0.237   57.795
  447.000    8.919    0.024    0.209   66.304
  447.250    8.597    0.093    0.392   72.384
  447.500    7.955    0.155    0.392   76.643
  447.750    6.990    0.176    0.373   77.259
  448.000    6.589    0.173    0.361   77.264
  448.250    6.106    0.181    0.364   77.275
  448.500    5.945    0.188    0.369   77.887
  448.750    5.865    0.191    0.377   78.505
  449.000    5.865    0.180    0.408   79.118
  449.250    5.945    0.174    0.427   80.340
  449.500    6.025    0.190    0.414   81.562
  449.750    6.024    0.203    0.375   82.174
  450.000    6.104    0.204    0.363   80.971
  450.250    6.185    0.200    0.357   79.761
  450.500    6.184    0.199    0.347   79.160
  450.750    6.184    0.197    0.360   82.207
  451.000    6.103    0.199    0.374   83.426
  451.250    6.103    0.203    0.385   85.257
  451.500    6.023    0.203    0.395   84.658
  451.750    5.942    0.198    0.418   84.056
  452.000    5.861    0.194    0.434   82.242
  452.250    5.781    0.192    0.417   81.036
  452.500    5.781    0.189    0.411   81.041
  452.750    5.700    0.199    0.405   81.659
  453.000    5.619    0.210    0.384   82.271
  453.250    5.458    0.211    0.358   82.888
  453.500    5.297    0.203    0.397   82.287
  453.750    5.217    0.205    0.405   79.258
  454.000    4.895    0.197    0.400   75.015
  454.250    4.735    0.188    0.359   71.987
  454.500    4.734    0.183    0.346   70.778
  454.750    4.814    0.184    0.357   72.609
  455.000    4.814    0.184    0.390   74.435
  455.250    4.733    0.189    0.410   77.484
  455.500    4.653    0.192    0.383   78.097
  455.750    4.412    0.195    0.363   77.498
  456.000    4.010    0.204    0.392   76.897
  456.250    3.287    0.225    0.410   76.903
  456.500    2.885    0.240    0.434   76.912
  456.750    2.643    0.248    0.410   76.918
  457.000    2.322    0.242    0.379   78.144
  457.250    2.241    0.233    0.402   79.363
  457.500    2.161    0.228    0.438   81.189
  457.750    2.161    0.222    0.457   84.236
  458.000    2.240    0.222    0.457   85.456
  458.250    2.321    0.224    0.424   84.249
  458.500    2.481    0.231    0.410   81.219
  458.750    2.641    0.241    0.388   76.978
  459.000    2.962    0.230    0.379   75.162
  459.250    3.283    0.207    0.377   73.348
  459.500    3.685    0.200    0.374   73.357
  459.750    3.845    0.218    0.373   73.974
  460.000    4.086    0.223    0.405   74.588
  460.250    4.166    0.219    0.376   75.201
  460.500    4.246    0.211    0.347   75.814
  460.750    4.487    0.213    0.353   75.822
  461.000    4.808    0.205    0.339   71.581
  461.250    4.968    0.117    0.316   70.370
  461.500    5.209    0.084    0.300   72.809
  461.750    5.289    0.062    0.350   75.243
  462.000    5.449    0.123    0.377   78.290
  462.250    5.529    0.172    0.365   78.902
  462.500    5.288    0.201    0.365   78.909
  462.750    4.886    0.207    0.384   80.741
  463.000    4.484    0.204    0.417   81.960
  463.250    4.002    0.200    0.400   85.008
  463.500    3.680    0.194    0.386   86.228
  463.750    3.439    0.192    0.378   88.056
  464.000    3.278    0.192    0.412   89.277
  464.250    3.117    0.192    0.429   90.501
  464.500    3.037    0.193    0.447   91.115
  464.750    2.956    0.195    0.461   91.729
  465.000    2.876    0.195    0.457   92.348
  465.250    2.875    0.200    0.446   92.960
  465.500    2.875    0.210    0.438   94.789
  465.750    2.955    0.203    0.430   95.402
  466.000    2.955    0.186    0.415   94.804
  466.250    3.035    0.176    0.413   91.776
  466.500    3.115    0.173    0.415   89.960
  466.750    3.115    0.181    0.398   88.752
  467.000    3.195    0.186    0.373   89.368
  467.250    3.194    0.193    0.437   90.588
  467.500    3.275    0.197    0.452   91.206
  467.750    3.355    0.201    0.419   91.210
  468.000    3.354    0.203    0.382   88.789
  468.250    3.354    0.204    0.362   86.977
  468.500    3.354    0.205    0.361   86.374
  468.750    3.353    0.205    0.351   87.597
  469.000    3.353    0.207    0.363   90.642
  469.250    3.192    0.209    0.399   93.081
  469.500    3.112    0.211    0.442   93.692
  469.750    3.031    0.211    0.508   94.306
  470.000    3.272    0.208    0.428   92.492
  470.250    3.914    0.197    0.384   85.820
  470.500    4.235    0.177    0.359   82.184
  470.750    5.199    0.145    0.381   80.977
  471.000    6.002    0.134    0.337   78.555
  471.250    6.805    0.116    0.293   75.528
  471.500    7.126    0.094    0.272   74.925
  471.750    7.286    0.112    0.305   73.720
  472.000    6.964    0.150    0.328   74.335
  472.250    6.723    0.208    0.329   74.948
  472.500    6.562    0.208    0.306   74.958
  472.750    6.803    0.201    0.313   74.355
  473.000    7.124    0.222    0.306   71.934
  473.250    7.686    0.243    0.292   68.905
  473.500    8.248    0.250    0.303   65.876
  473.750    8.649    0.237    0.322   64.061
