~VERSION INFORMATION
 VERS.                 2.0:   CWLS LOG ASCII STANDARD -VERSION 2.0
 WRAP.                  NO:   ONE LINE PER DEPTH STEP
~WELL INFORMATION BLOCK
#MNEM.UNIT           DATA                    DESCRIPTION OF MNEMONIC
#---------    -------------------            -------------------------------
# Generated from Intellog Unique Number	CS_73_76/WELL/2171
WELL.         UNIVERSAL EXPLORATIONS LT      : Well_name    - WELL
LOC .         00/06-33-074-13W4/0            : Location     - LOCATION
UWI .         00/06-33-074-13W4/0            : Uwi          - UNIQUE WELL ID
ENTR.         SP                             : Entered      - ENTERED BY
SRVC.         SCHLUMBERGER                   : Scn          - SERVICE COMPANY
STRT.M        371.856                        : top_depth    - START DEPTH
STOP.M        600.106                        : bot_depth    - STOP DEPTH
STEP.M        0.25                           : increment    - STEP LENGTH
 NULL. -999.2500:NULL Value
~CURVE INFORMATION BLOCK
#MNEM UNIT       ERCB CURVE CODE    CURVE DESCRIPTION
#-----------   ------------------   ----------------------------------
DEPT.M        00 001 00 00         : DEPTH        - DEPTH
GR  .API      00 310 00 00         : GR           - GAMMA RAY
DPHI.V/V      00 890 00 00         : PHID         - DENSITY POROSITY (SANDSTONE)
NPHI.V/V      00 330 00 00         : PHIN         - NEUTRON POROSITY (SANDSTONE)
ILD .OHMM     00 120 00 00         : RESD         - DEEP RESISTIVITY (DIL)
~PARAMETER INFORMATION
#MNEM.UNIT           DATA             DESCRIPTION OF MNEMONIC
#---------         -----------     ------------------------------
GL  .M        731.672              : gl           - GROUND LEVEL ELEVATION
EREF.M        734.873              : kb           - ELEVATION OF DEPTH REFERENCE
DATM.M        731.672              : datum        - DATUM ELEVATION
TDD .M        614.172              : tdd          - TOTAL DEPTH DRILLER
RUN .         ONE                  : Run          - RUN NUMBER
ENG .         BILL                 : Engineer     - RECORDING ENGINEER
WIT .         JIM                  : Witness      - WITNESSED BY
MUD .         GEL                  : Mud_type     - MUD TYPE
MATR.         SANDSTONE            : Logunit      - NEUTRON MATRIX
TMAX.C        25.5556              : BHT          - MAXIMUM RECORDED TEMPERATURE
BHTD.M        611.124              : BHTDEP       - MAXIMUM RECORDED TEMPERATURE
MATR.         1                    : LOGUNIT      - NEUTRON MATRIX
RMT .C        25                   : MDTP         - TEMPERATURE OF MUD
NEUT.         1                    : NEUTRON      - NEUTRON TYPE
RESI.         0                    : RESIST       - RESISTIVITY TYPE
RMC .OHMM     0.25                 : RMC          - RESISTIVITY OF MUD CAKE
RMF .OHMM     0.25                 : RMF          - RESISTIVITY OF MUD FILTRATE
SUFT.C        15                   : SUFT         - SURFACE TEMPERATURE
~A  DEPTH       GR     PHID     PHIN     RESD
# ...
  545.856   92.319    0.203    0.364   10.782
  546.106   99.970    0.191    0.358   10.373
  546.356  105.996    0.205    0.374   10.448
  546.606  105.666    0.228    0.390   11.372
  546.856  103.721    0.240    0.402   12.609
  547.106  100.675    0.241    0.391   14.026
  547.356   97.901    0.227    0.390   15.748
  547.606   95.740    0.212    0.400   18.489
  547.856   91.641    0.219    0.406   19.900
  548.106   87.748    0.223    0.404   21.290
  548.356   83.791    0.229    0.388   19.216
  548.606   81.514    0.218    0.380   15.336
  548.856   84.565    0.188    0.361   11.574
  549.106   91.460    0.130    0.346    8.672
  549.356  109.581    0.139    0.351    7.125
  549.606  118.379    0.173    0.367    6.481
  549.856  125.083    0.163    0.379    6.212
  550.106  123.566    0.176    0.390    6.205
  550.356  119.784    0.189    0.394    6.383
  550.606  115.102    0.199    0.411    7.904
  550.856  111.971    0.196    0.420    9.548
  551.106  108.688    0.202    0.406   11.494
  551.356  102.396    0.198    0.379   13.898
  551.606   95.935    0.225    0.382   15.515
  551.856   88.373    0.260    0.395   18.153
  552.106   84.345    0.256    0.395   20.531
  552.356   81.719    0.271    0.376   21.580
  552.606   78.849    0.296    0.347   23.499
  552.856   76.780    0.284    0.358   25.044
  553.106   75.589    0.259    0.371   25.121
  553.356   75.109    0.250    0.371   24.054
  553.606   76.275    0.247    0.361   22.462
  553.856   79.935    0.239    0.353   20.377
  554.106   80.936    0.235    0.358   18.643
  554.356   77.181    0.227    0.361   16.962
  554.606   78.895    0.221    0.345   15.781
  554.856   80.332    0.212    0.339   14.576
  555.106   81.061    0.224    0.344   13.172
  555.356   82.330    0.222    0.353   12.451
  555.606   85.787    0.203    0.369   11.641
  555.856   88.148    0.146    0.365   11.057
  556.106   90.251    0.172    0.361   10.944
  556.356   81.331    0.203    0.359   11.326
  556.606   72.726    0.212    0.366   12.911
  556.856   63.348    0.232    0.362   14.609
  557.106   56.801    0.253    0.349   18.245
  557.356   52.609    0.257    0.341   20.644
  557.606   49.731    0.271    0.343   24.247
  557.856   47.133    0.286    0.350   27.912
  558.106   50.017    0.287    0.355   31.496
  558.356   52.990    0.281    0.342   28.224
  558.606   60.429    0.272    0.372   18.385
  558.856   69.825    0.252    0.390   14.282
  559.106   80.433    0.210    0.392    9.662
  559.356   94.244    0.166    0.430    5.941
  559.606  109.272    0.096    0.481    4.855
  559.856  117.095    0.117    0.504    4.644
  560.106  117.345    0.177    0.495    5.426
  560.356  112.043    0.194    0.490    6.401
  560.606  101.596    0.212    0.481    7.636
  560.856   88.153    0.227    0.423    8.900
  561.106   77.802    0.245    0.393   10.435
  561.356   71.240    0.259    0.395   10.905
  561.606   64.652    0.275    0.399   10.199
  561.856   59.639    0.267    0.376    9.252
  562.106   57.711    0.269    0.363    8.160
  562.356   60.412    0.271    0.364    7.447
  562.606   69.030    0.273    0.382    7.071
  562.856   74.571    0.274    0.373    7.093
  563.106   82.913    0.223    0.376    8.538
  563.356   89.259    0.233    0.391   10.140
  563.606   90.684    0.236    0.396   12.508
  563.856   88.082    0.218    0.376   14.892
  564.106   84.874    0.172    0.353   15.863
  564.356   80.841    0.140    0.328   16.355
  564.606   80.572    0.175    0.321   15.151
  564.856   89.248    0.215    0.347   14.288
  565.106   94.939    0.222    0.365   11.670
  565.356   99.662    0.213    0.386   10.300
  565.606  103.905    0.198    0.394    9.016
  565.856  110.322    0.172    0.385    8.208
  566.106  114.714    0.146    0.383    7.790
  566.356  117.524    0.146    0.385    7.431
  566.606  117.907    0.151    0.382    7.328
  566.856  118.339    0.153    0.379    7.176
  567.106  116.478    0.163    0.377    7.200
  567.356  114.609    0.181    0.369    7.434
  567.606  112.217    0.168    0.369    7.643
  567.856  106.751    0.186    0.381    8.219
  568.106  102.113    0.200    0.389    8.931
  568.356  101.845    0.209    0.392    9.945
  568.606  105.070    0.190    0.394   11.046
  568.856   94.698    0.184    0.366   12.576
  569.106   85.126    0.200    0.352   14.146
  569.356   78.144    0.230    0.359   16.756
  569.606   67.602    0.270    0.375   21.089
  569.856   51.491    0.283    0.366   24.869
  570.106   40.544    0.283    0.352   28.860
  570.356   36.519    0.280    0.354   34.056
  570.606   38.198    0.264    0.336   38.283
  570.856   43.772    0.254    0.333   34.683
  571.106   53.069    0.242    0.341   29.361
  571.356   59.879    0.250    0.350   24.329
  571.606   65.088    0.247    0.357   21.656
  571.856   71.450    0.238    0.369   18.241
  572.106   76.019    0.239    0.382   15.106
  572.356   81.108    0.212    0.374   13.489
  572.606   86.086    0.092    0.346   12.410
  572.856   88.028    0.081    0.311   13.088
  573.106   80.235    0.087    0.257   12.478
  573.356   78.301    0.141    0.298   11.241
  573.606   89.052    0.177    0.331   10.378
  573.856   99.766    0.179    0.346    9.315
  574.106  106.058    0.144    0.350    8.713
  574.356  110.586    0.147    0.355    8.404
  574.606  105.421    0.176    0.362    9.083
  574.856   97.927    0.204    0.374    9.940
  575.106   86.396    0.237    0.416   11.211
  575.356   70.341    0.263    0.431   12.941
  575.606   59.438    0.276    0.406   13.902
  575.856   54.356    0.274    0.379   14.801
  576.106   54.935    0.277    0.369   15.351
  576.356   60.871    0.273    0.368   15.095
  576.606   71.502    0.259    0.363   14.470
  576.856   80.711    0.255    0.358   12.888
  577.106   92.547    0.245    0.350   12.016
  577.356  106.504    0.213    0.343   10.757
  577.606  118.470    0.195    0.331   10.153
  577.856  124.968    0.184    0.325    9.417
  578.106  119.265    0.196    0.319    8.295
  578.356  101.811    0.221    0.339    7.708
  578.606   89.285    0.228    0.353    7.028
  578.856   79.453    0.221    0.358    6.388
  579.106   72.404    0.237    0.360    5.831
  579.356   67.954    0.258    0.362    5.543
  579.606   66.006    0.266    0.360    5.276
  579.856   69.368    0.257    0.351    5.304
  580.106   75.955    0.250    0.351    5.225
  580.356   78.003    0.239    0.356    5.294
  580.606   78.397    0.235    0.360    5.559
  580.856   72.775    0.248    0.354    5.659
  581.106   71.263    0.254    0.345    5.925
  581.356   75.981    0.243    0.340    6.112
  581.606   79.102    0.219    0.346    6.302
  581.856   80.802    0.188    0.351    6.507
  582.106   81.520    0.161    0.350    6.526
  582.356   82.191    0.194    0.345    6.392
  582.606   85.963    0.198    0.343    6.201
  582.856   83.064    0.199    0.344    5.996
  583.106   82.490    0.196    0.361    5.804
  583.356   79.642    0.198    0.368    5.612
  583.606   74.656    0.202    0.357    5.471
  583.856   75.952    0.201    0.334    5.202
  584.106   74.117    0.211    0.339    4.855
  584.356   71.050    0.219    0.352    4.720
  584.606   69.166    0.236    0.362    4.577
  584.856   73.949    0.216    0.341    4.577
  585.106   76.659    0.203    0.346    4.575
  585.356   73.203    0.224    0.335    4.583
  585.606   69.530    0.207    0.308    4.490
  585.856   65.305    0.200    0.294    4.388
  586.106   66.423    0.197    0.309    4.127
  586.356   67.279    0.238    0.324    3.912
  586.606   67.226    0.238    0.344    3.720
  586.856   67.581    0.260    0.350    3.666
  587.106   68.175    0.253    0.354    3.588
  587.356   66.570    0.242    0.364    3.595
  587.606   72.876    0.229    0.367    3.707
  587.856   78.823    0.215    0.368    3.806
  588.106   84.625    0.216    0.368    3.872
  588.356   87.205    0.202    0.371    3.838
  588.606   83.493    0.206    0.373    3.703
  588.856   73.722    0.221    0.374    3.422
  589.106   68.299    0.250    0.374    3.250
