~VERSION INFORMATION
 VERS.                 2.0:   CWLS LOG ASCII STANDARD -VERSION 2.0
 WRAP.                  NO:   ONE LINE PER DEPTH STEP
~WELL INFORMATION BLOCK
#MNEM.UNIT           DATA                    DESCRIPTION OF MNEMONIC
#---------    -------------------            -------------------------------
# Generated from Intellog Unique Number	CS_77_79/WELL/868
WELL.         CAVALIER ET AL PORTAGE         : Well_name    - WELL
LOC .         00/06-10-078-15W4/0            : Location     - LOCATION
UWI .         00/06-10-078-15W4/0            : Uwi          - UNIQUE WELL ID
ENTR.         JHS                            : Entered      - ENTERED BY
SRVC.         SCHLUMBERGER                   : Scn          - SERVICE COMPANY
STRT.M        225                            : top_depth    - START DEPTH
STOP.M        453                            : bot_depth    - STOP DEPTH
STEP.M        0.25                           : increment    - STEP LENGTH
 NULL. -999.2500:NULL Value
~CURVE INFORMATION BLOCK
#MNEM UNIT       ERCB CURVE CODE    CURVE DESCRIPTION
#-----------   ------------------   ----------------------------------
DEPT.M        00 001 00 00         : DEPTH        - DEPTH
DPHI.V/V      00 890 00 00         : PHID         - DENSITY POROSITY (LIMESTONE)
NPHI.V/V      00 330 00 00         : PHIN         - NEUTRON POROSITY (LIMESTONE)
GR  .API      00 310 00 00         : GR           - GAMMA RAY
ILD .OHMM     00 120 00 00         : RESD         - DEEP RESISTIVITY (DIL)
~PARAMETER INFORMATION
#MNEM.UNIT           DATA             DESCRIPTION OF MNEMONIC
#---------         -----------     ------------------------------
GL  .M        631.2                : gl           - GROUND LEVEL ELEVATION
EREF.M        635.2                : kb           - ELEVATION OF DEPTH REFERENCE
DATM.M        635.2                : datum        - DATUM ELEVATION
TDD .M        453.7                : tdd          - TOTAL DEPTH DRILLER
RUN .         ONE                  : Run          - RUN NUMBER
ENG .         BILL                 : Engineer     - RECORDING ENGINEER
WIT .         JIM                  : Witness      - WITNESSED BY
MUD .         GEL                  : Mud_type     - MUD TYPE
MATR.         LIMESTONE            : Logunit      - NEUTRON MATRIX
TMAX.C        21                   : BHT          - MAXIMUM RECORDED TEMPERATURE
BHTD.M        453.7                : BHTDEP       - MAXIMUM RECORDED TEMPERATURE
MATR.         1                    : LOGUNIT      - NEUTRON MATRIX
RMT .C        25                   : MDTP         - TEMPERATURE OF MUD
NEUT.         1                    : NEUTRON      - NEUTRON TYPE
RESI.         0                    : RESIST       - RESISTIVITY TYPE
RMC .OHMM     0.25                 : RMC          - RESISTIVITY OF MUD CAKE
RMF .OHMM     0.25                 : RMF          - RESISTIVITY OF MUD FILTRATE
SUFT.C        15                   : SUFT         - SURFACE TEMPERATURE
~A  DEPTH     PHID     PHIN       GR     RESD
  225.000    0.238    0.530  105.309    3.388
  225.250    0.235    0.514  102.253    3.453
  225.500    0.238    0.534  104.707    3.586
  225.750    0.244    0.500  106.549    3.656
  226.000    0.236    0.494  108.390    3.656
  226.250    0.238    0.505  112.068    3.727
  226.500    0.232    0.519  110.850    3.659
  226.750    0.216    0.528  109.629    3.660
  227.000    0.214    0.525  112.697    3.593
  227.250    0.224    0.512  112.089    3.527
  227.500    0.233    0.516  111.481    3.528
  227.750    0.231    0.506  112.098    3.463
  228.000    0.217    0.501  109.653    3.400
  228.250    0.217    0.495  105.373    3.276
  228.500    0.226    0.478  101.704    3.156
  228.750    0.230    0.490   98.036    3.098
  229.000    0.237    0.505   99.264    2.985
  229.250    0.264    0.528  107.229    2.930
  229.500    0.281    0.555  112.132    2.877
  229.750    0.261    0.567  112.749    2.824
  230.000    0.264    0.551  110.305    2.773
  230.250    0.270    0.529  109.698    2.773
  230.500    0.256    0.512  107.865    2.774
  230.750    0.227    0.516  107.258    2.775
  231.000    0.228    0.533  109.099    2.828
  231.250    0.216    0.550  104.819    2.829
  231.500    0.210    0.568  101.150    2.884
  231.750    0.225    0.575   98.706    2.939
  232.000    0.233    0.570   99.323    2.996
  232.250    0.249    0.547  106.063    3.053
  232.500    0.250    0.540  106.069    3.112
  232.750    0.243    0.504  106.685    3.172
  233.000    0.237    0.492  103.017    3.233
  233.250    0.238    0.473  100.572    3.358
  233.500    0.242    0.470  100.577    3.423
  233.750    0.232    0.480  104.256    3.489
  234.000    0.223    0.484  108.547    3.490
  234.250    0.206    0.490  109.775    3.426
  234.500    0.195    0.500  108.556    3.427
  234.750    0.184    0.509  106.724    3.428
  235.000    0.179    0.496  106.730    3.494
  235.250    0.172    0.481  106.121    3.561
  235.500    0.185    0.455  109.801    3.698
  235.750    0.181    0.444  110.417    3.914
  236.000    0.190    0.454  106.136    4.065
  236.250    0.184    0.460  101.856    4.143
  236.500    0.184    0.468   96.963    4.222
  236.750    0.165    0.484  102.478    4.224
  237.000    0.159    0.504  103.708    4.225
  237.250    0.150    0.518  107.997    4.148
  237.500    0.155    0.523  106.777    4.072
  237.750    0.168    0.514  101.272    3.997
  238.000    0.190    0.493  104.951    3.924
  238.250    0.204    0.469   99.446    3.853
  238.500    0.210    0.453  103.124    3.853
  238.750    0.233    0.470  101.904    3.855
  239.000    0.249    0.496   98.847    3.856
  239.250    0.253    0.507  101.914    3.857
  239.500    0.260    0.510  101.920    3.858
  239.750    0.262    0.505  101.311    3.859
  240.000    0.261    0.498  100.093    3.860
  240.250    0.249    0.494  100.097    3.935
  240.500    0.241    0.471   98.877    4.011
  240.750    0.246    0.452   99.494    4.012
  241.000    0.229    0.450  103.173    4.245
  241.250    0.215    0.446  102.566    4.935
  241.500    0.228    0.432   98.896    5.629
  241.750    0.243    0.421   87.880    6.668
  242.000    0.259    0.416   70.742    7.897
  242.250    0.271    0.410   67.073    9.530
  242.500    0.296    0.419   74.426   11.720
  242.750    0.282    0.419   75.656   12.877
  243.000    0.270    0.411   75.048   12.641
  243.250    0.265    0.398   73.828   11.298
  243.500    0.252    0.392   78.732    9.023
  243.750    0.248    0.393   82.410    7.914
  244.000    0.259    0.405   83.639    7.073
  244.250    0.254    0.419   89.154    6.321
  244.500    0.247    0.428   98.343    5.866
  244.750    0.247    0.449  108.144    5.145
  245.000    0.233    0.481  117.945    4.513
  245.250    0.232    0.510  119.787    4.188
  245.500    0.223    0.535  117.342    4.111
  245.750    0.224    0.497  116.736    4.190
  246.000    0.219    0.474  111.842    4.518
  246.250    0.236    0.444  112.459    5.252
  246.500    0.243    0.425  105.729    6.458
  246.750    0.260    0.395   89.816    8.093
  247.000    0.254    0.379   84.922    9.585
  247.250    0.230    0.384   83.702   10.731
  247.500    0.219    0.401   87.381   11.356
  247.750    0.207    0.420   92.285   11.359
  248.000    0.192    0.434   96.574   10.345
  248.250    0.192    0.447  100.252    8.418
  248.500    0.209    0.447  104.544    7.383
  248.750    0.223    0.439  102.712    6.724
  249.000    0.231    0.451  106.390    6.358
  249.250    0.231    0.456  109.456    6.241
  249.500    0.239    0.466  113.135    6.482
  249.750    0.258    0.471  111.916    6.989
  250.000    0.284    0.428  107.022    8.278
  250.250    0.288    0.410   96.006    9.990
  250.500    0.295    0.384   78.868   11.613
  250.750    0.299    0.368   77.648   12.289
  251.000    0.279    0.370   80.102   12.525
  251.250    0.260    0.384   85.005   11.844
  251.500    0.251    0.406   89.296   11.628
  251.750    0.269    0.418   92.362   11.630
  252.000    0.280    0.421   91.755   11.634
  252.250    0.285    0.420   90.536   12.084
  252.500    0.302    0.404   92.989   12.316
  252.750    0.307    0.409   93.606   12.790
  253.000    0.305    0.416   94.222   13.283
  253.250    0.292    0.423   94.840   14.057
  253.500    0.288    0.435   86.886   14.599
  253.750    0.274    0.450   83.830   14.880
  254.000    0.267    0.454   82.609   14.886
  254.250    0.255    0.454   89.962   14.889
  254.500    0.245    0.439   95.477   14.895
  254.750    0.246    0.434  100.380   14.622
  255.000    0.246    0.428  101.611   14.626
  255.250    0.251    0.418   99.778   14.360
  255.500    0.252    0.413   93.659   14.362
  255.750    0.262    0.404   93.664   14.368
  256.000    0.261    0.407   97.955   14.373
  256.250    0.252    0.433  102.247   14.375
  256.500    0.254    0.443  103.475   14.652
  256.750    0.274    0.439  100.419   14.934
  257.000    0.291    0.418   82.668   15.221
  257.250    0.294    0.389   71.652   15.809
  257.500    0.316    0.363   60.024   16.418
  257.750    0.325    0.346   52.682   17.052
  258.000    0.323    0.336   50.238   17.380
  258.250    0.323    0.334   49.631   17.062
  258.500    0.333    0.351   47.799   16.749
  258.750    0.323    0.364   47.803   15.838
  259.000    0.304    0.378   54.544   14.696
  259.250    0.287    0.388   62.508   13.637
  259.500    0.264    0.401   72.921   12.189
  259.750    0.241    0.414   81.497   11.524
  260.000    0.234    0.417   85.788   10.694
  260.250    0.229    0.408   87.629   10.303
  260.500    0.229    0.424   85.186    9.741
  260.750    0.212    0.430   84.578    8.706
  261.000    0.196    0.436   91.930    7.637
  261.250    0.174    0.447  102.956    6.826
  261.500    0.164    0.455  110.920    6.453
  261.750    0.154    0.477  113.987    6.102
  262.000    0.149    0.496  113.380    5.454
  262.250    0.157    0.494  112.771    5.061
  262.500    0.166    0.490  113.388    4.875
  262.750    0.149    0.502  112.782    4.697
  263.000    0.149    0.517  114.623    4.699
  263.250    0.169    0.524  118.914    4.700
  263.500    0.168    0.515  123.205    4.791
  263.750    0.164    0.510  125.046    4.883
  264.000    0.166    0.507  121.377    4.884
  264.250    0.180    0.518  119.546    4.706
  264.500    0.178    0.526  121.387    4.534
  264.750    0.197    0.523  124.453    4.368
  265.000    0.210    0.529  128.744    4.130
  265.250    0.218    0.532  128.138    3.979
  265.500    0.230    0.513  128.141    4.055
  265.750    0.227    0.486  127.534    4.714
  266.000    0.215    0.461  123.254    6.019
  266.250    0.213    0.428  118.360    7.264
  266.500    0.218    0.423  112.855    8.766
  266.750    0.204    0.419  110.410    9.277
  267.000    0.204    0.412  111.639    9.455
  267.250    0.228    0.411  114.706    9.638
  267.500    0.231    0.407  114.710    9.461
  267.750    0.195    0.417  109.819    9.289
  268.000    0.188    0.453  107.374    8.948
  268.250    0.173    0.451  104.316    8.304
