~VERSION INFORMATION
 VERS.                 2.0:   CWLS LOG ASCII STANDARD -VERSION 2.0
 WRAP.                  NO:   ONE LINE PER DEPTH STEP
~WELL INFORMATION BLOCK
#MNEM.UNIT           DATA                    DESCRIPTION OF MNEMONIC
#---------    -------------------            -------------------------------
# Generated from Intellog Unique Number	CW_73_75/WELL/2736
WELL.         MANNVILLE ALGAS MARTEN S 09-30 : Well_name    - WELL
LOC .         00/09-30-073-24W4/0            : Location     - LOCATION
UWI .         00/09-30-073-24W4/0            : Uwi          - UNIQUE WELL ID
ENTR.         JAYE                           : Entered      - ENTERED BY
SRVC.         WESTERN ATLAS                  : Scn          - SERVICE COMPANY
DATE.         15 MAR 79                      : Date         - LOG DATE
STRT.M        375                            : top_depth    - START DEPTH
STOP.M        595                            : bot_depth    - STOP DEPTH
STEP.M        0.25                           : increment    - STEP LENGTH
 NULL. -999.2500:NULL Value
~CURVE INFORMATION BLOCK
#MNEM UNIT       ERCB CURVE CODE    CURVE DESCRIPTION
#-----------   ------------------   ----------------------------------
DEPT.M        00 001 00 00         : DEPTH        - DEPTH
DPHI.V/V      00 890 00 00         : PHID         - DENSITY POROSITY (SANDSTONE)
NPHI.V/V      00 330 00 00         : PHIN         - NEUTRON POROSITY (SANDSTONE)
GR  .API      00 310 00 00         : GR           - GAMMA RAY
CALI.MM       00 280 01 00         : CAL          - CALIPER
ILD .OHMM     00 120 00 00         : RESD         - DEEP RESISTIVITY (DIL)
~PARAMETER INFORMATION
#MNEM.UNIT           DATA             DESCRIPTION OF MNEMONIC
#---------         -----------     ------------------------------
GL  .M        633.3                : gl           - GROUND LEVEL ELEVATION
EREF.M        636.3                : kb           - ELEVATION OF DEPTH REFERENCE
DATM.M        633.3                : datum        - DATUM ELEVATION
TDD .M        593                  : tdd          - TOTAL DEPTH DRILLER
RUN .         ONE                  : Run          - RUN NUMBER
ENG .         GRIEVE               : Engineer     - RECORDING ENGINEER
WIT .         MURYNKA              : Witness      - WITNESSED BY
BASE.         R.D.                 : Branch       - HOME BASE OF LOGGING UNIT
MUD .         GEL-CHEM             : Mud_type     - MUD TYPE
MATR.         SANDSTONE            : Logunit      - NEUTRON MATRIX
TMAX.C        22                   : BHT          - MAXIMUM RECORDED TEMPERATURE
BHTD.M        594                  : BHTDEP       - MAXIMUM RECORDED TEMPERATURE
RMT .C        11.1                 : MDTP         - TEMPERATURE OF MUD
MUDD.KG/M     1120                 : MWT          - MUD DENSITY
NEUT.         1                    : NEUTRON      - NEUTRON TYPE
RESI.         0                    : RESIST       - RESISTIVITY TYPE
RM  .OHMM     4.4                  : RM           - RESISTIVITY OF MUD
RMC .OHMM     0                    : RMC          - RESISTIVITY OF MUD CAKE
RMF .OHMM     4                    : RMF          - RESISTIVITY OF MUD FILTRATE
SUFT.C        0                    : SUFT         - SURFACE TEMPERATURE
~A  DEPTH     PHID     PHIN       GR      CAL     RESD
  375.000    0.144    0.456  108.271  211.593    2.208
  375.250    0.154    0.463  108.916  209.974    2.183
  375.500    0.157    0.463  108.381  207.940    2.178
  375.750    0.166    0.454  106.785  204.138    2.165
  376.000    0.177    0.438  104.257  200.125    2.132
  376.250    0.187    0.423  104.718  196.946    2.099
  376.500    0.200    0.425  106.678  196.572    2.090
  376.750    0.218    0.432  106.766  198.695    2.086
  377.000    0.218    0.464  106.171  201.340    2.089
  377.250    0.220    0.501  105.948  208.562    2.076
  377.500    0.218    0.495  105.598  203.407    2.060
  377.750    0.155    0.480  104.564  200.435    2.055
  378.000    0.150    0.477  105.526  199.543    2.059
  378.250    0.151    0.492  109.173  200.210    2.054
  378.500    0.159    0.506  107.890  204.420    2.053
  378.750    0.174    0.508  103.984  205.705    2.111
  379.000    0.185    0.515  101.391  201.489    2.167
  379.250    0.210    0.506  103.537  202.055    2.154
  379.500    0.229    0.490  105.373  206.052    2.093
  379.750    0.254    0.456  103.966  203.494    2.000
  380.000    0.212    0.456  103.244  199.171    1.929
  380.250    0.159    0.455  102.146  195.363    1.857
  380.500    0.156    0.449   98.678  188.650    1.788
  380.750    0.191    0.460   95.960  187.236    1.718
  381.000    0.230    0.506   96.485  189.048    1.629
  381.250    0.250    0.499   93.641  192.948    1.550
  381.500    0.263    0.503   91.859  199.230    1.501
  381.750    0.283    0.515   89.764  203.534    1.467
  382.000    0.286    0.516   87.046  198.693    1.458
  382.250    0.278    0.492   84.264  190.517    1.531
  382.500    0.298    0.389   79.673  178.083    1.710
  382.750    0.319    0.370   71.836  165.438    2.144
  383.000    0.315    0.365   64.062  170.477    2.765
  383.250    0.305    0.366   62.030  172.603    3.730
  383.500    0.303    0.371   64.865  172.645    5.626
  383.750    0.297    0.375   64.208  172.273    5.996
  384.000    0.292    0.384   62.361  171.485    6.063
  384.250    0.287    0.398   61.387  174.236    5.453
  384.500    0.281    0.390   62.414  176.148    4.858
  384.750    0.273    0.377   63.499  175.777    4.420
  385.000    0.238    0.370   66.709  172.390    3.968
  385.250    0.187    0.359   71.916  170.671    3.678
  385.500    0.161    0.352   76.249  173.725    3.455
  385.750    0.154    0.339   79.519  179.595    3.301
  386.000    0.223    0.358   85.100  174.752    3.250
  386.250    0.218    0.391   87.933  174.066    3.231
  386.500    0.221    0.421   90.893  179.937    3.128
  386.750    0.234    0.432   95.163  185.808    3.051
  387.000    0.230    0.443  101.055  191.359    2.926
  387.250    0.211    0.454  102.955  190.364    2.748
  387.500    0.230    0.407   94.744  211.210    2.621
  387.750    0.268    0.405   82.664  197.838    2.650
  388.000    0.308    0.402   72.270  180.408    2.715
  388.250    0.286    0.377   64.871  170.471    3.259
  388.500    0.266    0.387   66.271  168.745    4.388
  388.750    0.260    0.396   72.165  170.246    4.894
  389.000    0.242    0.390   78.740  173.104    5.407
  389.250    0.214    0.386   85.759  175.440    5.446
  389.500    0.191    0.362   85.347  176.622    4.982
  389.750    0.178    0.365   82.317  178.127    4.566
  390.000    0.163    0.372   80.657  179.421    4.379
  390.250    0.154    0.370   82.680  179.977    4.200
  390.500    0.171    0.374   85.517  180.854    4.128
  390.750    0.245    0.395   88.225  184.017    4.041
  391.000    0.353    0.416   92.496  192.797    3.935
  391.250    0.397    0.438   89.152  219.778    3.831
  391.500    0.348    0.358   79.570  201.102    3.786
  391.750    0.278    0.341   73.978  181.387    3.750
  392.000    0.288    0.344   67.078  176.751    3.762
  392.250    0.262    0.354   64.859  177.836    3.826
  392.500    0.182    0.359   68.693  174.555    3.875
  392.750    0.152    0.361   70.653  172.518    3.947
  393.000    0.190    0.365   76.422  172.355    3.999
  393.250    0.222    0.379   83.002  174.582    3.975
  393.500    0.238    0.385   86.334  177.432    3.921
  393.750    0.241    0.375   90.790  178.935    3.832
  394.000    0.228    0.379   94.684  180.337    3.724
  394.250    0.262    0.398   99.392  181.828    3.585
  394.500    0.293    0.403  100.105  186.032    3.477
  394.750    0.259    0.418   96.139  192.838    3.417
  395.000    0.220    0.363   89.800  192.781    3.435
  395.250    0.233    0.362   85.521  188.558    3.580
  395.500    0.230    0.363   81.180  176.853    3.787
  395.750    0.221    0.360   77.839  175.753    3.931
  396.000    0.209    0.354   80.673  178.088    4.042
  396.250    0.198    0.346   83.817  181.462    4.165
  396.500    0.188    0.349   87.463  183.895    4.251
  396.750    0.180    0.342   90.047  186.958    4.338
  397.000    0.196    0.341   89.576  188.035    4.386
  397.250    0.214    0.349   88.603  186.521    4.368
  397.500    0.203    0.343   86.509  185.109    4.317
  397.750    0.179    0.334   86.847  186.192    4.251
  398.000    0.202    0.347   88.872  184.887    4.210
  398.250    0.225    0.355   87.149  182.330    4.185
  398.500    0.256    0.360   83.057  180.090    4.223
  398.750    0.284    0.367   76.846  178.572    4.450
  399.000    0.299    0.358   73.503  177.577    4.717
  399.250    0.285    0.365   70.846  177.109    4.990
  399.500    0.282    0.367   68.751  177.039    4.941
  399.750    0.274    0.347   66.533  177.498    4.478
  400.000    0.270    0.340   65.558  177.652    4.230
  400.250    0.267    0.337   66.708  177.905    3.996
  400.500    0.263    0.338   71.791  178.776    3.725
  400.750    0.269    0.336   75.188  179.656    3.257
  401.000    0.261    0.331   78.145  179.500    2.997
  401.250    0.243    0.327   80.418  179.020    2.945
  401.500    0.223    0.339   82.690  179.063    2.911
  401.750    0.203    0.349   86.213  178.583    2.949
  402.000    0.189    0.357   89.734  178.012    2.998
  402.250    0.180    0.359   91.507  177.635    3.113
  402.500    0.169    0.365   93.031  177.366    3.249
  402.750    0.162    0.385   97.301  178.865    3.380
  403.000    0.170    0.392   97.765  180.778    3.475
  403.250    0.191    0.427   94.672  184.671    3.594
  403.500    0.205    0.437   91.391  186.275    3.717
  403.750    0.200    0.424   89.608  182.160    3.794
  404.000    0.172    0.430   94.500  180.437    3.764
  404.250    0.154    0.436  100.396  181.416    3.734
  404.500    0.135    0.463  104.039  194.148    3.547
  404.750    0.186    0.491  107.684  196.794    3.215
  405.000    0.200    0.503  111.830  206.821    2.913
  405.250    0.197    0.491  114.726  214.146    2.645
  405.500    0.195    0.485  117.249  223.032    2.438
  405.750    0.184    0.476  120.521  225.262    2.197
  406.000    0.179    0.467  115.805  223.121    2.123
  406.250    0.196    0.462  115.394  223.786    2.119
  406.500    0.203    0.493  116.796  226.015    2.134
  406.750    0.160    0.470  116.696  222.838    2.174
  407.000    0.151    0.446  116.035  216.847    2.189
  407.250    0.207    0.424  115.628  202.435    2.201
  407.500    0.258    0.424  115.527  194.681    2.229
  407.750    0.305    0.398  114.308  200.447    2.288
  408.000    0.290    0.396  112.460  211.722    2.367
  408.250    0.280    0.415  109.056  200.325    2.522
  408.500    0.234    0.422  104.838  205.362    2.694
  408.750    0.232    0.387   97.065  194.589    2.954
  409.000    0.255    0.396   88.543  186.418    3.226
  409.250    0.251    0.382   78.834  179.603    3.498
  409.500    0.229    0.374   82.418  178.394    3.693
  409.750    0.232    0.370   84.755  179.793    3.833
  410.000    0.258    0.375   88.025  180.568    3.927
  410.250    0.254    0.373   89.674  180.719    4.001
  410.500    0.235    0.368   87.079  181.595    4.015
  410.750    0.228    0.375   86.481  182.260    3.983
  411.000    0.268    0.383   88.132  182.197    3.944
  411.250    0.277    0.398   88.784  181.202    3.847
