~VERSION INFORMATION
 VERS.                 2.0:   CWLS LOG ASCII STANDARD -VERSION 2.0
 WRAP.                  NO:   ONE LINE PER DEPTH STEP
~WELL INFORMATION BLOCK
#MNEM.UNIT           DATA                    DESCRIPTION OF MNEMONIC
#---------    -------------------            -------------------------------
# Generated from Intellog Unique Number	CX_WELLS/WELL/1061
WELL.         06-12-088-17W4                 : Well_name    - WELL
LOC .         00/06-12-088-17W4/0            : Location     - LOCATION
UWI .         00/06-12-088-17W400            : Uwi          - UNIQUE WELL ID
ENTR.         DW                             : Entered      - ENTERED BY
SRVC.         SCHLUMBERGER                   : Scn          - SERVICE COMPANY
STRT.M        100                            : top_depth    - START DEPTH
STOP.M        244                            : bot_depth    - STOP DEPTH
STEP.M        0.25                           : increment    - STEP LENGTH
 NULL. -999.2500:NULL Value
~CURVE INFORMATION BLOCK
#MNEM UNIT       ERCB CURVE CODE    CURVE DESCRIPTION
#-----------   ------------------   ----------------------------------
DEPT.M        00 001 00 00         : DEPTH        - DEPTH
GR  .API      00 310 00 00         : GR           - GAMMA RAY
NPHI.V/V      00 330 00 00         : PHIN         - NEUTRON POROSITY (SANDSTONE)
DPHI.V/V      00 890 00 00         : PHID         - DENSITY POROSITY (SANDSTONE)
ILD .OHMM     00 120 00 00         : RESD         - DEEP RESISTIVITY (DIL)
~PARAMETER INFORMATION
#MNEM.UNIT           DATA             DESCRIPTION OF MNEMONIC
#---------         -----------     ------------------------------
GL  .M        534.8                : gl           - GROUND LEVEL ELEVATION
EREF.M        538.3                : kb           - ELEVATION OF DEPTH REFERENCE
DATM.M        538.3                : datum        - DATUM ELEVATION
TDD .M        247                  : tdd          - TOTAL DEPTH DRILLER
RUN .         ONE                  : Run          - RUN NUMBER
ENG .         BILL                 : Engineer     - RECORDING ENGINEER
WIT .         JIM                  : Witness      - WITNESSED BY
MUD .         GEL                  : Mud_type     - MUD TYPE
MATR.         SANDSTONE            : Logunit      - NEUTRON MATRIX
TMAX.C        22                   : BHT          - MAXIMUM RECORDED TEMPERATURE
BHTD.M        247                  : BHTDEP       - MAXIMUM RECORDED TEMPERATURE
MATR.         1                    : LOGUNIT      - NEUTRON MATRIX
RMT .C        25                   : MDTP         - TEMPERATURE OF MUD
NEUT.         1                    : NEUTRON      - NEUTRON TYPE
RESI.         0                    : RESIST       - RESISTIVITY TYPE
RMC .OHMM     0.25                 : RMC          - RESISTIVITY OF MUD CAKE
RMF .OHMM     0.25                 : RMF          - RESISTIVITY OF MUD FILTRATE
SUFT.C        15                   : SUFT         - SURFACE TEMPERATURE
~A  DEPTH       GR     PHIN     PHID     RESD
  100.000  117.649    0.459    0.212    8.273
  100.250  113.511    0.418    0.215    7.983
  100.500  107.583    0.380    0.223    7.707
  100.750  107.624    0.361    0.238    7.434
  101.000  108.262    0.389    0.262    7.306
  101.250  106.522    0.419    0.277    7.182
  101.500  102.374    0.444    0.266    7.060
  101.750   96.445    0.438    0.240    6.943
  102.000   89.312    0.317    0.219    7.628
  102.250   80.398    0.299    0.199    8.693
  102.500   69.694    0.301    0.191   10.285
  102.750   90.043    0.353    0.258   12.395
  103.000   93.069    0.355    0.288   16.094
  103.250   93.707    0.348    0.295   16.128
  103.500   93.748    0.331    0.258   15.844
  103.750   94.983    0.335    0.246   14.208
  104.000   97.412    0.350    0.228   13.449
  104.250  102.837    0.365    0.224   12.502
  104.500  105.863    0.377    0.259   10.598
  104.750  110.083    0.366    0.285    9.152
  105.000  117.885    0.356    0.271    8.354
  105.250  125.687    0.386    0.254    7.354
  105.500  127.519    0.416    0.241    7.092
  105.750  128.168    0.443    0.231    6.718
  106.000  127.015    0.444    0.229    6.249
  106.250  121.673    0.454    0.217    6.033
  106.500  121.724    0.461    0.217    5.926
  106.750  125.337    0.474    0.231    5.721
  107.000  127.787    0.465    0.246    5.523
  107.250  127.231    0.454    0.216    5.527
  107.500  129.063    0.469    0.203    5.537
  107.750  132.676    0.475    0.198    5.543
  108.000  130.926    0.381    0.211    5.551
  108.250  126.788    0.354    0.207    5.559
  108.500  124.452    0.354    0.194    5.567
  108.750  125.079    0.417    0.192    5.575
  109.000  125.718    0.441    0.199    5.583
  109.250  125.769    0.454    0.194    5.593
  109.500  122.815    0.443    0.171    5.706
  109.750  119.881    0.432    0.157    5.712
  110.000  119.325    0.426    0.164    5.827
  110.250  120.550    0.438    0.178    5.944
  110.500  122.382    0.424    0.177    5.953
  110.750  124.812    0.433    0.178    6.073
  111.000  129.052    0.465    0.184    6.081
  111.250  130.267    0.488    0.191    6.090
  111.500  134.497    0.469    0.195    6.103
  111.750  130.359    0.392    0.179    6.222
  112.000  127.415    0.369    0.162    6.352
  112.250  128.054    0.378    0.159    6.478
  112.500  128.702    0.403    0.171    6.608
  112.750  128.753    0.414    0.176    6.741
  113.000  128.187    0.412    0.181    6.629
  113.250  128.228    0.448    0.188    6.515
  113.500  128.856    0.467    0.196    6.287
  113.750  129.494    0.455    0.206    6.067
  114.000  128.939    0.462    0.215    5.745
  114.250  124.801    0.479    0.228    5.246
  114.500  123.668    0.475    0.240    4.877
  114.750  123.689    0.468    0.253    4.454
  115.000  123.740    0.463    0.266    4.143
  115.250  121.394    0.475    0.275    3.923
  115.500  120.838    0.488    0.276    3.785
  115.750  121.476    0.501    0.269    3.588
  116.000  123.318    0.509    0.259    3.461
  116.250  123.936    0.512    0.251    3.401
  116.500  123.390    0.506    0.247    3.283
  116.750  124.028    0.494    0.252    3.287
  117.000  121.671    0.480    0.261    3.293
  117.250  121.126    0.483    0.256    3.298
  117.500  119.376    0.526    0.246    3.304
  117.750  115.835    0.546    0.233    3.307
  118.000  110.493    0.524    0.219    3.373
  118.250  113.519    0.491    0.218    3.572
  118.500  114.775    0.446    0.233    3.710
  118.750  113.004    0.446    0.237    3.931
  119.000  112.469    0.413    0.245    4.158
  119.250  110.112    0.386    0.253    4.572
  119.500  106.561    0.407    0.253    5.115
  119.750   97.647    0.453    0.249    5.726
  120.000   88.733    0.480    0.135    6.526
  120.250   79.222    0.439    0.066    7.721
  120.500   76.876    0.282    0.103    8.640
  120.750   81.693    0.327    0.196   10.226
  121.000   85.336    0.389    0.256   11.235
  121.250   84.163    0.385    0.248   12.116
  121.500   97.348    0.377    0.230   12.826
  121.750  101.589    0.406    0.217   13.085
  122.000   98.028    0.405    0.205   12.632
  122.250   86.715    0.395    0.193   11.742
  122.500   82.578    0.384    0.182   10.719
  122.750   89.196    0.379    0.213    9.086
  123.000   93.416    0.376    0.236    7.843
  123.250   94.054    0.417    0.258    6.899
  123.500   89.319    0.459    0.272    6.298
  123.750   82.197    0.432    0.286    7.049
  124.000   75.064    0.411    0.304    9.152
  124.250   69.742    0.398    0.311   10.437
  124.500   73.355    0.417    0.306   10.847
  124.750   76.401    0.428    0.302   11.065
  125.000   73.447    0.394    0.306   11.081
  125.250   69.320    0.424    0.318   10.890
  125.500   72.933    0.376    0.313   10.705
  125.750   77.163    0.405    0.287   10.724
  126.000   80.189    0.424    0.277   10.543
  126.250   82.608    0.434    0.270   10.562
  126.500   86.241    0.455    0.260   10.379
  126.750   88.063    0.465    0.253   10.199
  127.000   88.104    0.429    0.252    9.491
  127.250   87.549    0.415    0.254    8.988
  127.500   85.202    0.405    0.257    8.511
  127.750   82.855    0.394    0.260    7.775
  128.000   82.896    0.394    0.263    7.498
  128.250   85.932    0.422    0.268    7.371
  128.500   87.167    0.457    0.273    7.809
  128.750   87.209    0.466    0.280    8.112
  129.000   86.673    0.489    0.283    8.433
  129.250   84.903    0.497    0.284    8.440
  129.500   81.959    0.489    0.275    8.452
  129.750   77.821    0.478    0.274    8.786
  130.000   76.668    0.469    0.275    9.305
  130.250   77.306    0.456    0.278    9.489
  130.500   77.348    0.439    0.277    9.684
  130.750   83.966    0.382    0.271    9.694
  131.000   85.798    0.409    0.257    9.712
  131.250   86.436    0.434    0.258    9.719
  131.500   85.294    0.442    0.267    9.915
  131.750   84.120    0.408    0.266   10.311
  132.000   83.564    0.381    0.252   10.515
  132.250   84.799    0.401    0.243   10.526
  132.500   85.448    0.416    0.249   10.348
  132.750   86.683    0.433    0.270   10.173
  133.000   88.525    0.445    0.238    9.640
  133.250   90.358    0.437    0.232    9.306
  133.500   90.399    0.434    0.265    9.313
  133.750   89.843    0.442    0.271    9.326
  134.000   86.889    0.470    0.291    8.679
  134.250   80.960    0.497    0.291    8.529
  134.500   78.016    0.486    0.291    8.230
  134.750   75.072    0.475    0.292    8.242
  135.000   71.531    0.459    0.297    8.562
  135.250   67.980    0.449    0.302    9.407
  135.500   69.226    0.440    0.308    9.962
  135.750   72.859    0.460    0.311    9.614
  136.000   70.502    0.496    0.314    9.451
  136.250   66.961    0.526    0.319   10.192
  136.500   61.629    0.544    0.324   11.620
  136.750   56.884    0.548    0.329   13.252
  137.000   52.149    0.508    0.334   14.029
  137.250   50.410    0.466    0.338   14.307
  137.500   49.854    0.443    0.340   14.606
  137.750   47.497    0.425    0.340   14.616
  138.000   44.563    0.425    0.329   14.916
  138.250   46.992    0.444    0.311   14.938
  138.500   49.432    0.432    0.307   14.964
  138.750   49.473    0.395    0.322   14.981
  139.000   49.504    0.406    0.340   14.997
  139.250   49.545    0.435    0.330   15.024
  139.500   49.586    0.460    0.317   15.045
  139.750   50.831    0.453    0.318   15.061
  140.000   53.868    0.458    0.328   15.083
  140.250   56.287    0.461    0.332   14.827
  140.500   59.303    0.454    0.319   14.314
  140.750   62.936    0.424    0.324   13.066
  141.000   65.365    0.396    0.327   11.279
  141.250   70.779    0.424    0.314    9.561
  141.500   73.826    0.436    0.292    8.568
  141.750   71.469    0.381    0.284    7.821
  142.000   69.112    0.410    0.273    7.547
  142.250   70.954    0.441    0.259    7.422
  142.500   71.582    0.446    0.264    7.433
  142.750   71.623    0.433    0.266    8.013
  143.000   71.685    0.436    0.252    9.838
  143.250   72.302    0.437    0.239   11.426
