~VERSION INFORMATION
 VERS.                 2.0:   CWLS LOG ASCII STANDARD -VERSION 2.0
 WRAP.                  NO:   ONE LINE PER DEPTH STEP
~WELL INFORMATION BLOCK
#MNEM.UNIT           DATA                    DESCRIPTION OF MNEMONIC
#---------    -------------------            -------------------------------
# Generated from Intellog Unique Number	CW_73_75/WELL/619
WELL.         HB AMOCO MARTIN HILLS 06-33    : Well_name    - WELL
LOC .         00/06-33-074-26W4/0            : Location     - LOCATION
UWI .         00/06-33-074-26W4/0            : Uwi          - UNIQUE WELL ID
ENTR.         JAYE                           : Entered      - ENTERED BY
SRVC.         SCHLUMBERGER                   : Scn          - SERVICE COMPANY
DATE.         9 FEB 77                       : Date         - LOG DATE
STRT.M        554.736                        : top_depth    - START DEPTH
STOP.M        771.236                        : bot_depth    - STOP DEPTH
STEP.M        0.25                           : increment    - STEP LENGTH
 NULL. -999.2500:NULL Value
~CURVE INFORMATION BLOCK
#MNEM UNIT       ERCB CURVE CODE    CURVE DESCRIPTION
#-----------   ------------------   ----------------------------------
DEPT.M        00 001 00 00         : DEPTH        - DEPTH
ILD .OHMM     00 120 00 00         : RESD         - DEEP RESISTIVITY (DIL)
NPHI.V/V      00 330 00 00         : PHIN         - NEUTRON POROSITY (SANDSTONE)
DPHI.V/V      00 890 00 00         : PHID         - DENSITY POROSITY (SANDSTONE)
GR  .API      00 310 00 00         : GR           - GAMMA RAY
CALI.MM       00 280 01 00         : CAL          - CALIPER
~PARAMETER INFORMATION
#MNEM.UNIT           DATA             DESCRIPTION OF MNEMONIC
#---------         -----------     ------------------------------
GL  .M        817.778              : gl           - GROUND LEVEL ELEVATION
EREF.M        820.826              : kb           - ELEVATION OF DEPTH REFERENCE
DATM.M        817.778              : datum        - DATUM ELEVATION
TDD .M        745.236              : tdd          - TOTAL DEPTH DRILLER
RUN .         ONE                  : Run          - RUN NUMBER
ENG .         PRICE                : Engineer     - RECORDING ENGINEER
WIT .         MAQUE                : Witness      - WITNESSED BY
BASE.         EDM                  : Branch       - HOME BASE OF LOGGING UNIT
MUD .         GEL CHEM             : Mud_type     - MUD TYPE
MATR.         SANDSTONE            : Logunit      - NEUTRON MATRIX
TMAX.C        25.5556              : BHT          - MAXIMUM RECORDED TEMPERATURE
BHTD.M        746.15               : BHTDEP       - MAXIMUM RECORDED TEMPERATURE
RMT .C        18.8889              : MDTP         - TEMPERATURE OF MUD
MUDD.KG/M     1170                 : MWT          - MUD DENSITY
NEUT.         1                    : NEUTRON      - NEUTRON TYPE
RESI.         0                    : RESIST       - RESISTIVITY TYPE
RM  .OHMM     4.49                 : RM           - RESISTIVITY OF MUD
RMC .OHMM     0                    : RMC          - RESISTIVITY OF MUD CAKE
RMF .OHMM     4.59                 : RMF          - RESISTIVITY OF MUD FILTRATE
SUFT.C        -17.7778             : SUFT         - SURFACE TEMPERATURE
~A  DEPTH     RESD     PHIN     PHID       GR      CAL
  554.736    2.399    0.531    0.185  119.288  150.757
  554.986    2.355    0.542    0.191  119.076  151.440
  555.236    2.240    0.544    0.197  120.456  150.871
  555.486    2.203    0.539    0.198  120.612  149.890
  555.736    2.178    0.532    0.211  119.172  149.528
  555.986    2.130    0.524    0.217  116.203  152.592
  556.236    2.114    0.526    0.201  112.255  154.932
  556.486    2.113    0.542    0.203  114.921  149.909
  556.736    2.101    0.549    0.218  116.305  144.980
  556.986    2.143    0.542    0.225  113.026  144.619
  557.236    2.254    0.537    0.233  106.567  149.039
  557.486    2.420    0.537    0.238  100.166  152.522
  557.736    2.607    0.524    0.227   92.233  149.983
  557.986    2.840    0.472    0.208   87.365  147.960
  558.236    3.004    0.462    0.201   87.765  147.389
  558.486    2.981    0.491    0.195   91.107  146.823
  558.736    2.826    0.490    0.186   94.387  147.709
  558.986    2.560    0.484    0.185   96.629  148.081
  559.236    2.302    0.480    0.197   97.395  147.612
  559.486    2.077    0.496    0.190   98.041  146.630
  559.736    1.881    0.514    0.207   99.361  146.583
  559.986    1.774    0.540    0.220  100.680  146.741
  560.236    1.819    0.569    0.228  101.388  146.803
  560.486    2.405    0.597    0.232   99.395  146.850
  560.736    3.133    0.609    0.255   95.569  147.329
  560.986    4.015    0.528    0.272   90.638  148.000
  561.236    6.478    0.497    0.275   85.157  148.369
  561.486    7.279    0.464    0.264   77.413  146.040
  561.736    6.888    0.447    0.272   69.232  141.424
  561.986    6.495    0.417    0.271   60.936  136.190
  562.236    5.936    0.349    0.243   59.925  138.113
  562.486    5.618    0.321    0.198   60.695  141.802
  562.736    5.574    0.336    0.105   62.446  146.832
  562.986    5.675    0.381    0.117   67.131  144.918
  563.236    5.684    0.439    0.171   71.576  141.554
  563.486    5.681    0.464    0.212   71.422  139.427
  563.736    5.617    0.471    0.272   68.699  135.646
  563.986    5.493    0.471    0.287   67.202  131.035
  564.236    5.412    0.470    0.321   65.827  127.559
  564.486    5.312    0.468    0.333   63.899  125.232
  564.736    5.214    0.463    0.332   60.865  127.157
  564.986    5.136    0.453    0.322   60.044  128.870
  565.236    5.069    0.451    0.314   61.181  130.689
  565.486    5.021    0.455    0.303   61.638  132.722
  565.736    4.946    0.456    0.304   61.125  134.224
  565.986    4.891    0.456    0.306   61.031  135.937
  566.236    4.835    0.464    0.305   60.761  137.034
  566.486    4.746    0.464    0.301   59.992  136.988
  566.736    4.574    0.452    0.297   57.883  137.453
  566.986    4.313    0.452    0.291   57.978  137.198
  567.236    4.119    0.461    0.306   60.888  136.526
  567.486    3.962    0.469    0.312   61.167  135.970
  567.736    3.722    0.462    0.311   61.505  135.922
  567.986    3.440    0.443    0.310   64.052  136.182
  568.236    3.382    0.435    0.304   68.495  136.437
  568.486    3.456    0.438    0.299   70.243  137.229
  568.736    3.596    0.434    0.295   73.951  139.150
  568.986    3.695    0.430    0.289   80.479  141.081
  569.236    3.776    0.424    0.279   90.624  141.951
  569.486    3.872    0.413    0.256   99.599  143.679
  569.736    3.913    0.400    0.233  107.901  145.278
  569.986    3.969    0.405    0.199  110.631  146.893
  570.236    4.026    0.417    0.213  107.967  143.838
  570.486    4.114    0.431    0.241  103.467  138.285
  570.736    4.242    0.435    0.242   96.209  134.192
  570.986    4.295    0.423    0.204   85.338  138.501
  571.236    4.294    0.403    0.217   73.606  137.318
  571.486    4.300    0.417    0.239   69.843  132.393
  571.736    4.354    0.429    0.241   66.625  130.890
  571.986    4.424    0.441    0.237   60.042  130.942
  572.236    4.462    0.447    0.265   55.668  131.729
  572.486    4.461    0.446    0.298   55.393  131.054
  572.736    4.468    0.448    0.329   56.098  130.696
  572.986    4.499    0.455    0.320   57.237  130.242
  573.236    4.514    0.457    0.310   58.306  129.463
  573.486    4.529    0.450    0.313   58.769  127.231
  573.736    4.535    0.446    0.316   57.762  123.554
  573.986    4.533    0.445    0.313   56.631  122.154
  574.236    4.524    0.440    0.313   57.398  123.783
  574.486    4.522    0.442    0.316   59.393  126.000
  574.736    4.529    0.443    0.319   60.895  130.211
  574.986    4.527    0.438    0.319   61.355  133.064
  575.236    4.542    0.447    0.290   61.327  134.572
  575.486    4.607    0.444    0.284   62.585  132.657
  575.736    4.656    0.443    0.295   64.824  131.057
  575.986    4.680    0.449    0.304   65.958  132.466
  576.236    4.704    0.451    0.294   66.055  134.077
  576.486    4.702    0.448    0.284   68.599  135.695
  576.736    4.700    0.439    0.284   69.734  136.468
  576.986    4.673    0.436    0.280   70.258  136.621
  577.236    4.801    0.413    0.268   72.066  137.194
  577.486    4.941    0.416    0.254   76.693  137.669
  577.736    5.161    0.418    0.245   81.444  138.357
  577.986    5.663    0.415    0.240   86.623  139.238
  578.236    6.090    0.411    0.221   88.925  140.642
  578.486    6.132    0.403    0.183   81.604  142.561
  578.736    5.910    0.389    0.225   73.245  143.547
  578.986    5.412    0.388    0.269   67.517  142.149
  579.236    4.974    0.406    0.290   57.931  140.340
  579.486    4.613    0.431    0.313   54.781  138.839
  579.736    4.398    0.450    0.337   52.728  137.028
  579.986    4.238    0.416    0.346   47.369  136.980
  580.236    4.190    0.395    0.339   41.461  140.042
  580.486    4.250    0.381    0.312   41.065  140.619
  580.736    4.288    0.380    0.310   44.772  138.290
  580.986    4.263    0.378    0.303   43.764  137.200
  581.236    4.223    0.375    0.286   41.285  137.052
  581.486    4.144    0.387    0.289   41.684  139.287
  581.736    4.090    0.375    0.292   43.436  141.100
  581.986    4.066    0.367    0.293   48.122  138.147
  582.236    4.028    0.365    0.284   58.814  133.952
  582.486    4.049    0.385    0.270   73.921  134.526
  582.736    4.129    0.395    0.231   84.489  136.659
  582.986    4.227    0.398    0.209   96.347  136.399
  583.236    4.359    0.414    0.217   98.100  135.314
  583.486    4.536    0.419    0.225   96.414  134.856
  583.736    4.703    0.407    0.220   97.121  134.608
  583.986    4.566    0.400    0.227  104.138  134.651
  584.236    4.158    0.406    0.231  104.786  135.120
  584.486    3.725    0.419    0.227  102.427  136.220
  584.736    3.271    0.451    0.225  100.686  137.518
  584.986    2.941    0.470    0.220   96.734  138.301
  585.236    2.625    0.464    0.245   96.583  131.196
  585.486    2.356    0.472    0.261  101.394  128.765
  585.736    2.201    0.524    0.247  129.303  130.682
  585.986    2.129    0.546    0.219  135.587  134.272
  586.236    2.175    0.533    0.189  133.719  138.577
  586.486    2.251    0.519    0.189  133.018  143.404
  586.736    2.412    0.519    0.179  136.480  144.190
  586.986    2.608    0.511    0.187  136.879  144.041
  587.236    2.805    0.529    0.180  138.077  144.196
  587.486    3.039    0.538    0.196  140.928  144.766
  587.736    3.286    0.505    0.214  139.491  145.866
  587.986    3.508    0.471    0.221  132.171  146.957
  588.236    3.604    0.445    0.211  116.458  147.841
  588.486    3.703    0.463    0.196  115.393  148.723
  588.736    3.811    0.433    0.199  118.915  150.133
  588.986    4.039    0.438    0.197  124.279  150.397
  589.236    4.257    0.468    0.209  121.553  149.619
  589.486    4.430    0.478    0.236  105.717  147.806
  589.736    4.527    0.464    0.271   90.433  145.167
  589.986    4.550    0.466    0.296   74.170  141.593
  590.236    4.450    0.464    0.301   73.468  138.530
  590.486    4.344    0.431    0.254   75.584  134.749
  590.736    4.271    0.396    0.222   77.270  133.563
  590.986    4.216    0.367    0.149   83.490  139.635
