~VERSION INFORMATION
 VERS.                 2.0:   CWLS LOG ASCII STANDARD -VERSION 2.0
 WRAP.                  NO:   ONE LINE PER DEPTH STEP
~WELL INFORMATION BLOCK
#MNEM.UNIT           DATA                    DESCRIPTION OF MNEMONIC
#---------    -------------------            -------------------------------
# Generated from Intellog Unique Number	CW_79_81/WELL/2456
WELL.         GULF WABASCA                   : Well_name    - WELL
LOC .         00/06-34-081-21W4/0            : Location     - LOCATION
UWI .         00/06-34-081-21W4/0            : Uwi          - UNIQUE WELL ID
ENTR.         MAX                            : Entered      - ENTERED BY
SRVC.         SCHLUMBERGER                   : Scn          - SERVICE COMPANY
STRT.M        204.216                        : top_depth    - START DEPTH
STOP.M        441.716                        : bot_depth    - STOP DEPTH
STEP.M        0.25                           : increment    - STEP LENGTH
 NULL. -999.2500:NULL Value
~CURVE INFORMATION BLOCK
#MNEM UNIT       ERCB CURVE CODE    CURVE DESCRIPTION
#-----------   ------------------   ----------------------------------
DEPT.M        00 001 00 00         : DEPTH        - DEPTH
ILD .OHMM     00 120 00 00         : RESD         - DEEP RESISTIVITY (DIL)
NPHI.V/V      00 330 00 00         : PHIN         - NEUTRON POROSITY (SANDSTONE)
DPHI.V/V      00 890 00 00         : PHID         - DENSITY POROSITY (SANDSTONE)
GR  .API      00 310 00 00         : GR           - GAMMA RAY
CALI.MM       00 280 01 00         : CAL          - CALIPER
~PARAMETER INFORMATION
#MNEM.UNIT           DATA             DESCRIPTION OF MNEMONIC
#---------         -----------     ------------------------------
GL  .M        627.492              : gl           - GROUND LEVEL ELEVATION
EREF.M        630.997              : kb           - ELEVATION OF DEPTH REFERENCE
DATM.M        627.492              : datum        - DATUM ELEVATION
TDD .M        440.436              : tdd          - TOTAL DEPTH DRILLER
RUN .         ONE                  : Run          - RUN NUMBER
ENG .         BILL                 : Engineer     - RECORDING ENGINEER
WIT .         JIM                  : Witness      - WITNESSED BY
MUD .         GEL                  : Mud_type     - MUD TYPE
MATR.         SANDSTONE            : Logunit      - NEUTRON MATRIX
TMAX.C        23.8889              : BHT          - MAXIMUM RECORDED TEMPERATURE
BHTD.M        440.436              : BHTDEP       - MAXIMUM RECORDED TEMPERATURE
MATR.         1                    : LOGUNIT      - NEUTRON MATRIX
RMT .C        16.6667              : MDTP         - TEMPERATURE OF MUD
NEUT.         1                    : NEUTRON      - NEUTRON TYPE
RESI.         0                    : RESIST       - RESISTIVITY TYPE
RMC .OHMM     5.1                  : RMC          - RESISTIVITY OF MUD CAKE
RMF .OHMM     5.24                 : RMF          - RESISTIVITY OF MUD FILTRATE
SUFT.C        -20.5556             : SUFT         - SURFACE TEMPERATURE
~A  DEPTH     RESD     PHIN     PHID       GR      CAL
# ...
  350.216    7.325    0.480    0.295   96.513  158.280
  350.466    7.325    0.480    0.291   97.588  159.088
  350.716    7.339    0.485    0.287   99.854  159.393
  350.966    7.211    0.491    0.274  100.213  159.394
  351.216    7.103    0.489    0.262  103.194  159.396
  351.466    7.000    0.501    0.261  103.672  158.589
  351.716    6.899    0.511    0.268  102.182  157.480
  351.966    6.849    0.513    0.280  100.991  156.674
  352.216    6.886    0.511    0.284  101.350  156.676
  352.466    7.071    0.514    0.258  103.795  157.973
  352.716    7.234    0.512    0.257  105.286  158.395
  352.966    7.448    0.503    0.268  101.948  154.762
  353.216    7.627    0.483    0.271  101.114  153.855
  353.466    7.739    0.468    0.267  102.307  156.481
  353.716    7.782    0.464    0.262  104.216  161.429
  353.966    7.771    0.463    0.259  104.545  165.637
  354.216    7.712    0.463    0.247  103.800  166.480
  354.466    7.600    0.470    0.247  105.709  166.481
  354.716    7.490    0.483    0.244  108.154  166.482
  354.966    7.382    0.493    0.246  110.778  167.089
  355.216    7.276    0.493    0.252  113.283  168.201
  355.466    7.160    0.484    0.258  115.579  169.179
  355.716    7.106    0.474    0.255  116.325  170.022
  355.966    7.106    0.464    0.255  114.180  170.023
  356.216    7.380    0.468    0.259  111.677  169.721
  356.466    7.739    0.466    0.261  108.219  169.319
  356.716    8.142    0.455    0.261  104.106  168.513
  356.966    8.905    0.452    0.260  100.431  165.822
  357.216    9.688    0.446    0.254   99.935  162.458
  357.466   10.488    0.437    0.260  101.367  159.229
  357.716   11.122    0.436    0.253  104.229  157.212
  357.966   11.581    0.443    0.244  106.853  156.809
  358.216   11.903    0.457    0.242  108.643  158.123
  358.466   12.186    0.472    0.244  109.180  161.120
  358.716   12.279    0.473    0.232  104.710  161.962
  358.966   12.190    0.481    0.240  100.895  161.560
  359.216   12.102    0.476    0.268   97.259  159.946
  359.466   11.837    0.472    0.286   95.829  158.534
  359.716   11.437    0.471    0.285   96.486  158.333
  359.966   11.109    0.462    0.280   97.063  160.034
  360.216   11.110    0.463    0.268   97.561  160.456
  360.466   11.857    0.477    0.270   98.515  161.265
  360.716   12.791    0.478    0.256   98.576  162.680
  360.966   13.717    0.472    0.228   97.265  163.691
  361.216   14.417    0.452    0.187   94.762  164.096
  361.466   14.715    0.386    0.134   91.404  164.502
  361.716   14.604    0.333    0.123   88.921  164.503
  361.966   13.873    0.306    0.170   93.691  164.504
  362.216   13.034    0.349    0.215   98.104  163.597
  362.466   12.393    0.398    0.249   99.774  161.984
  362.716   11.996    0.425    0.266   98.880  160.168
  362.966   11.737    0.449    0.264   98.513  158.873
  363.216   11.738    0.470    0.253  100.253  158.454
  363.466   11.652    0.466    0.246  104.785  158.859
  363.716   11.315    0.468    0.252  106.813  159.567
  363.966   10.951    0.474    0.258  106.814  160.982
  364.216   10.716    0.482    0.259  105.384  163.002
  364.466   10.717    0.481    0.259  103.189  165.108
  364.716   10.717    0.473    0.248  102.941  165.530
  364.966   10.717    0.472    0.250  100.796  165.127
  365.216   10.542    0.471    0.255   99.187  163.513
  365.466   10.314    0.463    0.257   99.307  160.890
  365.716   10.129    0.453    0.255  101.335  158.267
  365.966   10.041    0.452    0.251  104.535  157.629
  366.216    9.965    0.449    0.251  105.033  158.471
  366.466    9.893    0.453    0.252  103.365  160.088
  366.716    9.875    0.457    0.251  102.590  162.007
  366.966    9.875    0.455    0.249  102.591  163.826
  367.216    9.894    0.450    0.248  103.367  165.140
  367.466   10.056    0.454    0.251  105.186  165.461
  367.716   10.527    0.462    0.265  105.932  165.042
  367.966   10.837    0.472    0.257  104.502  165.043
  368.216   10.977    0.475    0.257  102.715  164.439
  368.466   10.897    0.469    0.263  101.523  162.219
  368.716   10.582    0.461    0.270  101.285  160.100
  368.966    9.869    0.478    0.275  102.260  163.366
  369.216    9.018    0.491    0.272  104.745  167.574
  369.466    8.567    0.488    0.263  108.084  167.979
  369.716    8.415    0.477    0.260  109.814  168.687
  369.966    8.415    0.464    0.255  109.934  169.698
  370.216    8.597    0.458    0.247  109.100  170.911
  370.466    9.346    0.472    0.243  108.525  171.872
  370.716   10.246    0.480    0.248  108.029  170.611
  370.966   11.251    0.484    0.247  106.122  162.537
  371.216   12.171    0.480    0.256  103.857  159.610
  371.466   13.316    0.464    0.260  101.235  159.208
  371.716   14.866    0.447    0.247   97.897  160.319
  371.966   17.015    0.453    0.205   91.340  164.140
  372.216   19.391    0.460    0.173   82.398  167.086
  372.466   22.060    0.432    0.157   74.291  168.299
  372.716   24.488    0.391    0.139   70.297  168.604
  372.966   25.345    0.346    0.115   68.390  168.403
  373.216   23.697    0.303    0.094   67.615  168.000
  373.466   19.326    0.266    0.103   68.590  167.430
  373.716   16.163    0.250    0.118   71.075  166.590
  373.966   13.935    0.260    0.133   75.607  166.592
  374.216   12.959    0.286    0.154   81.212  166.290
  374.466   12.454    0.333    0.180   86.220  166.089
  374.716   12.231    0.383    0.206   89.560  166.192
  374.966   12.559    0.402    0.232   91.449  166.597
  375.216   13.350    0.426    0.253   94.928  166.599
  375.466   14.146    0.436    0.250   94.213  166.600
  375.716   14.439    0.436    0.241   92.604  166.601
  375.966   14.174    0.428    0.228   91.174  166.401
  376.216   13.491    0.415    0.219   90.877  165.898
  376.466   12.564    0.401    0.227   93.143  164.923
  376.716   12.190    0.397    0.249   96.125  164.084
  376.966   12.190    0.434    0.268   98.511  162.873
  377.216   12.257    0.445    0.266  100.360  161.058
  377.466   12.392    0.446    0.259  102.030  158.838
  377.716   12.529    0.448    0.257  103.759  156.921
  377.966   12.510    0.455    0.264  105.768  156.519
  378.216   12.416    0.449    0.271  106.265  156.520
  378.466   12.326    0.444    0.271  106.266  155.714
  378.716   12.169    0.451    0.267  106.088  155.211
  378.966   11.994    0.454    0.262  106.566  154.808
  379.216   11.842    0.451    0.256  108.057  154.607
  379.466   11.757    0.452    0.254  110.791  155.013
  379.716   11.757    0.456    0.254  112.530  155.014
  379.966   11.843    0.459    0.253  113.962  155.016
  380.216   11.800    0.447    0.242  115.036  154.714
  380.466   11.758    0.435    0.228  115.275  154.312
  380.716   11.780    0.432    0.220  114.382  154.111
  380.966   11.920    0.437    0.226  111.591  155.021
  381.216   12.195    0.429    0.215  108.363  157.546
  381.466   12.195    0.435    0.231  108.363  161.586
  381.716   12.063    0.441    0.241  109.795  163.809
  381.966   12.020    0.444    0.240  111.941  164.012
  382.216   12.151    0.444    0.227  113.731  163.206
  382.466   12.440    0.448    0.202  112.937  163.948
  382.716   12.535    0.449    0.190  108.964  165.631
  382.966   12.535    0.452    0.180  101.572  166.037
  383.216   12.536    0.432    0.172   93.644  164.625
  383.466   12.490    0.405    0.175   92.212  162.203
  383.716   12.354    0.395    0.195   97.996  159.782
  383.966   12.051    0.440    0.235  106.334  158.908
  384.216   11.870    0.461    0.241  111.054  160.592
  384.466   11.870    0.476    0.240  110.340  164.631
  384.716   12.066    0.475    0.226  111.414  165.945
  384.966   12.333    0.461    0.223  111.177  166.755
  385.216   12.538    0.445    0.231  110.283  167.463
  385.466   12.500    0.453    0.227  112.699  166.236
  385.716   12.312    0.471    0.227  110.464  164.134
  385.966   12.134    0.460    0.230  107.842  164.943
  386.216   12.025    0.453    0.234  107.544  166.358
  386.466   11.894    0.454    0.236  108.856  167.167
