~VERSION INFORMATION
 VERS.                 2.0:   CWLS LOG ASCII STANDARD -VERSION 2.0
 WRAP.                  NO:   ONE LINE PER DEPTH STEP
~WELL INFORMATION BLOCK
#MNEM.UNIT           DATA                    DESCRIPTION OF MNEMONIC
#---------    -------------------            -------------------------------
# Generated from Intellog Unique Number	CS_71_72/WELL/806
WELL.         MAYNARD ET AL LOGAN            : Well_name    - WELL
LOC .         00/07-09-072-13W4/0            : Location     - LOCATION
UWI .         00/07-09-072-13W4/0            : Uwi          - UNIQUE WELL ID
ENTR.         SP                             : Entered      - ENTERED BY
SRVC.         SCHLUMBERGER                   : Scn          - SERVICE COMPANY
STRT.M        300                            : top_depth    - START DEPTH
STOP.M        535                            : bot_depth    - STOP DEPTH
STEP.M        0.25                           : increment    - STEP LENGTH
 NULL. -999.2500:NULL Value
~CURVE INFORMATION BLOCK
#MNEM UNIT       ERCB CURVE CODE    CURVE DESCRIPTION
#-----------   ------------------   ----------------------------------
DEPT.M        00 001 00 00         : DEPTH        - DEPTH
ILD .OHMM     00 120 00 00         : RESD         - DEEP RESISTIVITY (DIL)
DPHI.V/V      00 890 00 00         : PHID         - DENSITY POROSITY (LIMESTONE)
NPHI.V/V      00 330 00 00         : PHIN         - NEUTRON POROSITY (LIMESTONE)
GR  .API      00 310 00 00         : GR           - GAMMA RAY
~PARAMETER INFORMATION
#MNEM.UNIT           DATA             DESCRIPTION OF MNEMONIC
#---------         -----------     ------------------------------
GL  .M        632.57               : gl           - GROUND LEVEL ELEVATION
EREF.M        636.97               : kb           - ELEVATION OF DEPTH REFERENCE
DATM.M        632.57               : datum        - DATUM ELEVATION
TDD .M        545                  : tdd          - TOTAL DEPTH DRILLER
RUN .         ONE                  : Run          - RUN NUMBER
ENG .         BILL                 : Engineer     - RECORDING ENGINEER
WIT .         JIM                  : Witness      - WITNESSED BY
MUD .         GEL                  : Mud_type     - MUD TYPE
MATR.         LIMESTONE            : Logunit      - NEUTRON MATRIX
TMAX.C        23                   : BHT          - MAXIMUM RECORDED TEMPERATURE
BHTD.M        5456                 : BHTDEP       - MAXIMUM RECORDED TEMPERATURE
MATR.         1                    : LOGUNIT      - NEUTRON MATRIX
RMT .C        25                   : MDTP         - TEMPERATURE OF MUD
NEUT.         1                    : NEUTRON      - NEUTRON TYPE
RESI.         0                    : RESIST       - RESISTIVITY TYPE
RMC .OHMM     0.25                 : RMC          - RESISTIVITY OF MUD CAKE
RMF .OHMM     0.25                 : RMF          - RESISTIVITY OF MUD FILTRATE
SUFT.C        15                   : SUFT         - SURFACE TEMPERATURE
~A  DEPTH     RESD     PHID     PHIN       GR
# ...
  430.500    5.388    0.350    0.394   67.905
  430.750    5.468    0.346    0.396   70.889
  431.000    5.547    0.330    0.397   78.054
  431.250    5.626    0.312    0.407   84.032
  431.500    5.705    0.280    0.410   87.610
  431.750    5.624    0.265    0.408   87.585
  432.000    5.381    0.267    0.407   85.758
  432.250    5.056    0.275    0.409   86.933
  432.500    4.813    0.266    0.410   88.101
  432.750    4.731    0.264    0.411   87.470
  433.000    4.650    0.259    0.410   85.648
  433.250    4.567    0.266    0.405   82.025
  433.500    4.566    0.293    0.421   78.994
  433.750    4.726    0.301    0.433   77.166
  434.000    4.967    0.312    0.433   76.552
  434.250    5.047    0.317    0.416   76.522
  434.500    5.367    0.310    0.401   75.889
  434.750    5.528    0.305    0.395   75.273
  435.000    5.768    0.287    0.392   73.446
  435.250    5.928    0.275    0.393   75.211
  435.500    6.007    0.256    0.398   76.983
  435.750    6.168    0.273    0.400   77.564
  436.000    6.246    0.289    0.412   79.333
  436.250    6.246    0.303    0.419   79.903
  436.500    6.245    0.310    0.426   81.087
  436.750    6.243    0.301    0.424   83.463
  437.000    6.242    0.289    0.419   87.030
  437.250    6.160    0.274    0.423   88.805
  437.500    6.159    0.262    0.428   92.376
  437.750    6.076    0.255    0.436   92.955
  438.000    6.076    0.250    0.434   94.723
  438.250    6.074    0.250    0.432   95.904
  438.500    6.073    0.253    0.430   95.877
  438.750    6.072    0.257    0.430   98.245
  439.000    6.071    0.257    0.422   98.823
  439.250    5.988    0.254    0.415   96.994
  439.500    5.987    0.252    0.402   95.772
  439.750    5.986    0.248    0.396   94.537
  440.000    5.904    0.244    0.391   95.712
  440.250    5.822    0.240    0.393   96.288
  440.500    5.821    0.238    0.399   95.661
  440.750    5.658    0.245    0.402   95.632
  441.000    5.577    0.252    0.404   94.408
  441.250    5.414    0.251    0.407   93.787
  441.500    5.171    0.246    0.423   93.750
  441.750    4.766    0.248    0.441   93.738
  442.000    4.604    0.250    0.452   93.107
  442.250    4.442    0.255    0.450   93.682
  442.500    4.198    0.265    0.442   96.058
  442.750    4.116    0.259    0.434  100.821
  443.000    4.196    0.253    0.425  102.003
  443.250    4.355    0.249    0.416   99.573
  443.500    4.435    0.248    0.407   93.544
  443.750    4.595    0.249    0.405   88.723
  444.000    4.836    0.264    0.406   81.498
  444.250    5.237    0.281    0.401   77.875
  444.500    5.398    0.267    0.395   78.449
  444.750    5.638    0.242    0.391   80.826
  445.000    5.879    0.211    0.391   87.389
  445.250    5.959    0.231    0.391   90.971
  445.500    6.038    0.257    0.393   96.336
  445.750    6.036    0.273    0.402   99.913
  446.000    5.954    0.280    0.409  102.886
  446.250    5.953    0.252    0.415  101.652
  446.500    5.952    0.230    0.413   99.229
  446.750    6.193    0.229    0.408   95.604
  447.000    6.675    0.226    0.403   91.378
  447.250    7.400    0.212    0.400   87.151
  447.500    8.124    0.194    0.391   82.929
  447.750    8.849    0.179    0.376   78.710
  448.000   10.138    0.143    0.355   70.287
  448.250   11.024    0.094    0.324   58.863
  448.500   11.748    0.056    0.300   51.041
  448.750   11.021    0.066    0.273   53.412
  449.000    9.891    0.149    0.297   61.180
  449.250    8.277    0.213    0.340   70.750
  449.500    7.389    0.233    0.369   83.323
  449.750    6.581    0.247    0.387   88.701
  450.000    6.096    0.240    0.393   91.670
  450.250    5.933    0.235    0.394   93.447
  450.500    5.850    0.232    0.397   94.614
  450.750    5.849    0.231    0.399   95.785
  451.000    5.848    0.240    0.404   97.562
  451.250    5.847    0.240    0.405   99.340
  451.500    5.846    0.242    0.408   96.906
  451.750    5.845    0.247    0.410   95.690
  452.000    5.844    0.253    0.410   92.064
  452.250    5.842    0.264    0.401   84.238
  452.500    5.761    0.271    0.397   77.612
  452.750    5.598    0.278    0.387   73.984
  453.000    5.355    0.223    0.383   72.757
  453.250    4.950    0.205    0.379   73.335
  453.500    4.626    0.172    0.377   77.499
  453.750    4.464    0.188    0.379   81.082
  454.000    4.382    0.221    0.390   85.853
  454.250    4.542    0.248    0.399   89.427
  454.500    4.782    0.265    0.402   91.198
  454.750    4.862    0.265    0.400   91.174
  455.000    4.861    0.262    0.396   90.546
  455.250    4.376    0.244    0.395   88.712
  455.500    3.729    0.236    0.436   88.097
  455.750    3.163    0.244    0.457   86.867
  456.000    2.678    0.263    0.470   88.046
  456.250    2.596    0.272    0.483   90.419
  456.500    2.353    0.283    0.491   92.193
  456.750    2.191    0.280    0.500   92.165
  457.000    2.190    0.278    0.509   91.540
  457.250    2.269    0.281    0.520   91.506
  457.500    2.429    0.275    0.521   91.486
  457.750    2.830    0.268    0.462   89.058
  458.000    3.232    0.252    0.427   86.624
  458.250    3.554    0.247    0.420   85.403
  458.500    3.795    0.244    0.413   86.585
  458.750    4.358    0.264    0.410   87.758
  459.000    4.598    0.279    0.412   87.110
  459.250    4.678    0.270    0.414   86.496
  459.500    4.838    0.258    0.411   85.278
  459.750    5.159    0.272    0.407   82.851
  460.000    5.642    0.277    0.396   78.626
  460.250    5.963    0.268    0.376   73.798
  460.500    6.446    0.161    0.365   71.379
  460.750    6.686    0.115    0.346   69.549
  461.000    6.766    0.095    0.324   79.716
  461.250    6.684    0.121    0.332   83.894
  461.500    6.521    0.178    0.358   85.666
  461.750    6.117    0.226    0.384   84.441
  462.000    5.713    0.258    0.411   81.404
  462.250    5.469    0.251    0.427   80.791
  462.500    5.468    0.241    0.420   77.158
  462.750    5.708    0.223    0.403   76.542
  463.000    5.788    0.201    0.388   77.102
  463.250    5.706    0.207    0.384   78.287
  463.500    5.302    0.229    0.396   83.057
  463.750    4.816    0.245    0.410   87.833
  464.000    4.170    0.250    0.427   94.999
  464.250    4.008    0.243    0.443  100.369
  464.500    3.684    0.245    0.449  104.545
  464.750    3.521    0.252    0.448  108.721
  465.000    3.197    0.255    0.444  111.099
  465.250    3.115    0.256    0.442  106.858
  465.500    3.033    0.256    0.448  104.443
  465.750    3.032    0.234    0.463  100.813
  466.000    3.031    0.231    0.467   99.587
  466.250    3.110    0.228    0.453   99.565
  466.500    3.189    0.243    0.428   98.932
  466.750    3.269    0.249    0.413   98.313
  467.000    3.348    0.250    0.416   98.288
  467.250    3.347    0.249    0.435   97.664
  467.500    3.346    0.247    0.453   96.441
  467.750    3.425    0.218    0.460   94.607
  468.000    3.424    0.205    0.456   93.385
  468.250    3.503    0.199    0.446   92.746
  468.500    3.583    0.199    0.434   93.324
  468.750    3.582    0.216    0.428   93.903
  469.000    3.581    0.227    0.429   94.480
  469.250    3.660    0.231    0.429   94.456
  469.500    3.658    0.224    0.416   93.818
  469.750    3.657    0.206    0.413   92.592
  470.000    3.575    0.207    0.417   91.978
  470.250    3.494    0.212    0.439   92.551
  470.500    3.331    0.231    0.461   96.724
  470.750    3.169    0.244    0.472  100.893
  471.000    3.328    0.252    0.465  103.872
  471.250    3.892    0.254    0.454  105.645
  471.500    5.180    0.245    0.456   99.022
  471.750    5.502    0.242    0.437   88.191
  472.000    6.871    0.231    0.407   82.172
  472.250    7.838    0.198    0.376   75.548
  472.500    8.482    0.138    0.353   78.521
  472.750    8.561    0.163    0.360   83.279
  473.000    8.802    0.194    0.364   84.465
  473.250    9.446    0.207    0.376   79.637
  473.500   10.170    0.192    0.372   74.814
  473.750   10.572    0.187    0.363   72.391
