~VERSION INFORMATION
 VERS.                 2.0:   CWLS LOG ASCII STANDARD -VERSION 2.0
 WRAP.                  NO:   ONE LINE PER DEPTH STEP
~WELL INFORMATION BLOCK
#MNEM.UNIT           DATA                    DESCRIPTION OF MNEMONIC
#---------    -------------------            -------------------------------
# Generated from Intellog Unique Number	CW_73_75/WELL/2725
WELL.         CANTERRA MARTEN H 04-25        : Well_name    - WELL
LOC .         00/04-25-073-25W4/0            : Location     - LOCATION
UWI .         00/04-25-073-25W4/0            : Uwi          - UNIQUE WELL ID
ENTR.         JAYE                           : Entered      - ENTERED BY
SRVC.         WESTERN ATLAS                  : Scn          - SERVICE COMPANY
DATE.         21 JAN 86                      : Date         - LOG DATE
STRT.M        385                            : top_depth    - START DEPTH
STOP.M        615                            : bot_depth    - STOP DEPTH
STEP.M        0.25                           : increment    - STEP LENGTH
 NULL. -999.2500:NULL Value
~CURVE INFORMATION BLOCK
#MNEM UNIT       ERCB CURVE CODE    CURVE DESCRIPTION
#-----------   ------------------   ----------------------------------
DEPT.M        00 001 00 00         : DEPTH        - DEPTH
RHOB.KG/M3    00 350 00 00         : DENS         - BULK DENSITY
DPHI.V/V      00 890 00 00         : PHID         - DENSITY POROSITY (SANDSTONE)
ILD .OHMM     00 120 00 00         : RESD         - DEEP RESISTIVITY (DLL)
CALI.MM       00 280 01 00         : CAL          - CALIPER
GR  .API      00 310 00 00         : GR           - GAMMA RAY
NPHI.V/V      00 330 00 00         : PHIN         - NEUTRON POROSITY (SANDSTONE)
~PARAMETER INFORMATION
#MNEM.UNIT           DATA             DESCRIPTION OF MNEMONIC
#---------         -----------     ------------------------------
GL  .M        637.6                : gl           - GROUND LEVEL ELEVATION
EREF.M        641                  : kb           - ELEVATION OF DEPTH REFERENCE
DATM.M        637.6                : datum        - DATUM ELEVATION
TDD .M        617                  : tdd          - TOTAL DEPTH DRILLER
RUN .         ONE                  : Run          - RUN NUMBER
ENG .         MASHON               : Engineer     - RECORDING ENGINEER
WIT .         HUDSON/REID          : Witness      - WITNESSED BY
BASE.         EDM                  : Branch       - HOME BASE OF LOGGING UNIT
MUD .         GEL CHEM             : Mud_type     - MUD TYPE
MATR.         SANDSTONE            : Logunit      - NEUTRON MATRIX
TMAX.C        42                   : BHT          - MAXIMUM RECORDED TEMPERATURE
BHTD.M        617                  : BHTDEP       - MAXIMUM RECORDED TEMPERATURE
RMT .C        22                   : MDTP         - TEMPERATURE OF MUD
MUDD.KG/M     1130                 : MWT          - MUD DENSITY
NEUT.         0                    : NEUTRON      - NEUTRON TYPE
RESI.         1                    : RESIST       - RESISTIVITY TYPE
RM  .OHMM     2.3                  : RM           - RESISTIVITY OF MUD
RMC .OHMM     3.5                  : RMC          - RESISTIVITY OF MUD CAKE
RMF .OHMM     3.2                  : RMF          - RESISTIVITY OF MUD FILTRATE
SUFT.C        0                    : SUFT         - SURFACE TEMPERATURE
~A  DEPTH     DENS     PHID     RESD      CAL       GR     PHIN
# ...
  510.000 2336.910    0.190    6.331  168.462   99.158    0.347
  510.250 2339.640    0.188    6.097  168.899   95.762    0.375
  510.500 2334.690    0.191    5.994  169.134   98.753    0.357
  510.750 2335.550    0.191    5.969  169.568  103.974    0.357
  511.000 2338.490    0.189    5.988  169.180  101.510    0.408
  511.250 2342.050    0.187    5.930  169.104  105.677    0.376
  511.500 2346.030    0.184    5.680  169.123  101.972    0.368
  511.750 2327.780    0.195    5.430  168.633  104.777    0.388
  512.000 2331.960    0.193    5.269  167.624  109.193    0.397
  512.250 2368.770    0.170    5.425  165.893  115.654    0.394
  512.500 2385.840    0.160    5.712  164.161  108.168    0.382
  512.750 2376.730    0.166    6.453  163.051  101.612    0.390
  513.000 2261.860    0.235    7.441  162.352   96.792    0.384
  513.250 2167.770    0.292    9.275  161.447   90.484    0.353
  513.500 2159.700    0.297   11.078  160.850   81.946    0.381
  513.750 2169.700    0.291   11.513  160.356   78.490    0.422
  514.000 2186.770    0.281   11.744  159.971   73.297    0.425
  514.250 2183.480    0.283   11.805  159.683   71.329    0.389
  514.500 2180.600    0.284   11.977  159.710   75.062    0.380
  514.750 2187.280    0.280   11.971  159.941   71.729    0.366
  515.000 2195.200    0.276   11.724  160.171   72.115    0.351
  515.250 2209.150    0.267   11.546  160.406   71.572    0.359
  515.500 2201.500    0.272   11.371  160.220   64.025    0.362
  515.750 2174.520    0.288   11.345  160.246   67.635    0.388
  516.000 2179.330    0.285   11.424  160.270   70.067    0.405
  516.250 2192.030    0.278   11.547  160.603   69.090    0.389
  516.500 2184.790    0.282   13.143  161.248   71.894    0.359
  516.750 2239.460    0.249   15.903  161.996   69.243    0.331
  517.000 2399.060    0.152   18.750  162.742   63.742    0.312
  517.250 2331.570    0.193   20.110  162.973   67.724    0.287
  517.500 2258.050    0.238   21.056  162.792   68.297    0.285
  517.750 2218.600    0.261   21.047  162.299   65.150    0.342
  518.000 2192.870    0.277   20.649  161.912   70.618    0.409
  518.250 2209.110    0.267   20.224  161.624   73.547    0.377
  518.500 2200.200    0.273   20.214  161.550   68.168    0.363
  518.750 2196.080    0.275   20.470  161.673   72.956    0.357
  519.000 2206.710    0.269   20.613  161.388   73.528    0.355
  519.250 2242.060    0.247   20.718  160.794   71.128    0.367
  519.500 2267.230    0.232   20.980  160.098   72.938    0.378
  519.750 2259.780    0.236   21.683  159.809   74.627    0.400
  520.000 2409.620    0.146   23.386  159.625   69.435    0.350
  520.250 2472.600    0.108   25.411  159.961   64.862    0.291
  520.500 2566.540    0.051   28.024  160.295   64.134    0.235
  520.750 2598.370    0.031   29.341  160.319   65.139    0.193
  521.000 2419.920    0.139   28.736  158.281   67.757    0.211
  521.250 2360.110    0.176   28.090  157.580   73.041    0.274
  521.500 2289.080    0.219   27.257  157.813   67.167    0.304
  521.750 2231.980    0.253   26.447  157.735   69.476    0.321
  522.000 2214.760    0.264   25.853  157.655   71.288    0.341
  522.250 2200.460    0.272   24.947  157.886   66.716    0.354
  522.500 2210.670    0.266   23.849  158.116   70.201    0.361
  522.750 2223.790    0.258   22.506  158.656   69.658    0.364
  523.000 2238.160    0.250   21.476  159.508   68.309    0.375
  523.250 2252.940    0.241   21.150  160.053   72.849    0.369
  523.500 2260.860    0.236   21.140  160.694   71.254    0.353
  523.750 2258.820    0.237   20.820  161.956   69.036    0.375
  524.000 2268.620    0.231   20.849  164.151   73.203    0.341
  524.250 2298.360    0.213   21.427  165.312   69.871    0.332
  524.500 2352.200    0.180   22.983  165.646   68.584    0.315
  524.750 2397.730    0.153   28.384  165.672   62.648    0.296
  525.000 2591.520    0.035   35.910  166.326   51.459    0.241
  525.250 2443.520    0.125   34.727  166.054   59.519    0.254
  525.500 2402.060    0.150   27.156  165.368   65.774    0.298
  525.750 2324.180    0.197   23.438  163.540   70.284    0.333
  526.000 2265.030    0.233   19.855  162.025   72.862    0.361
  526.250 2246.180    0.245   17.361  164.347   73.633    0.373
  526.500 2233.510    0.252   17.454  166.045   71.102    0.395
  526.750 2229.270    0.255   18.591  165.775   73.991    0.396
  527.000 2247.850    0.244   19.581  164.364   74.202    0.373
  527.250 2282.690    0.223   20.206  162.533   71.796    0.351
  527.500 2296.540    0.214   20.239  160.806   68.829    0.332
  527.750 2303.820    0.210   19.788  159.183   64.182    0.337
  528.000 2303.890    0.210   19.455  157.461   67.195    0.354
  528.250 2281.750    0.223   19.487  157.500   63.608    0.355
  528.500 2283.480    0.222   19.483  158.265   65.873    0.354
  528.750 2297.120    0.214   18.593  159.865   72.811    0.354
  529.000 2299.260    0.213   17.384  160.835   68.165    0.349
  529.250 2267.250    0.232   15.060  161.500   76.036    0.336
  529.500 2242.230    0.247   12.925  162.270   80.794    0.331
  529.750 2255.880    0.239   11.176  164.279   85.366    0.346
  530.000 2291.130    0.217    8.937  167.745   86.947    0.373
  530.250 2342.620    0.186    7.991  169.862   82.859    0.393
  530.500 2349.890    0.182    7.266  169.380   75.409    0.392
  530.750 2329.810    0.194    7.103  168.384   80.852    0.362
  531.000 2294.110    0.216    7.195  167.798   88.600    0.351
  531.250 2281.420    0.223    7.425  167.111   81.211    0.369
  531.500 2284.380    0.222    7.748  166.634   75.628    0.384
  531.750 2310.990    0.205    7.951  166.571   76.588    0.371
  532.000 2313.740    0.204    8.129  166.711   77.171    0.371
  532.250 2295.920    0.215    8.264  167.064   80.932    0.390
  532.500 2280.980    0.224    8.324  167.829   81.581    0.392
  532.750 2252.060    0.241    8.307  167.664   82.040    0.360
  533.000 2241.030    0.248    8.228  166.872   85.430    0.376
  533.250 2236.170    0.251    8.150  166.392   82.090    0.390
  533.500 2216.710    0.263    8.148  166.121   78.373    0.397
  533.750 2232.620    0.253    8.238  164.604   72.914    0.391
  534.000 2245.860    0.245    8.422  163.602   73.499    0.355
  534.250 2272.670    0.229    8.724  162.813   74.396    0.347
  534.500 2303.600    0.210    9.188  164.512   74.855    0.350
  534.750 2364.540    0.173    9.750  165.902   75.065    0.347
  535.000 2400.200    0.151   10.502  161.688   73.469    0.341
  535.250 2380.120    0.164   11.020  158.716   68.758    0.326
  535.500 2345.440    0.185   11.372  157.303   70.464    0.335
  535.750 2321.040    0.199   11.561  157.444   68.869    0.342
  536.000 2298.080    0.213   11.645  158.106   67.710    0.343
  536.250 2300.220    0.212   11.643  158.877   74.211    0.334
  536.500 2316.950    0.202   11.705  159.436   77.724    0.323
  536.750 2307.770    0.207   11.856  160.204   78.869    0.335
  537.000 2303.520    0.210   12.144  160.762   74.534    0.347
  537.250 2320.680    0.200   12.277  161.109   67.891    0.339
  537.500 2326.100    0.196   12.298  160.841   69.101    0.340
  537.750 2330.900    0.193   12.181  160.671   73.298    0.324
  538.000 2346.400    0.184   11.932  160.811   75.501    0.329
  538.250 2365.610    0.172   11.430  165.212   74.652    0.343
  538.500 2392.210    0.156   10.548  170.552   78.539    0.341
  538.750 2405.650    0.148    9.771  170.591   76.382    0.335
  539.000 2423.830    0.137    9.153  166.994   79.710    0.329
  539.250 2468.120    0.110    8.415  163.504   87.332    0.317
  539.500 2428.910    0.134    7.942  163.127   93.585    0.331
  539.750 2373.660    0.167    7.523  164.209  100.524    0.353
  540.000 2377.030    0.165    7.139  166.114   99.675    0.387
  540.250 2395.000    0.155    7.045  167.504  106.055    0.375
  540.500 2402.280    0.150    7.044  165.466  110.128    0.383
  540.750 2404.610    0.149    7.161  162.702  110.214    0.364
  541.000 2415.800    0.142    7.281  160.875  111.110    0.347
