~VERSION INFORMATION
 VERS.                 2.0:   CWLS LOG ASCII STANDARD -VERSION 2.0
 WRAP.                  NO:   ONE LINE PER DEPTH STEP
~WELL INFORMATION BLOCK
#MNEM.UNIT           DATA                    DESCRIPTION OF MNEMONIC
#---------    -------------------            -------------------------------
# Generated from Intellog Unique Number	CC_80_83/WELL/2485
WELL.         UNEX ET AL BOHN                : Well_name    - WELL
LOC .         00/06-30-081-07W4/0            : Location     - LOCATION
UWI .         00/06-30-081-07W4/0            : Uwi          - UNIQUE WELL ID
ENTR.         TIM                            : Entered      - ENTERED BY
SRVC.         SCHLUMBERGER                   : Scn          - SERVICE COMPANY
STRT.M        250                            : top_depth    - START DEPTH
STOP.M        490                            : bot_depth    - STOP DEPTH
STEP.M        0.25                           : increment    - STEP LENGTH
 NULL. -999.2500:NULL Value
~CURVE INFORMATION BLOCK
#MNEM UNIT       ERCB CURVE CODE    CURVE DESCRIPTION
#-----------   ------------------   ----------------------------------
DEPT.M        00 001 00 00         : DEPTH        - DEPTH
NPHI.V/V      00 330 00 00         : PHIN         - NEUTRON POROSITY (SANDSTONE)
DPHI.V/V      00 890 00 00         : PHID         - DENSITY POROSITY (SANDSTONE)
ILD .OHMM     00 120 00 00         : RESD         - DEEP RESISTIVITY (DIL)
GR  .API      00 310 00 00         : GR           - GAMMA RAY
~PARAMETER INFORMATION
#MNEM.UNIT           DATA             DESCRIPTION OF MNEMONIC
#---------         -----------     ------------------------------
GL  .M        704                  : gl           - GROUND LEVEL ELEVATION
EREF.M        707.9                : kb           - ELEVATION OF DEPTH REFERENCE
DATM.M        707.9                : datum        - DATUM ELEVATION
TDD .M        498                  : tdd          - TOTAL DEPTH DRILLER
RUN .         ONE                  : Run          - RUN NUMBER
ENG .         BILL                 : Engineer     - RECORDING ENGINEER
WIT .         JIM                  : Witness      - WITNESSED BY
MUD .         GEL                  : Mud_type     - MUD TYPE
MATR.         SANDSTONE            : Logunit      - NEUTRON MATRIX
TMAX.C        29                   : BHT          - MAXIMUM RECORDED TEMPERATURE
BHTD.M        498                  : BHTDEP       - MAXIMUM RECORDED TEMPERATURE
MATR.         1                    : LOGUNIT      - NEUTRON MATRIX
RMT .C        25                   : MDTP         - TEMPERATURE OF MUD
NEUT.         1                    : NEUTRON      - NEUTRON TYPE
RESI.         4                    : RESIST       - RESISTIVITY TYPE
RMC .OHMM     3.5                  : RMC          - RESISTIVITY OF MUD CAKE
RMF .OHMM     4.4                  : RMF          - RESISTIVITY OF MUD FILTRATE
SUFT.C        15                   : SUFT         - SURFACE TEMPERATURE
~A  DEPTH     PHIN     PHID     RESD       GR
  250.000    0.445    0.222    4.428   98.836
  250.250    0.444    0.222    4.438  101.812
  250.500    0.442    0.223    4.447  104.212
  250.750    0.441    0.219    4.456  106.036
  251.000    0.439    0.222    4.465  106.084
  251.250    0.440    0.224    4.395  105.544
  251.500    0.448    0.231    4.245  106.768
  251.750    0.455    0.237    4.025  109.168
  252.000    0.469    0.246    3.958  110.991
  252.250    0.496    0.255    3.826  111.027
  252.500    0.525    0.262    3.760  109.911
  252.750    0.568    0.265    3.699  108.208
  253.000    0.577    0.252    3.639  107.068
  253.250    0.550    0.211    3.582  105.352
  253.500    0.462    0.202    3.522  104.812
  253.750    0.425    0.190    3.469  106.624
  254.000    0.438    0.212    3.409  109.035
  254.250    0.452    0.238    3.357  110.259
  254.500    0.460    0.239    3.299  110.895
  254.750    0.523    0.236    3.247  112.707
  255.000    0.524    0.231    3.252  109.215
  255.250    0.507    0.226    3.201  102.208
  255.500    0.494    0.231    3.093  112.839
  255.750    0.457    0.234    3.045  116.427
  256.000    0.453    0.239    3.048  112.359
  256.250    0.454    0.241    2.998  110.043
  256.500    0.456    0.247    2.897  110.103
  256.750    0.457    0.255    2.903  108.987
  257.000    0.462    0.259    2.804  107.847
  257.250    0.466    0.266    2.759  104.968
  257.500    0.468    0.269    2.715  103.840
  257.750    0.470    0.272    2.669  104.476
  258.000    0.475    0.266    2.579  103.924
  258.250    0.484    0.258    2.535  101.644
  258.500    0.499    0.256    2.449  100.492
  258.750    0.506    0.258    2.410  100.552
  259.000    0.496    0.270    2.370  101.176
  259.250    0.474    0.275    2.290  100.648
  259.500    0.467    0.273    2.295   99.508
  259.750    0.458    0.276    2.300   98.968
  260.000    0.425    0.278    2.303  109.035
  260.250    0.441    0.280    2.310  106.731
  260.500    0.470    0.281    2.315  105.603
  260.750    0.518    0.281    2.320  106.251
  261.000    0.573    0.268    2.368  105.687
  261.250    0.531    0.249    2.417  102.796
  261.500    0.515    0.212    2.466   99.328
  261.750    0.503    0.166    2.519   95.248
  262.000    0.507    0.176    2.570   92.956
  262.250    0.513    0.238    2.623  100.636
  262.500    0.529    0.253    2.678  103.635
  262.750    0.539    0.254    2.734  102.507
  263.000    0.529    0.259    2.741  103.143
  263.250    0.524    0.266    2.795  107.319
  263.500    0.524    0.270    2.801  109.131
  263.750    0.527    0.263    2.914  108.579
  264.000    0.526    0.260    2.918  104.511
  264.250    0.514    0.255    2.982  101.619
  264.500    0.508    0.249    3.042   99.904
  264.750    0.509    0.246    3.103   98.776
  265.000    0.505    0.245    3.171  101.775
  265.250    0.483    0.243    3.235  104.163
  265.500    0.476    0.241    3.427  105.399
  265.750    0.473    0.235    3.563  102.507
  266.000    0.468    0.229    3.704   99.603
  266.250    0.467    0.223    3.849   97.900
  266.500    0.467    0.215    4.002  105.591
  266.750    0.466    0.216    4.163  108.579
  267.000    0.461    0.231    4.413  103.335
  267.250    0.450    0.227    4.502  102.207
  267.500    0.444    0.225    4.593  108.723
  267.750    0.437    0.226    4.688  107.607
  268.000    0.432    0.227    4.700  103.527
  268.250    0.427    0.228    4.797  104.763
  268.500    0.422    0.228    4.805  112.454
  268.750    0.413    0.228    4.904  116.618
  269.000    0.407    0.228    5.293   93.136
  269.250    0.400    0.228    5.818   80.837
  269.500    0.390    0.217    6.276   76.193
  269.750    0.370    0.085    6.766   79.757
  270.000    0.360    0.054    6.657   73.925
  270.250    0.347    0.048    5.863   63.978
  270.500    0.312    0.054    5.359   58.147
  270.750    0.311    0.069    5.081   54.667
  271.000    0.356    0.109    5.186   80.585
  271.250    0.414    0.198    5.492   97.107
  271.500    0.417    0.225    6.502  101.271
  271.750    0.413    0.238    7.141  104.871
  272.000    0.393    0.264    8.140  102.567
  272.250    0.380    0.297    9.115   98.487
  272.500    0.382    0.323   10.981   93.820
  272.750    0.389    0.329   12.988   85.636
  273.000    0.389    0.335   14.017   71.573
  273.250    0.390    0.303   14.038   71.621
  273.500    0.400    0.294   13.559   73.433
  273.750    0.408    0.279   11.943   78.773
  274.000    0.403    0.256   10.520   94.719
  274.250    0.381    0.249    9.793   97.695
  274.500    0.381    0.235    9.286   97.155
  274.750    0.391    0.239    9.305   93.100
  275.000    0.396    0.248    9.502   94.311
  275.250    0.400    0.255   10.073   99.087
  275.500    0.397    0.261   10.473   97.959
  275.750    0.388    0.267   11.079   96.243
  276.000    0.382    0.273   12.179   96.291
  276.250    0.377    0.274   12.662   95.175
  276.500    0.375    0.261   12.682   94.611
  276.750    0.373    0.242   12.951   92.895
  277.000    0.366    0.202   13.219   90.604
  277.250    0.361    0.099   13.246   87.136
  277.500    0.353    0.123   13.521   85.408
  277.750    0.355    0.197   13.555   83.680
  278.000    0.361    0.246   13.590   80.800
  278.250    0.367    0.264   13.857   79.084
  278.500    0.369    0.270   13.893   76.781
  278.750    0.364    0.279   14.173   72.701
  279.000    0.358    0.278   14.481   68.645
  279.250    0.353    0.255   14.504   72.221
  279.500    0.347    0.251   14.819   75.785
  279.750    0.345    0.226   14.835   85.840
  280.000    0.351    0.200   14.601   81.184
  280.250    0.358    0.246   14.357   80.056
  280.500    0.368    0.255   13.874   90.687
  280.750    0.373    0.247   13.393  108.386
  281.000    0.380    0.241   12.948  113.726
  281.250    0.387    0.247   12.738  112.010
  281.500    0.393    0.251   12.518  112.058
  281.750    0.398    0.237   12.091  115.058
  282.000    0.405    0.225   11.689  116.857
  282.250    0.409    0.213   11.701  118.681
  282.500    0.413    0.217   11.518  119.905
  282.750    0.414    0.223   11.535  119.953
  283.000    0.406    0.229   12.681  117.061
  283.250    0.396    0.239   13.184  112.406
  283.500    0.389    0.250   13.457  101.870
  283.750    0.379    0.263   13.485   97.203
  284.000    0.372    0.244   13.519   86.080
  284.250    0.362    0.239   13.554   82.612
  284.500    0.361    0.233   13.575   88.527
  284.750    0.363    0.232   13.596   89.751
  285.000    0.365    0.228   13.624   93.351
  285.250    0.368    0.227   13.652   97.503
  285.500    0.374    0.238   13.681  105.194
  285.750    0.377    0.256   14.495   91.719
  286.000    0.377    0.272   15.358   71.177
  286.250    0.377    0.272   15.959   67.109
  286.500    0.379    0.272   16.909   68.921
  286.750    0.384    0.285   17.250   71.321
  287.000    0.389    0.310   17.935   73.744
  287.250    0.384    0.327   20.082   73.792
  287.500    0.378    0.329   21.662   72.665
  287.750    0.374    0.322   21.707   72.712
  288.000    0.375    0.314   20.604   72.172
  288.250    0.376    0.314   20.259   70.469
  288.500    0.377    0.316   20.301   67.565
  288.750    0.378    0.318   20.343   64.661
  289.000    0.378    0.320   20.385   62.357
  289.250    0.378    0.321   20.416   62.993
  289.500    0.378    0.321   20.480   65.981
  289.750    0.380    0.320   20.501   68.969
  290.000    0.383    0.318   20.564   69.617
  290.250    0.388    0.307   20.607   67.913
  290.500    0.391    0.278   20.649   66.773
  290.750    0.399    0.246   20.692   66.833
  291.000    0.400    0.267   20.735   68.045
  291.250    0.399    0.283   20.767   72.208
  291.500    0.395    0.305   20.430   74.608
  291.750    0.394    0.309   19.731   77.008
  292.000    0.390    0.311   19.421   80.596
  292.250    0.388    0.304   19.096   83.595
  292.500    0.386    0.279   18.453   86.583
  292.750    0.388    0.277   18.145   90.147
  293.000    0.393    0.276   17.869   95.498
  293.250    0.398    0.270   17.240   98.486
