~VERSION INFORMATION
 VERS.                 2.0:   CWLS LOG ASCII STANDARD -VERSION 2.0
 WRAP.                  NO:   ONE LINE PER DEPTH STEP
~WELL INFORMATION BLOCK
#MNEM.UNIT           DATA                    DESCRIPTION OF MNEMONIC
#---------    -------------------            -------------------------------
# Generated from Intellog Unique Number	CS_77_79/WELL/869
WELL.         AMOCO                          : Well_name    - WELL
LOC .         00/06-11-077-09W4/0            : Location     - LOCATION
UWI .         00/06-11-077-09W4/0            : Uwi          - UNIQUE WELL ID
ENTR.         SP                             : Entered      - ENTERED BY
SRVC.         SCHLUMBERGER                   : Scn          - SERVICE COMPANY
STRT.M        228.6                          : top_depth    - START DEPTH
STOP.M        438.6                          : bot_depth    - STOP DEPTH
STEP.M        0.25                           : increment    - STEP LENGTH
 NULL. -999.2500:NULL Value
~CURVE INFORMATION BLOCK
#MNEM UNIT       ERCB CURVE CODE    CURVE DESCRIPTION
#-----------   ------------------   ----------------------------------
DEPT.M        00 001 00 00         : DEPTH        - DEPTH
GR  .API      00 310 00 00         : GR           - GAMMA RAY
DPHI.V/V      00 890 00 00         : PHID         - DENSITY POROSITY (SANDSTONE)
NPHI.V/V      00 330 00 00         : PHIN         - NEUTRON POROSITY (SANDSTONE)
ILD .OHMM     00 120 00 00         : RESD         - DEEP RESISTIVITY (DIL)
~PARAMETER INFORMATION
#MNEM.UNIT           DATA             DESCRIPTION OF MNEMONIC
#---------         -----------     ------------------------------
GL  .M        631.7                : gl           - GROUND LEVEL ELEVATION
EREF.M        635.8                : kb           - ELEVATION OF DEPTH REFERENCE
DATM.M        631.7                : datum        - DATUM ELEVATION
TDD .M        442                  : tdd          - TOTAL DEPTH DRILLER
RUN .         ONE                  : Run          - RUN NUMBER
ENG .         BILL                 : Engineer     - RECORDING ENGINEER
WIT .         JIM                  : Witness      - WITNESSED BY
MUD .         GEL                  : Mud_type     - MUD TYPE
MATR.         SANDSTONE            : Logunit      - NEUTRON MATRIX
TMAX.C        60                   : BHT          - MAXIMUM RECORDED TEMPERATURE
BHTD.M        2072                 : BHTDEP       - MAXIMUM RECORDED TEMPERATURE
MATR.         1                    : LOGUNIT      - NEUTRON MATRIX
RMT .C        25                   : MDTP         - TEMPERATURE OF MUD
NEUT.         1                    : NEUTRON      - NEUTRON TYPE
RESI.         0                    : RESIST       - RESISTIVITY TYPE
RMC .OHMM     0.25                 : RMC          - RESISTIVITY OF MUD CAKE
RMF .OHMM     0.25                 : RMF          - RESISTIVITY OF MUD FILTRATE
SUFT.C        15                   : SUFT         - SURFACE TEMPERATURE
~A  DEPTH       GR     PHID     PHIN     RESD
# ...
  359.100   73.557    0.363    0.467    6.215
  359.350   72.605    0.361    0.469    6.039
  359.600   72.639    0.357    0.461    6.037
  359.850   71.928    0.356    0.464    6.036
  360.100   71.473    0.359    0.470    6.034
  360.350   70.443    0.362    0.471    5.986
  360.600   70.204    0.365    0.465    5.931
  360.850   70.715    0.364    0.458    5.926
  361.100   71.575    0.360    0.451    5.887
  361.350   72.525    0.363    0.453    5.822
  361.600   72.981    0.363    0.461    5.711
  361.850   74.280    0.363    0.475    5.721
  362.100   75.973    0.363    0.486    5.719
  362.350   75.000    0.364    0.493    5.534
  362.600   72.850    0.363    0.503    5.425
  362.850   72.467    0.366    0.503    5.420
  363.100   71.576    0.370    0.495    5.481
  363.350   69.918    0.372    0.489    5.410
  363.600   68.533    0.373    0.489    5.422
  363.850   66.780    0.370    0.475    5.421
  364.100   65.886    0.372    0.467    5.421
  364.350   67.785    0.362    0.462    5.498
  364.600   71.112    0.357    0.471    5.521
  364.850   73.559    0.349    0.498    5.525
  365.100   77.311    0.349    0.507    5.526
  365.350   80.927    0.353    0.501    5.527
  365.600   83.600    0.354    0.491    5.527
  365.850   84.625    0.352    0.485    5.528
  366.100   84.378    0.348    0.482    5.526
  366.350   86.969    0.339    0.482    5.614
  366.600   87.881    0.329    0.514    5.801
  366.850   87.209    0.330    0.518    5.860
  367.100   84.910    0.323    0.504    6.157
  367.350   82.907    0.326    0.486    6.382
  367.600   83.601    0.314    0.473    6.649
  367.850   82.806    0.299    0.479    6.772
  368.100   80.751    0.284    0.472    6.746
  368.350   76.479    0.265    0.459    6.416
  368.600   76.130    0.234    0.435    6.035
  368.850   77.124    0.277    0.409    5.821
  369.100   80.919    0.293    0.413    5.746
  369.350   81.121    0.305    0.478    5.850
  369.600   81.411    0.317    0.496    6.086
  369.850   84.506    0.323    0.493    6.284
  370.100   86.121    0.308    0.474    6.291
  370.350   83.927    0.309    0.467    6.286
  370.600   82.248    0.307    0.462    5.940
  370.850   84.905    0.290    0.457    5.216
  371.100   88.828    0.279    0.450    4.789
  371.350   93.799    0.267    0.471    4.528
  371.600   96.766    0.257    0.495    4.063
  371.850   99.316    0.269    0.512    3.788
  372.100  103.624    0.271    0.537    3.707
  372.350  106.622    0.267    0.544    3.707
  372.600  110.503    0.256    0.528    3.830
  372.850  112.403    0.253    0.503    3.935
  373.100  111.934    0.251    0.507    4.329
  373.350  112.897    0.257    0.521    4.645
  373.600  111.491    0.258    0.514    5.060
  373.850  106.485    0.249    0.489    5.366
  374.100  107.406    0.245    0.477    5.705
  374.350  108.524    0.245    0.464    5.877
  374.600  109.490    0.250    0.457    5.870
  374.850  109.365    0.256    0.464    5.814
  375.100  108.801    0.254    0.482    5.644
  375.350  107.851    0.257    0.499    5.299
  375.600  104.599    0.261    0.503    4.640
  375.850  102.033    0.252    0.491    4.251
  376.100  100.683    0.254    0.489    3.770
  376.350   99.100    0.255    0.477    3.108
  376.600   96.802    0.278    0.493    2.867
  376.850   96.372    0.290    0.507    2.561
  377.100   95.483    0.300    0.541    2.465
  377.350   94.513    0.308    0.584    2.271
  377.600   92.060    0.307    0.581    2.165
  377.850   90.646    0.293    0.578    2.108
  378.100   89.140    0.283    0.571    2.152
  378.350   90.047    0.285    0.544    2.176
  378.600   91.815    0.295    0.531    2.192
  378.850   93.185    0.302    0.534    2.226
  379.100   95.090    0.299    0.549    2.365
  379.350   97.077    0.292    0.551    2.455
  379.600   99.569    0.285    0.552    2.557
  379.850  101.445    0.279    0.576    2.850
  380.100  103.346    0.283    0.599    3.179
  380.350  101.633    0.268    0.597    3.433
  380.600  101.606    0.258    0.578    3.655
  380.850  100.949    0.255    0.560    4.085
  381.100  100.834    0.242    0.537    4.411
  381.350  102.307    0.230    0.501    4.766
  381.600  103.824    0.233    0.475    4.989
  381.850  103.968    0.228    0.493    4.957
  382.100  102.498    0.217    0.483    4.816
  382.350  102.085    0.206    0.454    4.462
  382.600  102.319    0.212    0.442    4.095
  382.850  103.366    0.218    0.462    3.860
  383.100  104.860    0.231    0.482    3.639
  383.350  106.528    0.229    0.489    3.467
  383.600  107.423    0.222    0.477    3.410
  383.850  108.889    0.225    0.468    3.354
  384.100  111.220    0.228    0.482    3.284
  384.350  112.663    0.235    0.493    3.291
  384.600  113.300    0.236    0.497    3.291
  384.850  113.055    0.237    0.488    3.292
  385.100  112.154    0.241    0.480    3.292
  385.350  110.883    0.252    0.480    3.286
  385.600  109.552    0.252    0.493    3.356
  385.850  108.619    0.252    0.508    3.407
  386.100  107.369    0.233    0.529    3.447
  386.350  106.018    0.218    0.557    3.414
  386.600  103.068    0.208    0.531    3.419
  386.850   99.304    0.112    0.515    3.419
  387.100   98.926    0.118    0.493    3.419
  387.350  102.685    0.231    0.513    3.413
  387.600  105.162    0.244    0.542    3.491
  387.850  106.651    0.244    0.531    3.478
  388.100  105.960    0.243    0.526    3.672
  388.350  105.937    0.248    0.528    4.185
  388.600  105.017    0.251    0.526    4.920
  388.850  100.771    0.256    0.509    5.953
  389.100   90.179    0.265    0.450    7.193
  389.350   78.956    0.275    0.420    8.078
  389.600   75.554    0.289    0.428    9.073
  389.850   73.212    0.295    0.424    9.715
  390.100   74.028    0.283    0.426   10.006
  390.350   75.129    0.277    0.424   10.312
  390.600   76.749    0.277    0.425   10.636
  390.850   76.456    0.261    0.409   10.735
  391.100   75.606    0.242    0.399   11.041
  391.350   77.185    0.228    0.395   11.227
  391.600   78.520    0.187    0.385   11.333
  391.850   79.900    0.184    0.376   11.705
  392.100   82.063    0.241    0.404   12.849
  392.350   79.749    0.272    0.415   14.297
  392.600   75.799    0.286    0.433   16.688
  392.850   67.166    0.292    0.424   20.676
  393.100   61.925    0.303    0.421   26.072
  393.350   57.631    0.309    0.425   33.699
  393.600   55.372    0.312    0.420   46.476
  393.850   51.793    0.312    0.409   55.918
  394.100   50.955    0.318    0.396   66.895
  394.350   54.181    0.319    0.401   82.647
  394.600   56.793    0.318    0.405   90.418
  394.850   59.581    0.314    0.411   73.951
  395.100   63.716    0.316    0.416   57.865
  395.350   64.757    0.319    0.420   48.661
  395.600   66.273    0.323    0.424   39.538
  395.850   68.186    0.324    0.428   32.027
  396.100   75.623    0.321    0.430   26.525
  396.350   82.163    0.310    0.424   24.135
  396.600   87.156    0.298    0.418   24.370
  396.850   87.831    0.296    0.434   24.718
  397.100   87.994    0.300    0.447   26.830
  397.350   83.519    0.305    0.460   27.767
  397.600   81.371    0.316    0.454   25.520
  397.850   82.013    0.319    0.443   21.809
  398.100   87.308    0.308    0.426   17.284
  398.350   94.926    0.303    0.426   13.577
  398.600   99.517    0.298    0.426   11.273
  398.850  107.140    0.290    0.419   10.079
  399.100  116.071    0.261    0.422    9.911
  399.350  122.995    0.243    0.425   10.472
  399.600  122.250    0.253    0.428   12.174
  399.850  115.425    0.260    0.439   14.237
  400.100   93.929    0.267    0.447   17.954
  400.350   77.718    0.284    0.431   20.961
  400.600   62.453    0.278    0.411   21.440
  400.850   59.644    0.265    0.391   20.544
  401.100   62.802    0.259    0.381   19.563
  401.350   71.301    0.257    0.371   19.945
  401.600   76.950    0.244    0.382   20.363
  401.850   82.433    0.253    0.402   20.961
  402.100   79.327    0.265    0.418   21.367
  402.350   82.371    0.298    0.416   20.684
