~VERSION INFORMATION
 VERS.                 2.0:   CWLS LOG ASCII STANDARD -VERSION 2.0
 WRAP.                  NO:   ONE LINE PER DEPTH STEP
~WELL INFORMATION BLOCK
#MNEM.UNIT           DATA                    DESCRIPTION OF MNEMONIC
#---------    -------------------            -------------------------------
# Generated from Intellog Unique Number	CW_70_72/WELL/3008
NULL.         -999.25                        : NULL_VALUE
WELL.         CHIEFCO ET AL RANCH 06-18      : Well_name    - WELL              
LOC .         06-18-070-26W4                 : Location     - LOCATION          
UWI .         00/06-18-070-26W4/0            : Uwi          - UNIQUE WELL ID    
ENTR.         J                              : Entered      - ENTERED BY        
SRVC.         SCHLUMBERGER                   : Scn          - SERVICE COMPANY   
DATE.         9 AUG 76                       : Date         - LOG DATE          
STRT.M        454.152                        : top_depth    - START DEPTH       
STOP.M        710.152                        : bot_depth    - STOP DEPTH        
STEP.M        0.25                           : increment    - STEP LENGTH       
~CURVE INFORMATION BLOCK
#MNEM UNIT       ERCB CURVE CODE    CURVE DESCRIPTION
#-----------   ------------------   ----------------------------------
DEPT.M        00 001 00 00         : DEPTH        - DEPTH                       
ILD .OHMM     00 120 00 00         : RESD         - DEEP RESISTIVITY (DIL)      
CALI.MM       00 280 01 00         : CAL          - CALIPER                     
GR  .API      00 310 00 00         : GR           - GAMMA RAY                   
NPHI.V/V      00 330 00 00         : PHIN         - NEUTRON POROSITY (SANDSTONE)
DPHI.V/V      00 890 00 00         : PHID         - DENSITY POROSITY (SANDSTONE)
~PARAMETER INFORMATION       
#MNEM.UNIT           DATA             DESCRIPTION OF MNEMONIC
#---------         -----------     ------------------------------
GL  .M        623.316              : gl           - GROUND LEVEL ELEVATION      
EREF.M        626.059              : kb           - ELEVATION OF DEPTH REFERENCE
DATM.M        623.316              : datum        - DATUM ELEVATION             
TDD .M        723.9                : tdd          - TOTAL DEPTH DRILLER         
RUN .         ONE                  : Run          - RUN NUMBER                  
ENG .         MUNRO/SEDGWICK       : Engineer     - RECORDING ENGINEER          
BASE.         EDM                  : Branch       - HOME BASE OF LOGGING UNIT   
MUD .         GEL                  : Mud_type     - MUD TYPE                    
MATR.         SANDSTONE            : Logunit      - NEUTRON MATRIX              
TMAX.C        28.3333              : BHT          - MAXIMUM RECORDED TEMPERATURE
BHTD.M        722.681              : BHTDEP       - MAXIMUM RECORDED TEMPERATURE
RMT .C        22.2222              : MDTP         - TEMPERATURE OF MUD          
MUDD.KG/M     1116                 : MWT          - MUD DENSITY                 
NEUT.         1                    : NEUTRON      - NEUTRON TYPE                
RESI.         0                    : RESIST       - RESISTIVITY TYPE            
RM  .OHMM     3.29                 : RM           - RESISTIVITY OF MUD          
RMC .OHMM     2.5                  : RMC          - RESISTIVITY OF MUD CAKE     
RMF .OHMM     3.04                 : RMF          - RESISTIVITY OF MUD FILTRATE 
SUFT.C        -17.7778             : SUFT         - SURFACE TEMPERATURE         
~A  DEPTH     RESD      CAL       GR     PHIN     PHID
# ...
  527.152    1.292  144.816   58.742    0.454    0.353
  527.402    1.293  144.164   59.029    0.448    0.341
  527.652    1.286  143.928   60.457    0.439    0.338
  527.902    1.274  143.481   63.410    0.433    0.344
  528.152    1.268  143.238   66.178    0.444    0.343
  528.402    1.263  143.112   64.643    0.456    0.341
  528.652    1.275  143.470   61.409    0.460    0.340
  528.902    1.294  143.966   60.122    0.460    0.340
  529.152    1.319  144.017   59.672    0.449    0.340
  529.402    1.331  144.091   59.345    0.441    0.341
  529.652    1.336  143.654   59.020    0.421    0.342
  529.902    1.319  144.126   59.436    0.426    0.341
  530.152    1.289  146.243   59.656    0.442    0.339
  530.402    1.258  148.375   59.874    0.456    0.336
  530.652    1.227  148.031   60.223    0.465    0.333
  530.902    1.205  147.177   60.015    0.479    0.329
  531.152    1.210  146.317   59.636    0.477    0.325
  531.402    1.230  145.571   59.731    0.450    0.328
  531.652    1.290  145.030   61.170    0.438    0.336
  531.902    1.356  144.975   63.448    0.449    0.328
  532.152    1.537  144.527   64.409    0.449    0.332
  532.402    1.728  144.088   64.016    0.449    0.337
  532.652    2.035  144.047   63.203    0.449    0.334
  532.902    2.379  144.735   62.089    0.444    0.316
  533.152    2.384  145.517   60.811    0.421    0.292
  533.402    2.120  147.551   60.411    0.384    0.269
  533.652    1.921  150.585   60.516    0.350    0.237
  533.902    1.743  147.895   62.432    0.303    0.196
  534.152    1.611  142.507   66.601    0.376    0.303
  534.402    1.509  135.291   65.791    0.426    0.310
  534.652    1.504  140.080   63.283    0.443    0.312
  534.902    1.601  147.435   63.269    0.456    0.320
  535.152    1.742  153.673   65.490    0.477    0.325
  535.402    1.851  150.768   68.682    0.547    0.388
  535.652    1.924  147.430   68.115    0.537    0.369
  535.902    2.019  143.604   66.766    0.473    0.335
  536.152    2.125  142.439   67.833    0.464    0.310
  536.402    2.267  142.205   70.539    0.496    0.319
  536.652    2.503  142.267   74.225    0.511    0.318
  536.902    2.729  142.953   75.659    0.449    0.295
  537.152    2.992  143.627   75.155    0.425    0.278
  537.402    3.280  144.835   72.948    0.437    0.276
  537.652    3.233  145.725   70.260    0.448    0.296
  537.902    3.061  147.025   68.542    0.415    0.280
  538.152    2.753  149.562   68.272    0.384    0.237
  538.402    2.444  150.965   69.409    0.326    0.193
  538.652    2.288  150.819   72.607    0.410    0.150
  538.902    2.331  150.477   75.976    0.444    0.205
  539.152    2.445  149.926   80.201    0.473    0.271
  539.402    2.551  149.068   78.060    0.471    0.260
  539.652    2.662  148.106   80.164    0.460    0.244
  539.902    2.717  147.578   85.538    0.469    0.249
  540.152    2.768  147.529   85.706    0.470    0.241
  540.402    2.753  147.292   84.832    0.468    0.245
  540.652    2.699  147.263   83.534    0.466    0.241
  540.902    2.655  147.218   82.912    0.470    0.248
  541.152    2.617  147.184   84.767    0.463    0.243
  541.402    2.598  147.265   87.477    0.450    0.238
  541.652    2.618  147.522   85.217    0.459    0.222
  541.902    2.672  147.708   82.712    0.467    0.241
  542.152    2.767  148.076   81.596    0.460    0.258
  542.402    2.887  148.050   81.147    0.468    0.272
  542.652    2.985  148.524   80.949    0.467    0.275
  542.902    3.069  149.724   81.168    0.461    0.261
  543.152    3.138  150.807   82.128    0.453    0.248
  543.402    3.214  152.118   84.046    0.446    0.239
  543.652    3.280  152.901   86.383    0.438    0.227
  543.902    3.379  153.804   89.879    0.445    0.215
  544.152    3.436  154.475   90.416    0.459    0.190
  544.402    3.519  154.756   86.811    0.462    0.202
  544.652    3.592  154.706   86.243    0.452    0.223
  544.902    3.612  154.567   86.764    0.436    0.210
  545.152    3.567  154.134   85.841    0.429    0.208
  545.402    3.421  154.091   86.243    0.430    0.208
  545.652    3.304  153.959   88.412    0.416    0.207
  545.902    3.065  154.034   90.570    0.417    0.203
  546.152    2.823  154.404   93.581    0.423    0.199
  546.402    2.586  155.209   95.803    0.434    0.192
  546.652    2.334  155.668   96.326    0.435    0.186
  546.902    2.165  155.733   92.666    0.440    0.179
  547.152    2.073  154.571   88.346    0.453    0.168
  547.402    2.062  152.686   84.201    0.473    0.186
  547.652    2.135  149.979   79.017    0.452    0.204
  547.902    2.290  147.577   76.025    0.448    0.252
  548.152    2.483  145.403   78.076    0.443    0.282
  548.402    2.865  144.037   78.476    0.447    0.312
  548.652    3.107  143.681   74.629    0.458    0.297
  548.902    3.307  144.078   79.835    0.441    0.280
  549.152    3.376  144.841   86.545    0.429    0.253
  549.402    3.458  147.584   91.440    0.429    0.212
  549.652    3.510  150.115   95.663    0.441    0.209
  549.902    3.517  152.237   98.243    0.443    0.204
  550.152    3.492  154.499   95.195    0.435    0.197
  550.402    3.411  155.151  100.025    0.450    0.191
  550.652    3.386  156.174   98.305    0.455    0.186
  550.902    3.289  156.724   93.915    0.442    0.210
  551.152    3.212  157.335   89.166    0.431    0.243
  551.402    2.997  157.269   86.113    0.438    0.268
  551.652    2.801  157.346   84.221    0.460    0.275
  551.902    2.646  157.396   84.007    0.486    0.306
  552.152    2.487  157.473   88.597    0.545    0.336
  552.402    2.411  157.019   93.190    0.504    0.292
  552.652    2.488  152.779   93.414    0.461    0.287
  552.902    2.544  148.129   87.873    0.438    0.277
  553.152    2.573  146.240   81.787    0.443    0.266
  553.402    2.569  145.278   72.912    0.458    0.254
  553.652    2.541  144.655   66.758    0.471    0.264
  553.902    2.509  144.694   59.643    0.455    0.283
  554.152    2.469  144.658   61.563    0.434    0.285
  554.402    2.447  144.537   61.906    0.424    0.268
  554.652    2.443  144.289   61.277    0.432    0.265
  554.902    2.439  144.359   62.597    0.433    0.257
  555.152    2.404  144.323   66.156    0.429    0.271
  555.402    2.352  144.182   69.162    0.419    0.283
  555.652    2.293  144.466   68.841    0.415    0.291
  555.902    2.235  144.536   69.549    0.414    0.287
  556.152    2.191  144.834   70.376    0.416    0.283
  556.402    2.109  145.063   70.968    0.416    0.284
  556.652    2.011  145.131   69.611    0.415    0.296
  556.902    1.939  145.131   68.132    0.424    0.305
  557.152    1.887  145.624   68.719    0.440    0.304
  557.402    1.826  145.648   71.121    0.432    0.298
  557.652    1.790  145.946   75.594    0.437    0.295
  557.902    1.790  145.984   80.185    0.444    0.291
  558.152    1.824  145.984   84.172    0.456    0.285
  558.402    1.861  146.757   84.808    0.460    0.302
  558.652    1.928  146.807   81.151    0.446    0.299
  558.902    1.964  146.782   76.769    0.450    0.294
  559.152    2.026  145.922   72.381    0.459    0.288
  559.402    2.083  145.880   72.847    0.470    0.279
  559.652    2.126  144.827   75.062    0.447    0.297
  559.902    2.198  144.790   77.715    0.432    0.287
  560.152    2.298  144.868   79.697    0.430    0.279
  560.402    2.455  145.123   80.651    0.438    0.272
  560.652    2.638  145.206   80.568    0.430    0.252
  560.902    2.961  144.876   80.480    0.431    0.239
  561.152    3.657  144.735   79.193    0.446    0.235
  561.402    4.542  145.212   76.015    0.437    0.260
  561.652    5.971  145.907   72.477    0.366    0.264
  561.902    9.007  146.891   69.480    0.318    0.219
  562.152   11.456  148.092   66.621    0.258    0.117
  562.402   13.172  149.805   64.714    0.242    0.102
  562.652   15.118  151.097   61.791    0.223    0.097
  562.902   14.444  151.989   60.245    0.200    0.084
  563.152   12.339  152.146   58.280    0.176    0.061
  563.402    8.350  152.431   54.564    0.161    0.040
