~VERSION INFORMATION
 VERS.                 2.0:   CWLS LOG ASCII STANDARD -VERSION 2.0
 WRAP.                  NO:   ONE LINE PER DEPTH STEP
~WELL INFORMATION BLOCK
#MNEM.UNIT           DATA                    DESCRIPTION OF MNEMONIC
#---------    -------------------            -------------------------------
# Generated from Intellog Unique Number	CS_69_70/WELL/855
WELL.         ET AL HEART LAKE               : Well_name    - WELL
LOC .         00/09-09-069-09W4/0            : Location     - LOCATION
UWI .         00/09-09-069-09W4/0            : Uwi          - UNIQUE WELL ID
ENTR.         SP                             : Entered      - ENTERED BY
SRVC.         SCHLUMBERGER                   : Scn          - SERVICE COMPANY
STRT.M        400                            : top_depth    - START DEPTH
STOP.M        635                            : bot_depth    - STOP DEPTH
STEP.M        0.25                           : increment    - STEP LENGTH
 NULL. -999.2500:NULL Value
~CURVE INFORMATION BLOCK
#MNEM UNIT       ERCB CURVE CODE    CURVE DESCRIPTION
#-----------   ------------------   ----------------------------------
DEPT.M        00 001 00 00         : DEPTH        - DEPTH
ILD .OHMM     00 120 00 00         : RESD         - DEEP RESISTIVITY (DIL)
DPHI.V/V      00 890 00 00         : PHID         - DENSITY POROSITY (LIMESTONE)
NPHI.V/V      00 330 00 00         : PHIN         - NEUTRON POROSITY (LIMESTONE)
GR  .API      00 310 00 00         : GR           - GAMMA RAY
~PARAMETER INFORMATION
#MNEM.UNIT           DATA             DESCRIPTION OF MNEMONIC
#---------         -----------     ------------------------------
GL  .M        743.29               : gl           - GROUND LEVEL ELEVATION
EREF.M        746.5                : kb           - ELEVATION OF DEPTH REFERENCE
DATM.M        743.29               : datum        - DATUM ELEVATION
TDD .M        640                  : tdd          - TOTAL DEPTH DRILLER
RUN .         ONE                  : Run          - RUN NUMBER
ENG .         BILL                 : Engineer     - RECORDING ENGINEER
WIT .         JIM                  : Witness      - WITNESSED BY
MUD .         GEL                  : Mud_type     - MUD TYPE
MATR.         LIMESTONE            : Logunit      - NEUTRON MATRIX
TMAX.C        23.3                 : BHT          - MAXIMUM RECORDED TEMPERATURE
BHTD.M        640                  : BHTDEP       - MAXIMUM RECORDED TEMPERATURE
MATR.         1                    : LOGUNIT      - NEUTRON MATRIX
RMT .C        25                   : MDTP         - TEMPERATURE OF MUD
NEUT.         1                    : NEUTRON      - NEUTRON TYPE
RESI.         0                    : RESIST       - RESISTIVITY TYPE
RMC .OHMM     0.25                 : RMC          - RESISTIVITY OF MUD CAKE
RMF .OHMM     0.25                 : RMF          - RESISTIVITY OF MUD FILTRATE
SUFT.C        15                   : SUFT         - SURFACE TEMPERATURE
~A  DEPTH     RESD     PHID     PHIN       GR
# ...
  443.500    3.893    0.332    0.390   57.483
  443.750    3.821    0.329    0.384   58.935
  444.000    3.757    0.328    0.379   60.812
  444.250    3.750    0.329    0.374   62.082
  444.500    3.778    0.332    0.382   64.565
  444.750    3.800    0.334    0.398   66.442
  445.000    3.807    0.331    0.407   65.833
  445.250    3.800    0.331    0.413   65.952
  445.500    3.792    0.333    0.405   73.588
  445.750    3.764    0.336    0.395   82.922
  446.000    3.722    0.341    0.392   90.680
  446.250    3.702    0.345    0.404   99.105
  446.500    3.708    0.348    0.418   78.670
  446.750    3.743    0.349    0.432   64.844
  447.000    3.785    0.346    0.423   58.778
  447.250    3.900    0.343    0.409   66.839
  447.500    4.041    0.338    0.412   72.050
  447.750    4.226    0.328    0.430   75.443
  448.000    4.379    0.325    0.430   79.806
  448.250    4.545    0.320    0.417   86.048
  448.500    4.745    0.312    0.428   93.018
  448.750    4.944    0.302    0.447   99.199
  449.000    5.132    0.298    0.457  100.591
  449.250    5.278    0.295    0.458   95.495
  449.500    5.347    0.294    0.453   93.188
  449.750    5.397    0.297    0.448   93.004
  450.000    5.367    0.295    0.445   97.791
  450.250    5.258    0.286    0.438  101.123
  450.500    5.132    0.280    0.430  103.121
  450.750    5.027    0.277    0.422   98.025
  451.000    4.981    0.290    0.416   94.627
  451.250    4.898    0.305    0.427   96.625
  451.500    4.816    0.314    0.447   97.835
  451.750    4.736    0.295    0.434  105.532
  452.000    4.648    0.270    0.422  117.231
  452.250    4.537    0.238    0.422  125.353
  452.500    4.403    0.209    0.447  130.867
  452.750    4.314    0.214    0.460  132.380
  453.000    4.242    0.215    0.459  123.829
  453.250    4.258    0.216    0.458  119.339
  453.500    4.322    0.224    0.456  117.093
  453.750    4.362    0.235    0.463  117.151
  454.000    4.412    0.244    0.479  115.087
  454.250    4.461    0.236    0.487  111.446
  454.500    4.503    0.232    0.476  109.806
  454.750    4.571    0.234    0.474  108.712
  455.000    4.588    0.232    0.475  107.800
  455.250    4.648    0.226    0.469  106.767
  455.500    4.692    0.240    0.462  104.642
  455.750    4.718    0.257    0.452  107.974
  456.000    4.771    0.257    0.444  110.821
  456.250    4.825    0.270    0.445  112.394
  456.500    4.861    0.272    0.446  108.269
  456.750    4.880    0.266    0.446  101.779
  457.000    4.898    0.260    0.462  105.474
  457.250    4.898    0.257    0.479  107.230
  457.500    4.925    0.270    0.477  101.042
  457.750    4.934    0.277    0.466   97.463
  458.000    4.953    0.260    0.454   92.912
  458.250    4.944    0.253    0.449   89.454
  458.500    4.944    0.280    0.445   84.601
  458.750    4.916    0.295    0.433   88.720
  459.000    4.898    0.298    0.418   91.750
  459.250    4.870    0.298    0.416   95.749
  459.500    4.825    0.293    0.419   97.625
  459.750    4.780    0.282    0.419   95.501
  460.000    4.745    0.279    0.418   93.435
  460.250    4.709    0.286    0.434   93.009
  460.500    4.674    0.318    0.458   93.188
  460.750    4.631    0.342    0.482   93.792
  461.000    4.554    0.348    0.507   94.274
  461.250    4.461    0.322    0.502   94.150
  461.500    4.403    0.306    0.485   93.419
  461.750    4.436    0.323    0.480   91.901
  462.000    4.486    0.333    0.473   90.079
  462.250    4.503    0.342    0.469   87.409
  462.500    4.512    0.348    0.465   82.010
  462.750    4.512    0.336    0.459   82.492
  463.000    4.520    0.311    0.473   87.522
  463.250    4.528    0.302    0.485   90.612
  463.500    4.562    0.309    0.458   92.367
  463.750    4.631    0.311    0.437   90.788
  464.000    4.843    0.310    0.425   88.117
  464.250    5.122    0.307    0.431   85.265
  464.500    5.367    0.300    0.435   82.170
  464.750    5.623    0.290    0.437   80.288
  465.000    5.805    0.283    0.434   78.101
  465.250    5.981    0.278    0.428   77.918
  465.500    6.048    0.279    0.424   79.916
  465.750    6.105    0.282    0.441   82.823
  466.000    6.059    0.283    0.449   80.274
  466.250    5.992    0.281    0.450   73.177
  466.500    6.014    0.282    0.439   78.934
  466.750    6.071    0.283    0.429   82.024
  467.000    6.151    0.281    0.424   84.507
  467.250    6.385    0.278    0.428   84.565
  467.500    7.483    0.222    0.416   76.862
  467.750    9.538    0.197    0.302   70.978
  468.000   11.800    0.038    0.250   62.547
  468.250   14.038    0.013    0.169   58.664
  468.500   18.062    0.007    0.146   55.751
  468.750   20.506    0.000    0.150   54.172
  469.000   22.513   -0.004    0.155   53.200
  469.250   23.545   -0.007    0.158   54.470
  469.500   23.721   -0.004    0.160   56.165
  469.750   23.413    0.009    0.161   57.678
  470.000   22.809    0.004    0.154   55.129
  470.250   21.128    0.004    0.150   52.943
  470.500   17.927    0.017    0.150   53.244
  470.750   16.148    0.023    0.159   58.516
  471.000   14.276    0.018    0.179   64.455
  471.250   12.457    0.045    0.199   69.242
  471.500   10.890    0.071    0.247   74.817
  471.750    9.362    0.111    0.320   78.391
  472.000    7.724    0.215    0.357   79.904
  472.250    6.828    0.233    0.385   79.841
  472.500    6.373    0.242    0.407   79.657
  472.750    6.255    0.251    0.407   81.533
  473.000    6.243    0.257    0.405   84.683
  473.250    6.397    0.260    0.408   83.589
  473.500    6.640    0.263    0.413   84.738
  473.750    6.854    0.268    0.419   87.767
  474.000    7.022    0.282    0.435   90.068
  474.250    7.168    0.296    0.428   91.400
  474.500    7.235    0.307    0.420   91.882
  474.750    7.262    0.314    0.422   90.970
  475.000    6.752    0.310    0.423   87.510
  475.250    5.892    0.303    0.427   86.296
  475.500    5.602    0.301    0.442   88.778
  475.750    5.499    0.310    0.433   92.474
  476.000    5.458    0.296    0.409   95.018
  476.250    5.417    0.283    0.411   94.651
  476.500    5.397    0.271    0.431   92.405
  476.750    5.407    0.264    0.439   93.009
  477.000    5.367    0.264    0.439   98.099
  477.250    5.287    0.280    0.424  103.006
  477.500    5.248    0.267    0.415  105.672
  477.750    5.151    0.241    0.433  109.004
  478.000    5.018    0.218    0.457  111.791
  478.250    4.934    0.211    0.448  107.544
  478.500    4.870    0.213    0.439   95.657
  478.750    4.843    0.231    0.450   86.803
  479.000    4.798    0.260    0.465   80.130
  479.250    4.771    0.284    0.471   74.307
  479.500    4.771    0.307    0.471   71.212
  479.750    4.898    0.328    0.459   75.575
  480.000    5.132    0.345    0.449   87.456
  480.250    5.317    0.335    0.442   98.488
  480.500    5.478    0.323    0.436  100.668
  480.750    5.582    0.318    0.458   85.265
  481.000    5.592    0.322    0.450   77.501
  481.250    5.550    0.331    0.439   71.860
  481.500    5.489    0.340    0.438   70.887
  481.750    5.468    0.344    0.446   71.066
  482.000    5.489    0.345    0.453   75.186
  482.250    5.550    0.342    0.460   80.883
  482.500    5.613    0.331    0.474   88.216
  482.750    5.687    0.311    0.466   92.094
  483.000    5.772    0.297    0.453   89.544
  483.250    5.826    0.287    0.454   85.419
  483.500    5.870    0.289    0.462   85.901
  483.750    5.870    0.301    0.446   88.142
  484.000    5.848    0.295    0.442   88.624
  484.250    5.859    0.292    0.448   86.499
  484.500    5.870    0.298    0.453   90.316
  484.750    5.903    0.291    0.457   93.042
  485.000    5.903    0.280    0.454   94.131
  485.250    5.903    0.268    0.431   92.187
  485.500    5.881    0.261    0.425   90.427
  485.750    5.859    0.256    0.434   86.786
  486.000    5.783    0.262    0.450   83.024
  486.250    5.719    0.293    0.453   77.019
  486.500    5.676    0.317    0.431   70.893
  486.750    5.634    0.320    0.409   64.948
