~VERSION INFORMATION
 VERS.                 2.0:   CWLS LOG ASCII STANDARD -VERSION 2.0
 WRAP.                  NO:   ONE LINE PER DEPTH STEP
~WELL INFORMATION BLOCK
#MNEM.UNIT           DATA                    DESCRIPTION OF MNEMONIC
#---------    -------------------            -------------------------------
# Generated from Intellog Unique Number	CX_WELLS/WELL/2617
WELL.         05-04-080-11W4                 : Well_name    - WELL
LOC .         00/05-04-080-11W4/0            : Location     - LOCATION
UWI .         00/05-04-080-11W400            : Uwi          - UNIQUE WELL ID
ENTR.         T                              : Entered      - ENTERED BY
SRVC.         SCHLUMBERGER                   : Scn          - SERVICE COMPANY
STRT.M        250                            : top_depth    - START DEPTH
STOP.M        480                            : bot_depth    - STOP DEPTH
STEP.M        0.25                           : increment    - STEP LENGTH
 NULL. -999.2500:NULL Value
~CURVE INFORMATION BLOCK
#MNEM UNIT       ERCB CURVE CODE    CURVE DESCRIPTION
#-----------   ------------------   ----------------------------------
DEPT.M        00 001 00 00         : DEPTH        - DEPTH
GR  .API      00 310 00 00         : GR           - GAMMA RAY
NPHI.V/V      00 330 00 00         : PHIN         - NEUTRON POROSITY (SANDSTONE)
DPHI.V/V      00 890 00 00         : PHID         - DENSITY POROSITY (SANDSTONE)
ILD .OHMM     00 120 00 00         : RESD         - DEEP RESISTIVITY (DIL)
~PARAMETER INFORMATION
#MNEM.UNIT           DATA             DESCRIPTION OF MNEMONIC
#---------         -----------     ------------------------------
GL  .M        682.9                : gl           - GROUND LEVEL ELEVATION
EREF.M        686.7                : kb           - ELEVATION OF DEPTH REFERENCE
DATM.M        686.7                : datum        - DATUM ELEVATION
TDD .M        492                  : tdd          - TOTAL DEPTH DRILLER
RUN .         ONE                  : Run          - RUN NUMBER
ENG .         BILL                 : Engineer     - RECORDING ENGINEER
WIT .         JIM                  : Witness      - WITNESSED BY
MUD .         GEL                  : Mud_type     - MUD TYPE
MATR.         SANDSTONE            : Logunit      - NEUTRON MATRIX
TMAX.C        24                   : BHT          - MAXIMUM RECORDED TEMPERATURE
BHTD.M        492                  : BHTDEP       - MAXIMUM RECORDED TEMPERATURE
MATR.         1                    : LOGUNIT      - NEUTRON MATRIX
RMT .C        25                   : MDTP         - TEMPERATURE OF MUD
NEUT.         1                    : NEUTRON      - NEUTRON TYPE
RESI.         4.5                  : RESIST       - RESISTIVITY TYPE
RMC .OHMM     8                    : RMC          - RESISTIVITY OF MUD CAKE
RMF .OHMM     6                    : RMF          - RESISTIVITY OF MUD FILTRATE
SUFT.C        4                    : SUFT         - SURFACE TEMPERATURE
~A  DEPTH       GR     PHIN     PHID     RESD
# ...
  380.500  102.662    0.419    0.256    5.635
  380.750  100.907    0.416    0.264    5.857
  381.000   99.181    0.410    0.266    6.089
  381.250   98.654    0.403    0.266    6.454
  381.500   98.683    0.394    0.266    6.583
  381.750  100.555    0.389    0.266    6.979
  382.000   99.999    0.387    0.260    7.119
  382.250   94.661    0.384    0.248    7.261
  382.500   95.333    0.380    0.237    7.412
  382.750   98.975    0.374    0.228    7.566
  383.000  105.044    0.364    0.204    7.430
  383.250  107.487    0.329    0.172    7.171
  383.500   97.351    0.268    0.077    7.043
  383.750   84.202    0.263    0.121    6.423
  384.000   75.280    0.302    0.217    6.310
  384.250   81.920    0.350    0.230    5.973
  384.500   98.199    0.377    0.232    5.872
  384.750  100.641    0.394    0.230    6.108
  385.000  101.299    0.395    0.229    6.230
  385.250   98.973    0.395    0.226    6.475
  385.500   98.417    0.393    0.223    6.860
  385.750   96.106    0.386    0.226    7.132
  386.000   94.951    0.380    0.232    7.851
  386.250   92.625    0.372    0.224    8.157
  386.500   91.455    0.369    0.193    8.481
  386.750   88.515    0.369    0.175    8.496
  387.000   83.176    0.369    0.184    8.347
  387.250   79.037    0.370    0.231    8.050
  387.500   78.496    0.371    0.245    7.915
  387.750   80.953    0.371    0.244    7.636
  388.000   82.810    0.372    0.250    7.644
  388.250   84.082    0.373    0.258    7.510
  388.500   83.541    0.375    0.277    7.383
  388.750   80.586    0.375    0.282    7.394
  389.000   71.650    0.376    0.278    7.404
  389.250   66.311    0.376    0.267    7.414
  389.500   69.353    0.377    0.254    7.425
  389.750   75.423    0.378    0.242    7.433
  390.000   79.679    0.378    0.240    7.733
  390.250   83.350    0.378    0.243    7.885
  390.500   83.993    0.378    0.244    8.046
  390.750   84.651    0.376    0.247    8.210
  391.000   87.123    0.376    0.253    8.222
  391.250   87.166    0.375    0.263    8.392
  391.500   84.226    0.370    0.277    8.563
  391.750   80.687    0.356    0.279    8.572
  392.000   75.363    0.320    0.278    9.088
  392.250   69.410    0.296    0.269    9.446
  392.500   65.870    0.262    0.211    9.635
  392.750   61.731    0.252    0.158    9.831
  393.000   65.387    0.281    0.115    9.136
  393.250   70.257    0.294    0.275    8.648
  393.500   72.100    0.318    0.279    8.186
  393.750   70.988    0.350    0.286    8.042
  394.000   70.432    0.375    0.287    7.906
  394.250   69.876    0.376    0.283    7.917
  394.500   71.734    0.367    0.272    7.926
  394.750   75.405    0.308    0.245    7.939
  395.000   71.251    0.227    0.170    7.951
  395.250   67.126    0.271    0.183    7.666
  395.500   70.197    0.319    0.270    7.259
  395.750   72.040    0.358    0.279    6.871
  396.000   75.097    0.393    0.278    6.503
  396.250   75.740    0.400    0.276    6.156
  396.500   75.828    0.402    0.271    6.048
  396.750   75.871    0.402    0.261    6.063
  397.000   75.915    0.402    0.242    6.069
  397.250   76.602    0.404    0.266    5.964
  397.500   76.632    0.411    0.269    5.971
  397.750   76.690    0.408    0.268    5.759
  398.000   77.362    0.406    0.265    5.660
  398.250   79.820    0.401    0.264    5.560
  398.500   80.478    0.397    0.259    5.464
  398.750   81.150    0.395    0.259    5.370
  399.000   81.823    0.396    0.259    5.382
  399.250   83.066    0.397    0.259    5.385
  399.500   84.309    0.397    0.255    5.395
  399.750   89.165    0.398    0.250    5.401
  400.000   94.634    0.401    0.246    5.410
  400.250   99.505    0.400    0.246    5.416
  400.500   98.364    0.399    0.246    5.635
  400.750   96.608    0.398    0.245    5.854
  401.000   93.668    0.398    0.237    6.202
  401.250   91.328    0.394    0.240    6.825
  401.500   88.988    0.388    0.248    7.228
  401.750   85.434    0.383    0.261    7.515
  402.000   83.693    0.373    0.258    7.964
  402.250   79.554    0.361    0.221    8.130
  402.500   71.816    0.325    0.130    8.135
  402.750   67.063    0.278    0.068    7.703
  403.000   58.726    0.348    0.099    7.025
  403.250   70.207    0.355    0.126    6.771
  403.500   82.259    0.373    0.156    6.531
  403.750   85.915    0.383    0.186    6.547
  404.000   93.169    0.388    0.198    6.551
  404.250   93.827    0.389    0.203    6.558
  404.500   93.886    0.389    0.206    6.694
  404.750   92.159    0.390    0.200    6.706
  405.000   89.205    0.390    0.188    6.711
  405.250   86.265    0.390    0.185    6.720
  405.500   83.925    0.390    0.183    6.607
  405.750   85.782    0.391    0.182    6.614
  406.000   90.652    0.392    0.182    6.502
  406.250   92.510    0.392    0.185    6.511
  406.500   94.996    0.391    0.187    6.401
  406.750   96.210    0.391    0.182    6.406
  407.000   98.681    0.392    0.176    6.298
  407.250   99.924    0.391    0.161    6.076
  407.500  101.182    0.387    0.140    6.081
  407.750  101.840    0.381    0.148    6.564
  408.000  102.498    0.378    0.173    8.390
  408.250  103.770    0.371    0.185    8.246
  408.500  103.814    0.370    0.195    7.660
  408.750  102.702    0.374    0.200    7.116
  409.000  102.146    0.377    0.202    6.367
  409.250  101.005    0.379    0.206    5.696
  409.500  101.064    0.385    0.212    4.640
  409.750  100.537    0.398    0.220    3.709
  410.000   99.367    0.426    0.233    3.256
  410.250   96.471    0.463    0.268    2.702
  410.500   94.715    0.490    0.278    2.373
  410.750   93.560    0.503    0.280    2.204
  411.000   92.404    0.508    0.276    2.166
  411.250   90.663    0.505    0.281    2.169
  411.500   88.323    0.501    0.284    2.343
  411.750   86.597    0.495    0.282    2.482
  412.000   86.656    0.486    0.262    2.782
  412.250   86.114    0.472    0.239    3.236
  412.500   85.573    0.434    0.207    4.545
  412.750   80.819    0.388    0.196    5.809
  413.000   77.894    0.376    0.191    6.513
  413.250   79.766    0.371    0.197    6.049
  413.500   82.208    0.368    0.205    5.212
  413.750   84.665    0.373    0.213    4.754
  414.000   86.508    0.379    0.217    4.849
  414.250   90.778    0.385    0.218    5.234
  414.500   93.250    0.391    0.219    5.650
  414.750   93.308    0.396    0.204    6.100
  415.000   90.354    0.396    0.179    5.999
  415.250   86.800    0.368    0.162    5.782
  415.500   87.487    0.357    0.159    5.273
  415.750   90.529    0.367    0.175    4.807
  416.000   94.785    0.389    0.193    4.383
  416.250   97.242    0.413    0.211    4.071
  416.500   99.128    0.431    0.224    3.852
  416.750   97.973    0.435    0.232    3.859
  417.000   96.218    0.435    0.231    3.863
  417.250   93.906    0.434    0.228    3.943
  417.500   94.550    0.430    0.222    4.025
  417.750   95.793    0.427    0.217    4.028
  418.000   98.879    0.423    0.202    4.111
  418.250   98.922    0.418    0.201    4.194
  418.500   98.981    0.411    0.202    4.281
  418.750   97.840    0.405    0.202    4.370
  419.000   97.299    0.403    0.199    4.455
  419.250   97.357    0.403    0.189    4.549
  419.500   98.600    0.403    0.180    4.641
  419.750  100.472    0.400    0.159    4.918
  420.000  102.329    0.398    0.146    5.015
  420.250  102.402    0.397    0.137    5.216
  420.500  100.647    0.401    0.149    5.526
  420.750   96.522    0.404    0.179    5.854
  421.000   95.952    0.407    0.186    6.322
  421.250   98.409    0.407    0.190    6.568
  421.500  100.866    0.402    0.200    7.362
  421.750  100.324    0.395    0.220    8.408
  422.000   79.994    0.349    0.256    9.434
  422.250   78.254    0.342    0.263    9.801
  422.500   84.908    0.342    0.253   10.001
  422.750   87.965    0.344    0.245   10.205
  423.000   80.228    0.340    0.247   10.220
  423.250   74.903    0.337    0.250   10.435
  423.500   71.964    0.330    0.251   10.442
  423.750   72.607    0.323    0.249   10.655
