~VERSION INFORMATION
 VERS.                 2.0:   CWLS LOG ASCII STANDARD -VERSION 2.0
 WRAP.                  NO:   ONE LINE PER DEPTH STEP
~WELL INFORMATION BLOCK
#MNEM.UNIT           DATA                    DESCRIPTION OF MNEMONIC
#---------    -------------------            -------------------------------
# Generated from Intellog Unique Number	CW_73_75/WELL/2734
WELL.         CAVALIER FRANCIS 07-33         : Well_name    - WELL
LOC .         00/07-33-073-20W4/0            : Location     - LOCATION
UWI .         00/07-33-073-20W4/0            : Uwi          - UNIQUE WELL ID
ENTR.         JAYE                           : Entered      - ENTERED BY
SRVC.         SCHLUMBERGER                   : Scn          - SERVICE COMPANY
DATE.         24 MAR 74                      : Date         - LOG DATE
STRT.M        411.48                         : top_depth    - START DEPTH
STOP.M        627.98                         : bot_depth    - STOP DEPTH
STEP.M        0.25                           : increment    - STEP LENGTH
 NULL. -999.2500:NULL Value
~CURVE INFORMATION BLOCK
#MNEM UNIT       ERCB CURVE CODE    CURVE DESCRIPTION
#-----------   ------------------   ----------------------------------
DEPT.M        00 001 00 00         : DEPTH        - DEPTH
ILD .OHMM     00 120 00 00         : RESD         - DEEP RESISTIVITY (DIL)
NPHI.V/V      00 330 00 00         : PHIN         - NEUTRON POROSITY (SANDSTONE)
DPHI.V/V      00 890 00 00         : PHID         - DENSITY POROSITY (SANDSTONE)
GR  .API      00 310 00 00         : GR           - GAMMA RAY
CALI.MM       00 280 01 00         : CAL          - CALIPER
~PARAMETER INFORMATION
#MNEM.UNIT           DATA             DESCRIPTION OF MNEMONIC
#---------         -----------     ------------------------------
GL  .M        719.938              : gl           - GROUND LEVEL ELEVATION
EREF.M        722.986              : kb           - ELEVATION OF DEPTH REFERENCE
DATM.M        719.938              : datum        - DATUM ELEVATION
TDD .M        630.936              : tdd          - TOTAL DEPTH DRILLER
RUN .         ONE                  : Run          - RUN NUMBER
ENG .         CORLE                : Engineer     - RECORDING ENGINEER
WIT .         CONNELLY             : Witness      - WITNESSED BY
BASE.         EDM                  : Branch       - HOME BASE OF LOGGING UNIT
MUD .         GEL CHEM             : Mud_type     - MUD TYPE
MATR.         SANDSTONE            : Logunit      - NEUTRON MATRIX
TMAX.C        30                   : BHT          - MAXIMUM RECORDED TEMPERATURE
BHTD.M        632.155              : BHTDEP       - MAXIMUM RECORDED TEMPERATURE
RMT .C        26.6667              : MDTP         - TEMPERATURE OF MUD
MUDD.KG/M     1116                 : MWT          - MUD DENSITY
NEUT.         1                    : NEUTRON      - NEUTRON TYPE
RESI.         0                    : RESIST       - RESISTIVITY TYPE
RM  .OHMM     4.39                 : RM           - RESISTIVITY OF MUD
RMC .OHMM     0                    : RMC          - RESISTIVITY OF MUD CAKE
RMF .OHMM     4.01                 : RMF          - RESISTIVITY OF MUD FILTRATE
SUFT.C        -17.7778             : SUFT         - SURFACE TEMPERATURE
~A  DEPTH     RESD     PHIN     PHID       GR      CAL
# ...
  593.980    5.919    0.325    0.094  119.059  172.136
  594.230    5.924    0.304    0.103  114.311  171.749
  594.480    5.930    0.324    0.122  116.221  171.152
  594.730    5.975    0.364    0.133  122.159  168.697
  594.980    6.174    0.357    0.123  122.174  167.998
  595.230    6.925    0.341    0.127  118.707  169.573
  595.480    8.147    0.312    0.160  110.661  174.459
  595.730    9.879    0.271    0.217  101.759  179.656
  595.980   10.708    0.237    0.306   76.672  173.890
  596.230    9.575    0.212    0.340   59.709  161.609
  596.480    8.560    0.196    0.359   47.998  158.329
  596.730    7.742    0.206    0.316   47.280  157.842
  596.980    7.237    0.229    0.297   49.005  157.455
  597.230    7.241    0.246    0.289   58.488  157.274
  597.480    7.325    0.268    0.288   69.923  157.504
  597.730    7.449    0.297    0.246   87.100  157.734
  597.980    7.375    0.319    0.205   99.269  158.067
  598.230    7.223    0.319    0.208  105.025  158.403
  598.480    7.190    0.310    0.228  109.743  158.945
  598.730    7.391    0.303    0.243  110.674  160.004
  598.980    7.632    0.311    0.207  112.461  161.377
  599.230    7.754    0.351    0.161  114.063  161.917
  599.480    7.680    0.344    0.197  109.620  162.252
  599.730    7.489    0.334    0.218  102.978  161.968
  599.980    7.260    0.325    0.212   98.229  161.375
  600.230    7.147    0.318    0.173   94.335  160.471
  600.480    7.034    0.319    0.160   96.244  160.186
  600.730    6.883    0.339    0.153  102.245  160.001
  600.980    6.731    0.327    0.153  107.878  159.825
  601.230    7.088    0.347    0.154  114.306  159.953
  601.480    7.918    0.377    0.157  119.879  159.977
  601.730   10.002    0.366    0.142  126.307  160.210
  601.980   11.656    0.371    0.182  129.376  160.235
  602.230   13.623    0.399    0.203  128.536  160.571
  602.480   14.335    0.375    0.138  116.397  161.321
  602.730   14.065    0.342    0.109  101.265  161.549
  602.980   13.481    0.320    0.159   78.011  161.473
  603.230   13.644    0.302    0.185   71.858  161.187
  603.480   14.158    0.295    0.151   71.446  160.807
  603.730   15.459    0.324    0.194   71.888  160.521
  603.980   16.288    0.331    0.198   75.079  160.235
  604.230   15.351    0.349    0.188   78.453  159.951
  604.480   14.140    0.368    0.196   81.401  159.771
  604.730   12.105    0.349    0.192   79.584  159.480
  604.980   12.620    0.351    0.184   70.131  159.093
  605.230   14.901    0.331    0.169   72.041  158.707
  605.480   19.615    0.307    0.141   74.439  158.424
  605.730   19.973    0.347    0.205   75.857  158.133
  605.980   19.978    0.373    0.231   76.910  157.754
  606.230   20.024    0.380    0.219   68.375  157.772
  606.480   20.067    0.315    0.118   60.511  157.590
  606.730   20.073    0.272    0.019   49.838  157.305
  606.980   20.039    0.261    0.033   48.755  157.125
  607.230   19.965    0.315    0.170   56.648  157.152
  607.480   19.932    0.355    0.227   67.961  156.768
  607.730   19.936    0.390    0.247   72.194  156.791
  607.980   19.941    0.418    0.260   72.573  156.826
  608.230   19.946    0.438    0.277   72.588  156.745
  608.480   19.951    0.427    0.230   70.221  156.864
  608.730   19.956    0.366    0.158   60.525  156.897
  608.980   19.923    0.332    0.074   47.226  156.914
  609.230   19.927    0.352    0.095   40.340  157.259
  609.480   19.933    0.361    0.145   45.424  157.486
  609.730   19.938    0.349    0.129   53.073  157.510
  609.980   19.944    0.299    0.137   55.103  157.743
  610.230   19.948    0.295    0.121   55.486  158.078
  610.480   19.992    0.330    0.123   59.898  158.310
  610.730   19.997    0.357    0.207   63.577  158.648
  610.980   20.003    0.398    0.200   65.119  158.982
  611.230   19.969    0.337    0.184   55.790  159.423
  611.480   19.934    0.351    0.180   51.654  159.863
  611.730   19.941    0.375    0.200   51.363  160.197
  611.980   19.985    0.367    0.187   51.622  160.227
  612.230   20.029    0.344    0.173   50.109  160.351
  612.480   20.034    0.337    0.148   44.994  160.275
  612.730   20.039    0.365    0.068   45.194  160.297
  612.980   20.006    0.372    0.089   40.016  160.118
  613.230   19.971    0.357    0.103   33.679  159.833
  613.480   19.937    0.322    0.135   33.025  159.654
  613.730   19.943    0.317    0.059   34.137  159.472
  613.980   19.987    0.359    0.073   33.115  159.294
  614.230   20.030    0.426    0.097   28.732  159.108
  614.480   20.035    0.426    0.116   22.823  158.826
  614.730   20.042    0.374    0.084   20.090  158.952
  614.980   20.047    0.371    0.082   20.778  158.978
  615.230   20.012    0.286    0.109   24.456  159.210
  615.480   20.018    0.263    0.107   29.236  159.544
  615.730   20.023    0.284    0.095   29.678  159.985
  615.980   20.028    0.306    0.071   34.884  160.425
  616.230   19.993    0.316    0.030   36.245  160.658
  616.480   19.960    0.306    0.039   37.052  160.680
  616.730   12.431    0.280    0.034   40.610  160.603
  616.980   10.513    0.259    0.055   42.214  160.424
  617.230    8.870    0.269    0.119   41.251  158.794
  617.480    8.091    0.297    0.173   44.013  156.441
  617.730    7.939    0.340    0.200   47.266  155.741
  617.980    8.141    0.352    0.198   49.481  155.668
  618.230    8.421    0.352    0.197   52.304  155.693
  618.480    8.739    0.356    0.219   55.068  155.715
  618.730    9.137    0.351    0.170   57.342  156.364
  618.980    9.103    0.319    0.089   51.127  156.492
  619.230    9.031    0.298    0.077   49.921  156.207
  619.480    8.917    0.288    0.070   47.310  155.510
  619.730    8.686    0.298    0.058   43.783  155.223
  619.980    8.534    0.333    0.061   35.981  154.939
  620.230    8.658    0.362    0.083   34.042  154.651
  620.480    8.781    0.376    0.119   36.133  154.474
  620.730    8.825    0.350    0.100   40.119  154.496
  620.980    8.635    0.344    0.085   41.599  154.729
  621.230    8.326    0.343    0.090   40.392  154.548
  621.480    8.016    0.354    0.108   36.560  154.161
  621.730    7.786    0.396    0.103   33.888  153.875
  621.980    7.635    0.409    0.102   32.193  153.904
  622.230    7.601    0.401    0.104   31.169  153.720
  622.480    7.685    0.417    0.095   30.819  153.954
  622.730    7.807    0.389    0.139   30.894  153.980
  622.980    7.969    0.365    0.112   32.071  154.105
  623.230    8.015    0.325    0.105   35.383  154.031
  623.480    7.940    0.305    0.107   39.734  153.850
  623.730    7.749    0.298    0.073   44.146  153.665
  623.980    7.637    0.323    0.122   49.170  153.588
  624.230    7.761    0.328    0.126   42.284  153.613
  624.480    7.804    0.314    0.109   37.596  153.331
  624.730    7.848    0.297    0.108   37.184  152.735
  624.980    7.853    0.309    0.107   37.932  152.346
  625.230    7.858    0.321    0.168   32.023  151.753
  625.480    7.236    0.328    0.227   24.160  151.575
  625.730    6.771    0.339    0.151   24.664  151.595
  625.980    6.461    0.370    0.126   25.166  151.622
  626.230    6.192    0.390    0.121   24.877  151.647
  626.480    6.001    0.360    0.127   24.281  151.879
  626.730    5.809    0.359    0.118   23.563  152.423
  626.980    5.502    0.350    0.084   23.579  152.861
  627.230    5.428    0.273    0.101   25.548  153.402
  627.480    5.393    0.220    0.131   26.845  153.738
  627.730    5.360    0.210    0.115   26.311  154.490
  627.980    5.286    0.241    0.072   26.143  155.134
