~VERSION INFORMATION
 VERS.                 2.0:   CWLS LOG ASCII STANDARD -VERSION 2.0
 WRAP.                  NO:   ONE LINE PER DEPTH STEP
~WELL INFORMATION BLOCK
#MNEM.UNIT           DATA                    DESCRIPTION OF MNEMONIC
#---------    -------------------            -------------------------------
# Generated from Intellog Unique Number	CS_67_68/WELL/2180
WELL.         07-33-067-04W4                 : Well_name    - WELL
LOC .         00/07-33-067-04W4/0            : Location     - LOCATION
UWI .         00/07-33-067-04W4/0            : Uwi          - UNIQUE WELL ID
ENTR.         SP                             : Entered      - ENTERED BY
SRVC.         SCHLUMBERGER                   : Scn          - SERVICE COMPANY
STRT.M        345                            : top_depth    - START DEPTH
STOP.M        571                            : bot_depth    - STOP DEPTH
STEP.M        0.25                           : increment    - STEP LENGTH
 NULL. -999.2500:NULL Value
~CURVE INFORMATION BLOCK
#MNEM UNIT       ERCB CURVE CODE    CURVE DESCRIPTION
#-----------   ------------------   ----------------------------------
DEPT.M        00 001 00 00         : DEPTH        - DEPTH
ILD .OHMM     00 120 00 00         : RESD         - DEEP RESISTIVITY (DIL)
DPHI.V/V      00 890 00 00         : PHID         - DENSITY POROSITY (LIMESTONE)
NPHI.V/V      00 330 00 00         : PHIN         - NEUTRON POROSITY (LIMESTONE)
GR  .API      00 310 00 00         : GR           - GAMMA RAY
CALI.MM       00 280 01 00         : CAL          - CALIPER
~PARAMETER INFORMATION
#MNEM.UNIT           DATA             DESCRIPTION OF MNEMONIC
#---------         -----------     ------------------------------
GL  .M        697.8                : gl           - GROUND LEVEL ELEVATION
EREF.M        701.6                : kb           - ELEVATION OF DEPTH REFERENCE
DATM.M        701.6                : datum        - DATUM ELEVATION
TDD .M        577                  : tdd          - TOTAL DEPTH DRILLER
RUN .         ONE                  : Run          - RUN NUMBER
ENG .         BILL                 : Engineer     - RECORDING ENGINEER
WIT .         JIM                  : Witness      - WITNESSED BY
MUD .         GEL                  : Mud_type     - MUD TYPE
MATR.         LIMESTONE            : Logunit      - NEUTRON MATRIX
TMAX.C        22.7                 : BHT          - MAXIMUM RECORDED TEMPERATURE
BHTD.M        577                  : BHTDEP       - MAXIMUM RECORDED TEMPERATURE
MATR.         1                    : LOGUNIT      - NEUTRON MATRIX
RMT .C        25                   : MDTP         - TEMPERATURE OF MUD
NEUT.         1                    : NEUTRON      - NEUTRON TYPE
RESI.         0                    : RESIST       - RESISTIVITY TYPE
RMC .OHMM     0.25                 : RMC          - RESISTIVITY OF MUD CAKE
RMF .OHMM     0.25                 : RMF          - RESISTIVITY OF MUD FILTRATE
SUFT.C        15                   : SUFT         - SURFACE TEMPERATURE
~A  DEPTH     RESD     PHID     PHIN       GR      CAL
  345.000    3.671    0.228    0.509  109.147  182.419
  345.250    3.403    0.223    0.503  109.941  178.459
  345.500    3.313    0.238    0.528  111.712  175.211
  345.750    3.238    0.253    0.551  114.153  171.860
  346.000    3.206    0.259    0.565  109.948  172.270
  346.250    3.193    0.250    0.551  106.962  176.847
  346.500    3.209    0.244    0.534  107.940  181.018
  346.750    3.256    0.245    0.510  107.637  184.984
  347.000    3.341    0.227    0.524  106.541  187.426
  347.250    3.500    0.219    0.538  105.446  188.141
  347.500    3.612    0.274    0.553  104.167  187.535
  347.750    3.700    0.275    0.522  103.072  184.083
  348.000    3.712    0.272    0.487  102.403  181.241
  348.250    3.662    0.263    0.463  107.101  179.314
  348.500    3.592    0.254    0.475  115.334  179.927
  348.750    3.484    0.267    0.501  121.556  180.337
  349.000    3.392    0.242    0.521  109.424  181.560
  349.250    3.290    0.228    0.492  103.512  184.612
  349.500    3.191    0.232    0.477   97.965  187.969
  349.750    3.055    0.266    0.497   94.857  190.412
  350.000    3.008    0.273    0.514   96.688  191.635
  350.250    3.210    0.274    0.494   97.605  191.232
  350.500    3.983    0.274    0.500   97.546  187.374
  350.750    5.897    0.358    0.485   83.585  180.467
  351.000   13.989    0.391    0.396   74.806  170.715
  351.250   18.923    0.398    0.285   67.187  163.299
  351.500   21.982    0.402    0.274   66.274  158.830
  351.750   24.363    0.408    0.265   63.654  161.375
  352.000   26.056    0.412    0.255   71.522  163.106
  352.250   27.298    0.418    0.242   77.439  164.227
  352.500   28.275    0.422    0.235   84.148  164.129
  352.750   26.712    0.426    0.230   90.309  163.523
  353.000   26.353    0.429    0.229   93.360  163.323
  353.250   25.898    0.433    0.237   93.850  163.327
  353.500   26.677    0.434    0.241  106.474  163.432
  353.750   25.727    0.421    0.244  122.268  164.045
  354.000   23.322    0.417    0.242  135.563  164.455
  354.250   18.922    0.427    0.237  120.504  164.560
  354.500   15.822    0.437    0.250  108.738  164.665
  354.750   12.764    0.406    0.265   99.228  164.770
  355.000    9.789    0.348    0.303   97.462  165.180
  355.250    7.521    0.293    0.374   96.366  165.692
  355.500    6.253    0.282    0.430   96.124  167.016
  355.750    6.380    0.261    0.436   97.407  169.155
  356.000    7.098    0.245    0.446   99.177  172.308
  356.250    8.215    0.271    0.457   90.460  171.702
  356.500   10.001    0.292    0.334   75.523  168.555
  356.750   11.170    0.284    0.293   63.513  165.002
  357.000   13.024    0.279    0.242   51.564  163.379
  357.250   14.682    0.296    0.223   46.810  163.484
  357.500   11.603    0.304    0.245   48.275  164.605
  357.750    9.291    0.303    0.283   58.216  166.032
  358.000    7.768    0.283    0.311   71.389  168.169
  358.250    6.872    0.242    0.326   87.062  169.392
  358.500    6.590    0.212    0.367   91.210  169.700
  358.750    6.538    0.209    0.391   92.432  169.705
  359.000    6.560    0.233    0.407   94.751  168.996
  359.250    6.719    0.247    0.417   97.071  166.865
  359.500    6.985    0.243    0.423   97.926  164.125
  359.750    7.155    0.246    0.412  101.648  163.112
  360.000    7.152    0.255    0.403  110.552  163.929
  360.250    7.028    0.269    0.421  118.786  164.644
  360.500    6.779    0.273    0.446  119.215  165.155
  360.750    6.575    0.278    0.458   93.242  165.057
  361.000    6.437    0.285    0.468   69.646  163.638
  361.250    6.374    0.300    0.495   55.929  162.523
  361.500    6.359    0.317    0.399   47.028  161.815
  361.750    6.332    0.332    0.374   41.847  162.022
  362.000    6.329    0.340    0.370   39.837  162.331
  362.250    6.374    0.344    0.368   44.535  162.537
  362.500    6.407    0.345    0.364   46.366  162.744
  362.750    6.404    0.345    0.378   44.173  163.357
  363.000    6.401    0.348    0.389   51.126  164.580
  363.250    6.398    0.356    0.382   54.116  166.007
  363.500    6.407    0.362    0.379   55.765  166.722
  363.750    6.440    0.365    0.383   63.876  167.131
  364.000    6.559    0.353    0.395   70.342  167.846
  364.250    6.581    0.347    0.408   74.430  168.256
  364.500    6.753    0.343    0.420   77.419  169.174
  364.750    6.877    0.323    0.430   79.251  169.889
  365.000    6.914    0.302    0.421   86.448  172.027
  365.250    6.975    0.286    0.399   96.328  174.164
  365.500    7.064    0.267    0.388  102.367  177.928
  365.750    7.209    0.251    0.414   97.125  182.200
  366.000    7.425    0.261    0.435   91.944  178.951
  366.250    7.663    0.277    0.449   89.629  172.857
  366.500    7.878    0.281    0.460   87.558  167.983
  366.750    8.054    0.273    0.471   81.767  165.649
  367.000    8.141    0.259    0.470   77.257  166.059
  367.250    7.896    0.268    0.469   80.674  166.062
  367.500    7.644    0.279    0.467   85.188  165.761
  367.750    7.555    0.285    0.446   92.874  165.155
  368.000    7.681    0.290    0.435   96.046  165.158
  368.250    8.016    0.284    0.443   94.768  165.161
  368.500    8.398    0.281    0.479   93.184  165.571
  368.750    8.765    0.210    0.495   91.174  165.270
  369.000    9.147    0.211    0.462   90.262  164.968
  369.250    9.476    0.318    0.460   86.118  164.769
  369.500    9.705    0.328    0.464   83.620  164.569
  369.750    9.664    0.334    0.440   81.061  164.471
  370.000    9.251    0.337    0.426   79.904  164.373
  370.250    7.896    0.335    0.421   78.809  164.681
  370.500    7.118    0.329    0.419   79.299  165.091
  370.750    6.612    0.322    0.411   78.813  166.009
  371.000    6.498    0.317    0.414   82.290  168.249
  371.250    6.519    0.323    0.422   88.390  170.488
  371.500    6.640    0.329    0.421   94.124  173.541
  371.750    6.891    0.305    0.418   98.394  177.202
  372.000    7.260    0.273    0.399  101.323  181.372
  372.250    7.691    0.252    0.400   98.582  186.457
  372.500    8.287    0.232    0.415   95.901  188.594
  372.750    8.731    0.250    0.426   89.134  182.907
  373.000    9.096    0.288    0.432   81.880  178.947
  373.250    9.143    0.271    0.414   77.004  177.426
  373.500    8.703    0.259    0.406   78.592  176.413
  373.750    8.068    0.280    0.387   82.801  175.502
  374.000    7.681    0.283    0.379   86.340  174.388
  374.250    7.464    0.282    0.411   90.855  173.070
  374.500    8.256    0.283    0.438   93.905  171.956
  374.750    9.032    0.288    0.446   88.725  171.146
  375.000    9.695    0.301    0.456   84.824  170.337
  375.250   10.100    0.293    0.465   81.107  169.629
  375.500   10.423    0.256    0.453   79.036  168.616
  375.750   10.072    0.226    0.444   79.160  167.806
  376.000    9.533    0.256    0.441   81.296  166.895
  376.250    9.126    0.283    0.452   86.481  166.187
  376.500    9.453    0.286    0.468   78.434  165.480
  376.750   10.398    0.116    0.483   71.119  165.585
  377.000   11.099    0.061    0.254   65.633  166.909
  377.250   11.585    0.044    0.223   71.550  167.929
  377.500   11.602    0.041    0.222   77.589  168.339
  377.750   10.777    0.114    0.337   85.091  168.241
  378.000    9.843    0.219    0.445   87.715  168.041
  378.250    8.905    0.283    0.475   87.107  167.537
  378.500    8.303    0.292    0.443   88.451  167.133
  378.750    8.144    0.288    0.420   91.624  166.934
  379.000    7.989    0.271    0.444   93.821  166.937
  379.250    7.866    0.276    0.480   95.530  167.347
  379.500    7.789    0.291    0.472   94.130  168.367
  379.750    7.626    0.287    0.451   90.778  169.488
  380.000    7.439    0.277    0.456   90.475  171.829
  380.250    7.188    0.268    0.455   92.795  174.170
  380.500    7.038    0.266    0.466   96.028  176.003
  380.750    6.929    0.269    0.479  100.116  178.242
  381.000    6.835    0.272    0.480  102.496  179.973
  381.250    6.730    0.280    0.467  103.353  181.704
