~VERSION INFORMATION
 VERS.                 2.0:   CWLS LOG ASCII STANDARD -VERSION 2.0
 WRAP.                  NO:   ONE LINE PER DEPTH STEP
~WELL INFORMATION BLOCK
#MNEM.UNIT           DATA                    DESCRIPTION OF MNEMONIC
#---------    -------------------            -------------------------------
# Generated from Intellog Unique Number	CW_79_81/WELL/2446
WELL.         AMOCO PELICAN                  : Well_name    - WELL
LOC .         00/05-01-081-23W4/0            : Location     - LOCATION
UWI .         00/05-01-081-23W4/0            : Uwi          - UNIQUE WELL ID
ENTR.         MAX                            : Entered      - ENTERED BY
SRVC.         COMPUTALOG                     : Scn          - SERVICE COMPANY
STRT.M        200                            : top_depth    - START DEPTH
STOP.M        459.75                         : bot_depth    - STOP DEPTH
STEP.M        0.25                           : increment    - STEP LENGTH
 NULL. -999.2500:NULL Value
~CURVE INFORMATION BLOCK
#MNEM UNIT       ERCB CURVE CODE    CURVE DESCRIPTION
#-----------   ------------------   ----------------------------------
DEPT.M        00 001 00 00         : DEPTH        - DEPTH
ILD .OHMM     00 120 00 00         : RESD         - DEEP RESISTIVITY (DIL)
NPHI.V/V      00 330 00 00         : PHIN         - NEUTRON POROSITY (SANDSTONE)
DPHI.V/V      00 890 00 00         : PHID         - DENSITY POROSITY (SANDSTONE)
GR  .API      00 310 00 00         : GR           - GAMMA RAY
CALI.MM       00 280 01 00         : CAL          - CALIPER
~PARAMETER INFORMATION
#MNEM.UNIT           DATA             DESCRIPTION OF MNEMONIC
#---------         -----------     ------------------------------
GL  .M        593.34               : gl           - GROUND LEVEL ELEVATION
EREF.M        597.04               : kb           - ELEVATION OF DEPTH REFERENCE
DATM.M        593.34               : datum        - DATUM ELEVATION
TDD .M        456                  : tdd          - TOTAL DEPTH DRILLER
RUN .         ONE                  : Run          - RUN NUMBER
ENG .         BILL                 : Engineer     - RECORDING ENGINEER
WIT .         JIM                  : Witness      - WITNESSED BY
MUD .         GEL                  : Mud_type     - MUD TYPE
MATR.         SANDSTONE            : Logunit      - NEUTRON MATRIX
TMAX.C        31                   : BHT          - MAXIMUM RECORDED TEMPERATURE
BHTD.M        456                  : BHTDEP       - MAXIMUM RECORDED TEMPERATURE
MATR.         1                    : LOGUNIT      - NEUTRON MATRIX
RMT .C        21                   : MDTP         - TEMPERATURE OF MUD
NEUT.         1                    : NEUTRON      - NEUTRON TYPE
RESI.         0                    : RESIST       - RESISTIVITY TYPE
RMC .OHMM     4.9                  : RMC          - RESISTIVITY OF MUD CAKE
RMF .OHMM     5.6                  : RMF          - RESISTIVITY OF MUD FILTRATE
SUFT.C        -10                  : SUFT         - SURFACE TEMPERATURE
~A  DEPTH     RESD     PHIN     PHID       GR      CAL
# ...
  382.500   11.260    0.432    0.193   95.165  211.161
  382.750   11.297    0.434    0.181   98.177  212.182
  383.000   11.043    0.428    0.180   97.465  210.990
  383.250   10.722    0.434    0.189   97.488  209.835
  383.500   10.530    0.444    0.195   98.062  209.287
  383.750   10.417    0.448    0.197   97.857  209.147
  384.000   10.402    0.443    0.194   96.509  209.206
  384.250   10.646    0.426    0.181   94.480  209.256
  384.500   11.076    0.414    0.171   93.761  209.313
  384.750   11.081    0.407    0.181   98.346  210.167
  385.000   10.533    0.411    0.187  102.397  210.721
  385.250    9.891    0.423    0.185  103.391  210.978
  385.500    9.432    0.433    0.178  101.565  211.234
  385.750    9.297    0.428    0.179  100.375  212.506
  386.000    9.302    0.429    0.202  102.650  214.650
  386.250    9.377    0.426    0.204  104.601  215.509
  386.500    9.770    0.413    0.197  103.135  215.461
  386.750   10.483    0.398    0.188  100.529  214.908
  387.000   11.612    0.386    0.183   96.963  213.957
  387.250   13.798    0.390    0.195   89.829  212.013
  387.500   16.039    0.400    0.220   86.366  209.982
  387.750   17.921    0.404    0.242   83.278  207.650
  388.000   20.254    0.404    0.243   81.094  207.395
  388.250   22.460    0.401    0.243   80.048  208.244
  388.500   24.264    0.397    0.244   78.939  209.503
  388.750   26.779    0.396    0.233   74.591  210.771
  389.000   28.981    0.397    0.217   71.884  210.817
  389.250   30.540    0.397    0.220   72.386  210.067
  389.500   31.490    0.399    0.231   72.539  209.021
  389.750   31.863    0.395    0.233   70.775  208.476
  390.000   31.577    0.382    0.218   68.050  208.432
  390.250   29.539    0.366    0.177   68.198  208.268
  390.500   25.740    0.362    0.136   69.974  209.146
  390.750   20.299    0.389    0.190   75.285  211.998
  391.000   17.274    0.412    0.224   76.998  213.951
  391.250   15.976    0.415    0.233   76.191  215.005
  391.500   15.864    0.393    0.218   74.064  215.360
  391.750   16.753    0.341    0.171   70.891  215.341
  392.000   18.272    0.288    0.109   65.679  214.976
  392.250   20.268    0.249    0.076   61.153  215.036
  392.500   23.099    0.218    0.053   55.373  215.088
  392.750   26.905    0.198    0.039   51.927  215.137
  393.000   31.267    0.197    0.039   52.194  215.289
  393.250   34.308    0.231    0.073   56.900  215.844
  393.500   34.592    0.276    0.102   64.681  216.317
  393.750   30.421    0.316    0.134   71.907  216.366
  394.000   25.670    0.332    0.154   78.954  215.816
  394.250   21.279    0.358    0.176   86.061  214.469
  394.500   18.179    0.396    0.204   90.470  212.627
  394.750   16.785    0.417    0.228   85.436  211.099
  395.000   16.279    0.418    0.236   80.468  211.150
  395.250   16.165    0.402    0.231   79.548  213.597
  395.500   15.963    0.392    0.220   77.897  215.153
  395.750   15.733    0.392    0.212   76.727  215.610
  396.000   15.478    0.399    0.214   76.703  215.264
  396.250   15.097    0.403    0.223   77.842  214.757
  396.500   14.871    0.401    0.232   77.380  213.976
  396.750   14.767    0.401    0.235   75.965  212.831
  397.000   14.996    0.396    0.233   72.580  212.890
  397.250   15.568    0.400    0.213   70.095  213.347
  397.500   16.557    0.410    0.182   68.866  213.801
  397.750   18.544    0.391    0.162   65.445  214.265
  398.000   20.878    0.343    0.138   58.981  214.310
  398.250   25.602    0.236    0.057   54.698  214.365
  398.500   27.759    0.236    0.063   55.992  214.420
  398.750   27.238    0.294    0.116   60.941  214.677
  399.000   24.691    0.364    0.175   67.385  215.132
  399.250   20.157    0.396    0.205   72.844  215.755
  399.500   17.699    0.405    0.212   72.379  216.650
  399.750   16.547    0.413    0.210   70.493  217.909
  400.000   15.924    0.414    0.208   72.022  218.257
  400.250   15.581    0.406    0.211   74.929  218.703
  400.500   15.386    0.395    0.215   77.177  219.457
  400.750   15.255    0.393    0.204   76.938  219.687
  401.000   15.145    0.391    0.192   77.975  218.484
  401.250   14.928    0.379    0.198   80.402  215.336
  401.500   14.548    0.376    0.206   81.213  212.488
  401.750   14.179    0.380    0.210   81.246  210.746
  402.000   13.871    0.389    0.208   81.459  210.609
  402.250   13.530    0.399    0.207   82.886  212.689
  402.500   13.327    0.399    0.208   82.667  214.822
  402.750   13.235    0.392    0.208   82.224  216.869
  403.000   13.069    0.396    0.204   83.212  218.321
  403.250   12.880    0.398    0.194   85.521  219.178
  403.500   12.647    0.395    0.180   88.612  219.534
  403.750   12.246    0.399    0.165   91.577  219.424
  404.000   12.062    0.400    0.154   91.864  218.654
  404.250   11.888    0.390    0.155   92.853  217.909
  404.500   11.717    0.387    0.162   91.504  218.959
  404.750   11.505    0.394    0.173   92.256  220.806
  405.000   11.277    0.406    0.185   95.708  222.756
  405.250   11.099    0.409    0.190   98.775  224.258
  405.500   11.018    0.405    0.180   99.558  223.471
  405.750   10.942    0.412    0.170   98.149  221.139
  406.000   10.866    0.415    0.161   93.683  215.793
  406.250   10.871    0.412    0.151   91.076  214.446
  406.500   10.937    0.409    0.143   92.368  217.599
  406.750   10.909    0.412    0.158   97.576  218.836
  407.000   10.746    0.413    0.170  101.853  216.812
  407.250   10.751    0.413    0.183  105.006  213.281
  407.500   10.696    0.412    0.195  102.398  213.929
  407.750   10.741    0.405    0.200   99.190  216.979
  408.000   10.888    0.396    0.199   98.084  220.331
  408.250   10.941    0.398    0.196  100.171  221.754
  408.500   10.778    0.405    0.196  104.452  222.655
  408.750   10.230    0.418    0.192  107.368  223.110
  409.000    9.880    0.412    0.170  106.679  222.657
  409.250   10.028    0.395    0.145  104.071  220.305
  409.500   10.672    0.377    0.130  102.004  217.361
  409.750   11.567    0.380    0.145  104.070  218.271
  410.000   12.322    0.405    0.158  105.856  222.491
  410.250   12.888    0.388    0.168  100.367  224.133
  410.500   13.780    0.368    0.157   89.306  222.486
  410.750   15.013    0.350    0.132   81.544  218.744
  411.000   16.674    0.332    0.118   80.138  214.402
  411.250   19.377    0.313    0.158   82.585  210.848
  411.500   21.647    0.341    0.178   83.868  208.817
  411.750   22.475    0.359    0.172   84.617  207.279
  412.000   22.955    0.370    0.175   86.270  209.333
  412.250   22.706    0.372    0.187   88.941  212.779
  412.500   21.801    0.368    0.199   92.868  216.424
  412.750   20.342    0.361    0.201   98.276  220.092
  413.000   18.696    0.355    0.192   97.557  220.149
  413.250   18.151    0.354    0.198   87.037  219.005
  413.500   18.534    0.358    0.213   77.055  216.358
  413.750   19.803    0.360    0.240   64.855  213.013
  414.000   22.543    0.355    0.269   50.918  210.070
  414.250   30.802    0.339    0.283   37.866  208.853
  414.500   43.876    0.324    0.293   32.409  208.488
  414.750   47.267    0.322    0.295   32.914  207.743
  415.000   53.706    0.318    0.297   34.504  207.298
  415.250   62.404    0.317    0.299   36.099  207.350
  415.500   70.133    0.325    0.298   37.035  207.601
  415.750   69.505    0.344    0.292   37.071  207.267
  416.000   66.388    0.349    0.288   37.101  207.324
  416.250   63.486    0.343    0.294   37.138  207.379
  416.500   60.720    0.346    0.294   37.349  207.130
  416.750   57.411    0.351    0.292   37.858  207.184
  417.000   53.285    0.350    0.290   38.968  207.640
  417.250   46.662    0.339    0.290   41.667  208.095
  417.500   39.455    0.342    0.291   44.196  208.152
  417.750   35.236    0.349    0.295   47.106  208.223
  418.000   31.675    0.358    0.300   50.019  208.573
  418.250   28.884    0.368    0.305   52.448  209.016
  418.500   26.842    0.376    0.306   54.754  209.363
  418.750   25.378    0.376    0.298   59.000  209.595
