~VERSION INFORMATION
 VERS.                 2.0:   CWLS LOG ASCII STANDARD -VERSION 2.0
 WRAP.                  NO:   ONE LINE PER DEPTH STEP
~WELL INFORMATION BLOCK
#MNEM.UNIT           DATA                    DESCRIPTION OF MNEMONIC
#---------    -------------------            -------------------------------
# Generated from Intellog Unique Number	CN_94_101/WELL/2602
WELL.         PARAMOUNT RESOURCES LTD.       : Well_name    - WELL
LOC .         00/05-24-094-18W4/0            : Location     - LOCATION
UWI .         00/05-24-094-18W400            : Uwi          - UNIQUE WELL ID
ENTR.         JOETTE                         : Entered      - ENTERED BY
SRVC.         COMPUTALOG                     : Scn          - SERVICE COMPANY
DATE.         06/12/92                       : Date         - LOG DATE
STRT.M        95                             : top_depth    - START DEPTH
STOP.M        275                            : bot_depth    - STOP DEPTH
STEP.M        0.25                           : increment    - STEP LENGTH
 NULL. -999.2500:NULL Value
~CURVE INFORMATION BLOCK
#MNEM UNIT       ERCB CURVE CODE    CURVE DESCRIPTION
#-----------   ------------------   ----------------------------------
DEPT.M        00 001 00 00         : DEPTH        - DEPTH
CALI.MM       00 280 01 00         : CAL          - CALIPER
GR  .API      00 310 00 00         : GR           - GAMMA RAY
NPHI.V/V      00 330 00 00         : PHIN         - NEUTRON POROSITY (SANDSTONE)
DPHI.V/V      00 890 00 00         : PHID         - DENSITY POROSITY (SANDSTONE)
ILD .OHMM     00 120 00 00         : RESD         - DEEP RESISTIVITY (DIL)
~PARAMETER INFORMATION
#MNEM.UNIT           DATA             DESCRIPTION OF MNEMONIC
#---------         -----------     ------------------------------
GL  .M        539.64               : gl           - GROUND LEVEL ELEVATION
EREF.M        543.44               : kb           - ELEVATION OF DEPTH REFERENCE
DATM.M        543.44               : datum        - DATUM ELEVATION
TDD .M        278.1                : tdd          - TOTAL DEPTH DRILLER
RUN .         ONE                  : Run          - RUN NUMBER
ENG .         JO                   : Engineer     - RECORDING ENGINEER
WIT .         TIM                  : Witness      - WITNESSED BY
MUD .         GEL                  : Mud_type     - MUD TYPE
MATR.         SANDSTONE            : Logunit      - NEUTRON MATRIX
TMAX.C        23                   : BHT          - MAXIMUM RECORDED TEMPERATURE
BHTD.M        278.1                : BHTDEP       - MAXIMUM RECORDED TEMPERATURE
RMT .C        20                   : MDTP         - TEMPERATURE OF MUD
MUDD.KG/M     1100                 : MWT          - MUD DENSITY
NEUT.         1                    : NEUTRON      - NEUTRON TYPE
RESI.         0                    : RESIST       - RESISTIVITY TYPE
RM  .OHMM     5.3                  : RM           - RESISTIVITY OF MUD
RMC .OHMM     5.3                  : RMC          - RESISTIVITY OF MUD CAKE
RMF .OHMM     7.5                  : RMF          - RESISTIVITY OF MUD FILTRATE
SUFT.C        4                    : SUFT         - SURFACE TEMPERATURE
~A  DEPTH      CAL       GR     PHIN     PHID     RESD
# ...
  241.000  177.038  105.088    0.379    0.166    5.947
  241.250  174.948  109.416    0.412    0.158    5.833
  241.500  172.859  109.404    0.415    0.153    5.720
  241.750  171.790  109.388    0.386    0.166    5.397
  242.000  171.756  107.509    0.379    0.173    5.292
  242.250  173.804  104.385    0.381    0.175    5.393
  242.500  176.880  103.752    0.406    0.175    6.048
  242.750  178.914  103.107    0.401    0.173    6.283
  243.000  179.935  103.099    0.387    0.175    7.183
  243.250  180.928  103.082    0.373    0.173    7.752
  243.500  179.880  104.924    0.362    0.172    7.749
  243.750  178.811  106.153    0.362    0.166    7.600
  244.000  177.756  106.132    0.373    0.151    6.768
  244.250  176.694   95.564    0.380    0.105    6.146
  244.500  174.598   88.100    0.350    0.038    6.027
  244.750  173.529   89.945    0.344    0.048    6.261
  245.000  172.460   92.407    0.339    0.066    6.888
  245.250  172.426   94.874    0.394    0.091    7.293
  245.500  171.378   98.581    0.410    0.123    6.882
  245.750  170.309  101.672    0.433    0.150    6.131
  246.000  170.289  105.371    0.440    0.158    5.785
  246.250  173.351  105.984    0.451    0.185    5.781
  246.500  175.399  102.860    0.448    0.132    5.892
  246.750  177.440   99.744    0.400    0.124    6.608
  247.000  179.488   97.245    0.390    0.147    7.412
  247.250  180.495   95.983    0.385    0.144    8.475
  247.500  180.468   95.342    0.389    0.138   10.068
  247.750  179.406   94.713    0.381    0.139   11.963
  248.000  175.234   92.835    0.370    0.169   19.323
  248.250  171.069   84.750    0.354    0.198   21.262
  248.500  168.973   57.420    0.296    0.163   26.760
  248.750  164.801   48.715    0.256    0.153   46.676
  249.000  164.787   42.492    0.233    0.228   58.744
  249.250  162.677   41.855    0.282    0.272   63.406
  249.500  162.663   41.830    0.337    0.325   65.845
  249.750  162.636   42.438    0.352    0.342   65.823
  250.000  162.608   44.279    0.362    0.362   65.802
  250.250  163.608   45.513    0.364    0.359   65.767
  250.500  164.608   47.358    0.361    0.352   65.731
  250.750  165.608   49.199    0.355    0.350   64.460
  251.000  165.595   49.187    0.352    0.348   64.425
  251.250  166.595   47.925    0.351    0.352   65.646
  251.500  166.574   46.667    0.351    0.352   66.897
  251.750  167.581   45.410    0.352    0.352   70.832
  252.000  167.547   44.764    0.296    0.355   74.999
  252.250  168.561   44.135    0.309    0.351   80.951
  252.500  168.526   44.739    0.337    0.339   87.384
  252.750  168.506   44.723    0.358    0.311   98.000
  253.000  167.437   42.224    0.385    0.294  107.839
  253.250  167.403   39.725    0.386    0.303  114.183
  253.500  166.348   38.467    0.377    0.321  116.334
  253.750  165.279   40.933    0.372    0.326  114.084
  254.000  164.224   42.779    0.390    0.324  107.641
  254.250  163.169   43.999    0.392    0.319   95.877
  254.500  163.128   43.983    0.379    0.318   87.073
  254.750  163.114   42.725    0.360    0.318   79.069
  255.000  164.114   40.226    0.355    0.319   74.611
  255.250  164.093   40.214    0.360    0.320   70.397
  255.500  166.128   42.055    0.365    0.315   62.717
  255.750  166.093   44.525    0.373    0.308   55.863
  256.000  166.073   45.129    0.366    0.301   50.733
  256.250  166.032   43.243    0.359    0.302   43.491
  256.500  166.011   42.614    0.333    0.306   38.738
  256.750  165.990   40.111    0.329    0.307   34.512
  257.000  165.949   37.611    0.304    0.302   29.020
  257.250  165.935   32.005    0.301    0.292   24.880
  257.500  165.894   30.747    0.293    0.282   20.921
  257.750  165.881   31.355    0.286    0.265   17.932
  258.000  164.812   33.193    0.282    0.235   15.976
  258.250  165.826   33.805    0.288    0.214   14.232
  258.500  165.784   34.405    0.319    0.200   13.428
  258.750  166.798   33.143    0.341    0.296   15.354
  259.000  168.833   33.135    0.334    0.332   26.273
  259.250  169.853   33.119    0.331    0.330   41.632
  259.500  170.854   33.098    0.339    0.321   48.523
  259.750  170.819   33.077    0.356    0.327   58.767
  260.000  169.771   33.069    0.371    0.332   72.555
  260.250  169.744   34.915    0.374    0.336   76.807
  260.500  169.716   36.760    0.379    0.335   78.279
  260.750  169.689   37.985    0.381    0.328   79.753
  261.000  169.654   37.964    0.371    0.321   86.082
  261.250  169.627   36.706    0.353    0.316   91.156
  261.500  169.606   34.212    0.347    0.314  104.223
  261.750  169.579   29.226    0.347    0.317  123.827
  262.000  171.613   27.347    0.342    0.322  147.120
  262.250  171.586   29.184    0.331    0.325  161.855
  262.500  171.558   30.418    0.325    0.325  161.802
  262.750  171.531   33.500    0.326    0.330  155.623
  263.000  171.496   35.966    0.331    0.331  146.865
  263.250  171.462   38.428    0.339    0.328  133.351
  263.500  171.448   39.037    0.339    0.325  123.453
  263.750  171.407   40.261    0.341    0.319  114.278
  264.000  172.428   39.624    0.345    0.313  105.773
  264.250  172.394   38.362    0.354    0.308  103.717
  264.500  170.290   38.354    0.355    0.312   99.767
  264.750  170.277   38.954    0.355    0.317   95.978
  265.000  171.284   39.558    0.351    0.320   88.835
  265.250  171.256   40.779    0.348    0.318   77.630
  265.500  170.194   41.392    0.338    0.312   62.824
  265.750  169.132   43.233    0.328    0.304   41.951
  266.000  169.105   44.458    0.322    0.293   38.842
  266.250  170.112   45.687    0.322    0.283   33.943
  266.500  172.146   49.390    0.327    0.272   29.658
  266.750  173.160   53.718    0.338    0.263   25.425
  267.000  173.133   56.184    0.349    0.249   23.538
  267.250  174.140   57.413    0.355    0.239   20.567
  267.500  174.105   62.983    0.347    0.231   19.038
  267.750  175.112   66.686    0.337    0.224   17.965
  268.000  175.085   69.773    0.336    0.218   17.280
  268.250  174.016   70.381    0.344    0.215   16.620
  268.500  173.989   67.878    0.347    0.212   16.613
  268.750  171.892   66.003    0.342    0.213   16.928
  269.000  171.865   62.259    0.318    0.220   17.922
  269.250  169.768   47.347    0.311    0.233   18.265
  269.500  166.638   41.124    0.304    0.269   20.095
  269.750  164.541   38.004    0.289    0.286   21.689
  270.000  163.486   36.742    0.292    0.287   21.680
  270.250  162.425   36.721    0.317    0.284   20.458
  270.500  161.363   36.713    0.322    0.279   21.250
  270.750  160.294   37.317    0.314    0.270   22.938
  271.000  160.273   38.538    0.307    0.268   25.728
  271.250  162.294   38.526    0.306    0.264   28.856
  271.500  163.315   38.509    0.312    0.267   42.341
  271.750  165.363   37.872    0.326    0.277   44.832
  272.000  168.425   37.852    0.335    0.285   50.290
  272.250  169.439   37.214    0.327    0.303   51.237
  272.500  169.418   36.581    0.330    0.310   49.285
  272.750  168.356   36.565    0.335    0.320   40.663
  273.000  165.219   36.548    0.333    0.329   30.475
  273.250  164.150   36.524    0.320    0.333   23.733
  273.500  162.054   36.516    0.319    0.330   22.829
  273.750  160.999   36.499    0.325    0.325   24.638
  274.000  159.937   38.957    0.333    0.314   26.596
  274.250  160.937   40.802    0.325    0.303   30.406
  274.500  160.909   40.169    0.319    0.303   33.458
  274.750  160.882   38.911    0.315    0.312   36.809
  275.000  161.889   37.650    0.313    0.319   39.735
