~VERSION INFORMATION
 VERS.                 2.0:   CWLS LOG ASCII STANDARD -VERSION 2.0
 WRAP.                  NO:   ONE LINE PER DEPTH STEP
~WELL INFORMATION BLOCK
#MNEM.UNIT           DATA                    DESCRIPTION OF MNEMONIC
#---------    -------------------            -------------------------------
# Generated from Intellog Unique Number	CW_82_90/WELL/3059
WELL.         TOTAL ET AL LIVOCK             : Well_name    - WELL
LOC .         00/06-36-085-23W4/0            : Location     - LOCATION
UWI .         00/06-36-085-23W4/0            : Uwi          - UNIQUE WELL ID
ENTR.         JAYE                           : Entered      - ENTERED BY
SRVC.         SCHLUMBERGER                   : Scn          - SERVICE COMPANY
DATE.         16 JAN 78                      : Date         - LOG DATE
STRT.M        188.976                        : top_depth    - START DEPTH
STOP.M        393.226                        : bot_depth    - STOP DEPTH
STEP.M        0.25                           : increment    - STEP LENGTH
 NULL. -999.2500:NULL Value
~CURVE INFORMATION BLOCK
#MNEM UNIT       ERCB CURVE CODE    CURVE DESCRIPTION
#-----------   ------------------   ----------------------------------
DEPT.M        00 001 00 00         : DEPTH        - DEPTH
CALI.MM       00 280 01 00         : CAL          - CALIPER
GR  .API      00 310 00 00         : GR           - GAMMA RAY
NPHI.V/V      00 330 00 00         : PHIN         - NEUTRON POROSITY (SANDSTONE)
DPHI.V/V      00 890 00 00         : PHID         - DENSITY POROSITY (SANDSTONE)
ILD .OHMM     00 120 00 00         : RESD         - DEEP RESISTIVITY (DIL)
~PARAMETER INFORMATION
#MNEM.UNIT           DATA             DESCRIPTION OF MNEMONIC
#---------         -----------     ------------------------------
GL  .M        565.404              : gl           - GROUND LEVEL ELEVATION
EREF.M        568.452              : kb           - ELEVATION OF DEPTH REFERENCE
DATM.M        565.404              : datum        - DATUM ELEVATION
TDD .M        408.432              : tdd          - TOTAL DEPTH DRILLER
RUN .         ONE                  : Run          - RUN NUMBER
ENG .         BUSHMAN              : Engineer     - RECORDING ENGINEER
WIT .         KIRKPATRICK          : Witness      - WITNESSED BY
BASE.         EDMONTON             : Branch       - HOME BASE OF LOGGING UNIT
MUD .         GEL CHEM             : Mud_type     - MUD TYPE
MATR.         SANDSTONE            : Logunit      - NEUTRON MATRIX
TMAX.C        21.1111              : BHT          - MAXIMUM RECORDED TEMPERATURE
BHTD.M        408.432              : BHTDEP       - MAXIMUM RECORDED TEMPERATURE
RMT .C        -17.7778             : MDTP         - TEMPERATURE OF MUD
MUDD.KG/M     8700                 : MWT          - MUD DENSITY
NEUT.         1                    : NEUTRON      - NEUTRON TYPE
RESI.         0                    : RESIST       - RESISTIVITY TYPE
RM  .OHMM     2.5                  : RM           - RESISTIVITY OF MUD
RMC .OHMM     2.5                  : RMC          - RESISTIVITY OF MUD CAKE
RMF .OHMM     6.28                 : RMF          - RESISTIVITY OF MUD FILTRATE
SUFT.C        4                    : SUFT         - SURFACE TEMPERATURE
~A  DEPTH      CAL       GR     PHIN     PHID     RESD
# ...
  298.476  229.468   95.356    0.431    0.227   16.436
  298.726  229.250   91.910    0.434    0.197   16.629
  298.976  229.985   94.097    0.429    0.175   16.479
  299.226  230.510   98.475    0.427    0.190   16.237
  299.476  231.458   99.910    0.429    0.218   16.089
  299.726  232.510   99.406    0.433    0.231   15.884
  299.976  232.506   97.275    0.442    0.255   15.769
  300.226  231.651   95.330    0.449    0.248   15.686
  300.476  232.595   95.202    0.424    0.215   15.573
  300.726  232.911   96.701    0.413    0.197   15.490
  300.976  234.283   96.322    0.422    0.216   15.497
  301.226  235.335   94.378    0.436    0.229   15.502
  301.476  235.329   92.872    0.449    0.233   15.449
  301.726  235.640   92.431    0.471    0.240   15.425
  301.976  236.165   92.115    0.472    0.245   15.488
  302.226  235.840   91.110    0.455    0.217   15.464
  302.476  236.363   97.677    0.431    0.195   15.441
  302.726  236.675   97.110    0.432    0.198   15.417
  302.976  236.457   94.978    0.439    0.197   15.277
  303.226  236.027   89.719    0.484    0.198   15.167
  303.476  235.490   87.587    0.467    0.188   15.059
  303.726  235.377   88.960    0.443    0.164   14.978
  303.976  235.265   98.093    0.436    0.167   14.540
  304.226  234.940   99.028    0.468    0.228   14.405
  304.476  234.190   99.838    0.447    0.236   14.222
  304.726  233.018  100.710    0.435    0.237   13.827
  304.976  231.421  100.957    0.470    0.236   13.728
  305.226  230.885  100.891    0.459    0.232   13.450
  305.476  230.877  100.387    0.450    0.223   13.353
  305.726  230.341   99.507    0.451    0.219   13.639
  305.976  228.638   96.875    0.462    0.211   14.386
  306.226  226.617   91.178    0.448    0.190   15.145
  306.476  225.126   90.297    0.426    0.169   15.974
  306.726  223.846   94.486    0.409    0.161   17.402
  306.976  222.460   96.173    0.396    0.219   17.771
  307.226  222.243   96.670    0.398    0.235   18.014
  307.476  222.978   97.354    0.414    0.232   17.616
  307.726  223.608   96.725    0.408    0.227   17.823
  307.976  223.920   97.910    0.394    0.223   18.239
  308.226  224.125   98.407    0.395    0.217   18.459
  308.476  224.225   97.903    0.400    0.210   18.460
  308.726  224.430   92.267    0.384    0.180   17.580
  308.976  225.060   95.017    0.353    0.152   16.966
  309.226  225.266   94.639    0.379    0.221   16.559
  309.476  222.714   94.009    0.405    0.241   16.285
  309.726  221.329   94.943    0.421    0.218   16.076
  309.976  220.581   94.941    0.408    0.211   16.483
  310.226  219.195   94.311    0.423    0.232   17.254
  310.476  218.764   92.618    0.410    0.238   17.723
  310.726  222.682   91.613    0.390    0.222   17.464
  310.976  227.129   92.110    0.373    0.189   15.159
  311.226  227.971   98.114    0.363    0.152   13.537
  311.476  234.010   99.425    0.392    0.176   12.437
  311.726  241.746   99.170    0.422    0.211   11.024
  311.976  247.147  101.733    0.448    0.218   10.418
  312.226  248.308  106.860    0.475    0.235    9.791
  312.476  242.468  107.795    0.486    0.265    9.167
  312.726  244.157  106.227    0.488    0.287    9.293
  312.976  241.713  102.845    0.471    0.280    9.491
  313.226  234.069  100.401    0.462    0.286   10.050
  313.476  234.699   98.957    0.481    0.259   11.219
  313.726  232.891   99.329    0.501    0.266   12.150
  313.976  234.370  105.083    0.513    0.284   13.719
  314.226  233.197  104.642    0.518    0.254   15.228
  314.476  229.160   88.493    0.480    0.251   16.872
  314.726  228.623   85.486    0.439    0.277   17.998
  314.976  228.828   85.294    0.408    0.222   19.641
  315.226  229.245   88.482    0.363    0.118   20.023
  315.476  229.133   95.487    0.354    0.167   18.889
  315.726  228.912   98.299    0.385    0.235   17.387
  315.976  228.800  100.174    0.443    0.260   16.248
  316.226  228.372   97.229    0.458    0.247   15.213
  316.476  227.411   96.850    0.441    0.239   14.598
  316.726  226.343   98.097    0.432    0.220   14.141
  316.976  226.338   99.033    0.438    0.204   13.829
  317.226  226.649   98.528    0.475    0.231   13.912
  317.476  227.066   98.087    0.474    0.199   14.129
  317.726  226.636   97.833    0.468    0.183   14.486
  317.976  225.463  101.208    0.457    0.175   14.740
  318.226  223.759  104.521    0.443    0.201   15.055
  318.476  223.010  102.828    0.448    0.209   15.319
  318.726  222.473   99.946    0.437    0.195   14.924
  318.976  221.726   99.880    0.422    0.150   13.763
  319.226  221.294  101.190    0.422    0.132   13.158
  319.476  221.182  105.129    0.433    0.177   12.890
  319.726  221.282  108.379    0.447    0.216   12.797
  319.976  220.109  106.374    0.456    0.212   12.899
  320.226  219.996  102.991    0.450    0.203   13.028
  320.476  220.519  102.110    0.438    0.162   13.105
  320.726  220.936  102.294    0.422    0.145   12.840
  320.976  221.249  103.230    0.412    0.134   12.580
  321.226  222.621  113.363    0.432    0.154   11.981
  321.476  224.630  117.741    0.433    0.206   11.826
  321.726  225.790  124.496    0.428    0.197   12.172
  321.976  224.935  120.800    0.433    0.213   12.961
  322.226  221.852  114.726    0.450    0.203   13.566
  322.476  217.391  114.159    0.448    0.181   14.148
  322.726  216.007  114.594    0.433    0.139   14.368
  322.976  216.637  115.216    0.401    0.186   14.212
  323.226  215.887  116.589    0.392    0.218   14.030
  323.476  214.079  117.462    0.392    0.210   14.034
  323.726  212.906  109.136    0.401    0.211   14.635
  323.976  214.171  104.189    0.419    0.191   16.400
  324.226  215.119   99.867    0.423    0.168   19.305
  324.476  213.417   95.358    0.413    0.142   21.146
  324.726  212.137   89.659    0.395    0.057   22.732
  324.976  212.447   91.658    0.291    0.106   23.393
  325.226  212.548   95.973    0.292    0.177   21.410
  325.476  212.330   99.849    0.323    0.205   19.084
  325.726  211.898  102.223    0.356    0.212   17.699
  325.976  211.469  102.656    0.367    0.217   17.082
  326.226  210.401  102.279    0.381    0.220   17.413
  326.476  210.605   98.083    0.376    0.207   18.931
  326.726  210.599   91.195    0.371    0.185   21.455
  326.976  211.120   85.935    0.361    0.168   23.413
  327.226  211.011   81.551    0.306    0.129   23.914
  327.476  210.897   81.610    0.291    0.089   23.654
  327.726  210.893   90.492    0.290    0.160   22.998
  327.976  210.251   95.370    0.361    0.187   19.592
  328.226  209.713   96.743    0.390    0.212   19.450
  328.476  209.706   97.490    0.383    0.214   19.604
  328.726  209.700   94.546    0.383    0.215   20.328
  328.976  209.800   85.906    0.383    0.202   22.394
  329.226  210.112   84.088    0.376    0.181   23.890
  329.476  212.119   83.458    0.352    0.111   25.200
  329.726  214.234   83.330    0.315    0.063   25.737
  329.976  216.031   86.455    0.299    0.062   25.943
  330.226  217.086   92.710    0.303    0.096   25.320
  330.476  218.139   95.646    0.351    0.147   22.484
  330.726  218.344   95.455    0.382    0.177   20.462
  330.976  218.550   95.703    0.363    0.160   18.871
  331.226  218.649  101.080    0.338    0.141   18.073
  331.476  218.644  103.892    0.356    0.160   17.051
  331.726  218.001  101.574    0.408    0.211   16.116
  331.976  217.675   95.062    0.424    0.198   15.434
  332.226  217.350   89.301    0.438    0.170   14.423
  332.476  217.131   88.860    0.429    0.080   13.201
  332.726  217.443   96.866    0.395    0.013   12.152
  332.976  217.863  102.307    0.366    0.032   11.122
  333.226  218.810  108.373    0.370    0.179   10.199
  333.476  222.091  111.999    0.406    0.206    9.530
  333.726  225.479  113.748    0.410    0.208    8.991
  333.976  230.456  114.682    0.417    0.199    8.198
  334.226  233.313  108.359    0.452    0.201    7.633
  334.476  232.246  109.105    0.471    0.208    7.464
  334.726  235.315  110.103    0.477    0.197    7.368
