~VERSION INFORMATION
 VERS.                 2.0:   CWLS LOG ASCII STANDARD -VERSION 2.0
 WRAP.                  NO:   ONE LINE PER DEPTH STEP
~WELL INFORMATION BLOCK
#MNEM.UNIT           DATA                    DESCRIPTION OF MNEMONIC
#---------    -------------------            -------------------------------
# Generated from Intellog Unique Number	CW_70_72/WELL/3007
NULL.         -999.25                        : NULL_VALUE
WELL.         SULPETRO ET AL PARKER 06-17    : Well_name    - WELL              
LOC .         06-17-070-04W5                 : Location     - LOCATION          
UWI .         00/06-17-070-04W5/0            : Uwi          - UNIQUE WELL ID    
ENTR.         J                              : Entered      - ENTERED BY        
SRVC.         WESTERN ATLAS                  : Scn          - SERVICE COMPANY   
DATE.         4 JUNE 83                      : Date         - LOG DATE          
STRT.M        600                            : top_depth    - START DEPTH       
STOP.M        840                            : bot_depth    - STOP DEPTH        
STEP.M        0.25                           : increment    - STEP LENGTH       
~CURVE INFORMATION BLOCK
#MNEM UNIT       ERCB CURVE CODE    CURVE DESCRIPTION
#-----------   ------------------   ----------------------------------
DEPT.M        00 001 00 00         : DEPTH        - DEPTH                       
ILD .OHMM     00 120 00 00         : RESD         - DEEP RESISTIVITY (DIL)      
CALI.MM       00 280 01 00         : CAL          - CALIPER                     
GR  .API      00 310 00 00         : GR           - GAMMA RAY                   
NPHI.V/V      00 330 00 00         : PHIN         - NEUTRON POROSITY (SANDSTONE)
DPHI.V/V      00 890 00 00         : PHID         - DENSITY POROSITY (SANDSTONE)
~PARAMETER INFORMATION       
#MNEM.UNIT           DATA             DESCRIPTION OF MNEMONIC
#---------         -----------     ------------------------------
GL  .M        710.35               : gl           - GROUND LEVEL ELEVATION      
EREF.M        714.05               : kb           - ELEVATION OF DEPTH REFERENCE
DATM.M        710.35               : datum        - DATUM ELEVATION             
TDD .M        905                  : tdd          - TOTAL DEPTH DRILLER         
RUN .         ONE                  : Run          - RUN NUMBER                  
ENG .         ADAMOWSKI            : Engineer     - RECORDING ENGINEER          
WIT .         DAVID                : Witness      - WITNESSED BY                
BASE.         EDM                  : Branch       - HOME BASE OF LOGGING UNIT   
MUD .         GEL CHEM             : Mud_type     - MUD TYPE                    
MATR.         SANDSTONE            : Logunit      - NEUTRON MATRIX              
TMAX.C        33                   : BHT          - MAXIMUM RECORDED TEMPERATURE
BHTD.M        902.5                : BHTDEP       - MAXIMUM RECORDED TEMPERATURE
RMT .C        17                   : MDTP         - TEMPERATURE OF MUD          
MUDD.KG/M     1150                 : MWT          - MUD DENSITY                 
NEUT.         1                    : NEUTRON      - NEUTRON TYPE                
RESI.         0                    : RESIST       - RESISTIVITY TYPE            
RM  .OHMM     2.3                  : RM           - RESISTIVITY OF MUD          
RMC .OHMM     2.5                  : RMC          - RESISTIVITY OF MUD CAKE     
RMF .OHMM     1.9                  : RMF          - RESISTIVITY OF MUD FILTRATE 
SUFT.C        0                    : SUFT         - SURFACE TEMPERATURE         
~A  DEPTH     RESD      CAL       GR     PHIN     PHID
  600.000    2.046  210.955   91.358    0.456    0.185
  600.250    2.087  212.021   94.318    0.453    0.168
  600.500    2.145  213.610   96.272    0.429    0.153
  600.750    2.196  215.403   97.663    0.418    0.136
  601.000    2.245  216.991   96.861    0.430    0.159
  601.250    2.277  216.384   93.993    0.442    0.170
  601.500    2.336  211.709   87.802    0.452    0.174
  601.750    2.388  208.704   89.758    0.455    0.151
  602.000    2.426  207.262   94.595    0.440    0.139
  602.250    2.457  204.884   97.304    0.413    0.127
  602.500    2.468  203.230   98.570    0.397    0.157
  602.750    2.476  201.476  100.212    0.374    0.176
  603.000    2.370  199.199  102.167    0.374    0.174
  603.250    2.211  196.299  100.739    0.394    0.175
  603.500    2.148  191.203   96.680    0.410    0.186
  603.750    2.167  183.288   91.303    0.425    0.207
  604.000    2.223  176.521   82.920    0.425    0.196
  604.250    2.276  172.372   75.601    0.391    0.158
  604.500    2.321  174.998   74.236    0.367    0.158
  604.750    2.368  171.784   80.704    0.363    0.212
  605.000    2.331  168.671   79.777    0.382    0.259
  605.250    2.232  165.143   73.962    0.388    0.280
  605.500    2.124  163.289   61.381    0.347    0.253
  605.750    2.095  161.749   54.691    0.336    0.236
  606.000    2.094  161.034   56.018    0.331    0.225
  606.250    2.046  160.642   58.286    0.326    0.217
  606.500    1.992  160.346   58.113    0.323    0.222
  606.750    1.921  160.477   56.245    0.323    0.231
  607.000    1.878  160.391   54.128    0.325    0.233
  607.250    1.926  160.203   55.586    0.331    0.227
  607.500    2.020  160.013   57.600    0.342    0.212
  607.750    2.144  160.038   56.736    0.348    0.204
  608.000    2.249  160.787   59.508    0.350    0.201
  608.250    2.351  160.814   62.904    0.350    0.195
  608.500    2.362  160.834   66.800    0.343    0.185
  608.750    2.343  161.273   66.126    0.335    0.197
  609.000    2.363  161.398   63.569    0.339    0.203
  609.250    2.489  161.212   66.276    0.327    0.199
  609.500    2.635  161.130   70.049    0.325    0.179
  609.750    2.870  161.046   68.121    0.325    0.164
  610.000    3.137  161.381   61.304    0.316    0.149
  610.250    3.423  162.972   59.247    0.306    0.146
  610.500    3.763  164.765   61.705    0.288    0.144
  610.750    3.824  166.981   62.846    0.272    0.117
  611.000    3.494  168.567   65.239    0.294    0.099
  611.250    3.198  169.737   73.586    0.321    0.120
  611.500    3.033  170.805   76.795    0.352    0.144
  611.750    2.860  172.396   70.543    0.361    0.148
  612.000    2.743  173.040   68.426    0.341    0.152
  612.250    2.665  174.108   70.757    0.337    0.161
  612.500    2.575  175.172   74.655    0.353    0.174
  612.750    2.493  176.347   77.487    0.375    0.180
  613.000    2.445  176.678   80.445    0.382    0.164
  613.250    2.389  177.332   83.403    0.377    0.146
  613.500    2.322  177.559   86.613    0.387    0.145
  613.750    2.290  177.897   88.818    0.399    0.164
  614.000    2.251  178.123   90.460    0.412    0.176
  614.250    2.224  178.775   90.974    0.415    0.179
  614.500    2.198  179.318   91.427    0.404    0.172
  614.750    2.209  179.548   92.317    0.392    0.168
  615.000    2.227  180.002   94.147    0.395    0.186
  615.250    2.294  180.112   96.353    0.412    0.198
  615.500    2.370  180.763   99.248    0.428    0.203
  615.750    2.464  180.889  100.326    0.434    0.188
  616.000    2.556  181.329   98.085    0.427    0.173
  616.250    2.613  185.840  100.729    0.408    0.178
  616.500    2.630  192.229  107.885    0.391    0.191
  616.750    2.633  188.391  111.594    0.381    0.212
  617.000    2.621  183.606  102.961    0.403    0.247
  617.250    2.586  176.526   96.082    0.418    0.270
  617.500    2.439  167.985   92.774    0.443    0.279
  617.750    2.313  164.979   93.288    0.404    0.273
  618.000    2.153  164.271   91.359    0.351    0.266
  618.250    1.981  163.142   88.051    0.308    0.253
  618.500    1.780  162.019   83.678    0.291    0.224
  618.750    1.569  161.413   77.550    0.281    0.229
  619.000    1.463  160.912   75.369    0.293    0.241
  619.250    1.425  160.412   75.570    0.303    0.243
  619.500    1.437  160.644   74.142    0.312    0.232
  619.750    1.494  160.871   76.914    0.314    0.201
  620.000    1.576  160.787   82.063    0.313    0.185
  620.250    1.653  160.710   77.442    0.309    0.167
  620.500    1.774  161.565   74.697    0.302    0.180
  620.750    1.875  162.524   77.905    0.303    0.191
  621.000    2.023  165.993   87.881    0.313    0.181
  621.250    2.130  173.848   98.671    0.328    0.178
  621.500    2.303  183.476  111.906    0.343    0.191
  621.750    2.475  188.824  122.131    0.365    0.204
  622.000    2.596  180.492  126.469    0.393    0.237
  622.250    2.668  173.201  117.022    0.404    0.263
  622.500    2.564  168.525  107.321    0.384    0.255
  622.750    2.252  165.309   97.246    0.358    0.259
  623.000    1.978  163.556   89.302    0.338    0.274
  623.250    1.528  162.325   77.597    0.317    0.294
  623.500    1.273  161.510   61.507    0.299    0.284
  623.750    1.138  161.010   49.927    0.292    0.289
  624.000    1.030  160.309   44.614    0.289    0.292
  624.250    0.964  159.910   44.941    0.292    0.293
  624.500    0.919  159.826   45.645    0.298    0.292
  624.750    0.900  159.533   42.648    0.304    0.291
  625.000    0.893  159.454   42.286    0.301    0.292
  625.250    0.887  159.365   40.983    0.297    0.296
  625.500    0.893  159.182   38.365    0.312    0.301
  625.750    0.902  158.785   36.309    0.327    0.305
  626.000    0.927  158.492   37.388    0.327    0.303
  626.250    1.047  158.721   43.355    0.322    0.290
  626.500    1.159  159.474   50.886    0.324    0.248
  626.750    1.320  160.330   60.172    0.322    0.217
  627.000    1.504  161.717   77.291    0.318    0.189
  627.250    1.832  162.574  110.765    0.307    0.145
  627.500    2.240  163.112  115.603    0.318    0.106
  627.750    2.760  163.969  107.158    0.329    0.086
  628.000    3.174  165.767  103.159    0.335    0.088
  628.250    3.430  166.626  110.064    0.337    0.107
  628.500    3.599  166.543  119.978    0.343    0.122
  628.750    3.741  166.459  127.823    0.353    0.147
  629.000    3.794  166.689  131.535    0.369    0.168
  629.250    3.749  166.190  127.035    0.356    0.184
  629.500    3.650  165.688  115.645    0.362    0.198
  629.750    3.468  164.565  107.888    0.394    0.190
  630.000    3.332  163.850  101.636    0.376    0.179
  630.250    3.148  162.530   98.264    0.349    0.188
  630.500    2.915  162.327   94.706    0.331    0.202
  630.750    2.780  161.516   90.019    0.322    0.219
  631.000    2.971  161.328   84.269    0.314    0.214
  631.250    3.681  161.662   79.082    0.301    0.176
  631.500    4.426  161.662   74.583    0.274    0.140
  631.750    5.243  161.662   71.274    0.253    0.098
  632.000    5.419  163.403   69.971    0.231    0.088
  632.250    4.620  165.931   74.120    0.238    0.099
  632.500    3.648  165.341   81.464    0.267    0.121
  632.750    2.744  164.932   90.123    0.301    0.221
  633.000    2.139  164.425   85.188    0.336    0.258
  633.250    1.961  164.343   78.996    0.336    0.258
  633.500    1.913  164.162   75.627    0.341    0.250
  633.750    2.033  164.179   77.394    0.350    0.235
  634.000    2.165  164.305   82.858    0.352    0.218
  634.250    2.344  164.535   86.630    0.349    0.236
  634.500    2.564  166.435   73.673    0.356    0.249
  634.750    2.663  172.831   70.114    0.350    0.230
  635.000    2.707  178.803   75.078    0.342    0.211
  635.250    2.621  184.150   87.560    0.341    0.173
  635.500    2.537  192.845   95.844    0.364    0.202
  635.750    2.415  196.308   99.554    0.386    0.231
  636.000    2.291  199.045  101.698    0.417    0.256
  636.250    2.229  191.652  105.095    0.445    0.282
