~VERSION INFORMATION
 VERS.                 2.0:   CWLS LOG ASCII STANDARD -VERSION 2.0
 WRAP.                  NO:   ONE LINE PER DEPTH STEP
~WELL INFORMATION BLOCK
#MNEM.UNIT           DATA                    DESCRIPTION OF MNEMONIC
#---------    -------------------            -------------------------------
# Generated from Intellog Unique Number	CS_73_76/WELL/2813
WELL.         TEXACO WINEFRED LAKE 7-17      : Well_name    - WELL
LOC .         07-17-075-03W4                   : Location     - LOCATION
UWI .         00/07-17-075-03W4/0             : Uwi          - UNIQUE WELL ID
ENTR.         ANDERSEN                       : Entered      - ENTERED BY
SRVC.         COMPUTALOG                     : Scn          - SERVICE COMPANY
STRT.M        260                            : top_depth    - START DEPTH
STOP.M        510                            : bot_depth    - STOP DEPTH
STEP.M        0.25                           : increment    - STEP LENGTH
 NULL. -999.2500:NULL Value
~CURVE INFORMATION BLOCK
#MNEM UNIT       ERCB CURVE CODE    CURVE DESCRIPTION
#-----------   ------------------   ----------------------------------
DEPT.M        00 001 00 00         : DEPTH        - DEPTH
GR  .API      00 310 00 00         : GR           - GAMMA RAY
CALI.MM       00 280 01 00         : CAL          - CALIPER
NPHI.V/V      00 330 00 00         : PHIN         - NEUTRON POROSITY (SANDSTONE)
DPHI.V/V      00 890 00 00         : PHID         - DENSITY POROSITY (SANDSTONE)
ILD .OHMM     00 120 00 00         : RESD         - DEEP RESISTIVITY (DIL)
~PARAMETER INFORMATION
#MNEM.UNIT           DATA             DESCRIPTION OF MNEMONIC
#---------         -----------     ------------------------------
GL  .M        624.1                : gl           - GROUND LEVEL ELEVATION
EREF.M        627.7                : kb           - ELEVATION OF DEPTH REFERENCE
DATM.M        627.7                : datum        - DATUM ELEVATION
TDD .M        526                  : tdd          - TOTAL DEPTH DRILLER
RUN .         ONE                  : Run          - RUN NUMBER
ENG .         BILL                 : Engineer     - RECORDING ENGINEER
WIT .         JIM                  : Witness      - WITNESSED BY
MUD .         GEL                  : Mud_type     - MUD TYPE
MATR.         SANDSTONE            : Logunit      - NEUTRON MATRIX
TMAX.C        20                   : BHT          - MAXIMUM RECORDED TEMPERATURE
BHTD.M        526                  : BHTDEP       - MAXIMUM RECORDED TEMPERATURE
RMT .C        18                   : MDTP         - TEMPERATURE OF MUD
MUDD.KG/M     1100                 : MWT          - MUD DENSITY
NEUT.         1                    : NEUTRON      - NEUTRON TYPE
RESI.         0                    : RESIST       - RESISTIVITY TYPE
RM  .OHMM     4.7                  : RM           - RESISTIVITY OF MUD
RMC .OHMM     3.3                  : RMC          - RESISTIVITY OF MUD CAKE
RMF .OHMM     7.3                  : RMF          - RESISTIVITY OF MUD FILTRATE
SUFT.C        15                   : SUFT         - SURFACE TEMPERATURE
~A  DEPTH       GR      CAL     PHIN     PHID     RESD
# ...
  333.000   49.353  199.104    0.392    0.350   16.225
  333.250   51.771  198.109    0.405    0.354   16.579
  333.500   52.981  198.124    0.422    0.355   16.608
  333.750   54.193  198.131    0.418    0.353   16.666
  334.000   51.788  198.139    0.406    0.349   16.695
  334.250   51.192  198.148    0.399    0.349   16.724
  334.500   51.801  198.161    0.406    0.352   16.783
  334.750   48.794  198.173    0.403    0.352   16.812
  335.000   46.388  198.185    0.393    0.344   16.851
  335.250   45.188  198.190    0.375    0.330   16.880
  335.500   46.399  198.204    0.366    0.331   16.919
  335.750   49.419  198.209    0.375    0.341   16.979
  336.000   54.851  198.209    0.375    0.349   17.008
  336.250   53.047  199.241    0.376    0.355   17.067
  336.500   52.450  200.248    0.385    0.365   17.097
  336.750   54.264  200.257    0.387    0.368   17.127
  337.000   56.078  200.267    0.388    0.367   16.555
  337.250   55.481  200.277    0.388    0.363   16.575
  337.500   56.090  200.287    0.393    0.361   16.022
  337.750   57.904  200.299    0.407    0.361   15.743
  338.000   57.911  199.306    0.428    0.363   15.218
  338.250   57.315  199.311    0.437    0.364   14.962
  338.500   56.718  198.319    0.432    0.364   14.719
  338.750   59.739  197.324    0.418    0.361   14.471
  339.000   60.950  197.334    0.417    0.353   14.244
  339.250   58.543  197.346    0.412    0.351   14.005
  339.500   57.344  197.356    0.403    0.355   14.053
  339.750   62.172  197.365    0.406    0.355   13.817
  340.000   68.808  198.380    0.420    0.348   13.600
  340.250   67.005  198.389    0.424    0.345   13.364
  340.500   66.408  198.399    0.430    0.348   12.903
  340.750   61.592  198.407    0.442    0.351   12.458
  341.000   57.983  199.423    0.439    0.351   12.028
  341.250   58.590  199.431    0.455    0.349   12.063
  341.500   57.993  199.443    0.451    0.352   12.560
  341.750   56.191  199.455    0.437    0.356   13.069
  342.000   54.991  200.469    0.442    0.354   13.606
  342.250   53.190  200.477    0.424    0.349   13.887
  342.500   50.184  200.486    0.383    0.312   13.911
  342.750   49.586  200.496    0.345    0.238   13.952
  343.000   49.591  200.508    0.273    0.130   13.479
  343.250   51.405  200.516    0.290    0.249   13.006
  343.500   53.822  200.528    0.342    0.280   12.332
  343.750   57.446  200.537    0.375    0.331   12.118
  344.000   56.246  200.545    0.379    0.362   11.700
  344.250   54.444  200.555    0.376    0.365   11.296
  344.500   53.244  200.567    0.381    0.359   11.119
  344.750   53.250  200.574    0.395    0.359   11.139
  345.000   52.653  200.584    0.406    0.361   11.178
  345.250   50.851  200.598    0.405    0.361   11.190
  345.500   48.444  200.606    0.402    0.356   11.428
  345.750   47.246  200.618    0.411    0.350   11.671
  346.000   46.649  199.618    0.418    0.356   11.933
  346.250   45.450  199.633    0.419    0.359   11.967
  346.500   44.853  199.640    0.412    0.358   11.981
  346.750   48.477  198.645    0.407    0.356   12.009
  347.000   47.880  197.653    0.417    0.358   12.037
  347.250   46.678  198.665    0.414    0.363   11.855
  347.500   48.492  199.684    0.411    0.366   11.656
  347.750   50.307  199.689    0.411    0.369   11.460
  348.000   50.915  199.699    0.418    0.369   11.077
  348.250   48.510  200.715    0.415    0.364   11.097
  348.500   47.310  200.723    0.408    0.364   10.910
  348.750   46.111  200.732    0.399    0.364   10.540
  349.000   47.322  200.747    0.389    0.365   10.558
  349.250   47.328  199.747    0.376    0.366   10.206
  349.500   47.335  199.759    0.382    0.365   10.034
  349.750   48.547  199.767    0.387    0.365    9.877
  350.000   47.950  198.774    0.384    0.365    9.711
  350.250   47.956  197.782    0.385    0.368    9.728
  350.500   48.566  196.787    0.390    0.370    9.581
  350.750   49.174  196.794    0.394    0.371    9.420
  351.000   49.179  195.800    0.391    0.369    9.436
  351.250   46.773  195.812    0.394    0.362    9.293
  351.500   46.177  195.819    0.401    0.364    9.137
  351.750   46.182  196.836    0.412    0.365    9.153
  352.000   47.998  196.846    0.414    0.360    9.185
  352.250   50.413  196.855    0.422    0.362    9.201
  352.500   50.419  197.870    0.437    0.364    9.062
  352.750   51.632  197.877    0.426    0.360    9.078
  353.000   51.638  197.887    0.409    0.357    9.099
  353.250   52.246  197.899    0.403    0.360    9.115
  353.500   54.062  197.906    0.398    0.366    8.972
  353.750   53.465  197.923    0.391    0.363    8.992
  354.000   52.868  197.928    0.397    0.359    8.846
  354.250   51.066  197.940    0.397    0.359    8.862
  354.500   49.866  196.948    0.392    0.355    8.887
  354.750   49.872  196.953    0.394    0.354    8.748
  355.000   52.287  196.967    0.396    0.351    8.763
  355.250   52.896  196.977    0.396    0.353    8.616
  355.500   53.505  196.984    0.395    0.357    8.481
  355.750   53.510  196.992    0.389    0.359    8.343
  356.000   51.708  198.008    0.396    0.360    8.203
  356.250   50.508  198.021    0.405    0.357    8.074
  356.500   50.514  198.026    0.421    0.353    7.943
  356.750   51.725  198.035    0.424    0.353    7.809
  357.000   52.334  199.052    0.427    0.355    7.540
  357.250   51.739  200.066    0.422    0.355    7.422
  357.500   50.539  200.076    0.415    0.355    7.170
  357.750   51.148  201.093    0.410    0.360    7.058
  358.000   52.360  200.098    0.409    0.362    6.935
  358.250   51.161  200.108    0.399    0.364    6.826
  358.500   52.975  199.113    0.396    0.361    6.842
  358.750   54.789  199.123    0.401    0.356    6.731
  359.000   57.206  198.128    0.404    0.356    6.621
  359.250   55.402  198.135    0.399    0.360    6.641
  359.500   55.409  198.150    0.387    0.359    6.648
  359.750   56.620  198.157    0.384    0.359    6.671
  360.000   56.024  198.167    0.393    0.358    6.559
  360.250   56.632  198.177    0.393    0.354    6.574
  360.500   58.445  198.184    0.396    0.356    6.590
  360.750   60.259  199.201    0.403    0.358    6.605
  361.000   61.475  199.208    0.417    0.358    6.616
  361.250   61.478  199.223    0.430    0.354    6.520
  361.500   61.483  198.228    0.430    0.350    6.532
  361.750   60.284  197.233    0.433    0.347    6.422
  362.000   57.880  197.240    0.436    0.347    6.321
  362.250   56.681  197.252    0.441    0.348    6.332
  362.500   56.686  197.262    0.447    0.349    6.236
  362.750   57.295  197.274    0.449    0.349    6.244
  363.000   56.095  197.282    0.436    0.347    6.032
  363.250   53.690  198.298    0.419    0.341    5.937
  363.500   51.283  198.306    0.417    0.335    5.834
  363.750   49.481  199.322    0.433    0.332    5.636
  364.000   51.898  199.327    0.447    0.325    5.646
  364.250   59.739  201.349    0.459    0.298    5.557
  364.500   70.596  202.360    0.455    0.281    5.464
  364.750   77.234  203.375    0.446    0.279    5.477
  365.000   74.827  203.389    0.444    0.274    5.391
  365.250   77.848  203.397    0.446    0.278    5.403
  365.500   79.661  203.411    0.453    0.284    5.413
  365.750   81.475  203.416    0.459    0.287    5.425
  366.000   81.481  203.428    0.462    0.282    5.441
  366.250   80.884  203.438    0.472    0.278    5.454
  366.500   79.081  203.448    0.484    0.278    5.463
  366.750   77.882  203.458    0.490    0.285    5.476
  367.000   78.492  203.465    0.482    0.287    5.488
  367.250   79.703  203.475    0.484    0.281    5.402
  367.500   81.517  203.484    0.487    0.276    5.321
  367.750   82.126  203.494    0.480    0.273    5.330
  368.000   82.132  203.504    0.466    0.269    5.240
  368.250   82.138  204.521    0.461    0.266    5.256
  368.500   82.143  204.533    0.470    0.263    5.167
  368.750   81.546  204.545    0.480    0.266    5.086
  369.000   79.744  204.552    0.485    0.267    5.095
  369.250   77.943  204.560    0.485    0.268    5.012
