~VERSION INFORMATION
 VERS.                 2.0:   CWLS LOG ASCII STANDARD -VERSION 2.0
 WRAP.                  NO:   ONE LINE PER DEPTH STEP
~WELL INFORMATION BLOCK
#MNEM.UNIT           DATA                    DESCRIPTION OF MNEMONIC
#---------    -------------------            -------------------------------
# Generated from Intellog Unique Number	CS_73_76/WELL/2173
WELL.         DOME PETROLEUM LTD.            : Well_name    - WELL
LOC .         00/07-19-074-04W4/0            : Location     - LOCATION
UWI .         00/07-19-074-04W4/0            : Uwi          - UNIQUE WELL ID
ENTR.         SP                             : Entered      - ENTERED BY
SRVC.         SCHLUMBERGER                   : Scn          - SERVICE COMPANY
STRT.M        250                            : top_depth    - START DEPTH
STOP.M        456                            : bot_depth    - STOP DEPTH
STEP.M        0.25                           : increment    - STEP LENGTH
 NULL. -999.2500:NULL Value
~CURVE INFORMATION BLOCK
#MNEM UNIT       ERCB CURVE CODE    CURVE DESCRIPTION
#-----------   ------------------   ----------------------------------
DEPT.M        00 001 00 00         : DEPTH        - DEPTH
ILD .OHMM     00 120 00 00         : RESD         - DEEP RESISTIVITY (DIL)
DPHI.V/V      00 890 00 00         : PHID         - DENSITY POROSITY (LIMESTONE)
NPHI.V/V      00 330 00 00         : PHIN         - NEUTRON POROSITY (LIMESTONE)
GR  .API      00 310 00 00         : GR           - GAMMA RAY
~PARAMETER INFORMATION
#MNEM.UNIT           DATA             DESCRIPTION OF MNEMONIC
#---------         -----------     ------------------------------
GL  .M        650.2                : gl           - GROUND LEVEL ELEVATION
EREF.M        654.7                : kb           - ELEVATION OF DEPTH REFERENCE
DATM.M        650.2                : datum        - DATUM ELEVATION
TDD .M        456.5                : tdd          - TOTAL DEPTH DRILLER
RUN .         ONE                  : Run          - RUN NUMBER
ENG .         BILL                 : Engineer     - RECORDING ENGINEER
WIT .         JIM                  : Witness      - WITNESSED BY
MUD .         GEL                  : Mud_type     - MUD TYPE
MATR.         LIMESTONE            : Logunit      - NEUTRON MATRIX
TMAX.C        21                   : BHT          - MAXIMUM RECORDED TEMPERATURE
BHTD.M        456.5                : BHTDEP       - MAXIMUM RECORDED TEMPERATURE
MATR.         1                    : LOGUNIT      - NEUTRON MATRIX
RMT .C        25                   : MDTP         - TEMPERATURE OF MUD
NEUT.         1                    : NEUTRON      - NEUTRON TYPE
RESI.         0                    : RESIST       - RESISTIVITY TYPE
RMC .OHMM     0.25                 : RMC          - RESISTIVITY OF MUD CAKE
RMF .OHMM     0.25                 : RMF          - RESISTIVITY OF MUD FILTRATE
SUFT.C        15                   : SUFT         - SURFACE TEMPERATURE
~A  DEPTH     RESD     PHID     PHIN       GR
# ...
  337.000    1.217    0.364    0.437   40.542
  337.250    1.217    0.370    0.424   40.547
  337.500    1.217    0.369    0.408   39.956
  337.750    1.173    0.367    0.396   38.751
  338.000    1.151    0.362    0.410   37.547
  338.250    1.130    0.361    0.437   39.987
  338.500    1.130    0.350    0.461   43.036
  338.750    1.109    0.336    0.439   44.265
  339.000    1.151    0.254    0.393   43.668
  339.250    1.151    0.256    0.319   42.464
  339.500    1.521    0.278    0.373   41.871
  339.750    1.865    0.296    0.475   41.882
  340.000    2.164    0.331    0.494   42.501
  340.250    2.164    0.231    0.369   43.118
  340.500    2.246    0.350    0.398   47.381
  340.750    2.330    0.376    0.472   54.075
  341.000    2.374    0.397    0.477   60.767
  341.250    2.245    0.352    0.439   68.065
  341.500    2.124    0.329    0.429   70.508
  341.750    1.830    0.312    0.435   70.517
  342.000    1.578    0.298    0.446   73.568
  342.250    1.438    0.290    0.463   74.793
  342.500    1.578    0.283    0.470   74.806
  342.750    1.699    0.291    0.478   75.424
  343.000    1.797    0.310    0.470   74.829
  343.250    1.865    0.317    0.452   74.840
  343.500    1.899    0.314    0.446   79.104
  343.750    1.971    0.298    0.444   82.152
  344.000    1.971    0.274    0.447   80.341
  344.250    1.971    0.265    0.450   75.494
  344.500    1.971    0.268    0.453   71.861
  344.750    1.935    0.253    0.450   73.699
  345.000    1.935    0.244    0.448   76.138
  345.250    1.971    0.245    0.488   77.365
  345.500    1.971    0.267    0.512   78.591
  345.750    2.008    0.293    0.529   79.210
  346.000    2.045    0.327    0.540   78.612
  346.250    2.084    0.306    0.486   78.019
  346.500    2.123    0.264    0.480   80.460
  346.750    2.162    0.270    0.497   81.685
  347.000    2.203    0.296    0.506   81.698
  347.250    2.244    0.311    0.507   81.708
  347.500    2.244    0.287    0.509   80.505
  347.750    2.286    0.273    0.518   79.303
  348.000    2.286    0.275    0.496   77.492
  348.250    2.329    0.285    0.488   82.365
  348.500    2.417    0.259    0.488   85.411
  348.750    2.417    0.248    0.500   82.996
  349.000    2.508    0.262    0.494   81.183
  349.250    2.508    0.283    0.500   80.589
  349.500    2.508    0.304    0.527   84.243
  349.750    2.508    0.315    0.537   87.291
  350.000    2.508    0.265    0.530   86.697
  350.250    2.462    0.266    0.484   84.281
  350.500    2.416    0.253    0.491   84.290
  350.750    2.416    0.243    0.482   86.734
  351.000    2.416    0.238    0.461   89.173
  351.250    2.372    0.242    0.462   88.576
  351.500    2.328    0.228    0.477   86.160
  351.750    2.285    0.213    0.490   85.567
  352.000    2.285    0.214    0.500   87.398
  352.250    2.285    0.225    0.486   90.447
  352.500    2.285    0.245    0.475   91.065
  352.750    2.372    0.238    0.504   91.686
  353.000    2.372    0.242    0.538   91.696
  353.250    2.416    0.259    0.549   91.101
  353.500    2.461    0.327    0.554   89.291
  353.750    2.461    0.347    0.554   88.088
  354.000    2.461    0.356    0.531   88.100
  354.250    2.507    0.358    0.493   89.932
  354.500    2.461    0.316    0.510   91.767
  354.750    2.461    0.294    0.558   92.389
  355.000    2.416    0.284    0.574   92.399
  355.250    2.371    0.273    0.567   92.410
  355.500    2.201    0.268    0.545   93.031
  355.750    2.201    0.270    0.543   93.647
  356.000    2.121    0.271    0.555   95.485
  356.250    2.082    0.259    0.561   95.494
  356.500    2.082    0.259    0.551   95.506
  356.750    2.121    0.267    0.556   93.090
  357.000    2.121    0.279    0.557   90.671
  357.250    2.160    0.298    0.568   88.251
  357.500    2.201    0.335    0.577   88.871
  357.750    2.201    0.357    0.502   88.276
  358.000    2.201    0.278    0.494   85.858
  358.250    2.160    0.293    0.515   82.835
  358.500    2.160    0.311    0.522   83.454
  358.750    2.160    0.301    0.511   85.287
  359.000    2.284    0.299    0.508   85.907
  359.250    2.327    0.289    0.501   85.917
  359.500    2.242    0.277    0.507   85.324
  359.750    2.120    0.283    0.522   85.335
  360.000    2.005    0.301    0.550   84.740
  360.250    1.968    0.312    0.547   86.571
  360.500    1.968    0.288    0.506   85.979
  360.750    2.005    0.282    0.477   85.381
  361.000    2.005    0.299    0.469   87.214
  361.250    2.043    0.311    0.489   87.834
  361.500    2.081    0.321    0.513   86.026
  361.750    2.081    0.306    0.511   84.821
  362.000    2.081    0.295    0.490   84.225
  362.250    2.081    0.284    0.477   81.810
  362.500    2.120    0.289    0.454   78.783
  362.750    2.159    0.292    0.431   76.367
  363.000    2.159    0.301    0.431   75.770
  363.250    2.120    0.328    0.442   75.175
  363.500    2.080    0.335    0.466   72.758
  363.750    1.932    0.336    0.479   72.161
  364.000    1.728    0.330    0.471   72.780
  364.250    1.517    0.329    0.494   70.365
  364.500    1.409    0.334    0.512   67.946
  364.750    1.332    0.332    0.511   66.136
  365.000    1.308    0.328    0.509   67.362
  365.250    1.308    0.326    0.461   68.587
  365.500    1.308    0.321    0.471   70.421
  365.750    1.308    0.315    0.484   73.470
  366.000    1.308    0.310    0.481   74.695
  366.250    1.308    0.315    0.455   71.064
  366.500    1.307    0.287    0.445   71.682
  366.750    1.332    0.272    0.457   79.592
  367.000    1.382    0.279    0.464   82.032
  367.250    1.517    0.279    0.468   82.043
  367.500    1.634    0.273    0.470   83.877
  367.750    1.760    0.267    0.473   85.107
  368.000    1.967    0.261    0.467   85.722
  368.250    2.080    0.264    0.457   86.343
  368.500    2.199    0.266    0.461   87.569
  368.750    2.282    0.264    0.461   90.010
  369.000    2.368    0.267    0.469   91.234
  369.250    2.412    0.264    0.459   90.641
  369.500    2.412    0.255    0.451   89.438
  369.750    2.458    0.247    0.468   88.235
  370.000    2.457    0.270    0.593   89.462
  370.250    2.457    0.288    0.581   91.294
  370.500    2.457    0.306    0.561   88.877
  370.750    2.412    0.321    0.551   85.247
  371.000    2.324    0.329    0.551   84.040
  371.250    2.198    0.317    0.562   85.267
  371.500    2.041    0.317    0.555   84.675
  371.750    1.860    0.341    0.566   84.684
  372.000    1.792    0.367    0.551   84.089
  372.250    1.727    0.376    0.508   82.886
  372.500    1.727    0.350    0.497   81.682
  372.750    1.792    0.340    0.527   81.696
  373.000    1.825    0.368    0.560   79.277
  373.250    1.930    0.423    0.551   76.252
  373.500    1.930    0.484    0.506   74.444
  373.750    1.894    0.433    0.425   70.810
  374.000    1.825    0.420    0.295   64.141
  374.250    1.966    0.418    0.288   63.547
  374.500    2.457    0.408    0.285   65.987
  374.750    2.958    0.408    0.283   61.748
  375.000    3.496    0.410    0.285   59.331
  375.250    4.209    0.412    0.291   61.773
  375.500    4.974    0.410    0.308   62.391
  375.750    5.665    0.397    0.347   64.226
  376.000    5.879    0.384    0.384   68.487
  376.250    5.560    0.389    0.378   67.892
  376.500    5.259    0.397    0.357   63.046
  376.750    4.792    0.362    0.329   60.021
  377.000    4.533    0.170    0.267   56.392
  377.250    4.449    0.143    0.254   54.578
  377.500    5.067    0.195    0.263   55.197
  377.750    5.559    0.375    0.287   59.461
  378.000    5.878    0.398    0.284   60.686
  378.250    5.988    0.406    0.279   60.696
  378.500    5.457    0.407    0.294   61.925
  378.750    5.066    0.396    0.311   61.329
  379.000    4.791    0.385    0.312   61.341
  379.250    4.532    0.386    0.301   62.567
  379.500    4.366    0.389    0.319   61.363
  379.750    4.207    0.386    0.349   64.412
  380.000    4.130    0.378    0.369   68.068
  380.250    3.763    0.192    0.385   65.043
