~VERSION INFORMATION
 VERS.                 2.0:   CWLS LOG ASCII STANDARD -VERSION 2.0
 WRAP.                  NO:   ONE LINE PER DEPTH STEP
~WELL INFORMATION BLOCK
#MNEM.UNIT           DATA                    DESCRIPTION OF MNEMONIC
#---------    -------------------            -------------------------------
# Generated from Intellog Unique Number	CW_73_75/WELL/693
WELL.         CDN SUP ET AL FRANCIS 07-05    : Well_name    - WELL
LOC .         00/07-05-074-20W4/0            : Location     - LOCATION
UWI .         00/07-05-074-20W4/0            : Uwi          - UNIQUE WELL ID
ENTR.         JAYE                           : Entered      - ENTERED BY
SRVC.         SCHLUMBERGER                   : Scn          - SERVICE COMPANY
DATE.         15 MAR 76                      : Date         - LOG DATE
STRT.M        393.192                        : top_depth    - START DEPTH
STOP.M        609.692                        : bot_depth    - STOP DEPTH
STEP.M        0.25                           : increment    - STEP LENGTH
 NULL. -999.2500:NULL Value
~CURVE INFORMATION BLOCK
#MNEM UNIT       ERCB CURVE CODE    CURVE DESCRIPTION
#-----------   ------------------   ----------------------------------
DEPT.M        00 001 00 00         : DEPTH        - DEPTH
DPHI.V/V      00 890 00 00         : PHID         - DENSITY POROSITY (SANDSTONE)
NPHI.V/V      00 330 00 00         : PHIN         - NEUTRON POROSITY (SANDSTONE)
GR  .API      00 310 00 00         : GR           - GAMMA RAY
CALI.IN       00 280 01 00         : CAL          - CALIPER
ILD .OHMM     00 120 00 00         : RESD         - DEEP RESISTIVITY (DIL)
~PARAMETER INFORMATION
#MNEM.UNIT           DATA             DESCRIPTION OF MNEMONIC
#---------         -----------     ------------------------------
GL  .M        705.612              : gl           - GROUND LEVEL ELEVATION
EREF.M        708.965              : kb           - ELEVATION OF DEPTH REFERENCE
DATM.M        705.612              : datum        - DATUM ELEVATION
TDD .M        682.752              : tdd          - TOTAL DEPTH DRILLER
RUN .         ONE                  : Run          - RUN NUMBER
BASE.         EDMONTON             : Branch       - HOME BASE OF LOGGING UNIT
MATR.         SANDSTONE            : Logunit      - NEUTRON MATRIX
TMAX.C        28.8889              : BHT          - MAXIMUM RECORDED TEMPERATURE
BHTD.M        682.752              : BHTDEP       - MAXIMUM RECORDED TEMPERATURE
RMT .C        -16.45               : MDTP         - TEMPERATURE OF MUD
MUDD.KG/M     0                    : MWT          - MUD DENSITY
NEUT.         1                    : NEUTRON      - NEUTRON TYPE
RESI.         0                    : RESIST       - RESISTIVITY TYPE
RM  .OHMM     5.48                 : RM           - RESISTIVITY OF MUD
RMC .OHMM     4                    : RMC          - RESISTIVITY OF MUD CAKE
RMF .OHMM     2.86                 : RMF          - RESISTIVITY OF MUD FILTRATE
SUFT.C        -17.7778             : SUFT         - SURFACE TEMPERATURE
~A  DEPTH     PHID     PHIN       GR      CAL     RESD
# ...
  539.192    0.200    0.434   99.528    9.004    6.560
  539.442    0.206    0.423   97.791    8.876    6.957
  539.692    0.204    0.418   93.205    8.855    7.230
  539.942    0.188    0.444   92.894    8.942    7.446
  540.192    0.172    0.441   94.131    8.900    7.502
  540.442    0.148    0.420   97.599    8.780    7.490
  540.692    0.152    0.414  101.068    8.780    7.329
  540.942    0.159    0.437  102.925    8.718    7.029
  541.192    0.168    0.432  101.250    8.603    6.717
  541.442    0.163    0.434  105.090    8.586    6.525
  541.692    0.185    0.445  105.832    8.714    6.408
  541.942    0.172    0.441  104.591    8.846    6.492
  542.192    0.162    0.440  102.421    8.817    6.649
  542.442    0.156    0.438   98.392    8.685    6.949
  542.692    0.133    0.427   95.975    8.449    7.143
  542.942    0.137    0.430   95.291    8.581    7.289
  543.192    0.192    0.429   98.636    8.598    7.425
  543.442    0.195    0.407  102.414    8.498    7.413
  543.692    0.201    0.388  104.395    8.564    7.241
  543.942    0.191    0.384  106.499    8.647    7.008
  544.192    0.167    0.397  110.030    8.729    6.858
  544.442    0.149    0.413  109.904    8.853    6.847
  544.692    0.167    0.430  107.610    8.973    6.987
  544.942    0.169    0.438  105.440    8.952    7.491
  545.192    0.168    0.429  104.013    8.890    8.149
  545.442    0.173    0.401  101.410    8.270    9.161
  545.692    0.161    0.379   89.512    7.932    9.417
  545.942    0.143    0.359   90.007    7.931    8.884
  546.192    0.156    0.371   91.306    7.944    8.352
  546.442    0.211    0.382   89.074    7.944    8.098
  546.692    0.201    0.387   86.470    7.931    8.174
  546.942    0.177    0.398   76.803    7.943    9.273
  547.192    0.142    0.403   71.907    7.952   11.589
  547.442    0.099    0.353   70.233    7.968   13.786
  547.692    0.081    0.262   68.930    7.989   16.016
  547.942    0.061    0.267   67.937    8.009   18.336
  548.192    0.049    0.268   66.201    8.017   20.130
  548.442    0.034    0.251   61.243    8.021   18.957
  548.692    0.010    0.198   56.532    8.054   17.307
  548.942    0.018    0.201   63.842    8.100   15.013
  549.192    0.067    0.252   70.160    8.157   12.511
  549.442    0.111    0.344   82.612    8.240   10.932
  549.692    0.124    0.363   88.063    8.314    9.329
  549.942    0.124    0.376   97.107    8.417    8.033
  550.192    0.134    0.391   99.521    8.524    7.469
  550.442    0.152    0.402  101.007    8.632    7.216
  550.692    0.139    0.397  103.422    8.706    7.139
  550.942    0.133    0.389  103.482    8.751    7.286
  551.192    0.136    0.393  102.056    8.788    7.421
  551.442    0.147    0.406  101.249    8.710    7.671
  551.692    0.153    0.409  103.044    8.635    7.885
  551.942    0.138    0.390  103.662    8.594    8.091
  552.192    0.129    0.400   99.261    8.577    8.227
  552.442    0.122    0.394   98.764    8.594    8.396
  552.692    0.118    0.375  102.542    8.635    8.444
  552.942    0.150    0.372  105.886    8.705    8.338
  553.192    0.165    0.385  107.619    8.713    8.026
  553.442    0.148    0.410  106.255    8.635    7.698
  553.692    0.155    0.380  102.226    8.663    7.546
  553.942    0.121    0.371   98.259    8.738    7.480
  554.192    0.144    0.387   95.284    8.791    7.536
  554.442    0.164    0.395   92.494    8.729    7.662
  554.692    0.148    0.373   88.961    8.510    7.734
  554.942    0.131    0.357   83.321    8.399    7.878
  555.192    0.086    0.333   88.648    8.357    7.909
  555.442    0.145    0.353   98.250    8.469    7.853
  555.692    0.173    0.380  105.435    8.683    7.726
  555.942    0.175    0.391   98.928    8.683    7.343
  556.192    0.169    0.383   96.386    8.592    6.463
  556.442    0.196    0.405   99.421    8.654    5.386
  556.692    0.289    0.442  100.596    8.856    4.319
  556.942    0.325    0.525   99.294    9.191    3.606
  557.192    0.359    0.546  100.655    9.624    2.989
  557.442    0.320    0.532  105.672   10.062    2.626
  557.692    0.220    0.506  112.053    9.054    2.464
  557.942    0.206    0.484  111.369    9.021    2.464
  558.192    0.191    0.476  105.172    8.996    2.686
  558.442    0.177    0.477   99.284    8.975    3.041
  558.692    0.183    0.466   95.070    8.930    3.540
  558.942    0.177    0.402   97.423    8.917    4.008
  559.192    0.152    0.397   97.545    8.996    4.465
  559.442    0.188    0.408   94.508    9.314    5.168
  559.692    0.227    0.420   94.630   10.037    5.778
  559.942    0.204    0.434   93.823    9.660    6.320
  560.192    0.156    0.434   91.033    9.342    7.210
  560.442    0.153    0.375   79.260    8.995    8.452
  560.692    0.075    0.319   77.523    8.508    8.211
  560.942    0.059    0.326   85.453    8.615    7.592
  561.192    0.092    0.397   92.762    8.834    7.111
  561.442    0.129    0.413   95.177    9.396    6.808
  561.692    0.162    0.420   95.857    9.106    6.784
  561.942    0.100    0.414   97.838    8.900    6.848
  562.192    0.133    0.411   99.509    8.990    6.976
  562.442    0.120    0.401   99.198    9.061    7.171
  562.692    0.163    0.389   97.399    9.085    7.358
  562.942    0.144    0.381   94.734    9.089    7.481
  563.192    0.172    0.392   93.059    9.102    7.565
  563.442    0.165    0.397   90.951    9.114    7.650
  563.692    0.116    0.391   88.595    9.130    7.391
  563.942    0.105    0.388   87.000    9.247    7.548
  564.192    0.165    0.384   86.221    9.291    7.042
  564.442    0.154    0.402   88.913    9.394    6.513
  564.692    0.175    0.411   96.008    9.593    6.297
  564.942    0.187    0.418   96.678    9.850    6.091
  565.192    0.154    0.412   98.514    9.506    5.787
  565.442    0.133    0.408   99.175    9.454    5.645
  565.692    0.130    0.406  102.177    9.363    5.560
  565.942    0.131    0.414  105.763    9.426    5.427
  566.192    0.149    0.408  107.581    9.509    5.018
  566.442    0.150    0.405  108.260    9.554    4.852
  566.692    0.155    0.415  108.337    9.638    4.864
  566.942    0.155    0.425  108.132    9.798    5.054
  567.192    0.178    0.430  107.616    9.939    5.446
  567.442    0.155    0.419  104.777    9.672    5.708
  567.692    0.108    0.394  102.812    9.387    6.040
  567.942    0.136    0.376  108.148    9.354    6.056
  568.192    0.153    0.408  112.609    9.224    6.020
  568.442    0.161    0.429  110.956    9.268    6.034
  568.692    0.165    0.427  111.033    9.661    6.046
  568.942    0.164    0.412  112.276    9.279    6.282
  569.192    0.154    0.400  110.020    8.936    6.891
  569.442    0.126    0.383  108.639    8.786    7.626
  569.692    0.163    0.387  106.985    8.713    7.923
  569.942    0.128    0.377  105.002    8.584    8.235
  570.192    0.120    0.376   99.538    8.570    9.032
  570.442    0.120    0.364   86.482    8.478   10.269
  570.692    0.072    0.301   67.876    8.328   11.776
  570.942    0.022    0.187   54.237    8.101   14.003
  571.192    0.030    0.161   49.356    7.972   17.105
  571.442    0.027    0.179   55.285    8.054   22.254
  571.692    0.019    0.182   58.861    8.079   27.926
  571.942    0.004    0.175   49.014    8.045   30.638
  572.192    0.001    0.176   48.818    8.012   29.093
  572.442    0.034    0.189   55.019    8.018   25.490
  572.692    0.043    0.206   60.647    8.043   22.333
  572.942    0.050    0.201   69.773    8.068   19.573
  573.192    0.056    0.197   73.943    8.093   17.930
  573.442    0.054    0.215   78.705    8.157   16.879
  573.692    0.047    0.235   82.573    8.220   16.618
  573.942    0.046    0.230   84.701    8.225   16.663
  574.192    0.046    0.240   81.580    8.154   16.853
  574.442    0.054    0.251   79.333    8.120   17.056
  574.692    0.069    0.257   76.766    8.125   17.876
  574.942    0.089    0.246   76.270    8.209   16.828
  575.192    0.077    0.234   82.179    8.291   14.228
  575.442    0.059    0.228   86.349    8.335   13.887
