~VERSION INFORMATION
 VERS.                 2.0:   CWLS LOG ASCII STANDARD -VERSION 2.0
 WRAP.                  NO:   ONE LINE PER DEPTH STEP
~WELL INFORMATION BLOCK
#MNEM.UNIT           DATA                    DESCRIPTION OF MNEMONIC
#---------    -------------------            -------------------------------
# Generated from Intellog Unique Number	CS_71_72/WELL/620
WELL.         SULPETRO BRENDA IPIATIK        : Well_name    - WELL
LOC .         00/03-04-072-09W4/0            : Location     - LOCATION
UWI .         00/03-04-072-09W4/0            : Uwi          - UNIQUE WELL ID
ENTR.         SP                             : Entered      - ENTERED BY
SRVC.         SCHLUMBERGER                   : Scn          - SERVICE COMPANY
STRT.M        305                            : top_depth    - START DEPTH
STOP.M        498.5                          : bot_depth    - STOP DEPTH
STEP.M        0.25                           : increment    - STEP LENGTH
 NULL. -999.2500:NULL Value
~CURVE INFORMATION BLOCK
#MNEM UNIT       ERCB CURVE CODE    CURVE DESCRIPTION
#-----------   ------------------   ----------------------------------
DEPT.M        00 001 00 00         : DEPTH        - DEPTH
ILD .OHMM     00 120 00 00         : RESD         - DEEP RESISTIVITY (DIL)
DPHI.V/V      00 890 00 00         : PHID         - DENSITY POROSITY (LIMESTONE)
NPHI.V/V      00 330 00 00         : PHIN         - NEUTRON POROSITY (LIMESTONE)
GR  .API      00 310 00 00         : GR           - GAMMA RAY
~PARAMETER INFORMATION
#MNEM.UNIT           DATA             DESCRIPTION OF MNEMONIC
#---------         -----------     ------------------------------
GL  .M        666.64               : gl           - GROUND LEVEL ELEVATION
EREF.M        670                  : kb           - ELEVATION OF DEPTH REFERENCE
DATM.M        666.64               : datum        - DATUM ELEVATION
TDD .M        508                  : tdd          - TOTAL DEPTH DRILLER
RUN .         ONE                  : Run          - RUN NUMBER
ENG .         BILL                 : Engineer     - RECORDING ENGINEER
WIT .         JIM                  : Witness      - WITNESSED BY
MUD .         GEL                  : Mud_type     - MUD TYPE
MATR.         LIMESTONE            : Logunit      - NEUTRON MATRIX
TMAX.C        20                   : BHT          - MAXIMUM RECORDED TEMPERATURE
BHTD.M        508                  : BHTDEP       - MAXIMUM RECORDED TEMPERATURE
MATR.         1                    : LOGUNIT      - NEUTRON MATRIX
RMT .C        25                   : MDTP         - TEMPERATURE OF MUD
NEUT.         1                    : NEUTRON      - NEUTRON TYPE
RESI.         0                    : RESIST       - RESISTIVITY TYPE
RMC .OHMM     0.25                 : RMC          - RESISTIVITY OF MUD CAKE
RMF .OHMM     0.25                 : RMF          - RESISTIVITY OF MUD FILTRATE
SUFT.C        15                   : SUFT         - SURFACE TEMPERATURE
~A  DEPTH     RESD     PHID     PHIN       GR
  305.000    2.785    0.234    0.535  106.448
  305.250    2.787    0.225    0.540  107.045
  305.500    2.736    0.222    0.538  108.248
  305.750    2.688    0.226    0.530  109.449
  306.000    2.640    0.216    0.523  112.467
  306.250    2.641    0.209    0.532  114.276
  306.500    2.642    0.208    0.551  113.661
  306.750    2.643    0.210    0.541  110.632
  307.000    2.695    0.210    0.514  105.785
  307.250    2.747    0.209    0.507  103.965
  307.500    2.800    0.202    0.499  102.748
  307.750    2.801    0.199    0.487  103.950
  308.000    2.909    0.197    0.485  105.759
  308.250    2.910    0.199    0.505  106.961
  308.500    3.023    0.203    0.514  106.350
  308.750    3.139    0.198    0.499  108.156
  309.000    3.260    0.189    0.488  108.755
  309.250    3.385    0.174    0.493  109.957
  309.500    3.582    0.160    0.486  109.346
  309.750    3.791    0.138    0.493  104.499
  310.000    3.936    0.128    0.500  102.073
  310.250    4.012    0.155    0.494  100.253
  310.500    4.089    0.191    0.486  102.665
  310.750    4.091    0.199    0.480  106.890
  311.000    4.094    0.191    0.494  108.094
  311.250    4.020    0.189    0.515  105.061
  311.500    3.875    0.195    0.500  103.241
  311.750    3.667    0.204    0.493  103.837
  312.000    3.470    0.218    0.499  105.042
  312.250    3.283    0.221    0.519  106.848
  312.500    3.164    0.212    0.536  107.447
  312.750    3.107    0.207    0.545  106.834
  313.000    3.167    0.203    0.540  107.431
  313.250    3.289    0.203    0.534  108.029
  313.500    3.415    0.212    0.527  107.418
  313.750    3.547    0.217    0.516  104.389
  314.000    3.615    0.204    0.509  100.753
  314.250    3.755    0.200    0.499  100.141
  314.500    3.757    0.194    0.485  101.948
  314.750    3.759    0.195    0.471  103.151
  315.000    3.691    0.200    0.477  101.931
  315.250    3.493    0.209    0.493  100.715
  315.500    3.494    0.224    0.486   98.894
  315.750    3.496    0.236    0.459   95.260
  316.000    3.985    0.259    0.432   88.599
  316.250    4.376    0.278    0.372   83.753
  316.500    5.898    0.298    0.334   81.328
  316.750    7.949    0.314    0.310   79.507
  317.000   14.431    0.328    0.283   75.870
  317.250   21.751    0.341    0.263   74.049
  317.500   24.334    0.346    0.264   75.856
  317.750   25.747    0.328    0.280   80.082
  318.000   25.760    0.323    0.288   81.891
  318.250   24.376    0.315    0.309   84.301
  318.500   21.412    0.306    0.315   83.690
  318.750   20.634    0.298    0.325   82.474
  319.000   18.124    0.287    0.338   80.045
  319.250   16.524    0.274    0.346   80.040
  319.500   15.924    0.260    0.369   82.450
  319.750   14.789    0.243    0.387   83.655
  320.000   13.734    0.222    0.406   89.093
  320.250   12.289    0.213    0.414   99.368
  320.500   10.794    0.207    0.421  107.222
  320.750   10.213    0.200    0.423  109.031
  321.000   10.028    0.211    0.428  106.000
  321.250    9.852    0.221    0.431   99.339
  321.500    9.856    0.213    0.431   95.701
  321.750    9.860    0.208    0.421   95.695
  322.000    9.865    0.211    0.425   97.504
  322.250    9.689    0.221    0.434   98.707
  322.500    9.168    0.225    0.431   98.700
  322.750    8.674    0.233    0.421   96.272
  323.000    8.518    0.234    0.411   94.452
  323.250    8.060    0.229    0.404   99.284
  323.500    7.625    0.219    0.426  107.743
  323.750    6.952    0.213    0.432  110.157
  324.000    6.337    0.210    0.432   99.864
  324.250    6.107    0.213    0.420   93.207
  324.500    6.111    0.230    0.401   82.918
  324.750    6.967    0.248    0.378   73.234
  325.000    7.941    0.261    0.362   64.155
  325.250    8.882    0.267    0.351   58.099
  325.500   11.113    0.273    0.340   53.858
  325.750   13.647    0.271    0.339   50.828
  326.000   14.985    0.262    0.339   48.401
  326.250   16.153    0.259    0.345   47.182
  326.500   16.464    0.262    0.350   45.966
  326.750   17.097    0.269    0.355   45.962
  327.000   17.756    0.274    0.357   46.560
  327.250   17.118    0.279    0.357   47.157
  327.500   16.199    0.281    0.354   47.751
  327.750   16.204    0.284    0.354   47.142
  328.000   15.620    0.288    0.358   46.531
  328.250   15.627    0.290    0.368   45.919
  328.500   16.231    0.290    0.372   47.119
  328.750   16.544    0.286    0.379   47.718
  329.000   17.181    0.281    0.379   45.896
  329.250   17.187    0.275    0.359   42.864
  329.500   17.854    0.266    0.353   41.651
  329.750   17.861    0.263    0.348   43.455
  330.000   18.204    0.260    0.365   44.659
  330.250   18.555    0.256    0.367   45.258
  330.500   18.918    0.261    0.362   45.251
  330.750   18.926    0.269    0.355   44.639
  331.000   19.291    0.272    0.353   42.816
  331.250   19.665    0.278    0.351   42.202
  331.500   19.674    0.284    0.356   42.802
  331.750   20.054    0.285    0.362   43.402
  332.000   20.069    0.284    0.366   43.999
  332.250   20.076    0.283    0.370   44.598
  332.500   19.716    0.278    0.371   44.587
  332.750   19.728    0.274    0.371   43.978
  333.000   19.372    0.271    0.368   43.367
  333.250   19.386    0.277    0.370   44.569
  333.500   19.392    0.284    0.371   46.374
  333.750   19.049    0.283    0.364   46.370
  334.000   19.056    0.273    0.358   45.757
  334.250   19.067    0.272    0.355   43.935
  334.500   18.727    0.280    0.354   43.322
  334.750   18.737    0.286    0.360   43.315
  335.000   18.747    0.295    0.369   43.310
  335.250   18.406    0.289    0.372   43.305
  335.500   18.416    0.284    0.377   45.111
  335.750   18.085    0.255    0.373   48.129
  336.000   17.435    0.236    0.377   56.589
  336.250   16.805    0.210    0.407   66.257
  336.500   14.761    0.191    0.417   72.301
  336.750   13.454    0.173    0.439   86.202
  337.000   12.038    0.165    0.453   98.294
  337.250   10.573    0.163    0.458  107.963
  337.500    8.948    0.165    0.450  112.188
  337.750    8.465    0.165    0.457  114.602
  338.000    7.435    0.163    0.466  118.829
  338.250    6.653    0.162    0.477  121.241
  338.500    6.064    0.160    0.487  119.418
  338.750    5.632    0.161    0.492  121.228
  339.000    5.134    0.168    0.488  124.244
  339.250    4.768    0.182    0.492  124.238
  339.500    4.511    0.195    0.502  119.390
  339.750    4.514    0.212    0.510  118.781
  340.000    4.688    0.247    0.510  116.959
  340.250    5.053    0.273    0.479  108.484
  340.500    5.978    0.288    0.454   92.752
  340.750    7.205    0.296    0.436   85.488
  341.000    8.523    0.299    0.445   83.061
  341.250   10.273    0.290    0.433   83.658
  341.500   11.709    0.281    0.429   87.280
  341.750   12.623    0.264    0.440   92.715
  342.000   12.395    0.257    0.442   95.129
  342.250   12.174    0.249    0.441  101.168
  342.500   11.517    0.237    0.440  102.978
  342.750   10.898    0.231    0.438  104.786
  343.000   10.504    0.224    0.443  101.147
  343.250   10.316    0.231    0.444   96.303
  343.500   10.515    0.235    0.437   86.013
  343.750   10.922    0.237    0.426   81.169
  344.000   11.341    0.242    0.421   82.976
  344.250   11.560    0.245    0.416   87.202
  344.500   11.784    0.246    0.414   89.617
  344.750   11.790    0.245    0.415   91.424
  345.000   11.365    0.225    0.421   94.439
  345.250   10.753    0.206    0.434   98.665
  345.500   10.174    0.200    0.444  101.079
  345.750    9.450    0.196    0.444  102.888
  346.000    8.778    0.199    0.451  106.504
  346.250    8.620    0.210    0.455  107.105
  346.500    8.466    0.222    0.445  107.702
  346.750    8.470    0.229    0.444  107.091
  347.000    8.473    0.222    0.448  107.086
  347.250    8.477    0.199    0.456  108.891
  347.500    8.640    0.180    0.463  108.281
  347.750    8.808    0.170    0.465  105.250
  348.000    8.980    0.160    0.442  101.612
  348.250    8.983    0.174    0.422   98.584
