~VERSION INFORMATION
 VERS.                 2.0:   CWLS LOG ASCII STANDARD -VERSION 2.0
 WRAP.                  NO:   ONE LINE PER DEPTH STEP
~WELL INFORMATION BLOCK
#MNEM.UNIT           DATA                    DESCRIPTION OF MNEMONIC
#---------    -------------------            -------------------------------
# Generated from Intellog Unique Number	CS_77_79/WELL/3294
WELL.         LOGAN RESOURCES LTD.           : Well_name    - WELL
LOC .         00/06-25-078-14W4/0            : Location     - LOCATION
UWI .         00/06-25-078-14W4/0            : Uwi          - UNIQUE WELL ID
ENTR.         JOETTE                         : Entered      - ENTERED BY
SRVC.         SCHLUMBERGER                   : Scn          - SERVICE COMPANY
DATE.         08-14-92                       : Date         - LOG DATE
STRT.M        275                            : top_depth    - START DEPTH
STOP.M        510                            : bot_depth    - STOP DEPTH
STEP.M        0.25                           : increment    - STEP LENGTH
 NULL. -999.2500:NULL Value
~CURVE INFORMATION BLOCK
#MNEM UNIT       ERCB CURVE CODE    CURVE DESCRIPTION
#-----------   ------------------   ----------------------------------
DEPT.M        00 001 00 00         : DEPTH        - DEPTH
GR  .API      00 310 00 00         : GR           - GAMMA RAY
NPHI.V/V      00 330 00 00         : PHIN         - NEUTRON POROSITY (SANDSTONE)
DPHI.V/V      00 890 00 00         : PHID         - DENSITY POROSITY (SANDSTONE)
ILD .OHMM     00 120 00 00         : RESD         - DEEP RESISTIVITY (DIL)
~PARAMETER INFORMATION
#MNEM.UNIT           DATA             DESCRIPTION OF MNEMONIC
#---------         -----------     ------------------------------
GL  .M        678.2                : gl           - GROUND LEVEL ELEVATION
EREF.M        681.7                : kb           - ELEVATION OF DEPTH REFERENCE
DATM.M        681.7                : datum        - DATUM ELEVATION
TDD .M        515                  : tdd          - TOTAL DEPTH DRILLER
RUN .         ONE                  : Run          - RUN NUMBER
ENG .         BILL                 : Engineer     - RECORDING ENGINEER
WIT .         JIM                  : Witness      - WITNESSED BY
MUD .         GEL                  : Mud_type     - MUD TYPE
MATR.         SANDSTONE            : Logunit      - NEUTRON MATRIX
TMAX.C        30                   : BHT          - MAXIMUM RECORDED TEMPERATURE
BHTD.M        515                  : BHTDEP       - MAXIMUM RECORDED TEMPERATURE
MATR.         0                    : LOGUNIT      - NEUTRON MATRIX
RMT .C        11                   : MDTP         - TEMPERATURE OF MUD
NEUT.         1                    : NEUTRON      - NEUTRON TYPE
RESI.         0                    : RESIST       - RESISTIVITY TYPE
RM  .OHMM     2.242                : RM           - RESISTIVITY OF MUD
RMC .OHMM     1.969                : RMC          - RESISTIVITY OF MUD CAKE
RMF .OHMM     2.472                : RMF          - RESISTIVITY OF MUD FILTRATE
SUFT.C        5                    : SUFT         - SURFACE TEMPERATURE
~A  DEPTH       GR     PHIN     PHID     RESD
# ...
  318.500   60.516    0.368    0.304   12.526
  318.750   53.937    0.359    0.312   11.881
  319.000   49.154    0.356    0.321   11.263
  319.250   66.148    0.362    0.293   10.671
  319.500   74.082    0.367    0.261   10.127
  319.750   82.000    0.371    0.262   10.137
  320.000   85.086    0.355    0.293   11.154
  320.250   67.618    0.351    0.316   12.028
  320.500   62.852    0.353    0.319   14.243
  320.750   55.065    0.346    0.263   15.360
  321.000   55.734    0.348    0.257   16.573
  321.250   57.612    0.343    0.269   17.233
  321.500   51.637    0.347    0.293   18.263
  321.750   49.890    0.353    0.305   18.642
  322.000   55.996    0.360    0.316   18.671
  322.250   54.249    0.363    0.323   19.434
  322.500   53.727    0.368    0.325   20.969
  322.750   61.645    0.372    0.331   22.200
  323.000   61.711    0.370    0.342   24.413
  323.250   56.960    0.360    0.351   24.907
  323.500   58.838    0.360    0.347   25.898
  323.750   60.111    0.365    0.344   26.929
  324.000   60.781    0.358    0.349   28.002
  324.250   59.622    0.354    0.351   28.074
  324.500   52.439    0.363    0.340   28.117
  324.750   51.901    0.369    0.332   28.745
  325.000   57.402    0.367    0.329   29.874
  325.250   54.447    0.350    0.334   31.627
  325.500   55.117    0.354    0.342   35.429
  325.750   55.182    0.361    0.353   37.508
  326.000   58.872    0.363    0.347   40.471
  326.250   63.182    0.357    0.339   42.911
  326.500   55.395    0.357    0.335   42.169
  326.750   53.028    0.362    0.334   40.017
  327.000   63.395    0.369    0.340   38.623
  327.250   60.408    0.374    0.338   38.723
  327.500   52.621    0.367    0.330   39.507
  327.750   53.290    0.370    0.331   40.306
  328.000   57.013    0.378    0.335   41.932
  328.250   58.270    0.375    0.346   44.439
  328.500   58.956    0.370    0.347   45.338
  328.750   61.437    0.373    0.346   47.167
  329.000   60.882    0.382    0.351   48.147
  329.250   53.095    0.389    0.357   48.246
  329.500   55.593    0.369    0.341   47.484
  329.750   58.075    0.363    0.336   46.686
  330.000   62.352    0.369    0.352   46.759
  330.250   60.002    0.374    0.357   46.879
  330.500   64.295    0.372    0.349   47.828
  330.750   63.757    0.361    0.338   49.758
  331.000   51.138    0.349    0.333   49.835
  331.250   47.579    0.351    0.338   49.938
  331.500   53.081    0.361    0.339   49.124
  331.750   50.730    0.363    0.342   47.462
  332.000   50.224    0.369    0.345   42.588
  332.250   51.465    0.374    0.341   41.084
  332.500   41.262    0.375    0.365   36.189
  332.750   44.364    0.378    0.360   33.679
  333.000   45.621    0.379    0.360   30.768
  333.250   41.459    0.371    0.356   28.648
  333.500   39.712    0.367    0.340   27.637
  333.750   53.670    0.372    0.341   25.261
  334.000   54.372    0.370    0.349   24.382
  334.250   51.989    0.359    0.356   22.702
  334.500   40.594    0.352    0.360   21.912
  334.750   38.227    0.362    0.365   20.772
  335.000   41.329    0.364    0.366   20.049
  335.250   43.190    0.358    0.356   19.006
  335.500   40.840    0.351    0.331   18.354
  335.750   37.901    0.348    0.334   17.098
  336.000   41.575    0.345    0.343   16.811
  336.250   44.073    0.340    0.350   16.226
  336.500   47.158    0.344    0.352   15.961
  336.750   50.848    0.354    0.356   15.701
  337.000   53.330    0.363    0.352   14.900
  337.250   60.643    0.360    0.346   14.649
  337.500   43.812    0.356    0.339   14.680
  337.750   38.425    0.356    0.341   14.441
  338.000   37.887    0.359    0.348   14.205
  338.250   34.932    0.358    0.352   14.227
  338.500   36.206    0.356    0.353   14.264
  338.750   38.083    0.348    0.348   14.286
  339.000   35.733    0.345    0.350   14.330
  339.250   34.002    0.348    0.354   14.352
  339.500   35.260    0.352    0.352   13.599
  339.750   37.170    0.352    0.347   14.412
  340.000   41.431    0.351    0.343   14.993
  340.250   42.704    0.348    0.342   15.024
  340.500   37.938    0.345    0.343   15.047
  340.750   36.795    0.344    0.346   15.078
  341.000   35.669    0.347    0.348   15.117
  341.250   32.698    0.350    0.352   15.148
  341.500   35.212    0.352    0.352   14.894
  341.750   38.281    0.353    0.346   14.940
  342.000   39.538    0.352    0.336   14.689
  342.250   40.845    0.345    0.338   14.712
  342.500   40.306    0.345    0.344   14.757
  342.750   39.147    0.356    0.338   14.502
  343.000   36.813    0.375    0.328   14.532
  343.250   34.446    0.401    0.328   14.562
  343.500   29.679    0.403    0.331   14.599
  343.750   33.973    0.382    0.334   14.629
  344.000   37.075    0.348    0.334   14.652
  344.250   37.124    0.353    0.331   14.682
  344.500   35.377    0.352    0.330   14.712
  344.750   29.402    0.344    0.333   14.743
  345.000   36.112    0.346    0.343   14.773
  345.250   37.990    0.356    0.340   14.804
  345.500   35.035    0.358    0.333   14.562
  345.750   30.872    0.359    0.331   14.600
  346.000   33.354    0.358    0.332   14.638
  346.250   32.816    0.355    0.331   14.660
  346.500   31.085    0.352    0.315   14.698
  346.750   32.963    0.350    0.313   14.721
  347.000   35.444    0.354    0.320   14.751
  347.250   37.910    0.354    0.323   14.511
  347.500   38.008    0.351    0.329   14.541
  347.750   35.641    0.350    0.334   14.311
  348.000   35.086    0.355    0.334   14.341
  348.250   41.224    0.358    0.336   14.370
  348.500   39.462    0.348    0.340   14.129
  348.750   38.923    0.347    0.330   14.158
  349.000   51.069    0.352    0.330   13.934
  349.250   52.947    0.355    0.327   13.963
  349.500   42.743    0.353    0.322   13.992
  349.750   41.013    0.351    0.323   13.764
  350.000   41.666    0.353    0.327   13.792
  350.250   42.336    0.351    0.324   13.814
  350.500   41.193    0.352    0.318   13.849
  350.750   37.635    0.362    0.319   13.878
  351.000   34.680    0.361    0.325   13.899
  351.250   41.390    0.359    0.332   13.935
  351.500   43.284    0.365    0.336   13.957
  351.750   47.577    0.362    0.340   13.993
  352.000   52.491    0.350    0.337   14.021
  352.250   47.104    0.356    0.316   14.050
  352.500   40.542    0.353    0.314   14.072
  352.750   40.003    0.351    0.322   14.108
  353.000   54.549    0.356    0.330   14.152
  353.250   54.027    0.363    0.330   14.174
  353.500   48.036    0.367    0.324   14.211
  353.750   49.326    0.359    0.327   14.225
  354.000   53.603    0.348    0.329   14.269
  354.250   52.460    0.356    0.332   14.284
  354.500   51.334    0.368    0.327   14.321
  354.750   54.436    0.367    0.319   14.350
  355.000   49.653    0.359    0.319   14.380
  355.250   44.870    0.365    0.319   14.410
  355.500   41.915    0.377    0.314   14.439
  355.750   45.017    0.363    0.312   14.204
  356.000   53.539    0.354    0.317   14.233
  356.250   60.853    0.355    0.322   14.263
  356.500   50.650    0.365    0.323   14.030
  356.750   51.923    0.367    0.330   14.059
  357.000   57.425    0.350    0.325   13.830
  357.250   54.487    0.352    0.318   13.859
  357.500   49.704    0.357    0.322   13.880
  357.750   59.434    0.354    0.321   13.654
  358.000   62.552    0.354    0.318   13.689
  358.250   60.789    0.360    0.320   13.717
  358.500   57.247    0.370    0.325   13.746
  358.750   54.880    0.379    0.323   13.767
  359.000   53.133    0.382    0.318   13.802
  359.250   56.219    0.368    0.316   13.824
  359.500   56.888    0.363    0.317   13.874
  359.750   60.578    0.362    0.318   13.888
  360.000   57.623    0.365    0.315   13.938
  360.250   59.501    0.367    0.310   13.704
  360.500   59.566    0.381    0.307   13.725
  360.750   53.608    0.364    0.310   13.754
  361.000   59.093    0.360    0.318   13.522
  361.250   62.195    0.360    0.320   13.564
  361.500   60.449    0.366    0.310   13.585
  361.750   56.269    0.358    0.300   13.357
