~VERSION INFORMATION
 VERS.                 2.0:   CWLS LOG ASCII STANDARD -VERSION 2.0
 WRAP.                  NO:   ONE LINE PER DEPTH STEP
~WELL INFORMATION BLOCK
#MNEM.UNIT           DATA                    DESCRIPTION OF MNEMONIC
#---------    -------------------            -------------------------------
# Generated from Intellog Unique Number	CW_70_72/WELL/554
NULL.         -999.25                        : NULL_VALUE
WELL.         BOWRIO ET AL SMITH 06-06       : Well_name    - WELL              
LOC .         06-06-071-25W4                 : Location     - LOCATION          
UWI .         00/06-06-071-25W4/0            : Uwi          - UNIQUE WELL ID    
ENTR.         JAYE                           : Entered      - ENTERED BY        
SRVC.         SCHLUMBERGER                   : Scn          - SERVICE COMPANY   
DATE.         25 MAY 80                      : Date         - LOG DATE          
STRT.M        463                            : top_depth    - START DEPTH       
STOP.M        680                            : bot_depth    - STOP DEPTH        
STEP.M        0.25                           : increment    - STEP LENGTH       
~CURVE INFORMATION BLOCK
#MNEM UNIT       ERCB CURVE CODE    CURVE DESCRIPTION
#-----------   ------------------   ----------------------------------
DEPT.M        00 001 00 00         : DEPTH        - DEPTH                       
DPHI.V/V      00 890 00 00         : PHID         - DENSITY POROSITY (SANDSTONE)
NPHI.V/V      00 330 00 00         : PHIN         - NEUTRON POROSITY (SANDSTONE)
GR  .API      00 310 00 00         : GR           - GAMMA RAY                   
CALI.MM       00 280 01 00         : CAL          - CALIPER                     
ILD .OHMM     00 120 00 00         : RESD         - DEEP RESISTIVITY (DIL)      
~PARAMETER INFORMATION       
#MNEM.UNIT           DATA             DESCRIPTION OF MNEMONIC
#---------         -----------     ------------------------------
GL  .M        647.5                : gl           - GROUND LEVEL ELEVATION      
EREF.M        651                  : kb           - ELEVATION OF DEPTH REFERENCE
DATM.M        647.5                : datum        - DATUM ELEVATION             
TDD .M        690                  : tdd          - TOTAL DEPTH DRILLER         
RUN .         ONE                  : Run          - RUN NUMBER                  
ENG .         BRANDSTROM           : Engineer     - RECORDING ENGINEER          
WIT .         GRANT                : Witness      - WITNESSED BY                
BASE.         EDM                  : Branch       - HOME BASE OF LOGGING UNIT   
MUD .         GEL CHEM             : Mud_type     - MUD TYPE                    
MATR.         SANDSTONE            : Logunit      - NEUTRON MATRIX              
TMAX.C        25.4                 : BHT          - MAXIMUM RECORDED TEMPERATURE
BHTD.M        692                  : BHTDEP       - MAXIMUM RECORDED TEMPERATURE
RMT .C        15                   : MDTP         - TEMPERATURE OF MUD          
MUDD.KG/M     1160                 : MWT          - MUD DENSITY                 
NEUT.         1                    : NEUTRON      - NEUTRON TYPE                
RESI.         0                    : RESIST       - RESISTIVITY TYPE            
RM  .OHMM     3.13                 : RM           - RESISTIVITY OF MUD          
RMC .OHMM     0                    : RMC          - RESISTIVITY OF MUD CAKE     
RMF .OHMM     2.62                 : RMF          - RESISTIVITY OF MUD FILTRATE 
SUFT.C        32                   : SUFT         - SURFACE TEMPERATURE         
~A  DEPTH     PHID     PHIN       GR      CAL     RESD
# ...
  499.500    0.224    0.475   89.964  201.112    2.145
  499.750    0.192    0.496   86.310  204.871    2.139
  500.000    0.256    0.487   64.052  206.660    2.265
  500.250    0.288    0.433   59.837  203.990    2.393
  500.500    0.282    0.418   66.511  201.633    2.509
  500.750    0.264    0.415   72.374  200.728    2.568
  501.000    0.244    0.427   79.606  200.133    2.551
  501.250    0.254    0.430   73.152  199.846    2.497
  501.500    0.267    0.437   65.017  200.181    2.485
  501.750    0.279    0.444   68.768  200.208    2.510
  502.000    0.266    0.425   73.261  200.237    2.593
  502.250    0.251    0.412   81.428  199.849    2.797
  502.500    0.233    0.430   87.416  199.461    3.023
  502.750    0.216    0.432   92.348  199.795    3.194
  503.000    0.203    0.409   96.718  200.756    3.312
  503.250    0.185    0.385  108.057  201.820    3.303
  503.500    0.173    0.404  114.356  203.916    3.244
  503.750    0.167    0.430  109.705  212.241    3.216
  504.000    0.159    0.457  100.825  214.753    3.165
  504.250    0.178    0.489   93.126  211.154    3.127
  504.500    0.223    0.491   85.738  205.371    3.066
  504.750    0.250    0.465   78.289  198.867    3.034
  505.000    0.266    0.443   80.916  196.507    3.008
  505.250    0.261    0.430   78.568  195.908    2.977
  505.500    0.243    0.443   83.810  196.351    2.968
  505.750    0.217    0.455   78.476  197.419    2.954
  506.000    0.248    0.468   72.953  198.374    2.929
  506.250    0.252    0.440   71.042  199.439    2.975
  506.500    0.242    0.425   75.598  199.986    3.086
  506.750    0.224    0.440   80.529  200.434    3.391
  507.000    0.208    0.444   80.110  200.764    3.804
  507.250    0.194    0.424   75.397  201.204    4.096
  507.500    0.180    0.321   64.463  201.543    4.239
  507.750    0.131    0.300   60.185  201.979    4.094
  508.000    0.109    0.310   64.184  203.463    3.838
  508.250    0.181    0.338   67.808  204.211    3.382
  508.500    0.200    0.373   70.872  204.546    3.112
  508.750    0.237    0.446   71.198  204.994    2.820
  509.000    0.267    0.448   70.033  205.225    2.604
  509.250    0.250    0.442   74.714  205.041    2.511
  509.500    0.216    0.474   79.832  204.453    2.421
  509.750    0.250    0.466   75.368  204.163    2.364
  510.000    0.258    0.440   72.709  204.185    2.327
  510.250    0.258    0.454   70.361  204.421    2.281
  510.500    0.284    0.426   68.510  204.141    2.275
  510.750    0.281    0.413   68.214  204.164    2.311
  511.000    0.273    0.426   68.603  204.289    2.388
  511.250    0.283    0.437   71.294  204.843    2.376
  511.500    0.269    0.444   75.104  204.551    2.482
  511.750    0.249    0.449   77.424  203.852    2.550
  512.000    0.242    0.455   79.553  203.566    2.645
  512.250    0.234    0.468   82.496  203.802    2.707
  512.500    0.224    0.458   85.309  204.449    2.745
  512.750    0.210    0.446   91.733  209.766    2.773
  513.000    0.190    0.464   90.944  213.525    2.786
  513.250    0.245    0.445   86.414  214.069    2.762
  513.500    0.231    0.434   75.044  210.881    2.724
  513.750    0.252    0.443   70.084  208.001    2.691
  514.000    0.261    0.450   68.916  205.436    2.693
  514.250    0.268    0.422   69.991  203.803    2.745
  514.500    0.256    0.415   67.518  202.791    2.858
  514.750    0.241    0.416   69.525  202.614    3.048
  515.000    0.234    0.414   74.082  202.329    3.196
  515.250    0.219    0.424   80.008  201.834    3.396
  515.500    0.201    0.435   86.245  202.071    3.589
  515.750    0.182    0.445   90.243  202.197    3.708
  516.000    0.174    0.432   88.828  202.327    3.753
  516.250    0.174    0.433   88.906  203.083    3.728
  516.500    0.157    0.445   90.353  203.934    3.683
  516.750    0.180    0.456   93.416  205.931    3.644
  517.000    0.165    0.464   99.654  210.627    3.580
  517.250    0.191    0.472   99.173  215.525    3.529
  517.500    0.250    0.468   95.269  219.801    3.473
  517.750    0.245    0.438   90.556  218.997    3.470
  518.000    0.213    0.432   85.283  213.220    3.505
  518.250    0.211    0.435   84.677  206.815    3.595
  518.500    0.214    0.431   84.879  201.968    3.665
  518.750    0.198    0.428   88.877  201.269    3.600
  519.000    0.181    0.430   88.646  203.374    3.439
  519.250    0.170    0.436   88.970  205.472    3.241
  519.500    0.176    0.449   89.795  206.948    3.113
  519.750    0.180    0.461   84.709  206.973    3.036
  520.000    0.204    0.443   77.819  205.653    3.015
  520.250    0.252    0.420   69.623  203.916    3.098
  520.500    0.237    0.400   68.954  202.801    3.218
  520.750    0.234    0.419   74.132  202.312    3.413
  521.000    0.261    0.461   76.451  202.230    3.620
  521.250    0.278    0.483   78.334  202.982    3.832
  521.500    0.280    0.500   81.770  204.150    4.064
  521.750    0.274    0.502   83.528  205.317    3.970
  522.000    0.262    0.482   76.887  206.276    3.687
  522.250    0.249    0.466   80.449  208.687    3.341
  522.500    0.238    0.462   86.127  212.135    2.917
  522.750    0.265    0.525   84.089  210.195    2.664
  523.000    0.310    0.549   76.453  205.452    2.516
  523.250    0.279    0.494   70.310  202.052    2.398
  523.500    0.273    0.430   66.591  201.352    2.295
  523.750    0.252    0.439   72.270  201.380    2.213
  524.000    0.234    0.456   70.109  201.512    2.149
  524.250    0.263    0.469   63.964  201.016    2.076
  524.500    0.277    0.438   59.189  200.316    2.016
  524.750    0.271    0.396   57.029  199.824    1.988
  525.000    0.274    0.409   56.607  199.028    1.960
  525.250    0.279    0.424   58.178  198.636    1.961
  525.500    0.268    0.425   60.064  198.558    1.996
  525.750    0.258    0.419   61.197  198.686    2.055
  526.000    0.258    0.420   62.083  199.135    2.147
  526.250    0.272    0.431   62.473  199.472    2.281
  526.500    0.279    0.436   62.055  200.020    2.470
  526.750    0.270    0.436   61.384  200.348    2.644
  527.000    0.281    0.428   60.840  201.106    2.825
  527.250    0.272    0.429   60.235  201.543    3.031
  527.500    0.270    0.435   61.058  201.988    3.119
  527.750    0.276    0.441   64.558  202.217    3.223
  528.000    0.283    0.444   61.401  202.664    3.286
  528.250    0.290    0.457   59.240  202.893    3.357
  528.500    0.270    0.445   57.388  203.237    3.430
  528.750    0.267    0.428   57.716  203.462    3.485
  529.000    0.266    0.414   61.465  203.589    3.507
  529.250    0.281    0.404   63.781  203.622    3.503
  529.500    0.269    0.446   64.046  203.754    3.461
  529.750    0.264    0.457   63.751  203.876    3.399
  530.000    0.258    0.433   63.830  203.804    3.289
  530.250    0.252    0.437   63.284  203.416    3.213
  530.500    0.261    0.430   63.737  203.131    3.282
  530.750    0.251    0.416   65.556  202.846    3.540
  531.000    0.253    0.399   69.180  202.970    4.031
  531.250    0.233    0.381   69.010  203.207    4.582
  531.500    0.194    0.310   68.029  203.340    5.036
  531.750    0.150    0.294   65.432  203.366    5.144
  532.000    0.124    0.326   61.840  202.976    4.542
  532.250    0.169    0.336   61.856  202.275    3.756
  532.500    0.200    0.354   64.112  201.162    3.267
  532.750    0.238    0.403   67.114  200.148    3.017
  533.000    0.268    0.433   70.553  198.724    2.963
  533.250    0.257    0.447   73.677  197.817    3.125
  533.500    0.241    0.411   77.923  196.597    3.383
  533.750    0.229    0.405   79.868  196.209    3.684
  534.000    0.229    0.417   76.462  196.032    3.892
  534.250    0.241    0.411   74.549  195.536    4.082
  534.500    0.241    0.424   74.377  195.874    4.202
  534.750    0.235    0.437   75.079  196.524    4.276
  535.000    0.225    0.441   75.779  197.899    4.369
  535.250    0.232    0.425   77.910  199.788    4.438
  535.500    0.215    0.433   80.475  202.409    4.475
  535.750    0.200    0.435   80.803  204.509    4.488
