~VERSION INFORMATION
 VERS.                 2.0:   CWLS LOG ASCII STANDARD -VERSION 2.0
 WRAP.                  NO:   ONE LINE PER DEPTH STEP
~WELL INFORMATION BLOCK
#MNEM.UNIT           DATA                    DESCRIPTION OF MNEMONIC
#---------    -------------------            -------------------------------
# Generated from Intellog Unique Number	CS_71_72/WELL/820
WELL.         MAYNARD ET AL BEHAN            : Well_name    - WELL
LOC .         00/07-28-072-11W4/0            : Location     - LOCATION
UWI .         00/07-28-072-11W4/0            : Uwi          - UNIQUE WELL ID
ENTR.         SP                             : Entered      - ENTERED BY
SRVC.         SCHLUMBERGER                   : Scn          - SERVICE COMPANY
STRT.M        305                            : top_depth    - START DEPTH
STOP.M        536.25                         : bot_depth    - STOP DEPTH
STEP.M        0.25                           : increment    - STEP LENGTH
 NULL. -999.2500:NULL Value
~CURVE INFORMATION BLOCK
#MNEM UNIT       ERCB CURVE CODE    CURVE DESCRIPTION
#-----------   ------------------   ----------------------------------
DEPT.M        00 001 00 00         : DEPTH        - DEPTH
ILD .OHMM     00 120 00 00         : RESD         - DEEP RESISTIVITY (DIL)
DPHI.V/V      00 890 00 00         : PHID         - DENSITY POROSITY (LIMESTONE)
NPHI.V/V      00 330 00 00         : PHIN         - NEUTRON POROSITY (LIMESTONE)
GR  .API      00 310 00 00         : GR           - GAMMA RAY
~PARAMETER INFORMATION
#MNEM.UNIT           DATA             DESCRIPTION OF MNEMONIC
#---------         -----------     ------------------------------
GL  .M        657.48               : gl           - GROUND LEVEL ELEVATION
EREF.M        660.68               : kb           - ELEVATION OF DEPTH REFERENCE
DATM.M        657.48               : datum        - DATUM ELEVATION
TDD .M        545                  : tdd          - TOTAL DEPTH DRILLER
RUN .         ONE                  : Run          - RUN NUMBER
ENG .         BILL                 : Engineer     - RECORDING ENGINEER
WIT .         JIM                  : Witness      - WITNESSED BY
MUD .         GEL                  : Mud_type     - MUD TYPE
MATR.         LIMESTONE            : Logunit      - NEUTRON MATRIX
TMAX.C        23                   : BHT          - MAXIMUM RECORDED TEMPERATURE
BHTD.M        545                  : BHTDEP       - MAXIMUM RECORDED TEMPERATURE
MATR.         1                    : LOGUNIT      - NEUTRON MATRIX
RMT .C        25                   : MDTP         - TEMPERATURE OF MUD
NEUT.         1                    : NEUTRON      - NEUTRON TYPE
RESI.         0                    : RESIST       - RESISTIVITY TYPE
RMC .OHMM     0.25                 : RMC          - RESISTIVITY OF MUD CAKE
RMF .OHMM     0.25                 : RMF          - RESISTIVITY OF MUD FILTRATE
SUFT.C        15                   : SUFT         - SURFACE TEMPERATURE
~A  DEPTH     RESD     PHID     PHIN       GR
# ...
  479.000    8.921    0.141    0.340   75.115
  479.250    9.898    0.084    0.293   69.647
  479.500   10.063    0.079    0.273   66.000
  479.750    9.658    0.124    0.284   69.034
  480.000    9.254    0.194    0.308   72.675
  480.250    9.012    0.229    0.327   72.671
  480.500    8.932    0.255    0.343   70.846
  480.750    9.422    0.272    0.356   70.844
  481.000    9.912    0.280    0.371   70.840
  481.250   10.402    0.270    0.370   72.052
  481.500   10.566    0.255    0.371   72.658
  481.750   10.568    0.248    0.375   74.476
  482.000   10.407    0.236    0.376   76.295
  482.250   10.327    0.229    0.376   76.292
  482.500    9.923    0.234    0.370   72.038
  482.750    9.356    0.236    0.364   73.249
  483.000    9.113    0.226    0.367   76.283
  483.250    8.790    0.220    0.379   79.924
  483.500    8.629    0.240    0.385   84.173
  483.750    8.631    0.266    0.390   81.739
  484.000    8.796    0.281    0.397   82.345
  484.250    8.960    0.253    0.389   84.164
  484.500    9.612    0.234    0.374   85.375
  484.750   10.264    0.222    0.367   84.158
  485.000   10.998    0.214    0.356   82.940
  485.250   11.325    0.230    0.363   81.723
  485.500   11.326    0.228    0.376   84.148
  485.750   11.166    0.223    0.384   87.789
  486.000   10.761    0.228    0.387   90.217
  486.250    9.869    0.233    0.394   92.036
  486.500    9.220    0.234    0.395   93.245
  486.750    8.734    0.230    0.396   93.243
  487.000    8.411    0.199    0.396   95.062
  487.250    8.088    0.179    0.400   96.275
  487.500    8.089    0.192    0.411   98.094
  487.750    8.173    0.210    0.418   98.091
  488.000    8.581    0.231    0.428   92.015
  488.250    9.070    0.242    0.402   95.655
  488.500    9.967    0.217    0.394   99.297
  488.750   10.863    0.201    0.388  106.581
  489.000   11.596    0.193    0.374  112.044
  489.250   13.061    0.208    0.368   96.251
  489.500   15.095    0.222    0.353   90.783
  489.750   15.910    0.232    0.340   82.279
  490.000   16.075    0.243    0.326   70.737
  490.250   15.508    0.252    0.341   64.662
  490.500   14.290    0.247    0.346   65.872
  490.750   13.479    0.235    0.356   70.728
  491.000   12.911    0.236    0.359   76.798
  491.250   12.507    0.236    0.362   79.225
  491.500   12.346    0.231    0.364   75.578
  491.750   13.080    0.238    0.363   73.146
  492.000   14.138    0.253    0.362   70.107
  492.250   15.360    0.259    0.352   67.674
  492.500   15.931    0.264    0.347   66.456
  492.750   16.339    0.264    0.341   67.061
  493.000   16.422    0.260    0.344   67.666
  493.250   16.099    0.244    0.357   71.306
  493.500   15.206    0.228    0.366   74.947
  493.750   13.745    0.209    0.368   77.981
  494.000   12.608    0.192    0.368   80.407
  494.250   12.285    0.171    0.358   82.226
  494.500   14.075    0.170    0.351   80.402
  494.750   16.354    0.183    0.335   73.719
  495.000   19.201    0.198    0.329   69.465
  495.250   20.341    0.216    0.336   63.387
  495.500   21.074    0.248    0.352   61.563
  495.750   21.564    0.268    0.368   61.562
  496.000   21.241    0.281    0.378   65.202
  496.250   20.999    0.271    0.385   67.022
  496.500   21.163    0.258    0.372   65.197
  496.750   21.165    0.264    0.364   63.979
  497.000   19.703    0.270    0.378   67.012
  497.250   16.453    0.273    0.399   74.297
  497.500   10.276    0.258    0.413   81.582
  497.750    8.408    0.115    0.426   90.688
  498.000    6.866    0.087    0.437  101.009
  498.250    6.298    0.073    0.447  104.042
  498.500    5.812    0.058    0.433   99.181
  498.750    5.814    0.101    0.439  100.393
  499.000    7.442    0.224    0.428  101.604
  499.250   11.590    0.259    0.390   85.205
  499.500   14.925    0.278    0.360   72.450
  499.750   16.716    0.286    0.354   63.945
  500.000   17.612    0.262    0.351   70.622
  500.250   18.101    0.237    0.354   76.085
  500.500   15.420    0.251    0.349   59.077
  500.750   14.040    0.264    0.346   54.824
  501.000   12.985    0.273    0.355   51.177
  501.250   12.092    0.280    0.363   57.245
  501.500   11.444    0.284    0.366   58.458
  501.750   11.121    0.285    0.372   60.883
  502.000   11.122    0.281    0.376   61.489
  502.250   11.206    0.273    0.383   64.522
  502.500   11.289    0.262    0.379   66.342
  502.750   11.128    0.256    0.372   69.375
  503.000   10.805    0.247    0.378   71.195
  503.250    9.425    0.250    0.384   75.442
  503.500    8.533    0.256    0.389   77.262
  503.750    8.128    0.256    0.393   79.688
  504.000    7.560    0.246    0.394   81.507
  504.250    7.236    0.227    0.392   77.860
  504.500    6.914    0.216    0.381   77.857
  504.750    6.834    0.205    0.363   80.890
  505.000    6.917    0.201    0.354   82.102
  505.250    7.082    0.204    0.349   85.135
  505.500    7.328    0.202    0.354   86.348
  505.750    7.411    0.199    0.361   86.345
  506.000    7.574    0.199    0.372   87.556
  506.250    7.739    0.192    0.381   90.589
  506.500    7.741    0.187    0.382   93.623
  506.750    7.662    0.202    0.383   97.263
  507.000    7.664    0.204    0.386   99.083
  507.250    7.747    0.213    0.387   76.611
  507.500    8.155    0.230    0.388   69.928
  507.750    8.645    0.241    0.383   67.496
  508.000    8.971    0.248    0.372   72.959
  508.250    9.705    0.264    0.366   79.029
  508.500   10.358    0.210    0.362   83.276
  508.750   10.928    0.213    0.362   74.164
  509.000   11.581    0.242    0.360   66.874
  509.250   11.989    0.284    0.354   58.977
  509.500   12.397    0.306    0.351   54.115
  509.750   12.561    0.291    0.356   58.970
  510.000   11.994    0.270    0.350   63.826
  510.250   10.370    0.283    0.355   68.074
  510.500    9.559    0.267    0.362   74.751
  510.750    8.992    0.214    0.364   81.428
  511.000    8.506    0.185    0.337   87.499
  511.250    8.264    0.159    0.329   94.783
  511.500    7.941    0.152    0.327   90.529
  511.750    7.699    0.151    0.327   95.992
  512.000    7.619    0.147    0.331   98.418
  512.250    7.621    0.142    0.335   99.023
  512.500    7.949    0.137    0.345   92.339
  512.750    8.113    0.132    0.353   88.693
  513.000    8.358    0.142    0.357   84.438
  513.250    8.522    0.153    0.354   82.007
  513.500    8.687    0.178    0.344   71.073
  513.750    8.851    0.200    0.343   73.498
  514.000    8.853    0.192    0.346   77.139
  514.250    8.773    0.162    0.342   81.996
  514.500    8.776    0.148    0.348   87.458
  514.750    9.103    0.149    0.353   89.277
  515.000   10.407    0.181    0.331   71.919
  515.250   10.733    0.189    0.323   66.975
  515.500   11.222    0.212    0.340   65.107
  515.750   11.547    0.227    0.356   65.085
  516.000   11.629    0.236    0.364   66.895
  516.250   11.549    0.236    0.374   67.494
  516.500    9.436    0.241    0.360   65.624
  516.750    7.892    0.253    0.352   69.287
  517.000    6.592    0.233    0.357   76.028
  517.250    5.780    0.225    0.341   68.624
  517.500    5.130    0.257    0.339   62.454
  517.750    4.562    0.274    0.350   58.130
  518.000    4.157    0.285    0.369   54.414
  518.250    3.994    0.293    0.381   58.679
  518.500    3.914    0.260    0.366   60.507
  518.750    3.752    0.249    0.357   62.335
  519.000    3.672    0.239    0.339   62.312
  519.250    3.592    0.265    0.327   60.443
  519.500    3.511    0.279    0.334   59.186
  519.750    3.431    0.287    0.344   51.170
  520.000    3.350    0.282    0.350   51.753
  520.250    3.270    0.272    0.347   55.427
  520.500    3.189    0.260    0.342   57.249
  520.750    3.108    0.267    0.334   51.073
  521.000    2.946    0.288    0.331   52.889
  521.250    2.866    0.295    0.350   54.100
  521.500    2.786    0.278    0.355   55.296
  521.750    2.786    0.263    0.349   57.123
  522.000    2.787    0.253    0.347   59.559
  522.250    2.707    0.267    0.346   54.620
