~VERSION INFORMATION
 VERS.                 2.0:   CWLS LOG ASCII STANDARD -VERSION 2.0
 WRAP.                  NO:   ONE LINE PER DEPTH STEP
~WELL INFORMATION BLOCK
#MNEM.UNIT           DATA                    DESCRIPTION OF MNEMONIC
#---------    -------------------            -------------------------------
# Generated from Intellog Unique Number	CS_73_76/WELL/620
WELL.         CAVALIER ET AL NIXON           : Well_name    - WELL
LOC .         00/06-09-073-14W4/0            : Location     - LOCATION
UWI .         00/06-09-073-14W4/0            : Uwi          - UNIQUE WELL ID
ENTR.         SP                             : Entered      - ENTERED BY
SRVC.         SCHLUMBERGER                   : Scn          - SERVICE COMPANY
STRT.M        310                            : top_depth    - START DEPTH
STOP.M        490                            : bot_depth    - STOP DEPTH
STEP.M        0.25                           : increment    - STEP LENGTH
 NULL. -999.2500:NULL Value
~CURVE INFORMATION BLOCK
#MNEM UNIT       ERCB CURVE CODE    CURVE DESCRIPTION
#-----------   ------------------   ----------------------------------
DEPT.M        00 001 00 00         : DEPTH        - DEPTH
ILD .OHMM     00 120 00 00         : RESD         - DEEP RESISTIVITY (DIL)
DPHI.V/V      00 890 00 00         : PHID         - DENSITY POROSITY (LIMESTONE)
NPHI.V/V      00 330 00 00         : PHIN         - NEUTRON POROSITY (LIMESTONE)
GR  .API      00 310 00 00         : GR           - GAMMA RAY
~PARAMETER INFORMATION
#MNEM.UNIT           DATA             DESCRIPTION OF MNEMONIC
#---------         -----------     ------------------------------
GL  .M        652.5                : gl           - GROUND LEVEL ELEVATION
EREF.M        656.64               : kb           - ELEVATION OF DEPTH REFERENCE
DATM.M        652.5                : datum        - DATUM ELEVATION
TDD .M        499.6                : tdd          - TOTAL DEPTH DRILLER
RUN .         ONE                  : Run          - RUN NUMBER
ENG .         BILL                 : Engineer     - RECORDING ENGINEER
WIT .         JIM                  : Witness      - WITNESSED BY
MUD .         GEL                  : Mud_type     - MUD TYPE
MATR.         LIMESTONE            : Logunit      - NEUTRON MATRIX
TMAX.C        21                   : BHT          - MAXIMUM RECORDED TEMPERATURE
BHTD.M        499.6                : BHTDEP       - MAXIMUM RECORDED TEMPERATURE
MATR.         1                    : LOGUNIT      - NEUTRON MATRIX
RMT .C        25                   : MDTP         - TEMPERATURE OF MUD
NEUT.         1                    : NEUTRON      - NEUTRON TYPE
RESI.         0                    : RESIST       - RESISTIVITY TYPE
RMC .OHMM     0.25                 : RMC          - RESISTIVITY OF MUD CAKE
RMF .OHMM     0.25                 : RMF          - RESISTIVITY OF MUD FILTRATE
SUFT.C        15                   : SUFT         - SURFACE TEMPERATURE
~A  DEPTH     RESD     PHID     PHIN       GR
# ...
  397.000    3.783    0.245    0.499   84.612
  397.250    3.782    0.240    0.504   84.609
  397.500    3.926    0.237    0.499   82.213
  397.750    4.475    0.237    0.493   79.221
  398.000    4.733    0.251    0.479   75.035
  398.250    4.914    0.268    0.470   69.653
  398.500    5.295    0.280    0.464   66.062
  398.750    5.395    0.257    0.458   66.058
  399.000    5.496    0.248    0.453   70.834
  399.250    5.495    0.234    0.454   76.805
  399.500    5.393    0.225    0.455   79.192
  399.750    5.292    0.223    0.459   80.982
  400.000    5.194    0.224    0.462   83.963
  400.250    5.097    0.215    0.465   85.154
  400.500    5.096    0.215    0.460   85.151
  400.750    5.096    0.220    0.452   85.148
  401.000    5.095    0.229    0.449   82.754
  401.250    5.095    0.236    0.448   79.164
  401.500    5.190    0.240    0.435   76.770
  401.750    5.288    0.242    0.438   74.971
  402.000    5.287    0.240    0.442   74.969
  402.250    5.387    0.239    0.447   73.171
  402.500    5.386    0.244    0.439   71.972
  402.750    5.286    0.246    0.433   70.773
  403.000    5.285    0.245    0.439   70.768
  403.250    5.186    0.250    0.453   71.362
  403.500    5.186    0.257    0.461   71.955
  403.750    5.284    0.267    0.471   72.549
  404.000    5.588    0.280    0.447   73.141
  404.250    6.252    0.289    0.430   73.138
  404.500    7.126    0.296    0.409   72.537
  404.750    7.973    0.286    0.386   70.141
  405.000    8.754    0.229    0.363   67.150
  405.250    9.612    0.177    0.284   63.560
  405.500    9.793    0.112    0.169   59.970
  405.750    9.432    0.043    0.128   61.758
  406.000    8.119    0.011    0.121   69.523
  406.250    7.256    0.112    0.313   78.482
  406.500    6.484    0.151    0.362   81.467
  406.750    5.795    0.204    0.403   84.451
  407.000    5.687    0.234    0.434   85.045
  407.250    5.581    0.249    0.462   83.248
  407.500    5.580    0.258    0.463   82.048
  407.750    5.579    0.246    0.445   80.850
  408.000    5.579    0.234    0.436   80.247
  408.250    5.578    0.224    0.431   80.839
  408.500    5.578    0.213    0.431   80.835
  408.750    5.577    0.213    0.443   82.026
  409.000    5.473    0.219    0.447   83.218
  409.250    5.473    0.208    0.452   85.603
  409.500    5.472    0.206    0.443   86.198
  409.750    5.471    0.210    0.439   84.999
  410.000    5.369    0.215    0.448   83.799
  410.250    5.269    0.211    0.454   83.198
  410.500    5.171    0.222    0.460   78.412
  410.750    5.075    0.233    0.465   76.017
  411.000    5.367    0.237    0.468   75.417
  411.250    5.267    0.243    0.470   75.413
  411.500    5.169    0.241    0.475   78.395
  411.750    5.168    0.238    0.482   79.587
  412.000    5.072    0.249    0.482   80.779
  412.250    5.071    0.255    0.480   78.981
  412.500    5.071    0.244    0.475   77.183
  412.750    4.976    0.233    0.472   76.583
  413.000    4.976    0.218    0.463   77.773
  413.250    4.975    0.207    0.458   79.563
  413.500    4.975    0.212    0.457   82.545
  413.750    4.974    0.220    0.461   83.738
  414.000    5.068    0.221    0.465   86.124
  414.250    5.163    0.235    0.469   85.521
  414.500    5.359    0.240    0.472   84.323
  414.750    5.775    0.232    0.459   80.733
  415.000    6.109    0.220    0.358   74.155
  415.250    6.461    0.197    0.316   69.968
  415.500    6.582    0.097    0.293   65.183
  415.750    6.582    0.093    0.284   62.191
  416.000    6.106    0.115    0.287   67.564
  416.250    5.665    0.150    0.310   70.548
  416.500    5.456    0.181    0.363   74.129
  416.750    5.255    0.201    0.402   76.517
  417.000    4.967    0.227    0.425   69.939
  417.250    4.875    0.233    0.451   71.128
  417.500    4.874    0.236    0.452   72.918
  417.750    4.966    0.238    0.444   75.903
  418.000    5.059    0.240    0.445   80.081
  418.250    5.155    0.240    0.445   82.467
  418.500    5.154    0.238    0.446   83.062
  418.750    5.058    0.249    0.451   81.862
  419.000    5.057    0.254    0.452   77.674
  419.250    4.963    0.262    0.457   75.280
  419.500    4.962    0.270    0.463   77.068
  419.750    5.056    0.271    0.468   78.259
  420.000    5.055    0.269    0.466   78.854
  420.250    5.055    0.266    0.471   78.251
  420.500    5.054    0.264    0.474   77.052
  420.750    4.960    0.255    0.475   75.853
  421.000    4.777    0.247    0.474   77.642
  421.250    4.350    0.244    0.469   80.027
  421.500    4.112    0.241    0.466   81.815
  421.750    3.606    0.241    0.461   83.006
  422.000    3.409    0.247    0.477   84.198
  422.250    3.104    0.241    0.482   88.972
  422.500    2.774    0.237    0.497   91.359
  422.750    2.622    0.235    0.513   93.746
  423.000    2.574    0.244    0.533   94.938
  423.250    2.526    0.250    0.547   97.324
  423.500    2.525    0.250    0.561   97.918
  423.750    2.573    0.242    0.547   95.523
  424.000    2.621    0.231    0.518   93.129
  424.250    2.825    0.226    0.493   90.137
  424.500    3.342    0.221    0.474   87.742
  424.750    3.602    0.224    0.455   87.141
  425.000    3.955    0.218    0.440   85.941
  425.250    4.262    0.220    0.429   85.340
  425.500    4.593    0.218    0.436   84.141
  425.750    4.679    0.218    0.440   82.342
  426.000    4.767    0.223    0.444   81.742
  426.250    4.767    0.214    0.455   81.139
  426.500    4.766    0.210    0.464   81.732
  426.750    4.677    0.208    0.465   82.327
  427.000    4.677    0.213    0.457   84.112
  427.250    4.765    0.217    0.454   85.305
  427.500    4.764    0.217    0.451   86.497
  427.750    4.854    0.206    0.453   87.091
  428.000    4.945    0.189    0.447   84.098
  428.250    5.038    0.174    0.439   81.107
  428.500    5.328    0.187    0.431   82.296
  428.750    5.429    0.198    0.425   84.087
  429.000    5.741    0.191    0.417   85.876
  429.250    5.741    0.169    0.265   88.262
  429.500    5.634    0.153    0.220   73.915
  429.750    5.326    0.148    0.207   65.544
  430.000    5.129    0.169    0.207   63.748
  430.250    4.940    0.215    0.258   65.535
  430.500    4.758    0.260    0.357   66.726
  430.750    4.758    0.273    0.403   64.332
  431.000    4.847    0.279    0.430   61.339
  431.250    4.938    0.287    0.436   60.738
  431.500    5.126    0.295    0.427   61.930
  431.750    5.524    0.310    0.416   63.121
  432.000    5.734    0.312    0.408   59.530
  432.250    5.953    0.274    0.400   59.525
  432.500    5.841    0.220    0.390   61.911
  432.750    5.841    0.201    0.383   63.103
  433.000    5.626    0.228    0.390   64.294
  433.250    5.418    0.261    0.404   64.888
  433.500    5.219    0.279    0.416   64.885
  433.750    5.026    0.276    0.426   59.502
  434.000    4.933    0.276    0.419   60.693
  434.250    4.841    0.275    0.415   62.480
  434.500    4.840    0.272    0.405   63.075
  434.750    4.840    0.278    0.405   58.886
  435.000    4.839    0.275    0.410   60.079
  435.250    4.839    0.273    0.412   62.464
  435.500    4.930    0.269    0.412   63.657
  435.750    5.214    0.269    0.410   64.250
  436.000    5.412    0.274    0.414   61.855
  436.250    5.618    0.283    0.423   61.253
  436.500    5.618    0.290    0.431   61.248
  436.750    5.723    0.287    0.436   62.439
  437.000    5.616    0.285    0.443   63.032
  437.250    5.511    0.283    0.449   61.834
  437.500    5.511    0.298    0.451   61.829
  437.750    5.308    0.307    0.438   63.022
  438.000    5.209    0.311    0.430   64.810
  438.250    5.017    0.303    0.420   68.388
  438.500    5.016    0.295    0.412   68.983
  438.750    4.923    0.284    0.408   68.981
  439.000    4.922    0.279    0.404   66.585
  439.250    4.922    0.278    0.400   65.387
  439.500    4.921    0.279    0.397   64.187
  439.750    4.921    0.279    0.393   62.988
  440.000    4.920    0.272    0.392   62.383
  440.250    4.920    0.266    0.400   62.978
