~VERSION INFORMATION
 VERS.                 2.0:   CWLS LOG ASCII STANDARD -VERSION 2.0
 WRAP.                  NO:   ONE LINE PER DEPTH STEP
~WELL INFORMATION BLOCK
#MNEM.UNIT           DATA                    DESCRIPTION OF MNEMONIC
#---------    -------------------            -------------------------------
# Generated from Intellog Unique Number	CS_73_76/WELL/1075
WELL.         HOME LIESMER                   : Well_name    - WELL
LOC .         00/06-23-075-07W4/0            : Location     - LOCATION
UWI .         00/06-23-075-07W4/0            : Uwi          - UNIQUE WELL ID
ENTR.         SP                             : Entered      - ENTERED BY
SRVC.         SCHLUMBERGER                   : Scn          - SERVICE COMPANY
STRT.M        274.32                         : top_depth    - START DEPTH
STOP.M        499.57                         : bot_depth    - STOP DEPTH
STEP.M        0.25                           : increment    - STEP LENGTH
 NULL. -999.2500:NULL Value
~CURVE INFORMATION BLOCK
#MNEM UNIT       ERCB CURVE CODE    CURVE DESCRIPTION
#-----------   ------------------   ----------------------------------
DEPT.M        00 001 00 00         : DEPTH        - DEPTH
GR  .API      00 310 00 00         : GR           - GAMMA RAY
DPHI.V/V      00 890 00 00         : PHID         - DENSITY POROSITY (SANDSTONE)
NPHI.V/V      00 330 00 00         : PHIN         - NEUTRON POROSITY (SANDSTONE)
ILD .OHMM     00 120 00 00         : RESD         - DEEP RESISTIVITY (DIL)
~PARAMETER INFORMATION
#MNEM.UNIT           DATA             DESCRIPTION OF MNEMONIC
#---------         -----------     ------------------------------
GL  .M        680.874              : gl           - GROUND LEVEL ELEVATION
EREF.M        680.874              : kb           - ELEVATION OF DEPTH REFERENCE
DATM.M        680.874              : datum        - DATUM ELEVATION
TDD .M        505.968              : tdd          - TOTAL DEPTH DRILLER
RUN .         ONE                  : Run          - RUN NUMBER
ENG .         BILL                 : Engineer     - RECORDING ENGINEER
WIT .         JIM                  : Witness      - WITNESSED BY
MUD .         GEL                  : Mud_type     - MUD TYPE
MATR.         SANDSTONE            : Logunit      - NEUTRON MATRIX
TMAX.C        15.5556              : BHT          - MAXIMUM RECORDED TEMPERATURE
BHTD.M        505.968              : BHTDEP       - MAXIMUM RECORDED TEMPERATURE
MATR.         1                    : LOGUNIT      - NEUTRON MATRIX
RMT .C        25                   : MDTP         - TEMPERATURE OF MUD
NEUT.         1                    : NEUTRON      - NEUTRON TYPE
RESI.         0                    : RESIST       - RESISTIVITY TYPE
RMC .OHMM     0.25                 : RMC          - RESISTIVITY OF MUD CAKE
RMF .OHMM     0.25                 : RMF          - RESISTIVITY OF MUD FILTRATE
SUFT.C        15                   : SUFT         - SURFACE TEMPERATURE
~A  DEPTH       GR     PHID     PHIN     RESD
# ...
  361.320   86.819    0.255    0.491    5.847
  361.570   87.001    0.252    0.480    6.403
  361.820   88.746    0.248    0.483    6.853
  362.070   90.666    0.254    0.469    7.279
  362.320   92.387    0.240    0.460    7.688
  362.570   93.981    0.233    0.464    7.913
  362.820   94.135    0.247    0.477    7.808
  363.070   94.242    0.252    0.498    7.477
  363.320   96.257    0.253    0.526    6.724
  363.570   99.106    0.256    0.553    5.818
  363.820  100.431    0.265    0.588    5.188
  364.070   95.391    0.255    0.605    4.672
  364.320   88.553    0.263    0.575    4.398
  364.570   84.049    0.280    0.534    4.362
  364.820   80.570    0.290    0.506    4.802
  365.070   78.821    0.290    0.499    5.182
  365.320   77.929    0.287    0.503    5.734
  365.570   78.956    0.269    0.511    6.090
  365.820   79.776    0.258    0.529    6.468
  366.070   79.094    0.267    0.554    6.872
  366.320   77.579    0.277    0.542    7.501
  366.570   76.146    0.285    0.525    8.134
  366.820   77.814    0.293    0.506    8.711
  367.070   81.886    0.303    0.490    9.442
  367.320   87.314    0.290    0.470   10.013
  367.570   90.655    0.267    0.491    9.539
  367.820   92.292    0.243    0.522    8.374
  368.070   91.574    0.243    0.538    7.023
  368.320   92.961    0.252    0.549    5.947
  368.570   96.339    0.258    0.557    5.359
  368.820   98.161    0.255    0.552    5.043
  369.070  100.151    0.249    0.547    4.714
  369.320  101.237    0.247    0.564    4.612
  369.570  101.674    0.254    0.574    4.535
  369.820   98.117    0.256    0.577    4.590
  370.070   95.416    0.261    0.569    4.614
  370.320   95.637    0.261    0.564    4.700
  370.570   96.079    0.256    0.567    4.891
  370.820   95.031    0.249    0.558    5.070
  371.070   94.011    0.245    0.540    5.154
  371.320   93.946    0.233    0.515    5.209
  371.570   93.908    0.215    0.505    5.265
  371.820   92.940    0.225    0.511    5.258
  372.070   90.926    0.234    0.505    5.371
  372.320   88.614    0.223    0.499    5.472
  372.570   90.970    0.231    0.489    5.643
  372.820   93.805    0.238    0.503    5.845
  373.070   95.103    0.228    0.516    6.108
  373.320   95.717    0.226    0.532    6.365
  373.570   96.425    0.237    0.524    6.600
  373.820   95.314    0.241    0.506    6.928
  374.070   93.356    0.250    0.497    7.141
  374.320   91.404    0.241    0.486    7.537
  374.570   89.542    0.235    0.479    7.887
  374.820   84.167    0.231    0.465    8.430
  375.070   74.597    0.195    0.427    8.857
  375.320   65.375    0.137    0.363    9.552
  375.570   69.637    0.088    0.294   10.141
  375.820   78.474    0.052    0.308   10.441
  376.070   83.079    0.119    0.407   10.600
  376.320   85.435    0.203    0.464    9.596
  376.570   89.468    0.240    0.484    8.770
  376.820   95.757    0.249    0.482    7.732
  377.070   98.760    0.231    0.491    7.310
  377.320   97.069    0.212    0.503    6.751
  377.570   97.260    0.205    0.501    6.567
  377.820   97.605    0.214    0.511    6.384
  378.070   99.140    0.220    0.518    6.391
  378.320  100.878    0.217    0.520    6.362
  378.570  104.109    0.203    0.528    6.167
  378.820  105.692    0.208    0.539    6.041
  379.070  105.824    0.218    0.543    5.518
  379.320  105.809    0.243    0.563    4.794
  379.570  106.431    0.249    0.596    4.316
  379.820  106.143    0.259    0.621    3.556
  380.070  103.447    0.240    0.600    3.115
  380.320  104.722    0.248    0.573    2.864
  380.570  105.307    0.260    0.555    2.707
  380.820  104.736    0.267    0.558    2.710
  381.070  104.656    0.261    0.572    2.767
  381.320  104.637    0.253    0.563    2.821
  381.570  104.872    0.242    0.565    2.950
  381.820  100.385    0.236    0.563    3.069
  382.070   95.161    0.266    0.549    3.266
  382.320   92.306    0.262    0.530    3.550
  382.570   86.757    0.276    0.519    3.715
  382.820   81.805    0.271    0.506    4.064
  383.070   76.938    0.270    0.499    4.508
  383.320   72.097    0.275    0.497    4.751
  383.570   65.710    0.283    0.492    5.329
  383.820   59.461    0.292    0.477    5.605
  384.070   57.197    0.298    0.452    6.026
  384.320   56.373    0.275    0.413    6.314
  384.570   54.407    0.248    0.364    6.751
  384.820   56.125    0.201    0.296    6.959
  385.070   57.307    0.120    0.289    7.321
  385.320   56.298    0.240    0.389    7.546
  385.570   54.299    0.284    0.437    7.629
  385.820   53.635    0.300    0.457    7.784
  386.070   53.635    0.291    0.461    7.750
  386.320   54.219    0.290    0.453    7.638
  386.570   54.527    0.297    0.447    7.656
  386.820   55.597    0.289    0.453    7.496
  387.070   57.687    0.292    0.447    7.525
  387.320   58.002    0.311    0.455    7.375
  387.570   59.026    0.329    0.462    7.239
  387.820   59.069    0.334    0.455    7.265
  388.070   58.404    0.324    0.446    7.107
  388.320   57.825    0.320    0.439    7.123
  388.570   57.425    0.318    0.433    7.122
  388.820   57.102    0.328    0.444    7.088
  389.070   56.628    0.323    0.459    7.125
  389.320   56.294    0.326    0.462    7.136
  389.570   56.058    0.324    0.454    7.163
  389.820   56.091    0.318    0.448    7.262
  390.070   55.344    0.323    0.442    7.702
  390.320   56.105    0.309    0.429    7.994
  390.570   55.292    0.291    0.400    8.914
  390.820   51.914    0.252    0.372    9.653
  391.070   50.104    0.169    0.314   11.409
  391.320   51.689    0.064    0.128   14.197
  391.570   51.114    0.025    0.131   17.744
  391.820   49.566    0.021    0.134   21.452
  392.070   49.211    0.010    0.141   25.014
  392.320   51.172    0.023    0.151   26.688
  392.570   53.541    0.039    0.163   22.657
  392.820   56.107    0.069    0.198   18.145
  393.070   58.747    0.139    0.292   14.795
  393.320   61.773    0.210    0.431   10.530
  393.570   61.854    0.327    0.457    8.213
  393.820   60.315    0.347    0.461    7.430
  394.070   63.468    0.332    0.457    7.324
  394.320   67.110    0.335    0.454    7.374
  394.570   70.329    0.331    0.467    7.466
  394.820   73.031    0.321    0.478    7.467
  395.070   72.388    0.319    0.487    7.442
  395.320   72.642    0.319    0.499    7.213
  395.570   72.882    0.305    0.505    6.993
  395.820   74.569    0.292    0.492    6.955
  396.070   76.618    0.281    0.481    6.952
  396.320   77.963    0.291    0.460    6.890
  396.570   79.220    0.287    0.451    6.823
  396.820   79.099    0.263    0.449    6.718
  397.070   80.798    0.244    0.458    6.586
  397.320   84.043    0.244    0.471    6.463
  397.570   86.331    0.263    0.476    6.110
  397.820   89.315    0.265    0.480    5.536
  398.070   91.629    0.261    0.487    5.306
  398.320   91.922    0.255    0.498    4.898
  398.570   90.742    0.250    0.522    4.776
  398.820   89.859    0.259    0.538    4.687
  399.070   90.192    0.244    0.541    4.582
  399.320   90.457    0.236    0.524    4.586
  399.570   90.432    0.229    0.511    4.647
  399.820   91.379    0.225    0.503    4.856
  400.070   92.402    0.229    0.496    4.943
  400.320   94.537    0.240    0.488    4.355
  400.570   95.463    0.254    0.497    3.448
  400.820   92.799    0.245    0.521    2.690
  401.070   91.488    0.263    0.535    2.146
  401.320   90.383    0.261    0.543    1.915
  401.570   88.183    0.250    0.558    1.874
  401.820   83.728    0.258    0.572    2.117
  402.070   76.733    0.269    0.539    2.499
  402.320   71.294    0.288    0.506    3.233
  402.570   68.082    0.310    0.480    4.183
  402.820   68.104    0.313    0.469    5.046
  403.070   68.091    0.321    0.472    5.860
  403.320   66.845    0.327    0.478    6.369
  403.570   65.517    0.331    0.489    6.554
  403.820   63.527    0.321    0.488    6.668
  404.070   61.448    0.326    0.482    6.630
  404.320   58.474    0.334    0.486    6.551
  404.570   56.899    0.322    0.481    6.565
