~VERSION INFORMATION
 VERS.                 2.0:   CWLS LOG ASCII STANDARD -VERSION 2.0
 WRAP.                  NO:   ONE LINE PER DEPTH STEP
~WELL INFORMATION BLOCK
#MNEM.UNIT           DATA                    DESCRIPTION OF MNEMONIC
#---------    -------------------            -------------------------------
# Generated from Intellog Unique Number	CS_73_76/WELL/2811
WELL.         ESSO RESOURCES CANADA LTD.     : Well_name    - WELL
LOC .         00/06-32-075-04W4/0            : Location     - LOCATION
UWI .         00/06-32-075-04W4/0            : Uwi          - UNIQUE WELL ID
ENTR.         JOETTE                         : Entered      - ENTERED BY
SRVC.         COMPUTALOG                     : Scn          - SERVICE COMPANY
DATE.         05/22/92                       : Date         - LOG DATE
STRT.M        200                            : top_depth    - START DEPTH
STOP.M        450                            : bot_depth    - STOP DEPTH
STEP.M        0.25                           : increment    - STEP LENGTH
 NULL. -999.2500:NULL Value
~CURVE INFORMATION BLOCK
#MNEM UNIT       ERCB CURVE CODE    CURVE DESCRIPTION
#-----------   ------------------   ----------------------------------
DEPT.M        00 001 00 00         : DEPTH        - DEPTH
ILD .OHMM     00 120 00 00         : RESD         - DEEP RESISTIVITY (DIL)
RHOB.KG/M3    00 350 00 00         : DENS         - BULK DENSITY
NPHI.V/V      00 330 00 00         : PHIN         - NEUTRON POROSITY (SANDSTONE)
GR  .API      00 310 00 00         : GR           - GAMMA RAY
~PARAMETER INFORMATION
#MNEM.UNIT           DATA             DESCRIPTION OF MNEMONIC
#---------         -----------     ------------------------------
GL  .M        598.7                : gl           - GROUND LEVEL ELEVATION
EREF.M        602.4                : kb           - ELEVATION OF DEPTH REFERENCE
DATM.M        602.4                : datum        - DATUM ELEVATION
TDD .M        456.6                : tdd          - TOTAL DEPTH DRILLER
RUN .         ONE                  : Run          - RUN NUMBER
ENG .         BILL                 : Engineer     - RECORDING ENGINEER
WIT .         JIM                  : Witness      - WITNESSED BY
MUD .         GEL                  : Mud_type     - MUD TYPE
MATR.         SANDSTONE            : Logunit      - NEUTRON MATRIX
TMAX.C        32                   : BHT          - MAXIMUM RECORDED TEMPERATURE
BHTD.M        456.6                : BHTDEP       - MAXIMUM RECORDED TEMPERATURE
MATR.         1                    : LOGUNIT      - NEUTRON MATRIX
RMT .C        19.7                 : MDTP         - TEMPERATURE OF MUD
NEUT.         1                    : NEUTRON      - NEUTRON TYPE
RESI.         0                    : RESIST       - RESISTIVITY TYPE
RMC .OHMM     6.4                  : RMC          - RESISTIVITY OF MUD CAKE
RMF .OHMM     4.2                  : RMF          - RESISTIVITY OF MUD FILTRATE
SUFT.C        5                    : SUFT         - SURFACE TEMPERATURE
~A  DEPTH     RESD     DENS     PHIN       GR
# ...
  287.000   24.110 2050.700    0.503   51.632
  287.250   26.524 2046.970    0.499   49.800
  287.500   27.572 2047.180    0.483   51.279
  287.750   27.082 2051.400    0.502   50.873
  288.000   25.627 2053.570    0.515   51.869
  288.250   24.250 2055.890    0.522   50.965
  288.500   27.692 2056.000    0.515   48.191
  288.750   28.787 2058.220    0.503   46.843
  289.000   27.773 2066.440    0.505   48.309
  289.250   25.319 2054.640    0.515   49.304
  289.500   24.406 2038.890    0.515   49.828
  289.750   23.095 2039.050    0.507   49.409
  290.000   22.685 2057.390    0.522   48.991
  290.250   22.302 2071.570    0.518   47.630
  290.500   22.321 2155.940    0.503   47.682
  290.750   23.636 2312.450    0.403   50.078
  291.000   25.995 2464.960    0.373   45.889
  291.250   32.012 2581.420    0.310   40.300
  291.500   31.443 2393.250    0.288   43.167
  291.750   28.123 2235.160    0.380   46.989
  292.000   22.052 2079.140    0.429   50.838
  292.250   18.996 2047.310    0.467   50.420
  292.500   16.363 2053.540    0.483   51.886
  292.750   18.343 2055.750    0.500   53.810
  293.000   16.713 2051.910    0.502   55.761
  293.250   14.396 2062.140    0.492   53.916
  293.500   12.174 2038.320    0.497   51.154
  293.750   14.430 2040.540    0.504   51.678
  294.000   16.791 2062.830    0.513   52.686
  294.250   15.593 2067.050    0.507   52.712
  294.500   13.432 2063.320    0.502   52.320
  294.750   12.477 2061.530    0.501   51.901
  295.000   12.263 2051.730    0.497   51.967
  295.250   12.270 2039.880    0.507   52.465
  295.500   12.056 2030.140    0.507   52.517
  295.750   11.199 2032.350    0.497   53.983
  296.000   10.597 2040.580    0.503   55.921
  296.250    9.844 2040.790    0.500   56.916
  296.500    9.853 2052.970    0.498   59.325
  296.750    9.503 2055.180    0.508   58.435
  297.000    8.666 2055.400    0.499   57.087
  297.250    8.507 2061.680    0.489   58.082
  297.500    8.358 2073.900    0.500   62.376
  297.750    8.212 2088.190    0.516   66.670
  298.000    8.229 2104.370    0.510   63.908
  298.250    8.234 2116.650    0.502   61.591
  298.500    8.090 2100.800    0.505   59.759
  298.750    7.373 2103.010    0.511   62.639
  299.000    7.522 2127.310    0.546   68.359
  299.250    7.388 2143.540    0.574   75.481
  299.500    3.358 2161.780    0.636   84.971
  299.750    1.987 2162.050    0.627   86.438
  300.000    2.226 2152.250    0.596   79.893
  300.250    3.566 2144.400    0.565   68.622
  300.500    5.820 2074.530    0.539   58.779
  300.750    9.325 2050.670    0.533   53.635
  301.000   12.376 2046.880    0.530   57.012
  301.250   15.244 2055.150    0.520   52.797
  301.500   15.837 2047.310    0.505   49.551
  301.750   16.463 2045.570    0.465   46.318
  302.000   17.444 2047.790    0.458   45.900
  302.250   17.469 2046.000    0.455   47.824
  302.500   17.821 2034.260    0.457   47.877
  302.750   18.531 2042.480    0.463   45.586
  303.000   18.541 2046.700    0.469   45.626
  303.250   17.229 2044.910    0.488   47.105
  303.500   15.693 2041.120    0.511   48.585
  303.750   12.777 2049.400    0.506   50.522
  304.000   11.218 2057.570    0.511   54.332
  304.250   10.618 2099.890    0.515   56.269
  304.500   10.427 2108.060    0.514   58.220
  304.750    9.870 2080.240    0.507   56.872
  305.000    8.997 2054.430    0.492   55.982
  305.250    8.671 2040.620    0.481   56.964
  305.500    8.519 2034.880    0.481   57.017
  305.750    9.026 2033.040    0.480   57.082
  306.000    9.383 2031.260    0.483   56.192
  306.250    9.391 2041.480    0.495   56.245
  306.500    9.230 2059.720    0.477   54.884
  306.750    9.068 2140.080    0.394   51.625
  307.000    9.076 2599.170    0.362   46.480
  307.250    9.090 2433.080    0.268   38.993
  307.500    9.273 2218.880    0.445   47.541
  307.750    9.108 2082.870    0.479   54.191
  308.000    8.621 2055.000    0.495   56.129
  308.250    8.161 2031.240    0.508   55.710
  308.500    7.866 2017.380    0.518   55.291
  308.750    7.444 2007.590    0.510   53.930
  309.000    7.316 2007.800    0.509   53.040
  309.250    7.186 2020.090    0.508   53.093
  309.500    7.062 2014.350    0.515   53.159
  309.750    7.069 2008.500    0.517   53.709
  310.000    6.947 2010.660    0.511   53.748
  310.250    6.957 2012.990    0.500   53.317
  310.500    6.961 2013.100    0.492   52.924
  310.750    6.840 2011.310    0.490   52.964
  311.000    6.722 2011.580    0.490   52.558
  311.250    6.605 2013.850    0.495   52.598
  311.500    6.252 2018.070    0.501   52.650
  311.750    6.139 2012.270    0.510   53.174
  312.000    5.921 2008.430    0.505   54.156
  312.250    5.816 2026.720    0.518   56.578
  312.500    5.609 2010.920    0.533   54.745
  312.750    5.511 2005.070    0.542   52.900
  313.000    5.518 2001.280    0.546   53.895
  313.250    5.524 1991.540    0.517   53.005
  313.500    5.428 2013.720    0.504   51.644
  313.750    5.235 2070.060    0.515   54.066
  314.000    5.048 2148.420    0.523   60.245
  314.250    4.866 2148.640    0.530   65.023
  314.500    4.355 2144.850    0.545   66.489
  314.750    4.276 2125.040    0.553   66.555
  315.000    3.972 2133.260    0.543   68.021
  315.250    3.831 2151.550    0.552   70.430
  315.500    3.833 2141.760    0.551   72.839
  315.750    3.697 2139.920    0.533   74.292
  316.000    3.633 2124.160    0.518   73.415
  316.250    3.569 2096.290    0.531   71.112
  316.500    3.508 2090.550    0.541   68.795
  316.750    3.511 2132.820    0.564   64.606
  317.000    3.511 2147.050    0.577   67.958
  317.250    2.917 2153.270    0.575   66.623
  317.500    2.759 2149.480    0.558   64.306
  317.750    2.710 2141.690    0.531   63.403
  318.000    2.714 2143.900    0.519   64.882
  318.250    2.718 2158.140    0.520   65.878
  318.500    2.722 2174.480    0.520   65.930
  318.750    2.724 2176.690    0.514   65.040
  319.000    2.727 2168.850    0.505   64.622
  319.250    2.729 2155.040    0.507   64.216
  319.500    2.733 2153.260    0.511   63.326
  319.750    2.737 2159.480    0.507   64.321
  320.000    2.740 2169.710    0.513   68.131
  320.250    2.744 2185.940    0.531   75.265
  320.500    2.746 2214.240    0.531   78.158
  320.750    2.749 2230.530    0.523   76.784
  321.000    2.701 2232.690    0.525   75.907
  321.250    2.655 2228.900    0.551   78.303
  321.500    2.609 2231.120    0.583   82.610
  321.750    2.612 2233.340    0.590   84.076
  322.000    2.565 2233.550    0.588   84.613
  322.250    2.569 2233.770    0.529   84.653
  322.500    2.572 2246.050    0.501   85.661
  322.750    2.575 2250.270    0.515   87.114
  323.000    2.578 2236.470    0.564   88.594
  323.250    2.580 2222.720    0.589   87.704
  323.500    2.535 2222.930    0.622   85.858
  323.750    2.491 2213.080    0.643   85.911
  324.000    2.402 2185.210    0.648   88.333
  324.250    2.191 2171.410    0.633   89.341
  324.500    2.073 2213.730    0.621   88.464
  324.750    1.961 2241.980    0.613   88.490
  325.000    1.855 2224.170    0.621   89.499
  325.250    1.823 2220.380    0.632   90.952
  325.500    1.825 2202.570    0.635   92.889
  325.750    1.794 2178.760    0.621   90.586
  326.000    1.795 2152.890    0.618   88.282
  326.250    1.764 2127.070    0.631   85.992
  326.500    1.766 2149.310    0.631   83.688
  326.750    1.802 2193.630    0.648   81.856
  327.000    1.804 2207.870    0.638   78.597
  327.250    1.806 2212.090    0.628   74.395
  327.500    1.808 2182.260    0.604   71.620
  327.750    1.744 2136.420    0.602   69.343
  328.000    1.713 2110.550    0.586   68.426
  328.250    1.652 2094.750    0.550   64.238
  328.500    1.563 2092.960    0.521   60.520
  328.750    1.535 2483.920    0.492   57.274
  329.000    1.426 2403.980    0.455   62.982
  329.250    1.427 2328.100    0.426   73.415
  329.500    1.513 2250.170    0.497   74.881
  329.750    1.573 2164.170    0.515   65.509
  330.000    1.574 2140.360    0.526   61.779
  330.250    1.490 2122.550    0.530   59.004
