~VERSION INFORMATION
 VERS.                 2.0:   CWLS LOG ASCII STANDARD -VERSION 2.0
 WRAP.                  NO:   ONE LINE PER DEPTH STEP
~WELL INFORMATION BLOCK
#MNEM.UNIT           DATA                    DESCRIPTION OF MNEMONIC
#---------    -------------------            -------------------------------
# Generated from Intellog Unique Number	CW_82_90/WELL/3064
WELL.         CHEVRON ET AL WABASCA          : Well_name    - WELL
LOC .         00/07-19-085-24W4/0            : Location     - LOCATION
UWI .         00/07-19-085-24W4/0            : Uwi          - UNIQUE WELL ID
ENTR.         JAYE                           : Entered      - ENTERED BY
SRVC.         SCHLUMBERGER                   : Scn          - SERVICE COMPANY
DATE.         26 FEB 73                      : Date         - LOG DATE
STRT.M        167.64                         : top_depth    - START DEPTH
STOP.M        365.64                         : bot_depth    - STOP DEPTH
STEP.M        0.25                           : increment    - STEP LENGTH
 NULL. -999.2500:NULL Value
~CURVE INFORMATION BLOCK
#MNEM UNIT       ERCB CURVE CODE    CURVE DESCRIPTION
#-----------   ------------------   ----------------------------------
DEPT.M        00 001 00 00         : DEPTH        - DEPTH
DPHI.V/V      00 890 00 00         : PHID         - DENSITY POROSITY (SANDSTONE)
ILD .OHMM     00 120 00 00         : RESD         - DEEP RESISTIVITY (DIL)
CALI.MM       00 280 01 00         : CAL          - CALIPER
GR  .API      00 310 00 00         : GR           - GAMMA RAY
NPHI.V/V      00 330 00 00         : PHIN         - NEUTRON POROSITY (SANDSTONE)
~PARAMETER INFORMATION
#MNEM.UNIT           DATA             DESCRIPTION OF MNEMONIC
#---------         -----------     ------------------------------
GL  .M        543.794              : gl           - GROUND LEVEL ELEVATION
EREF.M        546.08               : kb           - ELEVATION OF DEPTH REFERENCE
DATM.M        543.794              : datum        - DATUM ELEVATION
TDD .M        366.979              : tdd          - TOTAL DEPTH DRILLER
RUN .         ONE                  : Run          - RUN NUMBER
ENG .         SIROIS & SIMPSON     : Engineer     - RECORDING ENGINEER
WIT .         LEWIS                : Witness      - WITNESSED BY
BASE.         EDMONTON             : Branch       - HOME BASE OF LOGGING UNIT
MUD .         FGM                  : Mud_type     - MUD TYPE
MATR.         SANDSTONE            : Logunit      - NEUTRON MATRIX
TMAX.C        18.8889              : BHT          - MAXIMUM RECORDED TEMPERATURE
BHTD.M        366.979              : BHTDEP       - MAXIMUM RECORDED TEMPERATURE
RMT .C        -17.7778             : MDTP         - TEMPERATURE OF MUD
MUDD.KG/M     9400                 : MWT          - MUD DENSITY
NEUT.         1                    : NEUTRON      - NEUTRON TYPE
RESI.         0                    : RESIST       - RESISTIVITY TYPE
RM  .OHMM     0.25                 : RM           - RESISTIVITY OF MUD
RMC .OHMM     0.25                 : RMC          - RESISTIVITY OF MUD CAKE
RMF .OHMM     5.45                 : RMF          - RESISTIVITY OF MUD FILTRATE
SUFT.C        4                    : SUFT         - SURFACE TEMPERATURE
~A  DEPTH     PHID     RESD      CAL       GR     PHIN
# ...
  204.140    0.205    6.162  193.957   69.338    0.392
  204.390    0.156    6.319  198.264   63.566    0.342
  204.640    0.119    6.602  199.439   57.610    0.311
  204.890    0.086    6.973  197.282   60.308    0.363
  205.140    0.264    7.614  195.753   60.734    0.505
  205.390    0.304    8.161  195.475   56.681    0.526
  205.640    0.289    9.080  195.709   51.646    0.489
  205.890    0.245    9.803  196.161   47.101    0.468
  206.140    0.210   11.026  197.963   45.626    0.431
  206.390    0.157   12.196  200.705   44.886    0.367
  206.640    0.152   14.235  199.902   40.281    0.456
  206.890    0.271   15.771  199.101   39.357    0.502
  207.140    0.323   19.062  198.298   38.311    0.544
  207.390    0.322   24.039  197.395   38.002    0.542
  207.640    0.321   27.797  197.218   38.060    0.541
  207.890    0.326   29.580  197.560   37.014    0.549
  208.140    0.338   30.002  198.008   35.293    0.565
  208.390    0.340   28.683  197.726   36.702    0.556
  208.640    0.333   27.725  196.820   38.111    0.558
  208.890    0.340   27.259  193.624   39.152    0.555
  209.140    0.335   27.181  191.571   39.211    0.551
  209.390    0.327   26.915  192.123   38.717    0.546
  209.640    0.322   26.802  193.612   39.573    0.543
  209.890    0.319   26.883  195.626   40.369    0.534
  210.140    0.315   27.106  196.805   40.550    0.534
  210.390    0.312   27.444  197.565   41.775    0.528
  210.640    0.304   27.478  197.909   43.613    0.525
  210.890    0.297   27.105  197.420   44.716    0.522
  211.140    0.299   26.688  197.764   47.169    0.523
  211.390    0.303   26.279  198.526   46.184    0.525
  211.640    0.309   25.644  198.140   44.831    0.537
  211.890    0.318   25.071  198.802   45.872    0.546
  212.140    0.325   24.771  199.244   45.194    0.542
  212.390    0.327   24.571  198.131   43.534    0.550
  212.640    0.327   24.466  197.225   44.083    0.546
  212.890    0.325   24.676  196.427   43.099    0.545
  213.140    0.323   25.073  196.038   43.648    0.544
  213.390    0.322   25.624  195.134   45.733    0.538
  213.640    0.324   25.980  195.062   46.406    0.543
  213.890    0.327   26.301  195.820   46.587    0.545
  214.140    0.323   26.235  195.962   50.022    0.532
  214.390    0.313   25.174  196.202   55.174    0.523
  214.640    0.291   19.465  196.644   62.537    0.514
  214.890    0.256    9.644  199.281   69.224    0.435
  215.140    0.213    7.082  201.190   81.435    0.388
  215.390    0.164    5.415  201.639   91.314    0.401
  215.640    0.174    4.392  201.982   98.493    0.377
  215.890    0.191    3.563  202.021  100.208    0.421
  216.140    0.208    3.477  200.277  100.451    0.426
  216.390    0.200    3.488  198.015  100.080    0.416
  216.640    0.191    3.609  198.358   98.114    0.411
  216.890    0.193    3.920  199.536   99.093    0.408
  217.140    0.183    4.116  198.422  100.440    0.397
  217.390    0.164    4.381  197.726  100.684    0.389
  217.640    0.186    4.527  196.820  100.006    0.418
  217.890    0.188    4.548  195.915   98.285    0.416
  218.140    0.172    4.422  195.631   98.773    0.394
  218.390    0.188    4.321  195.661  100.243    0.418
  218.640    0.204    4.278  195.702  100.424    0.423
  218.890    0.202    4.283  196.039   99.318    0.428
  219.140    0.199    4.273  197.113   95.018    0.421
  219.390    0.196    4.333  197.456   86.915    0.413
  219.640    0.193    4.586  198.428   80.590    0.419
  219.890    0.187    4.843  200.021   78.132    0.409
  220.140    0.206    5.116  201.097   83.040    0.425
  220.390    0.221    5.286  201.855   91.630    0.444
  220.640    0.211    5.272  202.202   89.049    0.433
  220.890    0.212    5.096  202.341   86.162    0.436
  221.140    0.216    4.908  201.848   83.766    0.438
  221.390    0.226    4.816  199.690   81.553    0.447
  221.640    0.232    4.885  198.056   76.702    0.450
  221.890    0.229    5.074  200.596   78.541    0.418
  222.140    0.206    5.419  201.768   83.080    0.404
  222.390    0.168    5.831  202.010   86.084    0.395
  222.640    0.150    6.012  201.099   84.118    0.373
  222.890    0.128    5.889  198.735   78.960    0.333
  223.140    0.218    5.776  197.723   77.852    0.396
  223.390    0.249    6.180  196.404   77.850    0.455
  223.640    0.275    7.068  195.600   78.031    0.485
  223.890    0.300    8.262  195.214   76.617    0.512
  224.140    0.292   10.286  195.040   72.134    0.510
  224.390    0.289   11.696  195.174   65.626    0.509
  224.640    0.296   13.852  195.517   62.922    0.517
  224.890    0.300   16.256  195.762   64.024    0.518
  225.140    0.293   17.723  195.894   60.830    0.512
  225.390    0.287   18.243  195.821   57.145    0.504
  225.640    0.281   18.359  168.451   57.265    0.493
  225.890    0.280   18.415  178.377   63.523    0.508
  226.140    0.288   18.406  188.417   62.907    0.510
  226.390    0.287   18.259  179.275   66.525    0.502
  226.640    0.282   18.113  181.078   65.908    0.495
  226.890    0.284   17.865  177.044   62.653    0.514
  227.140    0.304   17.657  175.721   60.686    0.530
  227.390    0.313   17.203  181.696   61.788    0.529
  227.640    0.308   16.966  184.333   61.294    0.522
  227.890    0.304   16.707  184.154   61.844    0.522
  228.140    0.297   16.452  190.543   62.210    0.517
  228.390    0.285   16.285  194.330   61.778    0.505
  228.640    0.277   16.157  195.817   61.468    0.495
  228.890    0.280   16.205  196.272   61.405    0.500
  229.140    0.291   16.224  196.506   62.384    0.507
  229.390    0.304   16.273  196.542   64.222    0.521
  229.640    0.310   16.325  197.099   65.079    0.535
  229.890    0.309   16.375  198.386   65.322    0.523
  230.140    0.299   16.246  199.035   65.749    0.509
  230.390    0.281   16.144  198.857   66.850    0.499
  230.640    0.270   16.073  198.266   67.524    0.489
  230.890    0.262   15.827  197.773   68.380    0.486
  231.140    0.278   15.556  197.280   68.132    0.504
  231.390    0.279   15.179  196.703   67.823    0.493
  231.640    0.274   15.000  196.823   65.303    0.484
  231.890    0.258   14.826  196.963   66.222    0.479
  232.140    0.260   14.731  197.099   72.356    0.474
  232.390    0.254   14.401  197.031   71.188    0.465
  232.640    0.244   13.793  197.262   67.994    0.454
  232.890    0.234   12.778  198.442   68.359    0.439
  233.140    0.214   11.729  201.188   72.469    0.423
  233.390    0.193   10.322  201.944   75.534    0.455
  233.640    0.237    9.336  203.649   77.557    0.453
  233.890    0.229    8.460  204.935   75.406    0.455
  234.140    0.234    7.638  205.168   77.245    0.457
  234.390    0.237    6.858  204.677   74.972    0.459
  234.640    0.239    6.702  198.880   75.583    0.463
  234.890    0.238    6.748  196.195   79.079    0.459
  235.140    0.210    6.645  193.309   82.267    0.430
  235.390    0.184    6.399  195.009   84.965    0.413
  235.640    0.218    5.736  196.294   81.710    0.459
  235.890    0.242    5.404  196.737   77.902    0.461
  236.140    0.245    5.194  196.769   74.892    0.468
  236.390    0.255    5.173  194.929   69.243    0.475
  236.640    0.261    5.363  193.089   67.644    0.481
  236.890    0.269    5.738  192.385   67.948    0.486
  237.140    0.276    6.382  192.940   68.498    0.492
  237.390    0.278    7.217  193.912   63.708    0.491
  237.640    0.272    8.299  194.148   59.839    0.480
  237.890    0.254    9.473  193.770   59.345    0.455
  238.140    0.228   10.556  193.173   60.324    0.454
  238.390    0.318   11.762  192.995   61.304    0.529
  238.640    0.318   12.844  193.233   63.019    0.539
  238.890    0.308   13.172  194.099   60.071    0.529
  239.140    0.295   13.190  194.969   61.050    0.507
  239.390    0.282   12.938  194.998   61.907    0.497
  239.640    0.282   12.532  195.341   62.702    0.506
  239.890    0.305   12.319  195.167   58.956    0.535
  240.140    0.325   12.444  195.613   56.130    0.537
  240.390    0.321   13.269  194.502   56.987    0.542
