~VERSION INFORMATION
 VERS.                 2.0:   CWLS LOG ASCII STANDARD -VERSION 2.0
 WRAP.                  NO:   ONE LINE PER DEPTH STEP
~WELL INFORMATION BLOCK
#MNEM.UNIT           DATA                    DESCRIPTION OF MNEMONIC
#---------    -------------------            -------------------------------
# Generated from Intellog Unique Number	CS_67_68/WELL/2169
WELL.         CHIEFCO et al TWEEDIE          : Well_name    - WELL
LOC .         00/06-13-067-12W4/0            : Location     - LOCATION
UWI .         00/06-13-067-12W4/0            : Uwi          - UNIQUE WELL ID
ENTR.         SP                             : Entered      - ENTERED BY
SRVC.         SCHLUMBERGER                   : Scn          - SERVICE COMPANY
STRT.M        320                            : top_depth    - START DEPTH
STOP.M        525                            : bot_depth    - STOP DEPTH
STEP.M        0.25                           : increment    - STEP LENGTH
 NULL. -999.2500:NULL Value
~CURVE INFORMATION BLOCK
#MNEM UNIT       ERCB CURVE CODE    CURVE DESCRIPTION
#-----------   ------------------   ----------------------------------
DEPT.M        00 001 00 00         : DEPTH        - DEPTH
ILD .OHMM     00 120 00 00         : RESD         - DEEP RESISTIVITY (DIL)
DPHI.V/V      00 890 00 00         : PHID         - DENSITY POROSITY (LIMESTONE)
NPHI.V/V      00 330 00 00         : PHIN         - NEUTRON POROSITY (LIMESTONE)
GR  .API      00 310 00 00         : GR           - GAMMA RAY
CALI.MM       00 280 01 00         : CAL          - CALIPER
~PARAMETER INFORMATION
#MNEM.UNIT           DATA             DESCRIPTION OF MNEMONIC
#---------         -----------     ------------------------------
GL  .M        604.6                : gl           - GROUND LEVEL ELEVATION
EREF.M        607.6                : kb           - ELEVATION OF DEPTH REFERENCE
DATM.M        607.6                : datum        - DATUM ELEVATION
TDD .M        532                  : tdd          - TOTAL DEPTH DRILLER
RUN .         ONE                  : Run          - RUN NUMBER
ENG .         BILL                 : Engineer     - RECORDING ENGINEER
WIT .         JIM                  : Witness      - WITNESSED BY
MUD .         GEL                  : Mud_type     - MUD TYPE
MATR.         LIMESTONE            : Logunit      - NEUTRON MATRIX
TMAX.C        20                   : BHT          - MAXIMUM RECORDED TEMPERATURE
BHTD.M        529                  : BHTDEP       - MAXIMUM RECORDED TEMPERATURE
MATR.         1                    : LOGUNIT      - NEUTRON MATRIX
RMT .C        25                   : MDTP         - TEMPERATURE OF MUD
NEUT.         1                    : NEUTRON      - NEUTRON TYPE
RESI.         0                    : RESIST       - RESISTIVITY TYPE
RMC .OHMM     0.25                 : RMC          - RESISTIVITY OF MUD CAKE
RMF .OHMM     0.25                 : RMF          - RESISTIVITY OF MUD FILTRATE
SUFT.C        15                   : SUFT         - SURFACE TEMPERATURE
~A  DEPTH     RESD     PHID     PHIN       GR      CAL
# ...
  466.000    4.628    0.163    0.324   91.646  148.566
  466.250    3.897    0.171    0.333   88.153  148.351
  466.500    3.226    0.126    0.335   85.577  148.135
  466.750    2.737    0.067    0.326   82.267  148.227
  467.000    2.422    0.109    0.361   86.604  148.624
  467.250    2.062    0.191    0.440   89.657  149.837
  467.500    1.792    0.227    0.456   86.652  150.948
  467.750    1.569    0.248    0.439   83.220  151.345
  468.000    1.624    0.227    0.422   82.480  150.007
  468.250    1.706    0.213    0.410   82.595  148.774
  468.500    1.844    0.200    0.398   86.565  147.947
  468.750    1.872    0.188    0.388   91.757  147.629
  469.000    1.963    0.176    0.388   94.505  148.027
  469.250    2.044    0.171    0.386   96.640  148.832
  469.500    2.096    0.187    0.384   94.430  149.536
  469.750    2.113    0.203    0.382   92.956  150.646
  470.000    2.115    0.218    0.382   94.845  151.858
  470.250    2.141    0.230    0.385   96.247  153.174
  470.500    2.167    0.211    0.387   93.059  153.673
  470.750    2.214    0.183    0.384   94.948  153.457
  471.000    2.253    0.126    0.386   96.656  152.937
  471.250    2.307    0.144    0.393   97.995  152.518
  471.500    2.365    0.169    0.397   93.706  152.201
  471.750    2.439    0.173    0.398   92.048  151.884
  472.000    2.515    0.180    0.396   95.467  151.773
  472.250    2.589    0.190    0.389   99.376  151.558
  472.500    2.655    0.194    0.380  104.141  151.140
  472.750    2.687    0.191    0.371  107.193  150.822
  473.000    2.690    0.193    0.365   91.770  150.301
  473.250    2.717    0.201    0.359   88.950  149.883
  473.500    2.829    0.203    0.352   89.984  149.974
  473.750    2.922    0.202    0.345   92.363  149.964
  474.000    3.036    0.156    0.337   88.197  149.748
  474.250    3.131    0.111    0.328   85.070  149.124
  474.500    3.198    0.092    0.318   83.596  148.503
  474.750    3.262    0.150    0.310   83.772  147.777
  475.000    3.376    0.178    0.322   86.458  147.463
  475.250    3.547    0.193    0.333   88.348  146.738
  475.500    3.741    0.186    0.338   84.365  146.624
  475.750    3.885    0.168    0.331   84.603  146.714
  476.000    4.074    0.144    0.322   85.943  146.706
  476.250    4.280    0.139    0.317   78.902  146.897
  476.500    4.522    0.135    0.312   73.877  146.887
  476.750    4.698    0.131    0.309   71.180  146.674
  477.000    4.773    0.158    0.312   76.986  146.560
  477.250    4.611    0.178    0.322   80.649  146.550
  477.500    4.285    0.172    0.330   83.885  146.234
  477.750    3.974    0.123    0.326   79.291  146.121
  478.000    3.665    0.073    0.322   79.651  145.803
  478.250    3.324    0.055    0.319   86.741  145.793
  478.500    3.094    0.103    0.319   95.238  145.884
  478.750    2.880    0.154    0.336  103.795  146.179
  479.000    2.666    0.157    0.354  101.464  146.577
  479.250    2.538    0.132    0.369   97.665  147.278
  479.500    2.439    0.115    0.366  102.735  147.776
  479.750    2.400    0.129    0.361  106.400  148.480
  480.000    2.341    0.140    0.372  102.478  148.980
  480.250    2.304    0.133    0.380  100.943  149.683
  480.500    2.268    0.151    0.370  111.213  150.080
  480.750    2.271    0.170    0.366  115.489  150.680
  481.000    2.286    0.170    0.376  105.939  150.874
  481.250    2.300    0.147    0.388  106.543  150.863
  481.500    2.324    0.121    0.402  107.149  150.751
  481.750    2.343    0.115    0.415  100.904  150.434
  482.000    2.345    0.137    0.423  103.650  150.424
  482.250    2.361    0.151    0.418  107.436  149.698
  482.500    2.376    0.144    0.408  110.060  148.974
  482.750    2.410    0.102    0.400  103.386  148.556
  483.000    2.430    0.070    0.399   96.528  147.830
  483.250    2.450    0.080    0.393  102.088  147.412
  483.500    2.518    0.140    0.395  108.933  147.504
  483.750    2.675    0.174    0.403  113.393  147.492
  484.000    2.826    0.197    0.389   93.382  147.583
  484.250    2.974    0.199    0.371   79.550  147.878
  484.500    3.125    0.095    0.360   80.950  148.377
  484.750    3.228    0.116    0.349   91.160  148.877
  485.000    3.243    0.146    0.341  100.330  149.680
  485.250    3.295    0.172    0.354   94.451  150.282
  485.500    3.468    0.151    0.350   91.691  150.985
  485.750    3.684    0.122    0.336   98.659  151.281
  486.000    3.987    0.133    0.323  105.871  152.085
  486.250    4.405    0.124    0.314   82.496  152.074
  486.500    4.875    0.078    0.301   73.191  151.655
  486.750    5.396    0.024    0.281   67.495  150.932
  487.000    5.873    0.091    0.267   69.263  150.513
  487.250    6.112    0.125    0.257   75.679  150.094
  487.500    6.016    0.145    0.283   81.056  149.778
  487.750    5.601    0.164    0.304   86.617  149.256
  488.000    5.214    0.185    0.317   66.301  149.144
  488.250    5.000    0.210    0.325   42.681  148.624
  488.500    4.913    0.234    0.307   30.991  148.918
  488.750    4.827    0.255    0.289   43.035  148.806
  489.000    4.778    0.251    0.276   62.910  148.488
  489.250    4.818    0.225    0.270   66.146  147.762
  489.500    5.118    0.213    0.267   67.240  147.243
  489.750    5.498    0.196    0.263   63.074  146.826
  490.000    5.841    0.151    0.257   67.044  146.100
  490.250    6.171    0.122    0.271   83.432  146.091
  490.500    6.212    0.163    0.288   92.969  146.080
  490.750    5.750    0.151    0.303  100.670  146.068
  491.000    4.886    0.133    0.312   98.217  146.058
  491.250    4.015    0.131    0.313   71.784  146.455
  491.500    3.362    0.168    0.312   49.265  146.547
  491.750    2.932    0.227    0.308   35.250  146.638
  492.000    2.605    0.276    0.301   22.213  147.034
  492.250    2.324    0.298    0.294   31.933  147.431
  492.500    2.249    0.289    0.291   44.896  147.625
  492.750    2.622    0.284    0.283   63.670  147.307
  493.000    3.515    0.269    0.268   75.286  147.195
  493.250    4.391    0.238    0.265   77.666  147.082
  493.500    5.025    0.201    0.269   72.276  146.664
  493.750    5.399    0.155    0.271   77.957  146.551
  494.000    5.736    0.151    0.272   79.175  146.540
  494.250    5.730    0.150    0.272   77.578  146.120
  494.500    5.507    0.150    0.273   77.876  145.804
  494.750    5.359    0.151    0.273   78.360  145.488
  495.000    5.217    0.156    0.274   74.317  144.865
  495.250    5.125    0.166    0.271   66.479  144.649
  495.500    5.046    0.175    0.269   69.531  144.539
  495.750    5.022    0.175    0.270   75.215  144.628
  496.000    4.999    0.134    0.272   81.632  144.618
  496.250    4.921    0.140    0.276   82.237  144.709
  496.500    4.718    0.152    0.290   82.781  144.801
  496.750    4.272    0.173    0.300   72.620  144.688
  497.000    4.013    0.212    0.306   68.759  144.677
  497.250    3.723    0.235    0.309   71.872  144.971
  497.500    3.650    0.227    0.301   75.843  144.962
  497.750    3.653    0.216    0.295   73.572  144.951
  498.000    3.796    0.225    0.291   71.853  144.736
  498.250    3.914    0.219    0.288   66.340  144.927
  498.500    4.060    0.204    0.287   64.621  144.714
  498.750    4.218    0.189    0.284   66.573  144.500
  499.000    4.349    0.187    0.283   73.785  144.590
  499.250    4.518    0.176    0.300   84.912  144.580
  499.500    4.720    0.005    0.318  103.013  144.569
  499.750    4.903    0.025    0.331  112.916  144.661
  500.000    5.038    0.096    0.330  117.437  144.854
  500.250    5.108    0.132    0.316  122.018  144.944
  500.500    5.171    0.142    0.299  122.563  144.934
  500.750    5.186    0.149    0.287  109.892  145.229
  501.000    5.230    0.153    0.280   93.981  145.525
  501.250    5.264    0.157    0.278   86.450  145.718
  501.500    5.289    0.165    0.281   82.468  145.807
  501.750    5.293    0.177    0.283   84.969  145.592
  502.000    5.288    0.186    0.285   88.817  146.193
  502.250    5.293    0.176    0.291   93.336  146.488
