~VERSION INFORMATION
 VERS.                 2.0:   CWLS LOG ASCII STANDARD -VERSION 2.0
 WRAP.                  NO:   ONE LINE PER DEPTH STEP
~WELL INFORMATION BLOCK
#MNEM.UNIT           DATA                    DESCRIPTION OF MNEMONIC
#---------    -------------------            -------------------------------
# Generated from Intellog Unique Number	CS_73_76/WELL/2164
WELL.         PEX KIRBY                      : Well_name    - WELL
LOC .         00/06-15-074-08W4/0            : Location     - LOCATION
UWI .         00/06-15-074-08W4/0            : Uwi          - UNIQUE WELL ID
ENTR.         SP                             : Entered      - ENTERED BY
SRVC.         SCHLUMBERGER                   : Scn          - SERVICE COMPANY
STRT.M        305                            : top_depth    - START DEPTH
STOP.M        525                            : bot_depth    - STOP DEPTH
STEP.M        0.25                           : increment    - STEP LENGTH
 NULL. -999.2500:NULL Value
~CURVE INFORMATION BLOCK
#MNEM UNIT       ERCB CURVE CODE    CURVE DESCRIPTION
#-----------   ------------------   ----------------------------------
DEPT.M        00 001 00 00         : DEPTH        - DEPTH
ILD .OHMM     00 120 00 00         : RESD         - DEEP RESISTIVITY (DIL)
DPHI.V/V      00 890 00 00         : PHID         - DENSITY POROSITY (LIMESTONE)
NPHI.V/V      00 330 00 00         : PHIN         - NEUTRON POROSITY (LIMESTONE)
GR  .API      00 310 00 00         : GR           - GAMMA RAY
~PARAMETER INFORMATION
#MNEM.UNIT           DATA             DESCRIPTION OF MNEMONIC
#---------         -----------     ------------------------------
GL  .M        683.67               : gl           - GROUND LEVEL ELEVATION
EREF.M        686.87               : kb           - ELEVATION OF DEPTH REFERENCE
DATM.M        683.67               : datum        - DATUM ELEVATION
TDD .M        534                  : tdd          - TOTAL DEPTH DRILLER
RUN .         ONE                  : Run          - RUN NUMBER
ENG .         BILL                 : Engineer     - RECORDING ENGINEER
WIT .         JIM                  : Witness      - WITNESSED BY
MUD .         GEL                  : Mud_type     - MUD TYPE
MATR.         LIMESTONE            : Logunit      - NEUTRON MATRIX
TMAX.C        34                   : BHT          - MAXIMUM RECORDED TEMPERATURE
BHTD.M        534                  : BHTDEP       - MAXIMUM RECORDED TEMPERATURE
MATR.         1                    : LOGUNIT      - NEUTRON MATRIX
RMT .C        25                   : MDTP         - TEMPERATURE OF MUD
NEUT.         1                    : NEUTRON      - NEUTRON TYPE
RESI.         0                    : RESIST       - RESISTIVITY TYPE
RMC .OHMM     0.25                 : RMC          - RESISTIVITY OF MUD CAKE
RMF .OHMM     0.25                 : RMF          - RESISTIVITY OF MUD FILTRATE
SUFT.C        15                   : SUFT         - SURFACE TEMPERATURE
~A  DEPTH     RESD     PHID     PHIN       GR
# ...
  348.500   11.978    0.197    0.376  102.089
  348.750   13.171    0.204    0.367   99.623
  349.000   13.683    0.213    0.357   97.159
  349.250   13.946    0.225    0.348   95.314
  349.500   14.217    0.220    0.351   92.848
  349.750   14.493    0.212    0.359   91.001
  350.000   14.501    0.211    0.372   91.007
  350.250   14.782    0.224    0.385   89.777
  350.500   14.787    0.198    0.388   88.548
  350.750   14.791    0.167    0.384   86.084
  351.000   15.366    0.169    0.389   84.236
  351.250   15.664    0.185    0.385   83.625
  351.500   16.586    0.196    0.375   84.864
  351.750   17.230    0.164    0.369   84.868
  352.000   17.562    0.219    0.369   79.318
  352.250   18.947    0.260    0.372   72.533
  352.500   19.312    0.293    0.378   65.131
  352.750   20.064    0.324    0.374   60.197
  353.000   19.697    0.329    0.363   61.437
  353.250   19.334    0.322    0.358   66.379
  353.500   18.277    0.313    0.353   76.264
  353.750   17.940    0.297    0.357   79.971
  354.000   16.643    0.265    0.348   83.678
  354.250   16.033    0.247    0.343   85.534
  354.500   15.444    0.250    0.335   87.391
  354.750   15.163    0.257    0.335   91.101
  355.000   15.167    0.246    0.348   91.721
  355.250   15.757    0.245    0.367   83.085
  355.500   16.999    0.283    0.380   79.386
  355.750   17.659    0.304    0.386   80.625
  356.000   17.665    0.300    0.377   80.630
  356.250   17.343    0.283    0.369   79.400
  356.500   17.024    0.252    0.359   81.257
  356.750   16.400    0.229    0.349   80.027
  357.000   16.099    0.223    0.354   74.477
  357.250   15.802    0.231    0.360   74.482
  357.500   15.807    0.228    0.349   74.487
  357.750   15.519    0.204    0.343   75.110
  358.000   15.233    0.202    0.349   78.819
  358.250   14.957    0.204    0.349   79.439
  358.500   14.451    0.205    0.346   80.679
  358.750   14.141    0.226    0.362   83.154
  359.000   14.148    0.225    0.374   84.392
  359.250   14.151    0.208    0.368   86.251
  359.500   14.157    0.198    0.364   85.638
  359.750   14.432    0.215    0.374   82.557
  360.000   14.711    0.236    0.371   80.093
  360.250   15.001    0.237    0.378   78.862
  360.500   14.723    0.239    0.380   82.570
  360.750   14.727    0.232    0.374   88.131
  361.000   14.737    0.229    0.384   90.605
  361.250   14.465    0.251    0.390   86.289
  361.500   14.468    0.247    0.375   83.824
  361.750   14.203    0.231    0.362   84.446
  362.000   14.478    0.195    0.350   87.537
  362.250   15.619    0.174    0.349   88.161
  362.500   18.518    0.219    0.358   83.844
  362.750   20.746    0.258    0.368   73.972
  363.000   22.383    0.322    0.371   63.484
  363.250   23.251    0.332    0.361   56.700
  363.500   24.156    0.315    0.360   59.172
  363.750   24.623    0.309    0.374   60.413
  364.000   25.104    0.306    0.380   57.949
  364.250   25.111    0.306    0.380   56.718
  364.500   25.600    0.316    0.387   58.575
  364.750   25.608    0.325    0.375   59.199
  365.000   25.620    0.348    0.364   59.203
  365.250   25.624    0.342    0.368   58.591
  365.500   24.688    0.338    0.374   57.979
  365.750   23.779    0.335    0.365   57.984
  366.000   22.481    0.330    0.376   58.604
  366.250   21.251    0.319    0.391   61.080
  366.500   20.859    0.307    0.402   64.171
  366.750   19.351    0.312    0.393   64.793
  367.000   18.640    0.316    0.384   64.180
  367.250   17.622    0.305    0.372   62.334
  367.500   17.297    0.319    0.364   60.486
  367.750   16.351    0.312    0.374   62.960
  368.000   16.052    0.314    0.384   64.817
  368.250   16.056    0.337    0.377   62.970
  368.500   17.655    0.349    0.385   60.505
  368.750   18.688    0.357    0.387   61.129
  369.000   19.783    0.359    0.377   60.515
  369.250   20.552    0.354    0.371   55.582
  369.500   20.950    0.344    0.372   54.971
  369.750   21.764    0.341    0.381   56.828
  370.000   21.365    0.338    0.397   59.919
  370.250   19.084    0.213    0.406   62.392
  370.500   16.731    0.273    0.411   65.483
  370.750   15.813    0.294    0.403   67.957
  371.000   14.951    0.295    0.393   71.049
  371.250   14.675    0.294    0.394   71.055
  371.500   14.406    0.289    0.390   69.826
  371.750   14.144    0.288    0.378   69.211
  372.000   14.146    0.300    0.372   67.982
  372.250   13.373    0.304    0.375   67.372
  372.500   12.882    0.286    0.377   68.609
  372.750   12.647    0.289    0.376   69.848
  373.000   12.892    0.276    0.373   68.001
  373.250   14.999    0.259    0.380   66.773
  373.500   17.449    0.262    0.381   66.776
  373.750   20.687    0.299    0.370   58.756
  374.000   25.471    0.322    0.360   49.502
  374.250    8.001    0.326    0.357   43.953
  374.500   29.088    0.331    0.352   44.574
  374.750   29.652    0.313    0.346   47.048
  375.000   26.997    0.306    0.351   48.905
  375.250   26.003    0.324    0.355   50.145
  375.500   25.049    0.318    0.352   47.063
  375.750   24.130    0.306    0.355   45.833
  376.000   24.596    0.303    0.344   46.455
  376.250   25.552    0.311    0.341   48.933
  376.500   28.093    0.308    0.359   50.790
  376.750   29.182    0.318    0.376   52.646
  377.000   30.317    0.321    0.400   53.884
  377.250   29.206    0.323    0.392   55.739
  377.500   28.133    0.330    0.394   58.214
  377.750   26.593    0.337    0.403   60.070
  378.000   26.110    0.343    0.399   60.074
  378.250   25.629    0.351    0.394   57.612
  378.500   25.636    0.363    0.402   57.615
  378.750   25.645    0.365    0.394   62.560
  379.000   25.661    0.349    0.393   63.798
  379.250   25.671    0.343    0.394   60.099
  379.500   25.674    0.348    0.391   58.253
  379.750   25.685    0.338    0.381   56.405
  380.000   25.698    0.337    0.383   55.794
  380.250   25.704    0.333    0.381   57.034
  380.500   25.231    0.338    0.366   57.655
  380.750   24.771    0.340    0.381   58.276
  381.000   24.314    0.332    0.399   57.047
  381.250   24.324    0.328    0.389   58.288
  381.500   24.799    0.343    0.389   58.292
  381.750   24.806    0.362    0.397   57.679
  382.000   25.768    0.359    0.382   54.597
  382.250   27.280    0.343    0.374   53.368
  382.500   29.430    0.332    0.367   53.373
  382.750   31.748    0.324    0.356   53.995
  383.000   33.611    0.324    0.339   53.999
  383.250   33.622    0.201    0.312   54.004
  383.500   32.387    0.136    0.330   54.627
  383.750   30.047    0.346    0.347   55.868
  384.000   29.493    0.360    0.374   57.108
  384.250   27.884    0.341    0.383   57.111
  384.500   26.857    0.330    0.379   57.116
  384.750   25.389    0.344    0.379   57.738
  385.000   24.457    0.336    0.396   57.745
  385.250   24.467    0.322    0.387   57.748
  385.500   24.476    0.309    0.395   57.137
  385.750   24.485    0.308    0.403   56.523
  386.000   24.957    0.320    0.394   55.911
  386.250   24.968    0.323    0.385   54.681
  386.500   24.978    0.333    0.378   53.451
  386.750   24.987    0.340    0.373   52.222
  387.000   24.997    0.326    0.380   52.227
  387.250   24.537    0.310    0.387   54.700
  387.500   24.087    0.321    0.384   57.794
  387.750   23.204    0.323    0.368   58.414
  388.000   22.352    0.313    0.375   59.656
  388.250   21.531    0.310    0.375   59.659
  388.500   19.236    0.321    0.380   60.280
  388.750   18.182    0.328    0.390   62.754
  389.000   16.244    0.320    0.395   64.612
  389.250   15.646    0.314    0.391   62.764
  389.500   14.512    0.310    0.388   61.534
  389.750   12.964    0.307    0.390   64.626
  390.000   11.800    0.304    0.395   68.954
  390.250   10.151    0.303    0.393   70.809
  390.500    8.731    0.304    0.399   73.283
  390.750    7.097    0.308    0.402   73.287
  391.000    5.879    0.297    0.385   76.379
  391.250    5.153    0.293    0.385   81.324
  391.500    4.517    0.287    0.386   83.179
  391.750    4.190    0.262    0.389   87.506
