~VERSION INFORMATION
 VERS.                 2.0:   CWLS LOG ASCII STANDARD -VERSION 2.0
 WRAP.                  NO:   ONE LINE PER DEPTH STEP
~WELL INFORMATION BLOCK
#MNEM.UNIT           DATA                    DESCRIPTION OF MNEMONIC
#---------    -------------------            -------------------------------
# Generated from Intellog Unique Number	CN_91_93/WELL/2699
WELL.         07-14-091-18W4                 : Well_name    - WELL
LOC .         00/07-14-091-18W4/0            : Location     - LOCATION
UWI .         00/07-14-091-18W400            : Uwi          - UNIQUE WELL ID
ENTR.         JOETTE                         : Entered      - ENTERED BY
SRVC.         SCHLUMBERGER                   : Scn          - SERVICE COMPANY
DATE.         02/09/92                       : Date         - LOG DATE
STRT.M        100                            : top_depth    - START DEPTH
STOP.M        240                            : bot_depth    - STOP DEPTH
STEP.M        0.25                           : increment    - STEP LENGTH
 NULL. -999.2500:NULL Value
~CURVE INFORMATION BLOCK
#MNEM UNIT       ERCB CURVE CODE    CURVE DESCRIPTION
#-----------   ------------------   ----------------------------------
DEPT.M        00 001 00 00         : DEPTH        - DEPTH
GR  .API      00 310 00 00         : GR           - GAMMA RAY
CALI.MM       00 280 01 00         : CAL          - CALIPER
NPHI.V/V      00 330 00 00         : PHIN         - NEUTRON POROSITY (SANDSTONE)
DPHI.V/V      00 890 00 00         : PHID         - DENSITY POROSITY (SANDSTONE)
ILD .OHMM     00 120 00 00         : RESD         - DEEP RESISTIVITY (DIL)
~PARAMETER INFORMATION
#MNEM.UNIT           DATA             DESCRIPTION OF MNEMONIC
#---------         -----------     ------------------------------
GL  .M        507.02               : gl           - GROUND LEVEL ELEVATION
EREF.M        509.87               : kb           - ELEVATION OF DEPTH REFERENCE
DATM.M        509.87               : datum        - DATUM ELEVATION
TDD .M        248                  : tdd          - TOTAL DEPTH DRILLER
RUN .         ONE                  : Run          - RUN NUMBER
ENG .         JO                   : Engineer     - RECORDING ENGINEER
WIT .         TIM                  : Witness      - WITNESSED BY
MUD .         GEL                  : Mud_type     - MUD TYPE
MATR.         SANDSTONE            : Logunit      - NEUTRON MATRIX
TMAX.C        17                   : BHT          - MAXIMUM RECORDED TEMPERATURE
BHTD.M        248                  : BHTDEP       - MAXIMUM RECORDED TEMPERATURE
RMT .C        6                    : MDTP         - TEMPERATURE OF MUD
MUDD.KG/M     1050                 : MWT          - MUD DENSITY
NEUT.         1                    : NEUTRON      - NEUTRON TYPE
RESI.         0                    : RESIST       - RESISTIVITY TYPE
RM  .OHMM     7.92                 : RM           - RESISTIVITY OF MUD
RMC .OHMM     7.3                  : RMC          - RESISTIVITY OF MUD CAKE
RMF .OHMM     7.14                 : RMF          - RESISTIVITY OF MUD FILTRATE
SUFT.C        4                    : SUFT         - SURFACE TEMPERATURE
~A  DEPTH       GR      CAL     PHIN     PHID     RESD
# ...
  173.000   62.157  214.550    0.438    0.247   43.111
  173.250   63.383  214.587    0.425    0.245   43.111
  173.500   63.703  214.118    0.410    0.226   42.428
  173.750   62.818  213.645    0.405    0.221   42.097
  174.000   61.637  213.177    0.406    0.214   43.333
  174.250   63.763  213.720    0.398    0.199   45.038
  174.500   65.585  214.747    0.397    0.205   46.391
  174.750   66.207  216.786    0.397    0.215   46.014
  175.000   65.324  217.826    0.389    0.213   44.798
  175.250   62.939  218.365    0.387    0.181   43.216
  175.500   62.355  217.892    0.369    0.151   40.935
  175.750   62.675  217.925    0.346    0.154   39.477
  176.000   64.204  217.962    0.375    0.167   38.083
  176.250   65.726  217.991    0.397    0.177   40.339
  176.500   69.058  218.032    0.414    0.210   50.036
  176.750   71.783  218.061    0.443    0.279   52.983
  177.000   70.900  218.595    0.448    0.260   61.009
  177.250   67.310  218.632    0.431    0.219   69.624
  177.500   62.515  219.162    0.329    0.101   67.794
  177.750   60.133  219.697    0.229    0.045   61.825
  178.000   62.259  220.737    0.238    0.064   45.100
  178.250   65.586  222.784    0.246    0.137   29.691
  178.500   72.827  223.310    0.283    0.166   22.066
  178.750   82.179  224.354    0.302    0.207   18.336
  179.000   85.809  224.884    0.419    0.240   15.671
  179.250   86.130  225.415    0.436    0.217   14.432
  179.500   85.851  226.455    0.445    0.196   13.666
  179.750   88.577  227.499    0.420    0.158   14.072
  180.000   91.003  228.526    0.403    0.129   14.490
  180.250   91.023  229.069    0.399    0.089   14.490
  180.500   90.444  229.098    0.418    0.136   15.085
  180.750   98.286  229.135    0.428    0.169   16.120
  181.000   97.704  229.164    0.434    0.207   16.911
  181.250   95.620  228.198    0.445    0.201   17.089
  181.500   95.941  227.224    0.450    0.191   16.956
  181.750   94.153  227.261    0.432    0.175   16.513
  182.000   90.865  227.298    0.440    0.164   15.925
  182.250   91.487  227.832    0.445    0.193   15.507
  182.500   92.708  228.366    0.433    0.203   15.099
  182.750   93.033  228.901    0.449    0.198   15.119
  183.000   93.356  229.937    0.457    0.180   15.119
  183.250   93.973  230.475    0.463    0.140   15.591
  183.500   92.792  230.500    0.441    0.114   16.820
  183.750   93.416  231.034    0.441    0.179   17.320
  184.000   94.634  231.071    0.444    0.153   17.185
  184.250   93.152  231.112    0.434    0.118   16.275
  184.500   92.871  231.141    0.431    0.122   14.988
  184.750  101.917  230.669    0.453    0.183   14.320
  185.000  104.344  230.200    0.463    0.183   13.815
  185.250  101.959  230.200    0.449    0.176   13.707
  185.500   98.968  230.282    0.446    0.161   13.720
  185.750   95.379  230.311    0.444    0.120   13.739
  186.000   96.903  229.834    0.439    0.115   14.016
  186.250  103.244  229.370    0.435    0.169   14.165
  186.500  109.580  229.399    0.445    0.200   14.319
  186.750  113.213  228.429    0.443    0.210   14.475
  187.000  110.826  226.957    0.441    0.224   14.627
  187.250  105.733  226.994    0.437    0.216   15.345
  187.500  106.352  227.027    0.452    0.215   17.670
  187.750  103.062  227.064    0.451    0.204   19.427
  188.000   95.258  225.589    0.420    0.147   19.632
  188.250   86.552  222.111    0.379    0.106   19.292
  188.500   81.761  221.647    0.339    0.070   17.436
  188.750   84.486  224.688    0.268    0.039   15.473
  189.000   98.048  230.242    0.291    0.080   14.648
  189.250  111.908  232.778    0.313    0.132   14.129
  189.500  115.842  231.311    0.369    0.199   13.504
  189.750  115.260  228.840    0.435    0.208   13.027
  190.000  120.997  227.360    0.434    0.198   12.803
  190.250  118.910  224.886    0.439    0.209   11.464
  190.500  116.525  223.928    0.452    0.213   10.076
  190.750  116.244  223.452    0.468    0.195    9.195
  191.000  115.063  223.489    0.474    0.203    9.119
  191.250  106.352  223.522    0.478    0.184    9.837
  191.500   94.040  224.060    0.480    0.123   11.328
  191.750   94.055  224.089    0.406    0.092   12.222
  192.000  101.600  224.627    0.405    0.095   12.012
  192.250  112.752  224.660    0.435    0.173   11.376
  192.500  115.781  224.188    0.453    0.214   10.669
  192.750  117.308  224.225    0.444    0.209   10.198
  193.000  114.321  224.755    0.452    0.226   10.699
  193.250  101.398  225.289    0.461    0.240   12.205
  193.500   81.559  224.319    0.446    0.246   18.246
  193.750   53.897  220.344    0.256    0.258   33.800
  194.000   25.029  215.864    0.181    0.329   96.095
  194.250   22.040  213.891    0.190    0.373  118.109
  194.500   23.867  212.925    0.212    0.384  125.106
  194.750   25.389  212.962    0.216    0.372  114.109
  195.000   26.617  212.962    0.221    0.371   89.667
  195.250   26.035  213.020    0.232    0.378   67.264
  195.500   24.849  213.061    0.234    0.390   43.871
  195.750   23.668  213.061    0.277    0.365   27.316
  196.000   23.690  213.645    0.336    0.351   23.342
  196.250   23.707  213.657    0.391    0.313   20.325
  196.500   23.128  214.200    0.397    0.296   18.199
  196.750   22.548  214.200    0.402    0.314   17.721
  197.000   22.864  214.763    0.402    0.317   17.583
  197.250   22.585  214.796    0.406    0.324   18.274
  197.500   21.401  214.796    0.387    0.322   18.990
  197.750   21.720  214.866    0.380    0.308   20.872
  198.000   21.739  214.895    0.380    0.298   23.159
  198.250   19.954  214.426    0.369    0.261   24.984
  198.500   17.268  213.958    0.354    0.287   26.459
  198.750   19.697  213.999    0.347    0.300   27.758
  199.000   20.918  213.526    0.347    0.304   29.387
  199.250   20.339  213.062    0.351    0.300   32.005
  199.500   21.261  213.099    0.348    0.305   35.506
  199.750   22.783  213.127    0.356    0.310   42.842
  200.000   23.708  213.662    0.365    0.311   47.527
  200.250   24.031  216.202    0.362    0.313   58.425
  200.500   24.053  217.739    0.384    0.315   71.132
  200.750   24.369  217.781    0.406    0.320   92.469
  201.000   24.692  217.308    0.406    0.314  128.306
  201.250   24.411  214.833    0.399    0.316  146.374
  201.500   23.829  212.856    0.394    0.318  176.586
  201.750   23.247  209.395    0.394    0.323  254.327
  202.000   22.364  208.915    0.395    0.309  303.975
  202.250   21.784  209.453    0.385    0.297  328.037
  202.500   21.202  210.986    0.386    0.300  328.472
  202.750   21.222  212.528    0.369    0.320  325.857
  203.000   21.843  213.560    0.366    0.326  311.387
  203.250   23.368  214.110    0.381    0.331  273.764
  203.500   24.593  214.110    0.410    0.321  254.356
  203.750   26.419  214.168    0.431    0.328  234.209
  204.000   27.642  213.695    0.433    0.336  219.714
  204.250   29.163  213.695    0.430    0.332  211.957
  204.500   31.593  213.276    0.427    0.329  212.238
  204.750   33.420  212.298    0.427    0.325  224.736
  205.000   34.039  211.328    0.429    0.312  242.526
  205.250   34.064  209.856    0.428    0.312  251.984
  205.500   33.778  208.385    0.415    0.316  243.088
  205.750   33.502  207.912    0.405    0.308  211.666
  206.000   33.522  207.448    0.388    0.304  171.069
  206.250   34.143  207.481    0.388    0.300  142.153
  206.500   35.063  208.011    0.406    0.300  128.499
  206.750   36.590  209.051    0.411    0.299  133.532
  207.000   35.406  210.592    0.416    0.297  145.427
  207.250   36.028  210.625    0.414    0.316  161.333
  207.500   36.353  210.157    0.417    0.316  174.047
  207.750   34.863  209.183    0.415    0.304  167.930
  208.000   33.078  208.714    0.409    0.305  116.908
  208.250   31.896  208.751    0.400    0.307   94.485
  208.500   33.117  209.285    0.406    0.315   81.495
  208.750   35.246  210.321    0.400    0.321   66.470
  209.000   39.483  211.361    0.403    0.301   61.205
  209.250   42.507  212.393    0.401    0.296   61.286
