~VERSION INFORMATION
 VERS.                 2.0:   CWLS LOG ASCII STANDARD -VERSION 2.0
 WRAP.                  NO:   ONE LINE PER DEPTH STEP
~WELL INFORMATION BLOCK
#MNEM.UNIT           DATA                    DESCRIPTION OF MNEMONIC
#---------    -------------------            -------------------------------
# Generated from Intellog Unique Number	CX_WELLS/WELL/3000
WELL.         BRENDA ET AL DIVIDE            : Well_name    - WELL
LOC .         00/03-18-082-12W4/0            : Location     - LOCATION
UWI .         00/03-18-082-12W400            : Uwi          - UNIQUE WELL ID
ENTR.         T                              : Entered      - ENTERED BY
SRVC.         SCHLUMBERGER                   : Scn          - SERVICE COMPANY
STRT.M        225                            : top_depth    - START DEPTH
STOP.M        465                            : bot_depth    - STOP DEPTH
STEP.M        0.25                           : increment    - STEP LENGTH
 NULL. -999.2500:NULL Value
~CURVE INFORMATION BLOCK
#MNEM UNIT       ERCB CURVE CODE    CURVE DESCRIPTION
#-----------   ------------------   ----------------------------------
DEPT.M        00 001 00 00         : DEPTH        - DEPTH
GR  .API      00 310 00 00         : GR           - GAMMA RAY
NPHI.V/V      00 330 00 00         : PHIN         - NEUTRON POROSITY (SANDSTONE)
DPHI.V/V      00 890 00 00         : PHID         - DENSITY POROSITY (SANDSTONE)
ILD .OHMM     00 120 00 00         : RESD         - DEEP RESISTIVITY (OTHER)
~PARAMETER INFORMATION
#MNEM.UNIT           DATA             DESCRIPTION OF MNEMONIC
#---------         -----------     ------------------------------
GL  .M        677.8                : gl           - GROUND LEVEL ELEVATION
EREF.M        681.2                : kb           - ELEVATION OF DEPTH REFERENCE
DATM.M        681.2                : datum        - DATUM ELEVATION
TDD .M        474                  : tdd          - TOTAL DEPTH DRILLER
RUN .         ONE                  : Run          - RUN NUMBER
ENG .         BILL                 : Engineer     - RECORDING ENGINEER
WIT .         JIM                  : Witness      - WITNESSED BY
MUD .         GEL                  : Mud_type     - MUD TYPE
MATR.         SANDSTONE            : Logunit      - NEUTRON MATRIX
TMAX.C        21.1111              : BHT          - MAXIMUM RECORDED TEMPERATURE
BHTD.M        474                  : BHTDEP       - MAXIMUM RECORDED TEMPERATURE
MATR.         1                    : LOGUNIT      - NEUTRON MATRIX
RMT .C        22                   : MDTP         - TEMPERATURE OF MUD
NEUT.         1                    : NEUTRON      - NEUTRON TYPE
RESI.         3.8                  : RESIST       - RESISTIVITY TYPE
RMC .OHMM     4.68                 : RMC          - RESISTIVITY OF MUD CAKE
RMF .OHMM     4.68                 : RMF          - RESISTIVITY OF MUD FILTRATE
SUFT.C        4                    : SUFT         - SURFACE TEMPERATURE
~A  DEPTH       GR     PHIN     PHID     RESD
  225.000   99.012    0.559    0.282    3.075
  225.250   99.605    0.558    0.272    2.909
  225.500  100.198    0.555    0.268    2.856
  225.750  100.791    0.557    0.268    2.805
  226.000  100.791    0.561    0.270    2.859
  226.250  101.383    0.570    0.275    2.916
  226.500  101.976    0.579    0.289    2.917
  226.750  103.755    0.584    0.290    2.919
  227.000  103.755    0.564    0.288    2.866
  227.250  104.348    0.534    0.288    2.814
  227.500  103.755    0.529    0.288    2.764
  227.750  102.569    0.531    0.289    2.664
  228.000  100.791    0.539    0.289    2.665
  228.250   99.012    0.547    0.289    2.667
  228.500   96.640    0.546    0.287    2.771
  228.750   93.676    0.541    0.282    2.824
  229.000   90.712    0.542    0.277    2.933
  229.250   88.340    0.543    0.269    2.990
  229.500   91.304    0.534    0.266    3.107
  229.750   96.640    0.514    0.261    3.167
  230.000   99.012    0.505    0.258    3.229
  230.250   99.605    0.507    0.255    3.291
  230.500  100.198    0.502    0.253    3.418
  230.750  100.791    0.493    0.253    3.618
  231.000  100.198    0.481    0.254    3.830
  231.250  101.976    0.467    0.254    3.905
  231.500  104.348    0.469    0.248    3.907
  231.750  106.719    0.484    0.243    3.982
  232.000  107.905    0.500    0.242    4.060
  232.250  106.126    0.525    0.242    4.140
  232.500  102.569    0.516    0.240    4.141
  232.750   99.605    0.491    0.237    4.144
  233.000   99.605    0.495    0.235    4.070
  233.250  101.383    0.494    0.240    4.072
  233.500  101.976    0.490    0.243    3.999
  233.750  101.976    0.502    0.244    4.001
  234.000  101.976    0.506    0.251    4.003
  234.250  101.976    0.499    0.260    4.080
  234.500  101.976    0.495    0.255    4.160
  234.750  101.976    0.483    0.249    4.243
  235.000  100.198    0.473    0.235    4.244
  235.250   97.233    0.499    0.205    4.246
  235.500   91.304    0.481    0.175    4.248
  235.750   88.933    0.489    0.113    4.331
  236.000   99.012    0.513    0.205    4.334
  236.250  101.383    0.519    0.226    4.418
  236.500  100.791    0.497    0.228    4.338
  236.750  100.791    0.493    0.241    4.261
  237.000  101.383    0.491    0.253    4.183
  237.250  101.383    0.491    0.265    4.265
  237.500  101.976    0.500    0.265    4.430
  237.750  101.976    0.507    0.260    4.960
  238.000  101.976    0.507    0.258    5.553
  238.250  100.791    0.493    0.255    6.334
  238.500   94.269    0.443    0.255    7.360
  238.750   82.411    0.387    0.256   10.912
  239.000   78.261    0.389    0.258   11.988
  239.250   77.075    0.379    0.283   14.465
  239.500   76.482    0.336    0.293   23.119
  239.750   75.296    0.290    0.293   24.004
  240.000   71.146    0.265    0.296   26.374
  240.250   62.846    0.289    0.407   26.392
  240.500   55.731    0.320    0.413   25.913
  240.750   56.324    0.383    0.394   24.061
  241.000   56.324    0.367    0.135   22.334
  241.250   55.138    0.307    0.078   19.605
  241.500   56.917    0.380    0.085   17.863
  241.750   64.032    0.415    0.146   15.678
  242.000   69.368    0.412    0.308   14.285
  242.250   72.925    0.406    0.309   12.538
  242.500   74.111    0.402    0.327   13.776
  242.750   69.368    0.403    0.345   14.855
  243.000   65.810    0.403    0.331   14.319
  243.250   62.846    0.407    0.313   13.543
  243.500   63.439    0.413    0.305   12.111
  243.750   74.111    0.418    0.296   10.830
  244.000   81.818    0.404    0.290    8.986
  244.250   89.526    0.394    0.279    7.741
  244.500   94.269    0.397    0.266    8.045
  244.750   94.269    0.442    0.253    8.199
  245.000   93.083    0.498    0.258    8.517
  245.250  110.870    0.527    0.327    9.014
  245.500  118.577    0.565    0.385    9.188
  245.750  127.470    0.645    0.521    9.368
  246.000  122.727    0.649    0.559    9.549
  246.250  107.905    0.597    0.410    9.734
  246.500   94.862    0.460    0.367   10.498
  246.750  106.719    0.451    0.347   11.111
  247.000  110.870    0.477    0.347   11.541
  247.250  107.312    0.503    0.355   11.988
  247.500   95.454    0.525    0.390   12.454
  247.750   84.190    0.379    0.296   12.934
  248.000   59.881    0.347    0.296   13.689
  248.250   58.103    0.341    0.302   15.329
  248.500   64.032    0.355    0.308   16.221
  248.750   64.624    0.374    0.310   17.167
  249.000   64.624    0.378    0.326   17.177
  249.250   65.810    0.386    0.343   16.559
  249.500   66.403    0.397    0.349   16.259
  249.750   68.775    0.398    0.351   15.964
  250.000   70.553    0.392    0.319   15.102
  250.250   71.146    0.392    0.308   13.763
  250.500   71.739    0.392    0.308   13.511
  250.750   73.518    0.390    0.309   12.543
  251.000   74.704    0.387    0.304   11.431
  251.250   76.482    0.384    0.298   10.417
  251.500   79.447    0.391    0.289    9.852
  251.750   82.411    0.397    0.281    9.496
  252.000   85.376    0.399    0.272    9.500
  252.250   86.561    0.401    0.261    9.506
  252.500   88.340    0.402    0.254    9.875
  252.750   90.119    0.414    0.253   10.066
  253.000   89.526    0.410    0.256   10.455
  253.250   84.783    0.397    0.266   11.489
  253.500   77.075    0.392    0.284   12.625
  253.750   72.925    0.385    0.296   13.612
  254.000   71.739    0.385    0.309   14.141
  254.250   77.668    0.389    0.299   13.885
  254.500   79.447    0.389    0.287   13.386
  254.750   78.854    0.396    0.292   13.389
  255.000   77.075    0.404    0.316   13.908
  255.250   75.889    0.416    0.324   14.446
  255.500   74.704    0.403    0.331   16.177
  255.750   74.111    0.395    0.344   16.800
  256.000   74.704    0.391    0.346   17.451
  256.250   75.296    0.398    0.338   19.176
  256.500   75.296    0.403    0.333   19.547
  256.750   74.704    0.402    0.328   19.927
  257.000   73.518    0.399    0.324   19.941
  257.250   74.704    0.398    0.322   19.949
  257.500   76.482    0.399    0.319   19.593
  257.750   78.261    0.402    0.316   19.603
  258.000   80.040    0.409    0.315   18.899
  258.250   82.411    0.404    0.310   18.556
  258.500   85.968    0.398    0.304   18.569
  258.750   90.119    0.405    0.298   18.925
  259.000   92.490    0.413    0.301   19.296
  259.250   93.676    0.416    0.314   19.671
  259.500   91.897    0.416    0.328   20.054
  259.750   83.597    0.417    0.344   20.444
  260.000   82.411    0.411    0.352   20.455
  260.250   85.376    0.407    0.344   20.469
  260.500   87.154    0.413    0.338   20.483
  260.750   87.154    0.416    0.334   20.109
  261.000   87.154    0.410    0.332   20.120
  261.250   87.747    0.407    0.327   20.134
  261.500   88.340    0.411    0.319   20.142
  261.750   86.561    0.417    0.299   20.154
  262.000   75.296    0.420    0.284   20.551
  262.250   65.810    0.417    0.273   20.181
  262.500   56.917    0.400    0.270   19.085
  262.750   46.245    0.364    0.278   16.137
  263.000   36.759    0.356    0.292   11.745
  263.250   36.166    0.347    0.311    8.549
  263.500   50.395    0.332    0.334    7.646
  263.750   83.597    0.363    0.323    7.232
  264.000   98.419    0.403    0.273    6.970
  264.250  102.569    0.434    0.167    6.845
  264.500  106.126    0.451    0.167    6.849
  264.750  110.870    0.446    0.175    6.853
  265.000  114.427    0.435    0.188    6.856
  265.250  117.391    0.440    0.199    6.732
  265.500  120.949    0.446    0.205    6.736
  265.750  119.170    0.457    0.203    6.615
  266.000  116.798    0.474    0.197    6.619
  266.250  114.427    0.482    0.197    6.624
  266.500  112.648    0.473    0.192    6.504
  266.750  113.241    0.465    0.176    6.154
  267.000  116.206    0.475    0.167    5.929
  267.250  118.577    0.488    0.180    5.609
  267.500  120.356    0.492    0.197    5.208
  267.750  118.577    0.490    0.202    4.925
  268.000  116.798    0.491    0.204    4.488
  268.250  117.391    0.497    0.211    4.575
