~VERSION INFORMATION
 VERS.                 2.0:   CWLS LOG ASCII STANDARD -VERSION 2.0
 WRAP.                  NO:   ONE LINE PER DEPTH STEP
~WELL INFORMATION BLOCK
#MNEM.UNIT           DATA                    DESCRIPTION OF MNEMONIC
#---------    -------------------            -------------------------------
# Generated from Intellog Unique Number	CW_70_72/WELL/468
NULL.         -999.25                        : NULL_VALUE
WELL.         GLOBAL CALLING LAKE SOUTH 05-0 : Well_name    - WELL              
LOC .         05-06-071-21W4                 : Location     - LOCATION          
UWI .         00/05-06-071-21W4/0            : Uwi          - UNIQUE WELL ID    
ENTR.         JAYE                           : Entered      - ENTERED BY        
SRVC.         SCHLUMBERGER                   : Scn          - SERVICE COMPANY   
DATE.         13 MAR 83                      : Date         - LOG DATE          
STRT.M        432                            : top_depth    - START DEPTH       
STOP.M        620                            : bot_depth    - STOP DEPTH        
STEP.M        0.25                           : increment    - STEP LENGTH       
~CURVE INFORMATION BLOCK
#MNEM UNIT       ERCB CURVE CODE    CURVE DESCRIPTION
#-----------   ------------------   ----------------------------------
DEPT.M        00 001 00 00         : DEPTH        - DEPTH                       
DPHI.V/V      00 890 00 00         : PHID         - DENSITY POROSITY (SANDSTONE)
NPHI.V/V      00 330 00 00         : PHIN         - NEUTRON POROSITY (SANDSTONE)
GR  .API      00 310 00 00         : GR           - GAMMA RAY                   
CALI.MM       00 280 01 00         : CAL          - CALIPER                     
ILD .OHMM     00 120 00 00         : RESD         - DEEP RESISTIVITY (DIL)      
~PARAMETER INFORMATION       
#MNEM.UNIT           DATA             DESCRIPTION OF MNEMONIC
#---------         -----------     ------------------------------
GL  .M        681.1                : gl           - GROUND LEVEL ELEVATION      
EREF.M        685.6                : kb           - ELEVATION OF DEPTH REFERENCE
DATM.M        681.1                : datum        - DATUM ELEVATION             
TDD .M        622                  : tdd          - TOTAL DEPTH DRILLER         
RUN .         ONE                  : Run          - RUN NUMBER                  
ENG .         DUNLOP               : Engineer     - RECORDING ENGINEER          
WIT .         LOWTHER              : Witness      - WITNESSED BY                
BASE.         EDM                  : Branch       - HOME BASE OF LOGGING UNIT   
MUD .         GEL CHEM             : Mud_type     - MUD TYPE                    
MATR.         SANDSTONE            : Logunit      - NEUTRON MATRIX              
TMAX.C        20.6                 : BHT          - MAXIMUM RECORDED TEMPERATURE
BHTD.M        622.5                : BHTDEP       - MAXIMUM RECORDED TEMPERATURE
RMT .C        22.8                 : MDTP         - TEMPERATURE OF MUD          
MUDD.KG/M     1110                 : MWT          - MUD DENSITY                 
NEUT.         1                    : NEUTRON      - NEUTRON TYPE                
RESI.         0                    : RESIST       - RESISTIVITY TYPE            
RM  .OHMM     4.22                 : RM           - RESISTIVITY OF MUD          
RMC .OHMM     0                    : RMC          - RESISTIVITY OF MUD CAKE     
RMF .OHMM     2.83                 : RMF          - RESISTIVITY OF MUD FILTRATE 
SUFT.C        0                    : SUFT         - SURFACE TEMPERATURE         
~A  DEPTH     PHID     PHIN       GR      CAL     RESD
# ...
  468.500    0.292    0.400   86.560  153.082    6.428
  468.750    0.256    0.401   84.200  153.532    7.486
  469.000    0.229    0.371   81.150  153.986    8.883
  469.250    0.193    0.352   77.352  154.018   10.698
  469.500    0.164    0.313   74.613  154.050   12.161
  469.750    0.131    0.265   70.687  153.456   13.318
  470.000    0.074    0.194   66.700  152.861   14.316
  470.250    0.054    0.218   74.235  151.544   14.229
  470.500    0.114    0.295   77.889  150.322   12.578
  470.750    0.150    0.326   80.291  149.730   10.259
  471.000    0.208    0.358   84.192  149.659    7.942
  471.250    0.249    0.386   88.471  149.584    5.238
  471.500    0.272    0.418   90.684  149.727    4.377
  471.750    0.270    0.412   91.771  150.803    3.949
  472.000    0.267    0.418   94.232  151.463    3.789
  472.250    0.254    0.435   97.697  151.494    3.738
  472.500    0.234    0.446   97.904  150.691    3.757
  472.750    0.243    0.436   98.175  148.641    3.812
  473.000    0.257    0.427  100.890  148.256    3.882
  473.250    0.250    0.428  100.720  149.229    3.960
  473.500    0.240    0.436   99.238  151.041    4.041
  473.750    0.226    0.453  100.765  152.530    4.100
  474.000    0.213    0.468  102.159  153.608    4.128
  474.250    0.221    0.470  101.679  154.168    4.133
  474.500    0.266    0.445   95.687  154.411    4.040
  474.750    0.278    0.434   87.566  154.648    3.913
  475.000    0.281    0.417   82.888  154.791    3.809
  475.250    0.270    0.409   85.912  154.826    3.744
  475.500    0.255    0.407   95.391  154.963    3.799
  475.750    0.235    0.416  101.738  155.096    3.964
  476.000    0.206    0.433  105.201  155.238    4.128
  476.250    0.197    0.416  101.966  155.266    4.330
  476.500    0.205    0.412  100.419  155.201    4.603
  476.750    0.204    0.415  103.821  155.333    4.811
  477.000    0.200    0.423  104.531  155.685    5.010
  477.250    0.194    0.439   97.913  156.342    4.990
  477.500    0.186    0.433   99.121  157.522    4.859
  477.750    0.181    0.441  103.338  159.441    4.757
  478.000    0.181    0.465  106.491  159.993    4.711
  478.250    0.179    0.457  103.066  159.611    4.691
  478.500    0.167    0.447  100.705  158.809    4.681
  478.750    0.185    0.434  102.103  158.427    4.627
  479.000    0.192    0.429  102.624  158.044    4.539
  479.250    0.184    0.433  102.082  157.657    4.395
  479.500    0.181    0.448  103.731  156.648    4.200
  479.750    0.186    0.462  104.501  155.016    4.144
  480.000    0.178    0.453  100.889  153.789    4.244
  480.250    0.191    0.440   96.713  152.469    4.329
  480.500    0.239    0.434   93.099  152.287    4.368
  480.750    0.236    0.427   97.003  153.578    4.374
  481.000    0.224    0.445  100.594  155.696    4.259
  481.250    0.221    0.489  105.750  157.294    4.117
  481.500    0.231    0.495  106.898  159.001    4.032
  481.750    0.223    0.468   99.590  157.676    3.925
  482.000    0.255    0.482   91.341  155.835    3.794
  482.250    0.318    0.470   80.714  154.510    3.647
  482.500    0.309    0.393   62.007  153.391    3.546
  482.750    0.295    0.385   61.590  151.967    3.471
  483.000    0.289    0.413   64.552  150.956    3.367
  483.250    0.325    0.435   63.007  149.953    3.225
  483.500    0.335    0.450   57.077  149.567    3.123
  483.750    0.330    0.426   56.159  150.431    3.023
  484.000    0.327    0.416   56.051  151.510    2.945
  484.250    0.328    0.410   54.632  152.377    2.873
  484.500    0.330    0.425   52.585  153.140    2.850
  484.750    0.326    0.432   50.226  153.798    2.843
  485.000    0.319    0.424   49.182  154.567    2.858
  485.250    0.319    0.420   50.079  155.019    2.899
  485.500    0.325    0.418   51.914  154.841    2.937
  485.750    0.330    0.415   55.254  154.142    2.973
  486.000    0.332    0.413   52.392  152.610    3.027
  486.250    0.331    0.438   50.284  150.555    3.066
  486.500    0.324    0.425   52.622  150.700    3.100
  486.750    0.326    0.420   53.895  152.295    3.058
  487.000    0.332    0.417   53.664  154.000    2.966
  487.250    0.335    0.412   52.869  153.925    2.825
  487.500    0.337    0.405   53.139  152.915    2.715
  487.750    0.339    0.419   54.789  151.070    2.634
  488.000    0.339    0.437   57.192  149.852    2.588
  488.250    0.339    0.432   59.275  149.790    2.540
  488.500    0.340    0.427   61.426  150.130    2.515
  488.750    0.335    0.445   58.313  150.997    2.486
  489.000    0.334    0.467   59.024  152.388    2.453
  489.250    0.338    0.448   61.048  153.673    2.433
  489.500    0.341    0.433   62.761  154.853    2.409
  489.750    0.344    0.425   63.217  156.036    2.382
  490.000    0.352    0.412   64.116  155.024    2.367
  490.250    0.356    0.398   64.448  151.300    2.348
  490.500    0.348    0.426   62.588  148.831    2.330
  490.750    0.339    0.425   58.099  149.804    2.324
  491.000    0.325    0.418   57.618  152.032    2.323
  491.250    0.338    0.409   60.645  153.733    2.322
  491.500    0.345    0.402   63.045  154.704    2.317
  491.750    0.348    0.413   58.368  154.433    2.316
  492.000    0.351    0.418   56.133  153.943    2.332
  492.250    0.345    0.424   59.035  153.871    2.406
  492.500    0.324    0.433   59.620  153.797    2.533
  492.750    0.304    0.435   57.070  154.148    2.623
  493.000    0.253    0.429   57.218  154.286    2.637
  493.250    0.278    0.413   59.680  154.633    2.597
  493.500    0.312    0.427   64.335  154.561    2.547
  493.750    0.337    0.447   67.359  154.594    2.509
  494.000    0.344    0.439   66.129  154.523    2.498
  494.250    0.346    0.415   60.575  154.447    2.507
  494.500    0.336    0.410   57.150  154.170    2.514
  494.750    0.340    0.421   57.544  152.743    2.504
  495.000    0.348    0.423   59.381  151.524    2.489
  495.250    0.351    0.430   59.526  151.139    2.479
  495.500    0.347    0.442   62.493  151.587    2.477
  495.750    0.345    0.437   64.141  152.668    2.467
  496.000    0.345    0.433   62.280  153.644    2.448
  496.250    0.346    0.449   62.804  154.413    2.437
  496.500    0.345    0.444   63.823  154.960    2.432
  496.750    0.340    0.437   63.783  155.307    2.417
  497.000    0.343    0.426   62.426  155.653    2.407
  497.250    0.341    0.437   61.003  155.897    2.388
  497.500    0.331    0.450   57.580  156.138    2.374
  497.750    0.322    0.448   55.661  156.065    2.376
  498.000    0.336    0.444   55.113  155.370    2.362
  498.250    0.346    0.433   56.449  154.256    2.361
  498.500    0.350    0.426   60.855  153.458    2.356
  498.750    0.348    0.454   62.879  153.487    2.358
  499.000    0.342    0.459   61.834  154.046    2.362
  499.250    0.341    0.448   59.976  154.389    2.365
  499.500    0.343    0.439   58.554  153.169    2.370
  499.750    0.348    0.429   58.889  150.596    2.372
  500.000    0.352    0.416   61.037  150.418    2.375
  500.250    0.342    0.416   64.565  152.232    2.379
  500.500    0.335    0.426   58.949  153.305    2.373
  500.750    0.328    0.433   55.210  154.493    2.398
  501.000    0.330    0.442   54.353  154.523    2.424
  501.250    0.328    0.455   55.939  154.555    2.464
  501.500    0.327    0.463   58.025  154.169    2.504
  501.750    0.328    0.455   61.868  153.685    2.513
  502.000    0.342    0.444   64.080  153.192    2.507
  502.250    0.351    0.444   65.790  152.601    2.492
  502.500    0.346    0.454   68.253  152.425    2.469
  502.750    0.346    0.457   69.656  152.562    2.462
  503.000    0.343    0.448   69.297  152.387    2.461
  503.250    0.332    0.434   65.557  153.364    2.450
  503.500    0.333    0.418   61.758  154.228    2.426
  503.750    0.337    0.412   57.518  155.623    2.376
  504.000    0.334    0.410   54.594  156.494    2.348
  504.250    0.335    0.414   53.739  156.837    2.343
  504.500    0.346    0.425   56.265  156.870    2.368
  504.750    0.350    0.427   57.663  156.905    2.453
