~VERSION INFORMATION
 VERS.                 2.0:   CWLS LOG ASCII STANDARD -VERSION 2.0
 WRAP.                  NO:   ONE LINE PER DEPTH STEP
~WELL INFORMATION BLOCK
#MNEM.UNIT           DATA                    DESCRIPTION OF MNEMONIC
#---------    -------------------            -------------------------------
# Generated from Intellog Unique Number	CS_73_76/WELL/2175
WELL.         BOW VALLEY INDUSTRIES LTD.     : Well_name    - WELL
LOC .         00/07-20-074-13W4/0            : Location     - LOCATION
UWI .         00/07-20-074-13W4/0            : Uwi          - UNIQUE WELL ID
ENTR.         SP                             : Entered      - ENTERED BY
SRVC.         SCHLUMBERGER                   : Scn          - SERVICE COMPANY
STRT.M        370                            : top_depth    - START DEPTH
STOP.M        605                            : bot_depth    - STOP DEPTH
STEP.M        0.25                           : increment    - STEP LENGTH
 NULL. -999.2500:NULL Value
~CURVE INFORMATION BLOCK
#MNEM UNIT       ERCB CURVE CODE    CURVE DESCRIPTION
#-----------   ------------------   ----------------------------------
DEPT.M        00 001 00 00         : DEPTH        - DEPTH
ILD .OHMM     00 120 00 00         : RESD         - DEEP RESISTIVITY (DIL)
DPHI.V/V      00 890 00 00         : PHID         - DENSITY POROSITY (LIMESTONE)
NPHI.V/V      00 330 00 00         : PHIN         - NEUTRON POROSITY (LIMESTONE)
GR  .API      00 310 00 00         : GR           - GAMMA RAY
~PARAMETER INFORMATION
#MNEM.UNIT           DATA             DESCRIPTION OF MNEMONIC
#---------         -----------     ------------------------------
GL  .M        728.69               : gl           - GROUND LEVEL ELEVATION
EREF.M        732.14               : kb           - ELEVATION OF DEPTH REFERENCE
DATM.M        728.69               : datum        - DATUM ELEVATION
TDD .M        610                  : tdd          - TOTAL DEPTH DRILLER
RUN .         ONE                  : Run          - RUN NUMBER
ENG .         BILL                 : Engineer     - RECORDING ENGINEER
WIT .         JIM                  : Witness      - WITNESSED BY
MUD .         GEL                  : Mud_type     - MUD TYPE
MATR.         LIMESTONE            : Logunit      - NEUTRON MATRIX
TMAX.C        24                   : BHT          - MAXIMUM RECORDED TEMPERATURE
BHTD.M        610                  : BHTDEP       - MAXIMUM RECORDED TEMPERATURE
MATR.         1                    : LOGUNIT      - NEUTRON MATRIX
RMT .C        25                   : MDTP         - TEMPERATURE OF MUD
NEUT.         1                    : NEUTRON      - NEUTRON TYPE
RESI.         0                    : RESIST       - RESISTIVITY TYPE
RMC .OHMM     0.25                 : RMC          - RESISTIVITY OF MUD CAKE
RMF .OHMM     0.25                 : RMF          - RESISTIVITY OF MUD FILTRATE
SUFT.C        15                   : SUFT         - SURFACE TEMPERATURE
~A  DEPTH     RESD     PHID     PHIN       GR
# ...
  544.000    2.494    0.190    0.522   92.215
  544.250    2.687    0.186    0.527   91.609
  544.500    2.842    0.186    0.518   91.609
  544.750    3.006    0.178    0.485   92.217
  545.000    3.829    0.179    0.485   92.218
  545.250    5.877    0.193    0.472   92.219
  545.500    8.067    0.186    0.458   87.968
  545.750   10.277    0.143    0.475   75.823
  546.000   12.615    0.094    0.306   62.464
  546.250   14.373    0.101    0.276   58.213
  546.500   16.074    0.196    0.328   61.251
  546.750   16.687    0.238    0.359   64.895
  547.000   16.079    0.255    0.372   66.718
  547.250   15.495    0.228    0.387   69.755
  547.500   15.496    0.212    0.392   72.185
  547.750   15.498    0.208    0.395   71.578
  548.000   15.791    0.222    0.393   69.757
  548.250   16.393    0.220    0.404   67.936
  548.500   16.703    0.186    0.395   67.937
  548.750   17.018    0.155    0.374   67.937
  549.000   17.668    0.157    0.360   65.509
  549.250   18.002    0.192    0.376   60.651
  549.500   18.003    0.214    0.364   63.689
  549.750   18.690    0.230    0.355   72.192
  550.000   19.043    0.231    0.352   83.731
  550.250   19.404    0.228    0.354   88.590
  550.500   19.407    0.248    0.406   88.591
  550.750   19.409    0.267    0.417   85.555
  551.000   18.357    0.281    0.406   84.948
  551.250   16.728    0.282    0.410   84.949
  551.500   14.962    0.279    0.409   86.772
  551.750   12.893    0.273    0.410   92.238
  552.000   10.905    0.243    0.400   97.097
  552.250    9.398    0.169    0.388   97.098
  552.500    8.888    0.172    0.378   94.062
  552.750    8.251    0.187    0.372   93.456
  553.000    7.950    0.152    0.387   91.634
  553.250    7.520    0.141    0.406   89.206
  553.500    7.246    0.141    0.388   96.494
  553.750    6.726    0.166    0.377  103.782
  554.000    6.129    0.186    0.389  108.034
  554.250    6.017    0.173    0.421  109.250
  554.500    6.131    0.191    0.434  109.250
  554.750    6.484    0.181    0.441  108.036
  555.000    8.261    0.191    0.449  106.823
  555.250   10.525    0.204    0.432  101.965
  555.500   12.217    0.212    0.438   85.569
  555.750   12.920    0.215    0.412   78.282
  556.000   13.665    0.133    0.358   80.712
  556.250   14.185    0.184    0.372   81.320
  556.500   15.003    0.212    0.402   81.321
  556.750   15.866    0.242    0.408   77.678
  557.000   17.096    0.249    0.405   71.606
  557.250   18.081    0.258    0.412   69.784
  557.500   18.768    0.276    0.392   69.178
  557.750   18.425    0.265    0.372   69.786
  558.000   17.105    0.252    0.357   71.609
  558.250   16.177    0.241    0.347   74.038
  558.500   15.881    0.225    0.346   75.861
  558.750   15.591    0.220    0.348   75.254
  559.000   15.023    0.232    0.357   75.863
  559.250   14.475    0.231    0.363   77.685
  559.500   14.211    0.210    0.348   80.115
  559.750   13.693    0.196    0.358   80.723
  560.000   12.247    0.203    0.374   80.724
  560.250   11.369    0.227    0.366   81.939
  560.500   10.555    0.215    0.366   83.154
  560.750   10.171    0.200    0.369   81.941
  561.000   10.558    0.209    0.389   77.083
  561.250   12.029    0.209    0.402   72.833
  561.500   12.487    0.203    0.385   69.190
  561.750   11.810    0.230    0.352   72.834
  562.000   10.762    0.202    0.331   81.944
  562.250    9.991    0.163    0.335   87.411
  562.500    8.937    0.177    0.347   89.233
  562.750    8.296    0.164    0.358   89.841
  563.000    8.144    0.155    0.371   86.198
  563.250    7.421    0.173    0.382   79.519
  563.500    7.019    0.197    0.399   74.661
  563.750    6.516    0.212    0.394   79.520
  564.000    6.163    0.070    0.408   90.452
  564.250    5.938    0.005    0.432   86.809
  564.500    6.051    0.000    0.439   89.239
  564.750    6.767    0.052    0.360   99.564
  565.000    7.291    0.111    0.389   95.921
  565.250    8.154    0.167    0.425   91.063
  565.500    9.465    0.185    0.428   81.955
  565.750   10.585    0.252    0.402   72.846
  566.000    9.468    0.268    0.406   69.203
  566.250    8.954    0.273    0.386   66.167
  566.500    8.160    0.295    0.389   66.775
  566.750    8.630    0.307    0.408   67.991
  567.000    9.652    0.304    0.400   67.991
  567.250   10.207    0.281    0.400   66.170
  567.500   10.400    0.258    0.391   67.386
  567.750   10.597    0.227    0.377   68.601
  568.000   10.402    0.237    0.381   71.031
  568.250    9.839    0.269    0.396   73.461
  568.500    8.322    0.272    0.416   75.283
  568.750    7.039    0.273    0.428   80.142
  569.000    7.040    0.275    0.427   89.252
  569.250    7.728    0.238    0.405   92.290
  569.500    8.022    0.209    0.399   90.469
  569.750    8.174    0.219    0.408   91.684
  570.000    8.024    0.227    0.409   95.328
  570.250    7.590    0.229    0.406  100.187
  570.500    7.178    0.178    0.403  103.832
  570.750    6.664    0.155    0.393  105.655
  571.000    6.421    0.155    0.394  108.084
  571.250    6.304    0.174    0.398  109.907
  571.500    6.423    0.172    0.397  108.086
  571.750    6.544    0.172    0.393  105.658
  572.000    6.669    0.163    0.404  104.444
  572.250    6.923    0.157    0.399  108.696
  572.500    7.186    0.178    0.392  110.518
  572.750    7.889    0.187    0.398  110.519
  573.000    8.343    0.177    0.397  103.232
  573.250    8.823    0.158    0.373   90.480
  573.500    9.331    0.185    0.360   79.549
  573.750    9.869    0.191    0.353   74.692
  574.000   10.244    0.226    0.360   74.085
  574.250   10.834    0.198    0.371   74.086
  574.500   11.039    0.174    0.363   73.479
  574.750   11.248    0.179    0.390   72.873
  575.000   10.970    0.215    0.370   71.025
  575.250    9.810    0.228    0.368   75.361
  575.500    8.453    0.233    0.364   79.693
  575.750    7.993    0.180    0.373   84.622
  576.000    7.558    0.186    0.386   79.147
  576.250    6.886    0.221    0.402   74.903
  576.500    6.273    0.238    0.388   69.430
  576.750    5.507    0.231    0.382   55.393
  577.000    4.573    0.241    0.387   46.857
  577.250    4.014    0.259    0.384   39.559
  577.500    3.524    0.270    0.367   40.226
  577.750    3.271    0.288    0.361   42.086
  578.000    3.269    0.257    0.346   48.253
  578.250    3.521    0.242    0.335   56.247
  578.500    4.083    0.226    0.328   72.207
  578.750    4.735    0.193    0.347   95.511
  579.000    4.913    0.152    0.363  104.119
  579.250    5.291    0.154    0.373   82.122
  579.500    5.804    0.207    0.371   53.387
  579.750    6.856    0.228    0.369   57.114
  580.000    7.114    0.266    0.366   61.434
  580.250    7.245    0.292    0.369   68.822
  580.500    6.600    0.290    0.380   72.532
  580.750    6.358    0.276    0.392   71.953
  581.000    6.239    0.280    0.383   68.933
  581.250    6.123    0.259    0.376   70.209
  581.500    6.353    0.253    0.370   73.919
  581.750    6.714    0.230    0.360   79.468
  582.000    6.966    0.201    0.349   85.017
  582.250    7.095    0.158    0.346   86.894
  582.500    7.225    0.152    0.353   80.808
  582.750    7.223    0.169    0.340   73.505
  583.000    7.221    0.191    0.319   72.929
  583.250    7.218    0.178    0.313   83.990
  583.500    7.084    0.155    0.356   79.757
  583.750    7.082    0.175    0.371   74.276
  584.000    6.950    0.201    0.365   69.422
  584.250    6.693    0.195    0.366   68.247
  584.500    6.569    0.202    0.371   68.900
  584.750    6.212    0.243    0.369   70.779
  585.000    5.982    0.245    0.360   72.647
  585.250    5.871    0.231    0.362   75.743
  585.500    5.870    0.220    0.361   78.244
  585.750    5.868    0.216    0.355   79.502
  586.000    5.976    0.208    0.358   79.543
  586.250    5.974    0.191    0.366   81.417
  586.500    6.083    0.209    0.358   88.196
  586.750    6.082    0.184    0.350   97.423
  587.000    6.194    0.167    0.359  104.809
  587.250    6.308    0.189    0.351  110.355
