~VERSION INFORMATION
 VERS.                 2.0:   CWLS LOG ASCII STANDARD -VERSION 2.0
 WRAP.                  NO:   ONE LINE PER DEPTH STEP
~WELL INFORMATION BLOCK
#MNEM.UNIT           DATA                    DESCRIPTION OF MNEMONIC
#---------    -------------------            -------------------------------
# Generated from Intellog Unique Number	CS_73_76/WELL/699
WELL.         PEX KIRBY                      : Well_name    - WELL
LOC .         00/06-34-073-08W4/0            : Location     - LOCATION
UWI .         00/06-34-073-08W4/0            : Uwi          - UNIQUE WELL ID
ENTR.         SP                             : Entered      - ENTERED BY
SRVC.         SCHLUMBERGER                   : Scn          - SERVICE COMPANY
STRT.M        325                            : top_depth    - START DEPTH
STOP.M        550                            : bot_depth    - STOP DEPTH
STEP.M        0.25                           : increment    - STEP LENGTH
 NULL. -999.2500:NULL Value
~CURVE INFORMATION BLOCK
#MNEM UNIT       ERCB CURVE CODE    CURVE DESCRIPTION
#-----------   ------------------   ----------------------------------
DEPT.M        00 001 00 00         : DEPTH        - DEPTH
ILD .OHMM     00 120 00 00         : RESD         - DEEP RESISTIVITY (DIL)
DPHI.V/V      00 890 00 00         : PHID         - DENSITY POROSITY (LIMESTONE)
NPHI.V/V      00 330 00 00         : PHIN         - NEUTRON POROSITY (LIMESTONE)
GR  .API      00 310 00 00         : GR           - GAMMA RAY
~PARAMETER INFORMATION
#MNEM.UNIT           DATA             DESCRIPTION OF MNEMONIC
#---------         -----------     ------------------------------
GL  .M        705.44               : gl           - GROUND LEVEL ELEVATION
EREF.M        708.84               : kb           - ELEVATION OF DEPTH REFERENCE
DATM.M        705.44               : datum        - DATUM ELEVATION
TDD .M        555                  : tdd          - TOTAL DEPTH DRILLER
RUN .         ONE                  : Run          - RUN NUMBER
ENG .         BILL                 : Engineer     - RECORDING ENGINEER
WIT .         JIM                  : Witness      - WITNESSED BY
MUD .         GEL                  : Mud_type     - MUD TYPE
MATR.         LIMESTONE            : Logunit      - NEUTRON MATRIX
TMAX.C        20                   : BHT          - MAXIMUM RECORDED TEMPERATURE
BHTD.M        555                  : BHTDEP       - MAXIMUM RECORDED TEMPERATURE
MATR.         1                    : LOGUNIT      - NEUTRON MATRIX
RMT .C        25                   : MDTP         - TEMPERATURE OF MUD
NEUT.         1                    : NEUTRON      - NEUTRON TYPE
RESI.         0                    : RESIST       - RESISTIVITY TYPE
RMC .OHMM     0.25                 : RMC          - RESISTIVITY OF MUD CAKE
RMF .OHMM     0.25                 : RMF          - RESISTIVITY OF MUD FILTRATE
SUFT.C        15                   : SUFT         - SURFACE TEMPERATURE
~A  DEPTH     RESD     PHID     PHIN       GR
# ...
  412.000    2.745    0.224    0.451   92.769
  412.250    2.745    0.222    0.427   93.375
  412.500    3.073    0.224    0.415   90.305
  412.750    3.375    0.230    0.404   89.077
  413.000    4.070    0.235    0.379   86.009
  413.250    5.003    0.249    0.368   81.106
  413.500    5.598    0.251    0.366   77.426
  413.750    6.753    0.249    0.371   81.092
  414.000    7.011    0.234    0.364   84.760
  414.250    7.701    0.227    0.353   85.366
  414.500    7.703    0.232    0.373   82.911
  414.750    7.705    0.237    0.382   81.070
  415.000    7.563    0.240    0.375   82.899
  415.250    7.565    0.224    0.369   84.729
  415.500    7.428    0.221    0.364   82.887
  415.750    7.429    0.211    0.358   82.881
  416.000    7.430    0.206    0.348   85.323
  416.250    7.294    0.200    0.342   85.930
  416.500    7.027    0.208    0.358   86.535
  416.750    6.282    0.221    0.368   86.530
  417.000    5.513    0.235    0.376   83.463
  417.250    5.213    0.249    0.391   81.621
  417.500    4.837    0.256    0.408   82.225
  417.750    4.489    0.227    0.423   86.506
  418.000    4.245    0.209    0.432   88.336
  418.250    4.014    0.220    0.421   85.269
  418.500    3.868    0.211    0.425   82.201
  418.750    3.797    0.200    0.427   88.316
  419.000    3.727    0.203    0.429   92.597
  419.250    3.659    0.203    0.434   96.876
  419.500    3.592    0.188    0.448   98.707
  419.750    3.461    0.181    0.448   99.927
  420.000    3.273    0.195    0.440   96.858
  420.250    3.212    0.208    0.430   94.403
  420.500    3.154    0.210    0.415   94.398
  420.750    3.214    0.211    0.406   92.554
  421.000    3.665    0.215    0.402   92.548
  421.250    4.764    0.204    0.398   89.481
  421.500    5.433    0.191    0.394   85.801
  421.750    6.079    0.196    0.387   83.958
  422.000    6.677    0.200    0.384   83.953
  422.250    7.758    0.202    0.377   84.559
  422.500    8.208    0.200    0.367   80.878
  422.750    8.364    0.202    0.375   79.035
  423.000    8.367    0.205    0.397   77.194
  423.250    8.369    0.210    0.414   79.025
  423.500    8.215    0.217    0.388   80.243
  423.750    8.066    0.224    0.390   77.788
  424.000    8.067    0.225    0.379   80.230
  424.250    8.068    0.215    0.371   82.673
  424.500    8.070    0.210    0.363   84.505
  424.750    7.923    0.216    0.363   84.498
  425.000    7.925    0.210    0.377   83.879
  425.250    7.926    0.204    0.369   82.648
  425.500    7.928    0.209    0.360   82.031
  425.750    7.931    0.215    0.365   82.636
  426.000    7.932    0.214    0.357   83.855
  426.250    7.787    0.199    0.356   84.462
  426.500    7.502    0.202    0.366   84.454
  426.750    7.365    0.188    0.374   84.448
  427.000    7.230    0.180    0.385   85.666
  427.250    7.098    0.179    0.373   87.497
  427.500    6.967    0.178    0.365   87.492
  427.750    6.968    0.175    0.374   88.099
  428.000    6.971    0.173    0.388   87.480
  428.250    6.843    0.172    0.396   86.249
  428.500    6.844    0.170    0.396   88.688
  428.750    6.719    0.175    0.407   89.908
  429.000    6.720    0.187    0.395   90.517
  429.250    6.597    0.185    0.401   86.837
  429.500    6.476    0.191    0.393   89.890
  429.750    6.240    0.197    0.378   91.723
  430.000    6.011    0.195    0.387   88.043
  430.250    5.177    0.190    0.401   90.486
  430.500    4.542    0.197    0.389   89.255
  430.750    3.985    0.196    0.400   86.800
  431.000    3.497    0.207    0.415   91.079
  431.250    3.126    0.219    0.434   94.135
  431.500    2.794    0.213    0.423   92.291
  431.750    2.692    0.225    0.394   91.061
  432.000    2.796    0.230    0.408   92.891
  432.250    3.014    0.207    0.404   94.721
  432.500    3.249    0.191    0.390   95.329
  432.750    3.568    0.196    0.387   95.935
  433.000    4.304    0.206    0.387   95.317
  433.250    4.553    0.213    0.410   92.248
  433.500    5.096    0.208    0.395   87.956
  433.750    5.704    0.214    0.375   86.115
  434.000    5.923    0.214    0.372   84.271
  434.250    6.150    0.229    0.370   81.815
  434.500    6.268    0.240    0.375   79.972
  434.750    6.387    0.239    0.367   76.905
  435.000    6.509    0.228    0.359   75.063
  435.250    6.510    0.241    0.353   73.221
  435.500    6.636    0.235    0.370   75.664
  435.750    6.762    0.230    0.372   79.942
  436.000    6.763    0.224    0.370   81.160
  436.250    6.765    0.207    0.386   81.768
  436.500    6.767    0.233    0.392   79.313
  436.750    6.642    0.264    0.376   77.468
  437.000    6.770    0.278    0.378   77.464
  437.250    6.771    0.273    0.384   76.845
  437.500    7.032    0.262    0.382   79.899
  437.750    7.033    0.253    0.365   82.953
  438.000    7.168    0.216    0.356   84.785
  438.250    7.169    0.197    0.363   86.005
  438.500    7.170    0.220    0.355   82.324
  438.750    7.307    0.227    0.344   77.421
  439.000    7.309    0.234    0.346   77.415
  439.250    7.311    0.238    0.353   75.571
  439.500    7.312    0.239    0.359   73.116
  439.750    7.314    0.238    0.347   74.946
  440.000    7.316    0.225    0.359   78.001
  440.250    7.317    0.202    0.366   79.220
  440.500    7.319    0.190    0.355   79.827
  440.750    7.321    0.191    0.359   79.208
  441.000    7.462    0.200    0.346   79.815
  441.250    7.463    0.206    0.348   78.583
  441.500    7.606    0.187    0.341   76.741
  441.750    7.898    0.191    0.326   79.182
  442.000    7.899    0.201    0.331   79.178
  442.250    7.755    0.196    0.345   79.172
  442.500    7.471    0.193    0.349   83.448
  442.750    7.065    0.193    0.351   85.281
  443.000    6.806    0.193    0.362   87.726
  443.250    6.437    0.190    0.381   86.493
  443.500    6.319    0.188    0.393   84.650
  443.750    6.203    0.192    0.383   84.645
  444.000    5.977    0.189    0.410   81.579
  444.250    5.978    0.185    0.424   82.183
  444.500    5.979    0.201    0.425   84.013
  444.750    5.980    0.209    0.390   84.620
  445.000    5.982    0.215    0.377   84.615
  445.250    6.096    0.221    0.382   85.221
  445.500    6.097    0.210    0.390   81.542
  445.750    6.333    0.230    0.377   77.248
  446.000    6.575    0.239    0.373   76.019
  446.250    6.700    0.257    0.391   73.562
  446.500    6.957    0.265    0.377   73.558
  446.750    7.091    0.250    0.373   72.940
  447.000    7.227    0.245    0.365   77.217
  447.250    7.366    0.240    0.362   77.826
  447.500    7.647    0.238    0.365   76.595
  447.750    7.649    0.240    0.373   75.362
  448.000    7.509    0.250    0.392   75.969
  448.250    7.511    0.257    0.413   76.575
  448.500    7.512    0.249    0.385   77.181
  448.750    7.514    0.248    0.390   77.174
  449.000    7.376    0.246    0.398   76.557
  449.250    7.107    0.244    0.378   75.325
  449.500    6.006    0.234    0.372   75.321
  449.750    4.982    0.222    0.373   77.764
  450.000    3.834    0.217    0.365   80.206
  450.250    3.180    0.217    0.365   80.200
  450.500    3.007    0.232    0.401   82.642
  450.750    3.123    0.244    0.419   85.086
  451.000    3.304    0.236    0.408   86.304
  451.250    3.911    0.231    0.400   87.523
  451.500    4.630    0.221    0.404   85.068
  451.750    5.690    0.222    0.408   83.836
  452.000    7.397    0.222    0.401   83.832
  452.250    8.278    0.264    0.383   80.152
  452.500    9.264    0.298    0.361   72.799
  452.750   10.175    0.283    0.364   69.119
  453.000   11.176    0.240    0.368   69.113
  453.250   12.048    0.185    0.339   67.269
  453.500   12.050    0.083    0.319   65.427
  453.750    9.810    0.142    0.323   67.868
  454.000    8.291    0.189    0.343   69.701
  454.250    7.274    0.228    0.369   72.756
  454.500    6.382    0.253    0.379   77.034
  454.750    5.923    0.249    0.372   80.090
  455.000    5.815    0.232    0.381   81.920
  455.250    5.817    0.205    0.373   83.140
