~VERSION INFORMATION
 VERS.                 2.0:   CWLS LOG ASCII STANDARD -VERSION 2.0
 WRAP.                  NO:   ONE LINE PER DEPTH STEP
~WELL INFORMATION BLOCK
#MNEM.UNIT           DATA                    DESCRIPTION OF MNEMONIC
#---------    -------------------            -------------------------------
# Generated from Intellog Unique Number	CW_79_81/WELL/2459
WELL.         07-20-081-22W4                 : Well_name    - WELL
LOC .         00/07-20-081-22W4/0            : Location     - LOCATION
UWI .         00/07-20-081-22W4/0            : Uwi          - UNIQUE WELL ID
ENTR.         MAX                            : Entered      - ENTERED BY
SRVC.         SCHLUMBERGER                   : Scn          - SERVICE COMPANY
STRT.M        225                            : top_depth    - START DEPTH
STOP.M        439.75                         : bot_depth    - STOP DEPTH
STEP.M        0.25                           : increment    - STEP LENGTH
 NULL. -999.2500:NULL Value
~CURVE INFORMATION BLOCK
#MNEM UNIT       ERCB CURVE CODE    CURVE DESCRIPTION
#-----------   ------------------   ----------------------------------
DEPT.M        00 001 00 00         : DEPTH        - DEPTH
ILD .OHMM     00 120 00 00         : RESD         - DEEP RESISTIVITY (DIL)
NPHI.V/V      00 330 00 00         : PHIN         - NEUTRON POROSITY (SANDSTONE)
DPHI.V/V      00 890 00 00         : PHID         - DENSITY POROSITY (SANDSTONE)
GR  .API      00 310 00 00         : GR           - GAMMA RAY
CALI.MM       00 280 01 00         : CAL          - CALIPER
~PARAMETER INFORMATION
#MNEM.UNIT           DATA             DESCRIPTION OF MNEMONIC
#---------         -----------     ------------------------------
GL  .M        606.19               : gl           - GROUND LEVEL ELEVATION
EREF.M        609.8                : kb           - ELEVATION OF DEPTH REFERENCE
DATM.M        606.19               : datum        - DATUM ELEVATION
TDD .M        449                  : tdd          - TOTAL DEPTH DRILLER
RUN .         ONE                  : Run          - RUN NUMBER
ENG .         BILL                 : Engineer     - RECORDING ENGINEER
WIT .         JIM                  : Witness      - WITNESSED BY
MUD .         GEL                  : Mud_type     - MUD TYPE
MATR.         SANDSTONE            : Logunit      - NEUTRON MATRIX
TMAX.C        28                   : BHT          - MAXIMUM RECORDED TEMPERATURE
BHTD.M        449                  : BHTDEP       - MAXIMUM RECORDED TEMPERATURE
MATR.         1                    : LOGUNIT      - NEUTRON MATRIX
RMT .C        16                   : MDTP         - TEMPERATURE OF MUD
NEUT.         1                    : NEUTRON      - NEUTRON TYPE
RESI.         0                    : RESIST       - RESISTIVITY TYPE
RMC .OHMM     5                    : RMC          - RESISTIVITY OF MUD CAKE
RMF .OHMM     5                    : RMF          - RESISTIVITY OF MUD FILTRATE
SUFT.C        -20                  : SUFT         - SURFACE TEMPERATURE
~A  DEPTH     RESD     PHIN     PHID       GR      CAL
# ...
  261.500    4.509    0.526    0.342   85.433  185.110
  261.750    4.844    0.504    0.363   81.392  181.144
  262.000    5.576    0.478    0.425   77.945  176.388
  262.250    7.906    0.454    0.385   77.552  162.942
  262.500   10.910    0.438    0.366   76.805  155.103
  262.750   13.508    0.427    0.363   74.899  155.885
  263.000   16.047    0.417    0.363   76.198  156.072
  263.250   17.020    0.414    0.360   76.905  156.457
  263.500   15.931    0.415    0.355   75.179  156.941
  263.750   13.910    0.416    0.339   71.087  156.534
  264.000   13.087    0.421    0.316   70.833  156.525
  264.250   12.892    0.423    0.301   68.691  156.120
  264.500   13.268    0.430    0.304   68.152  156.010
  264.750   14.252    0.443    0.318   67.196  156.592
  265.000   15.826    0.455    0.331   65.232  157.373
  265.250   18.383    0.443    0.325   62.644  156.884
  265.500   22.863    0.437    0.319   60.411  156.464
  265.750   26.960    0.431    0.328   60.407  154.474
  266.000   29.312    0.427    0.339   60.579  151.596
  266.250   30.192    0.426    0.346   60.336  149.806
  266.500   30.126    0.430    0.347   59.677  149.599
  266.750   28.975    0.439    0.344   59.244  150.231
  267.000   27.674    0.430    0.337   59.485  151.457
  267.250   27.061    0.421    0.341   58.292  156.985
  267.500   26.761    0.425    0.338   57.278  158.359
  267.750   26.754    0.428    0.336   56.442  158.547
  268.000   26.894    0.426    0.338   55.368  159.030
  268.250   26.803    0.429    0.340   53.077  159.646
  268.500   26.388    0.427    0.339   52.328  158.811
  268.750   25.615    0.421    0.342   53.271  158.801
  269.000   25.564    0.418    0.341   54.393  158.494
  269.250   25.747    0.417    0.340   55.337  158.881
  269.500   25.835    0.416    0.338   56.339  159.959
  269.750   25.559    0.412    0.333   58.576  160.573
  270.000   25.165    0.414    0.339   60.300  159.739
  270.250   24.610    0.421    0.349   60.771  159.729
  270.500   23.799    0.419    0.351   61.418  160.016
  270.750   22.848    0.420    0.351   61.886  158.028
  271.000   21.860    0.427    0.355   62.117  154.755
  271.250   20.852    0.427    0.358   62.347  154.743
  271.500   20.532    0.419    0.355   62.341  154.733
  271.750   20.983    0.420    0.346   62.336  154.722
  272.000   21.444    0.429    0.348   62.864  157.085
  272.250   21.437    0.438    0.352   63.569  159.054
  272.500   20.846    0.448    0.356   64.097  159.439
  272.750   19.791    0.471    0.361   63.892  158.801
  273.000   19.048    0.462    0.357   62.897  159.614
  273.250   18.764    0.455    0.356   61.230  159.210
  273.500   18.794    0.447    0.354   59.563  159.398
  273.750   19.271    0.438    0.352   57.658  160.773
  274.000   20.029    0.431    0.352   55.753  162.246
  274.250   20.533    0.438    0.357   54.411  160.717
  274.500   20.844    0.441    0.357   53.663  159.058
  274.750   21.614    0.440    0.352   53.183  159.840
  275.000   21.811    0.440    0.354   52.880  161.215
  275.250   21.644    0.441    0.358   52.636  161.798
  275.500   21.323    0.443    0.361   52.513  161.392
  275.750   20.974    0.440    0.362   53.139  160.902
  276.000   20.809    0.435    0.360   55.111  160.481
  276.250   20.957    0.438    0.354   58.428  160.075
  276.500   21.105    0.438    0.354   57.828  159.967
  276.750   21.178    0.435    0.357   56.635  159.562
  277.000   21.133    0.432    0.363   56.748  159.057
  277.250   20.907    0.428    0.370   58.541  159.441
  277.500   20.585    0.427    0.375   58.038  159.431
  277.750   20.731    0.440    0.372   58.508  159.024
  278.000   20.764    0.450    0.369   59.689  158.915
  278.250   20.529    0.457    0.366   60.514  159.103
  278.500   20.152    0.459    0.363   60.330  159.389
  278.750   19.998    0.455    0.363   58.751  159.379
  279.000   19.993    0.453    0.375   58.003  159.368
  279.250   19.840    0.450    0.373   59.659  160.149
  279.500   19.800    0.449    0.375   60.958  160.634
  279.750   19.868    0.447    0.380   61.901  161.020
  280.000   20.009    0.446    0.386   62.370  160.813
  280.250   20.211    0.448    0.380   61.631  158.328
  280.500   20.517    0.453    0.378   59.151  155.845
  280.750   20.663    0.457    0.373   57.722  156.231
  281.000   20.581    0.465    0.376   57.183  156.616
  281.250   19.894    0.468    0.377   57.889  156.804
  281.500   18.723    0.464    0.375   58.773  157.486
  281.750   17.367    0.452    0.380   57.736  160.739
  282.000   16.587    0.444    0.383   59.708  163.202
  282.250   16.340    0.439    0.382   62.077  161.213
  282.500   16.277    0.439    0.383   63.198  161.004
  282.750   16.332    0.447    0.385   63.429  161.192
  283.000   16.448    0.459    0.384   62.474  161.283
  283.250   16.564    0.466    0.380   59.134  161.749
  283.500   16.560    0.461    0.379   57.892  162.150
  283.750   16.556    0.451    0.378   57.648  161.744
  284.000   16.917    0.455    0.378   58.651  161.634
  284.250   17.353    0.457    0.378   60.545  161.823
  284.500   17.671    0.451    0.377   62.437  162.211
  284.750   17.741    0.444    0.376   62.508  162.347
  285.000   17.468    0.436    0.373   60.524  161.100
  285.250   16.831    0.459    0.373   60.993  160.694
  285.500   16.401    0.470    0.372   61.997  160.585
  285.750   16.099    0.467    0.372   62.584  159.191
  286.000   15.861    0.456    0.373   62.755  156.906
  286.250   15.577    0.453    0.374   63.856  156.021
  286.500   15.337    0.443    0.370   65.828  155.599
  286.750   15.109    0.442    0.359   68.433  156.380
  287.000   14.967    0.444    0.359   70.326  156.864
  287.250   14.909    0.446    0.362   71.269  157.052
  287.500   14.905    0.447    0.365   71.145  157.240
  287.750   14.968    0.450    0.364   69.258  158.512
  288.000   15.312    0.453    0.361   65.791  160.975
  288.250   15.533    0.460    0.356   62.225  159.779
  288.500   15.587    0.464    0.353   59.193  160.066
  288.750   15.641    0.470    0.351   58.001  159.859
  289.000   15.780    0.477    0.354   58.232  158.465
  289.250   16.032    0.479    0.371   57.750  156.473
  289.500   16.152    0.469    0.372   57.743  156.464
  289.750   16.385    0.447    0.371   58.212  156.851
  290.000   16.623    0.435    0.368   58.502  156.939
  290.250   16.803    0.432    0.365   58.734  156.929
  290.500   16.923    0.438    0.363   58.966  156.920
  290.750   17.016    0.458    0.362   59.294  156.908
  291.000   16.882    0.462    0.359   59.783  156.897
  291.250   16.754    0.456    0.357   61.201  157.283
  291.500   16.443    0.453    0.353   62.620  157.668
  291.750   16.020    0.450    0.349   63.089  158.054
  292.000   15.612    0.450    0.349   61.659  158.439
  292.250   15.404    0.462    0.355   57.181  158.659
  292.500   15.518    0.478    0.343   56.187  157.826
  292.750   15.743    0.481    0.315   56.181  157.023
  293.000   16.059    0.446    0.259   54.573  156.518
  293.250   16.412    0.404    0.226   54.685  156.705
  293.500   16.620    0.384    0.243   57.290  157.290
  293.750   16.298    0.416    0.321   60.655  157.280
  294.000   15.925    0.458    0.355   60.896  157.269
  294.250   14.565    0.460    0.359   61.365  157.259
  294.500   13.403    0.455    0.355   62.011  157.545
  294.750   12.552    0.457    0.349   62.243  157.535
  295.000   11.991    0.469    0.343   61.763  157.130
  295.250   11.659    0.478    0.339   60.766  156.641
  295.500   11.746    0.467    0.354   61.749  156.218
  295.750   12.268    0.471    0.356   61.505  155.811
  296.000   12.472    0.480    0.352   60.373  155.703
  296.250   12.469    0.485    0.339   59.655  155.694
  296.500   12.282    0.485    0.321   60.005  155.685
  296.750   11.709    0.486    0.314   61.619  155.673
  297.000   11.098    0.495    0.341   62.602  155.662
  297.250   11.014    0.493    0.344   63.783  155.652
  297.500   11.295    0.489    0.342   65.498  155.939
  297.750   10.950    0.483    0.333   69.765  156.522
