~VERSION INFORMATION
 VERS.                 2.0:   CWLS LOG ASCII STANDARD -VERSION 2.0
 WRAP.                  NO:   ONE LINE PER DEPTH STEP
~WELL INFORMATION BLOCK
#MNEM.UNIT           DATA                    DESCRIPTION OF MNEMONIC
#---------    -------------------            -------------------------------
# Generated from Intellog Unique Number	CW_82_90/WELL/3430
WELL.         CDN SUP                        : Well_name    - WELL
LOC .         00/07-26-090-21W4/0            : Location     - LOCATION
UWI .         00/07-26-090-21W4/0            : Uwi          - UNIQUE WELL ID
ENTR.         MAX                            : Entered      - ENTERED BY
SRVC.         SCHLUMBERGER                   : Scn          - SERVICE COMPANY
STRT.M        152                            : top_depth    - START DEPTH
STOP.M        235                            : bot_depth    - STOP DEPTH
STEP.M        0.25                           : increment    - STEP LENGTH
 NULL. -999.2500:NULL Value
~CURVE INFORMATION BLOCK
#MNEM UNIT       ERCB CURVE CODE    CURVE DESCRIPTION
#-----------   ------------------   ----------------------------------
DEPT.M        00 001 00 00         : DEPTH        - DEPTH
CALI.MM       00 280 01 00         : CAL          - CALIPER
GR  .API      00 310 00 00         : GR           - GAMMA RAY
NPHI.V/V      00 330 00 00         : PHIN         - NEUTRON POROSITY (SANDSTONE)
DPHI.V/V      00 890 00 00         : PHID         - DENSITY POROSITY (SANDSTONE)
ILD .OHMM     00 120 00 00         : RESD         - DEEP RESISTIVITY (DIL)
~PARAMETER INFORMATION
#MNEM.UNIT           DATA             DESCRIPTION OF MNEMONIC
#---------         -----------     ------------------------------
GL  .M        515                  : gl           - GROUND LEVEL ELEVATION
EREF.M        519.4                : kb           - ELEVATION OF DEPTH REFERENCE
DATM.M        515.4                : datum        - DATUM ELEVATION
TDD .M        239                  : tdd          - TOTAL DEPTH DRILLER
RUN .         ONE                  : Run          - RUN NUMBER
ENG .         BILL                 : Engineer     - RECORDING ENGINEER
WIT .         JIM                  : Witness      - WITNESSED BY
MUD .         GEL                  : Mud_type     - MUD TYPE
MATR.         SANDSTONE            : Logunit      - NEUTRON MATRIX
TMAX.C        21                   : BHT          - MAXIMUM RECORDED TEMPERATURE
BHTD.M        239                  : BHTDEP       - MAXIMUM RECORDED TEMPERATURE
MATR.         1                    : LOGUNIT      - NEUTRON MATRIX
RMT .C        15                   : MDTP         - TEMPERATURE OF MUD
NEUT.         1                    : NEUTRON      - NEUTRON TYPE
RESI.         0                    : RESIST       - RESISTIVITY TYPE
RMC .OHMM     3.07                 : RMC          - RESISTIVITY OF MUD CAKE
RMF .OHMM     3.05                 : RMF          - RESISTIVITY OF MUD FILTRATE
SUFT.C        -10                  : SUFT         - SURFACE TEMPERATURE
~A  DEPTH      CAL       GR     PHIN     PHID     RESD
# ...
  188.500  231.309   87.936    0.416    0.224   10.409
  188.750  230.242   86.700    0.383    0.215   11.593
  189.000  230.136   87.835    0.392    0.223   12.912
  189.250  230.569   89.870    0.371    0.178   14.512
  189.500  230.474   91.614    0.320    0.105   15.306
  189.750  230.886   95.443    0.331    0.125   14.743
  190.000  230.811   98.372    0.370    0.204   14.073
  190.250  230.219   99.216    0.394    0.231   13.433
  190.500  230.145   99.158    0.401    0.232   12.588
  190.750  230.061   99.108    0.402    0.245   12.239
  191.000  230.969   99.659    0.393    0.254   11.469
  191.250  233.357   99.608    0.405    0.237   10.751
  191.500  236.263   97.763    0.414    0.212   10.355
  191.750  238.651   95.620    0.420    0.216   10.251
  192.000  236.580   93.775    0.421    0.232   10.520
  192.250  234.498   92.525    0.420    0.233   11.095
  192.500  234.435   92.196    0.417    0.224   11.703
  192.750  234.339   92.145    0.408    0.200   12.124
  193.000  234.751   97.756    0.387    0.181   12.555
  193.250  235.163  102.778    0.403    0.165   12.317
  193.500  240.056  106.595    0.413    0.183   11.757
  193.750  242.444  106.252    0.434    0.204   10.821
  194.000  241.852  103.811    0.449    0.199    9.869
  194.250  239.295   99.582    0.416    0.187    9.682
  194.500  237.699   96.253    0.435    0.163    9.936
  194.750  237.635   95.308    0.454    0.192   10.016
  195.000  237.561   97.337    0.446    0.186    9.913
  195.250  237.466   99.981    0.412    0.129    9.723
  195.500  236.874  102.314    0.428    0.156    8.711
  195.750  236.800  105.541    0.449    0.188    6.332
  196.000  236.726  107.570    0.474    0.192    5.041
  196.250  237.127  107.228    0.492    0.189    4.473
  196.500  237.550  105.085    0.506    0.226    4.349
  196.750  239.938  102.358    0.504    0.235    4.671
  197.000  239.864   98.433    0.489    0.216    5.202
  197.250  238.268   95.396    0.466    0.210    5.900
  197.500  237.687   94.749    0.452    0.236    7.739
  197.750  237.612   97.082    0.442    0.211   10.241
  198.000  237.528   97.621    0.432    0.185   11.099
  198.250  237.929   96.683    0.430    0.184   11.288
  198.500  238.352   94.838    0.446    0.209   11.074
  198.750  238.267   94.197    0.433    0.193   10.666
  199.000  237.189   97.120    0.433    0.181   10.181
  199.250  236.100   98.566    0.440    0.206    9.629
  199.500  236.026   98.813    0.447    0.202    9.193
  199.750  235.931   98.166    0.459    0.213    8.693
  200.000  236.332   96.029    0.461    0.204    8.528
  200.250  236.258   92.402    0.453    0.193    8.673
  200.500  235.180   87.279    0.436    0.176    9.487
  200.750  233.616   87.526    0.417    0.144   11.363
  201.000  232.528   90.747    0.362    0.097   12.771
  201.250  230.932   91.901    0.365    0.093   13.589
  201.500  229.875   91.242    0.399    0.184   13.333
  201.750  229.790   89.409    0.414    0.238   12.725
  202.000  229.695   86.974    0.426    0.227   12.710
  202.250  230.107   84.241    0.406    0.206   13.897
  202.500  230.012   80.615    0.360    0.186   14.798
  202.750  229.938   77.577    0.345    0.144   16.780
  203.000  229.863   75.441    0.353    0.166   18.692
  203.250  229.768   72.099    0.328    0.155   21.392
  203.500  229.683   69.975    0.296    0.109   24.483
  203.750  229.609   68.428    0.277    0.042   29.057
  204.000  229.514   66.887    0.276    0.025   33.260
  204.250  229.514   67.426    0.290    0.063   35.723
  204.500  229.345   68.573    0.309    0.118   22.870
  204.750  229.260   71.509    0.348    0.156   18.204
  205.000  229.112   75.630    0.369    0.207   16.455
  205.250  228.583   85.115    0.409    0.270   15.283
  205.500  228.509   88.051    0.424    0.283   14.857
  205.750  228.435   84.418    0.432    0.267   15.248
  206.000  228.351   80.195    0.416    0.253   16.677
  206.250  228.741   76.866    0.373    0.237   18.576
  206.500  228.678   74.723    0.297    0.206   21.260
  206.750  230.062   78.254    0.282    0.143   21.232
  207.000  230.495   84.760    0.287    0.089   18.848
  207.250  231.393   90.365    0.310    0.109   17.823
  207.500  231.309   86.446    0.350    0.156   18.463
  207.750  231.721   79.839    0.399    0.177   17.462
  208.000  231.721   75.908    0.393    0.120   15.931
  208.250  231.541   79.142    0.318    0.028   14.532
  208.500  231.963   89.819    0.320    0.053   13.500
  208.750  232.375   96.927    0.359    0.140   12.423
  209.000  232.290   99.558    0.377    0.181   11.753
  209.250  232.702  100.395    0.411    0.208   11.421
  209.500  233.114  100.940    0.443    0.208   11.513
  209.750  233.516  101.485    0.437    0.200   11.606
  210.000  233.431   99.342    0.430    0.183   11.805
  210.250  233.346   97.509    0.430    0.170   11.899
  210.500  233.272   97.148    0.430    0.143   12.101
  210.750  232.680   98.295    0.430    0.096   12.306
  211.000  232.606  100.045    0.428    0.089   12.296
  211.250  232.522  102.664    0.446    0.183   12.506
  211.500  233.409  102.917    0.444    0.210   12.156
  211.750  233.832  100.178    0.426    0.187   11.814
  212.000  234.740   99.823    0.414    0.158   11.587
  212.250  235.163  101.579    0.409    0.122   11.573
  212.500  235.575  109.276    0.434    0.115   11.455
  212.750  235.480  112.497    0.445    0.171   11.133
  213.000  235.395  107.685    0.455    0.204   10.825
  213.250  235.321  101.370    0.449    0.181   10.236
  213.500  235.226   98.339    0.437    0.154   10.040
  213.750  235.638  102.454    0.429    0.114   10.030
  214.000  235.553  104.489    0.437    0.124   10.111
  214.250  235.479  104.140    0.450    0.187   10.281
  214.500  234.876  104.089    0.446    0.199   10.363
  214.750  234.792  103.747    0.443    0.186   10.540
  215.000  234.221  103.690    0.448    0.155   10.819
  215.250  233.639  103.943    0.444    0.111   11.206
  215.500  233.048  105.078    0.448    0.128   11.710
  215.750  232.963  107.107    0.452    0.159   12.242
  216.000  232.878  108.261    0.445    0.100   12.567
  216.250  232.793  110.004    0.435    0.083   12.663
  216.500  233.205  115.020    0.437    0.112   11.873
  216.750  234.104  113.777    0.433    0.151   10.731
  217.000  235.033  107.462    0.445    0.176   10.338
  217.250  235.445  100.550    0.439    0.155    9.958
  217.500  234.864   97.817    0.419    0.076   10.034
  217.750  234.779  102.541    0.383    0.060   10.297
  218.000  234.684  110.238    0.362    0.089   10.382
  218.250  234.599  111.678    0.382    0.138   10.560
  218.500  235.497  108.945    0.409    0.186   10.451
  218.750  235.423  106.808    0.423    0.185   10.440
  219.000  235.328  104.373    0.415    0.172   10.617
  219.250  235.265  100.740    0.390    0.180   11.402
  219.500  235.169   97.405    0.379    0.176   12.030
  219.750  234.588   95.870    0.373    0.148   13.766
  220.000  234.514  104.461    0.363    0.117   15.193
  220.250  234.915  115.741    0.348    0.015   16.771
  220.500  235.824  119.273    0.353    0.025   15.021
  220.750  236.236  125.480    0.398    0.143   13.829
  221.000  236.151  130.197    0.426    0.182   12.844
  221.250  236.056  134.921    0.427    0.193   12.149
  221.500  235.992  138.446    0.416    0.172   11.702
  221.750  236.404  137.501    0.405    0.170   11.170
  222.000  236.816  138.642    0.421    0.185   10.564
  222.250  237.714  141.870    0.430    0.193    9.902
  222.500  238.634  151.355    0.445    0.199    9.198
  222.750  238.538  153.092    0.465    0.212    8.545
  223.000  237.450  134.857    0.461    0.219    7.934
  223.250  236.372  113.045    0.444    0.212    8.073
  223.500  235.790  103.452    0.437    0.201    8.992
  223.750  235.209   98.931    0.445    0.180   10.575
  224.000  235.124   97.073    0.440    0.005   11.358
  224.250  234.532   97.035    0.410   -0.002   11.763
  224.500  234.469  100.567    0.417    0.019   11.748
  224.750  233.888  110.946    0.425    0.097   11.319
