~VERSION INFORMATION
 VERS.                 2.0:   CWLS LOG ASCII STANDARD -VERSION 2.0
 WRAP.                  NO:   ONE LINE PER DEPTH STEP
~WELL INFORMATION BLOCK
#MNEM.UNIT           DATA                    DESCRIPTION OF MNEMONIC
#---------    -------------------            -------------------------------
# Generated from Intellog Unique Number	CS_73_76/WELL/637
WELL.         AMOCO AEC IPIATIK              : Well_name    - WELL
LOC .         00/06-13-073-06W4/0            : Location     - LOCATION
UWI .         00/06-13-073-06W4/0            : Uwi          - UNIQUE WELL ID
ENTR.         SP                             : Entered      - ENTERED BY
SRVC.         SCHLUMBERGER                   : Scn          - SERVICE COMPANY
STRT.M        305                            : top_depth    - START DEPTH
STOP.M        550                            : bot_depth    - STOP DEPTH
STEP.M        0.25                           : increment    - STEP LENGTH
 NULL. -999.2500:NULL Value
~CURVE INFORMATION BLOCK
#MNEM UNIT       ERCB CURVE CODE    CURVE DESCRIPTION
#-----------   ------------------   ----------------------------------
DEPT.M        00 001 00 00         : DEPTH        - DEPTH
ILD .OHMM     00 120 00 00         : RESD         - DEEP RESISTIVITY (DIL)
DPHI.V/V      00 890 00 00         : PHID         - DENSITY POROSITY (LIMESTONE)
NPHI.V/V      00 330 00 00         : PHIN         - NEUTRON POROSITY (LIMESTONE)
GR  .API      00 310 00 00         : GR           - GAMMA RAY
~PARAMETER INFORMATION
#MNEM.UNIT           DATA             DESCRIPTION OF MNEMONIC
#---------         -----------     ------------------------------
GL  .M        693.7                : gl           - GROUND LEVEL ELEVATION
EREF.M        697.9                : kb           - ELEVATION OF DEPTH REFERENCE
DATM.M        693.7                : datum        - DATUM ELEVATION
TDD .M        570                  : tdd          - TOTAL DEPTH DRILLER
RUN .         ONE                  : Run          - RUN NUMBER
ENG .         BILL                 : Engineer     - RECORDING ENGINEER
WIT .         JIM                  : Witness      - WITNESSED BY
MUD .         GEL                  : Mud_type     - MUD TYPE
MATR.         LIMESTONE            : Logunit      - NEUTRON MATRIX
TMAX.C        20                   : BHT          - MAXIMUM RECORDED TEMPERATURE
BHTD.M        570                  : BHTDEP       - MAXIMUM RECORDED TEMPERATURE
MATR.         1                    : LOGUNIT      - NEUTRON MATRIX
RMT .C        25                   : MDTP         - TEMPERATURE OF MUD
NEUT.         1                    : NEUTRON      - NEUTRON TYPE
RESI.         0                    : RESIST       - RESISTIVITY TYPE
RMC .OHMM     0.25                 : RMC          - RESISTIVITY OF MUD CAKE
RMF .OHMM     0.25                 : RMF          - RESISTIVITY OF MUD FILTRATE
SUFT.C        15                   : SUFT         - SURFACE TEMPERATURE
~A  DEPTH     RESD     PHID     PHIN       GR
# ...
  392.000    2.274    0.283    0.500   81.393
  392.250    2.316    0.275    0.474   82.002
  392.500    2.496    0.258    0.470   83.218
  392.750    2.543    0.246    0.463   81.412
  393.000    2.639    0.241    0.452   80.207
  393.250    2.689    0.246    0.434   79.607
  393.500    2.739    0.252    0.440   83.242
  393.750    2.739    0.257    0.428   85.668
  394.000    2.589    0.266    0.423   81.440
  394.250    2.228    0.281    0.448   74.190
  394.500    2.029    0.288    0.460   71.170
  394.750    1.813    0.309    0.449   65.733
  395.000    1.590    0.328    0.462   66.949
  395.250    1.531    0.324    0.479   72.401
  395.500    1.421    0.311    0.476   74.219
  395.750    1.343    0.306    0.476   76.646
  396.000    1.420    0.314    0.491   80.886
  396.250    1.530    0.293    0.503   85.732
  396.500    1.588    0.270    0.514   87.550
  396.750    1.588    0.286    0.531   68.202
  397.000    1.530    0.304    0.492   60.346
  397.250    1.501    0.298    0.457   58.536
  397.500    1.419    0.325    0.463   56.127
  397.750    1.366    0.338    0.448   55.529
  398.000    1.341    0.334    0.437   54.931
  398.250    1.316    0.339    0.430   55.541
  398.500    1.315    0.344    0.438   56.151
  398.750    1.340    0.353    0.444   57.365
  399.000    1.391    0.364    0.437   59.185
  399.250    1.444    0.350    0.444   62.821
  399.500    1.444    0.336    0.449   65.852
  399.750    1.471    0.316    0.459   68.276
  400.000    1.470    0.332    0.459   67.073
  400.250    1.470    0.340    0.453   62.844
  400.500    1.470    0.327    0.458   64.668
  400.750    1.442    0.328    0.450   65.882
  401.000    1.415    0.337    0.469   67.097
  401.250    1.442    0.340    0.465   65.289
  401.500    1.442    0.327    0.476   67.111
  401.750    1.469    0.322    0.486   70.143
  402.000    1.496    0.309    0.486   71.357
  402.250    1.496    0.302    0.477   70.153
  402.500    1.496    0.317    0.462   73.790
  402.750    1.524    0.329    0.455   75.609
  403.000    1.582    0.318    0.453   81.061
  403.250    1.704    0.301    0.448   84.695
  403.500    1.979    0.287    0.459   87.119
  403.750    2.054    0.271    0.471   90.758
  404.000    2.298    0.251    0.487   92.575
  404.250    2.431    0.262    0.506   92.583
  404.500    2.570    0.271    0.521   95.613
  404.750    2.619    0.280    0.533   97.433
  405.000    2.618    0.275    0.548   97.438
  405.250    2.618    0.280    0.546   94.422
  405.500    2.617    0.266    0.560   92.613
  405.750    2.666    0.260    0.567   88.388
  406.000    2.983    0.275    0.555   87.181
  406.250    3.337    0.275    0.543   85.977
  406.500    3.733    0.260    0.523   88.404
  406.750    3.948    0.249    0.493   88.409
  407.000    4.254    0.251    0.481   84.788
  407.250    4.416    0.261    0.470   84.792
  407.500    4.758    0.245    0.459   84.802
  407.750    4.847    0.234    0.454   84.806
  408.000    4.938    0.231    0.448   84.207
  408.250    4.846    0.228    0.446   83.610
  408.500    4.845    0.235    0.457   85.429
  408.750    4.844    0.247    0.489   89.064
  409.000    4.753    0.258    0.493   90.280
  409.250    4.752    0.252    0.485   87.868
  409.500    4.752    0.242    0.471   86.663
  409.750    4.751    0.226    0.465   86.669
  410.000    4.662    0.219    0.458   86.675
  410.250    4.575    0.259    0.466   86.079
  410.500    4.489    0.259    0.473   86.688
  410.750    4.405    0.278    0.489   87.302
  411.000    4.323    0.269    0.505   87.911
  411.250    4.242    0.250    0.514   89.126
  411.500    4.085    0.239    0.514   90.948
  411.750    3.861    0.226    0.509   92.163
  412.000    3.789    0.253    0.508   93.378
  412.250    3.649    0.263    0.512   95.201
  412.500    3.581    0.267    0.522   97.022
  412.750    3.514    0.268    0.542   99.446
  413.000    3.449    0.275    0.561  101.871
  413.250    3.384    0.259    0.548  102.481
  413.500    3.383    0.249    0.540  103.095
  413.750    3.383    0.238    0.543  103.101
  414.000    3.446    0.231    0.551  103.710
  414.250    3.445    0.245    0.571  103.717
  414.500    3.445    0.269    0.564  102.515
  414.750    3.444    0.281    0.548  100.705
  415.000    3.444    0.274    0.536   98.291
  415.250    3.575    0.263    0.521   97.088
  415.500    3.852    0.273    0.501   94.675
  415.750    4.390    0.252    0.493   91.053
  416.000    4.731    0.235    0.486   87.429
  416.250    5.004    0.254    0.476   81.390
  416.500    5.292    0.275    0.463   80.183
  416.750    5.291    0.258    0.452   78.980
  417.000    4.908    0.268    0.463   78.382
  417.250    4.817    0.276    0.467   78.390
  417.500    4.907    0.288    0.478   78.393
  417.750    5.189    0.293    0.479   79.005
  418.000    5.488    0.280    0.480   79.010
  418.250    5.591    0.282    0.495   79.018
  418.500    5.696    0.292    0.508   79.023
  418.750    5.589    0.298    0.497   79.031
  419.000    5.283    0.299    0.480   78.430
  419.250    5.282    0.300    0.480   77.229
  419.500    5.381    0.316    0.493   74.815
  419.750    5.585    0.326    0.479   73.611
  420.000    5.797    0.267    0.474   73.011
  420.250    6.860    0.210    0.426   69.993
  420.500    7.967    0.147    0.314   62.743
  420.750    8.747    0.102    0.283   59.119
  421.000    9.604    0.125    0.252   55.496
  421.250    9.969    0.199    0.330   71.834
  421.500    9.077    0.261    0.417   79.702
  421.750    7.115    0.280    0.448   83.337
  422.000    6.124    0.270    0.463   84.555
  422.250    5.898    0.271    0.466   83.955
  422.500    6.008    0.278    0.460   80.937
  422.750    6.007    0.294    0.453   77.313
  423.000    6.120    0.304    0.454   74.295
  423.250    6.119    0.303    0.463   71.883
  423.500    6.118    0.300    0.469   70.076
  423.750    6.117    0.303    0.464   68.873
  424.000    6.116    0.309    0.464   69.482
  424.250    6.001    0.315    0.466   71.909
  424.500    5.889    0.310    0.478   74.939
  424.750    5.779    0.314    0.476   77.970
  425.000    5.778    0.295    0.482   81.001
  425.250    5.670    0.281    0.476   83.426
  425.500    5.669    0.265    0.464   85.247
  425.750    5.775    0.256    0.466   87.066
  426.000    5.774    0.249    0.464   87.676
  426.250    5.882    0.248    0.455   87.684
  426.500    5.881    0.255    0.449   85.874
  426.750    5.880    0.260    0.443   84.671
  427.000    5.770    0.257    0.442   85.887
  427.250    5.769    0.251    0.438   86.498
  427.500    5.661    0.250    0.436   85.295
  427.750    5.555    0.249    0.431   86.510
  428.000    5.251    0.245    0.454   87.727
  428.250    4.872    0.245    0.470   87.732
  428.500    4.353    0.262    0.475   85.926
  428.750    3.964    0.249    0.499   84.116
  429.000    3.609    0.251    0.544   82.912
  429.250    3.411    0.258    0.573   82.918
  429.500    3.608    0.275    0.562   85.344
  429.750    4.189    0.282    0.555   87.165
  430.000    4.268    0.299    0.482   82.332
  430.250    4.514    0.291    0.456   78.105
  430.500    3.673    0.277    0.450   79.925
  430.750    3.221    0.277    0.487   85.981
  431.000    3.045    0.280    0.516   89.010
  431.250    2.721    0.275    0.551   91.436
  431.500    2.621    0.268    0.582   91.442
  431.750    2.620    0.261    0.567   92.053
  432.000    2.669    0.261    0.528   93.874
  432.250    2.771    0.253    0.505   94.484
  432.500    2.985    0.251    0.511   93.283
  432.750    3.099    0.257    0.534   90.870
  433.000    3.402    0.263    0.515   87.247
  433.250    3.667    0.262    0.490   85.436
  433.500    4.025    0.275    0.462   82.419
  433.750    4.101    0.301    0.450   80.005
  434.000    4.337    0.313    0.467   76.987
  434.250    4.336    0.324    0.474   73.970
  434.500    4.336    0.330    0.468   70.348
  434.750    4.335    0.328    0.491   67.934
  435.000    4.334    0.326    0.488   65.520
  435.250    4.415    0.325    0.474   68.550
