~VERSION INFORMATION
 VERS.                 2.0:   CWLS LOG ASCII STANDARD -VERSION 2.0
 WRAP.                  NO:   ONE LINE PER DEPTH STEP
~WELL INFORMATION BLOCK
#MNEM.UNIT           DATA                    DESCRIPTION OF MNEMONIC
#---------    -------------------            -------------------------------
# Generated from Intellog Unique Number	CS_77_79/WELL/3299
WELL.         ATCOR LTD.                     : Well_name    - WELL
LOC .         00/08-34-077-13W4/0            : Location     - LOCATION
UWI .         00/08-34-077-13W4/0            : Uwi          - UNIQUE WELL ID
ENTR.         JO                             : Entered      - ENTERED BY
SRVC.         SCHLUMBERGER                   : Scn          - SERVICE COMPANY
DATE.         05/22/92                       : Date         - LOG DATE
STRT.M        270                            : top_depth    - START DEPTH
STOP.M        495                            : bot_depth    - STOP DEPTH
STEP.M        0.25                           : increment    - STEP LENGTH
 NULL. -999.2500:NULL Value
~CURVE INFORMATION BLOCK
#MNEM UNIT       ERCB CURVE CODE    CURVE DESCRIPTION
#-----------   ------------------   ----------------------------------
DEPT.M        00 001 00 00         : DEPTH        - DEPTH
GR  .API      00 310 00 00         : GR           - GAMMA RAY
NPHI.V/V      00 330 00 00         : PHIN         - NEUTRON POROSITY (SANDSTONE)
DPHI.V/V      00 890 00 00         : PHID         - DENSITY POROSITY (SANDSTONE)
ILD .OHMM     00 120 00 00         : RESD         - DEEP RESISTIVITY (DIL)
~PARAMETER INFORMATION
#MNEM.UNIT           DATA             DESCRIPTION OF MNEMONIC
#---------         -----------     ------------------------------
GL  .M        670.6                : gl           - GROUND LEVEL ELEVATION
EREF.M        674.2                : kb           - ELEVATION OF DEPTH REFERENCE
DATM.M        674.2                : datum        - DATUM ELEVATION
TDD .M        503                  : tdd          - TOTAL DEPTH DRILLER
RUN .         ONE                  : Run          - RUN NUMBER
ENG .         BILL                 : Engineer     - RECORDING ENGINEER
WIT .         JIM                  : Witness      - WITNESSED BY
MUD .         GEL                  : Mud_type     - MUD TYPE
MATR.         SANDSTONE            : Logunit      - NEUTRON MATRIX
TMAX.C        21                   : BHT          - MAXIMUM RECORDED TEMPERATURE
BHTD.M        503                  : BHTDEP       - MAXIMUM RECORDED TEMPERATURE
RMT .C        20                   : MDTP         - TEMPERATURE OF MUD
MUDD.KG/M     1130                 : MWT          - MUD DENSITY
NEUT.         1                    : NEUTRON      - NEUTRON TYPE
RESI.         0                    : RESIST       - RESISTIVITY TYPE
RM  .OHMM     4.81                 : RM           - RESISTIVITY OF MUD
RMC .OHMM     0                    : RMC          - RESISTIVITY OF MUD CAKE
RMF .OHMM     5.58                 : RMF          - RESISTIVITY OF MUD FILTRATE
SUFT.C        15                   : SUFT         - SURFACE TEMPERATURE
~A  DEPTH       GR     PHIN     PHID     RESD
# ...
  400.500   63.427    0.441    0.346    5.243
  400.750   62.928    0.438    0.359    5.260
  401.000   59.979    0.435    0.369    5.275
  401.250   57.110    0.424    0.371    5.196
  401.500   57.163    0.419    0.369    5.206
  401.750   57.297    0.433    0.363    5.224
  402.000   57.377    0.448    0.348    5.242
  402.250   56.299    0.443    0.341    5.252
  402.500   56.407    0.443    0.343    5.263
  402.750   56.487    0.438    0.357    5.376
  403.000   56.594    0.443    0.360    5.391
  403.250   56.728    0.466    0.349    5.824
  403.500   55.596    0.469    0.271    6.284
  403.750   49.644    0.444    0.219    7.452
  404.000   43.058    0.300    0.048    8.499
  404.250   41.348    0.196    0.045    9.347
  404.500   46.329    0.232    0.082   10.099
  404.750   50.678    0.407    0.207   10.322
  405.000   53.815    0.461    0.283   10.167
  405.250   53.316    0.460    0.315    9.632
  405.500   59.510    0.449    0.350    8.480
  405.750   57.799    0.441    0.368    6.443
  406.000   57.327    0.435    0.364    5.573
  406.250   60.490    0.429    0.358    5.094
  406.500   62.389    0.461    0.355    4.919
  406.750   61.863    0.486    0.362    4.670
  407.000   57.149    0.463    0.379    4.594
  407.250   58.441    0.450    0.386    4.525
  407.500   60.972    0.435    0.393    4.457
  407.750   62.345    0.456    0.401    4.463
  408.000   61.213    0.502    0.413    4.475
  408.250   58.897    0.498    0.398    4.490
  408.500   57.159    0.467    0.368    4.593
  408.750   57.899    0.434    0.362    4.685
  409.000   61.089    0.417    0.363    4.878
  409.250   61.143    0.418    0.358    5.075
  409.500   60.038    0.446    0.345    5.093
  409.750   61.357    0.429    0.338    5.106
  410.000   63.282    0.408    0.345    5.023
  410.250   60.386    0.409    0.351    4.941
  410.500   61.072    0.407    0.357    4.775
  410.750   55.147    0.396    0.359    4.703
  411.000   52.224    0.411    0.360    4.626
  411.250   53.543    0.442    0.364    4.642
  411.500   53.623    0.451    0.374    4.658
  411.750   54.390    0.448    0.376    4.664
  412.000   55.076    0.442    0.376    4.680
  412.250   55.762    0.433    0.368    4.780
  412.500   57.081    0.426    0.360    4.793
  412.750   57.875    0.430    0.349    4.896
  413.000   57.955    0.447    0.346    4.909
  413.250   58.641    0.458    0.353    4.926
  413.500   59.960    0.458    0.360    4.849
  413.750   60.068    0.451    0.369    4.686
  414.000   59.595    0.441    0.367    4.612
  414.250   60.309    0.441    0.357    4.540
  414.500   57.992    0.462    0.352    4.469
  414.750   56.887    0.478    0.359    4.481
  415.000   59.418    0.474    0.369    4.493
  415.250   61.922    0.486    0.376    4.509
  415.500   63.268    0.481    0.367    4.515
  415.750   63.981    0.475    0.352    4.618
  416.000   66.539    0.476    0.346    4.624
  416.250   63.616    0.463    0.347    4.723
  416.500   62.484    0.446    0.347    4.914
  416.750   66.227    0.447    0.340    5.020
  417.000   67.546    0.469    0.332    5.226
  417.250   71.289    0.464    0.323    5.342
  417.500   76.297    0.445    0.313    5.353
  417.750   75.799    0.436    0.308    5.265
  418.000   77.724    0.426    0.302    5.283
  418.250   81.440    0.419    0.297    5.197
  418.500   85.209    0.422    0.291    5.116
  418.750   86.555    0.432    0.282    4.950
  419.000   85.450    0.431    0.285    4.964
  419.250   83.686    0.422    0.304    4.886
  419.500   69.250    0.414    0.317    4.896
  419.750   65.694    0.419    0.309    5.004
  420.000   66.434    0.443    0.306    5.018
  420.250   68.359    0.450    0.319    5.221
  420.500   67.254    0.438    0.329    5.333
  420.750   65.544    0.428    0.327    5.451
  421.000   65.045    0.436    0.317    5.458
  421.250   66.970    0.443    0.297    5.473
  421.500   67.077    0.436    0.268    5.594
  421.750   64.787    0.437    0.301    5.714
  422.000   66.106    0.444    0.194    5.832
  422.250   68.610    0.429    0.159    6.419
  422.500   69.323    0.403    0.158    6.804
  422.750   67.612    0.349    0.198    6.831
  423.000   71.961    0.429    0.231    6.845
  423.250   78.787    0.456    0.234    6.619
  423.500   83.109    0.451    0.229    6.507
  423.750   86.879    0.442    0.227    6.288
  424.000   91.861    0.437    0.228    5.969
  424.250   88.911    0.433    0.233    5.666
  424.500   84.777    0.428    0.235    5.475
  424.750   87.361    0.421    0.232    5.382
  425.000   88.627    0.450    0.230    5.607
  425.250   91.157    0.448    0.220    5.615
  425.500   91.871    0.444    0.227    5.842
  425.750   90.793    0.437    0.234    6.079
  426.000   89.688    0.426    0.242    6.213
  426.250   88.583    0.417    0.236    6.346
  426.500   87.478    0.413    0.208    6.478
  426.750   87.585    0.427    0.205    6.617
  427.000   92.540    0.429    0.222    6.894
  427.250   96.283    0.412    0.229    7.042
  427.500  100.053    0.409    0.215    6.932
  427.750  100.766    0.418    0.202    6.823
  428.000   98.422    0.404    0.213    6.712
  428.250  101.613    0.401    0.224    6.376
  428.500  102.905    0.408    0.231    6.267
  428.750   99.982    0.403    0.226    6.060
  429.000   97.032    0.411    0.219    5.856
  429.250   91.686    0.413    0.223    5.764
  429.500   89.369    0.414    0.231    5.570
  429.750   88.264    0.421    0.233    5.483
  430.000   89.004    0.419    0.230    5.205
  430.250   87.293    0.426    0.233    5.026
  430.500   85.583    0.518    0.244    4.765
  430.750   86.902    0.520    0.255    4.273
  431.000   87.588    0.513    0.288    3.764
  431.250   85.271    0.504    0.310    3.378
  431.500   78.133    0.505    0.309    2.868
  431.750   77.002    0.546    0.308    2.620
  432.000   79.560    0.543    0.310    2.266
  432.250   82.670    0.538    0.310    1.961
  432.500   87.651    0.543    0.299    1.965
  432.750   92.027    0.538    0.282    2.048
  433.000   94.531    0.530    0.277    2.169
  433.250   97.089    0.505    0.273    2.340
  433.500   94.139    0.469    0.267    2.623
  433.750   94.246    0.440    0.242    3.050
  434.000   92.536    0.395    0.227    3.612
  434.250   84.765    0.403    0.211    4.280
  434.500   81.237    0.390    0.194    5.167
  434.750   87.403    0.368    0.165    5.901
  435.000   95.388    0.377    0.175    6.027
  435.250  100.369    0.413    0.195    5.929
  435.500  101.083    0.438    0.217    5.420
  435.750   99.978    0.428    0.225    4.952
  436.000  100.085    0.416    0.230    4.527
  436.250   94.738    0.406    0.232    3.915
  436.500   94.239    0.420    0.228    3.324
  436.750   87.048    0.424    0.224    3.397
  437.000   75.009    0.391    0.211    3.806
  437.250   67.239    0.349    0.123    5.627
  437.500   70.376    0.320    0.055    6.193
  437.750   74.118    0.341    0.084    6.938
  438.000   79.100    0.357    0.110    8.066
  438.250   82.843    0.365    0.141    9.212
  438.500   88.430    0.360    0.200    8.908
  438.750   88.538    0.358    0.188    8.596
  439.000   90.489    0.374    0.190    7.434
  439.250   93.020    0.454    0.232    5.052
  439.500   96.737    0.466    0.236    4.708
  439.750  102.351    0.461    0.224    4.222
  440.000   99.428    0.474    0.226    3.587
  440.250  100.720    0.495    0.233    3.401
  440.500  102.645    0.478    0.200    3.474
  440.750  100.329    0.453    0.193    3.614
  441.000  100.436    0.428    0.222    3.831
  441.250  104.811    0.431    0.233    4.139
  441.500  102.495    0.427    0.232    4.387
  441.750   98.939    0.421    0.219    4.649
  442.000   97.888    0.404    0.185    5.023
  442.250   97.941    0.391    0.166    5.424
  442.500   99.866    0.381    0.140    5.852
  442.750   99.973    0.384    0.123    6.327
  443.000   93.442    0.400    0.138    6.574
  443.250   94.734    0.398    0.157    6.968
  443.500   86.963    0.384    0.187    7.817
  443.750   73.713    0.373    0.194    8.280
