~VERSION INFORMATION
 VERS.                 2.0:   CWLS LOG ASCII STANDARD -VERSION 2.0
 WRAP.                  NO:   ONE LINE PER DEPTH STEP
~WELL INFORMATION BLOCK
#MNEM.UNIT           DATA                    DESCRIPTION OF MNEMONIC
#---------    -------------------            -------------------------------
# Generated from Intellog Unique Number	CW_82_90/WELL/619
WELL.         07-11-082-25W4                 : Well_name    - WELL
LOC .         00/07-11-082-25W4/0            : Location     - LOCATION
UWI .         00/07-11-082-25W4/0            : Uwi          - UNIQUE WELL ID
ENTR.         JAYE                           : Entered      - ENTERED BY
SRVC.         SCHLUMBERGER                   : Scn          - SERVICE COMPANY
DATE.         10 MAR 77                      : Date         - LOG DATE
STRT.M        225.552                        : top_depth    - START DEPTH
STOP.M        450.802                        : bot_depth    - STOP DEPTH
STEP.M        0.25                           : increment    - STEP LENGTH
 NULL. -999.2500:NULL Value
~CURVE INFORMATION BLOCK
#MNEM UNIT       ERCB CURVE CODE    CURVE DESCRIPTION
#-----------   ------------------   ----------------------------------
DEPT.M        00 001 00 00         : DEPTH        - DEPTH
CALI.MM       00 280 01 00         : CAL          - CALIPER
GR  .API      00 310 00 00         : GR           - GAMMA RAY
NPHI.V/V      00 330 00 00         : PHIN         - NEUTRON POROSITY (SANDSTONE)
DPHI.V/V      00 890 00 00         : PHID         - DENSITY POROSITY (SANDSTONE)
ILD .OHMM     00 120 00 00         : RESD         - DEEP RESISTIVITY (DIL)
~PARAMETER INFORMATION
#MNEM.UNIT           DATA             DESCRIPTION OF MNEMONIC
#---------         -----------     ------------------------------
GL  .M        580.339              : gl           - GROUND LEVEL ELEVATION
EREF.M        583.387              : kb           - ELEVATION OF DEPTH REFERENCE
DATM.M        580.339              : datum        - DATUM ELEVATION
TDD .M        452.933              : tdd          - TOTAL DEPTH DRILLER
RUN .         ONE                  : Run          - RUN NUMBER
BASE.         EDMONTON             : Branch       - HOME BASE OF LOGGING UNIT
MATR.         SANDSTONE            : Logunit      - NEUTRON MATRIX
TMAX.C        17.2222              : BHT          - MAXIMUM RECORDED TEMPERATURE
BHTD.M        452.933              : BHTDEP       - MAXIMUM RECORDED TEMPERATURE
RMT .C        9.44444              : MDTP         - TEMPERATURE OF MUD
MUDD.KG/M     1100                 : MWT          - MUD DENSITY
NEUT.         1                    : NEUTRON      - NEUTRON TYPE
RESI.         0                    : RESIST       - RESISTIVITY TYPE
RM  .OHMM     6.3                  : RM           - RESISTIVITY OF MUD
RMC .OHMM     0.25                 : RMC          - RESISTIVITY OF MUD CAKE
RMF .OHMM     0.25                 : RMF          - RESISTIVITY OF MUD FILTRATE
SUFT.C        4                    : SUFT         - SURFACE TEMPERATURE
~A  DEPTH      CAL       GR     PHIN     PHID     RESD
# ...
  408.052  168.009  135.667    0.425    0.142   13.576
  408.302  168.352  137.437    0.431    0.142   13.650
  408.552  168.373  141.972    0.433    0.131   13.670
  408.802  168.716  141.799    0.438    0.152   13.238
  409.052  170.448  137.793    0.433    0.143   12.844
  409.302  170.780  134.918    0.406    0.114   12.711
  409.552  171.231  138.448    0.391    0.080   12.630
  409.802  171.680  139.906    0.400    0.108   12.401
  410.052  171.381  134.205    0.408    0.170   12.176
  410.302  171.299  130.641    0.396    0.178   12.218
  410.552  170.682  129.587    0.388    0.158   12.284
  410.802  170.492  129.976    0.391    0.158   12.352
  411.052  171.262  133.883    0.410    0.174   12.468
  411.302  172.242  136.348    0.427    0.160   12.486
  411.552  171.626  135.857    0.442    0.129   12.357
  411.802  171.016  136.058    0.400    0.125   12.109
  412.052  171.997  138.147    0.360    0.121   11.703
  412.302  172.865  143.433    0.359    0.153   10.827
  412.552  177.675  144.702    0.404    0.149   10.402
  412.802  181.628  141.328    0.425    0.180   10.521
  413.052  187.074  139.644    0.436    0.165   11.182
  413.302  184.445  134.697    0.432    0.155   12.169
  413.552  181.810  128.809    0.398    0.168   13.752
  413.802  177.893  115.761    0.346    0.091   15.540
  414.052  167.818  102.841    0.362    0.148   17.946
  414.302  165.287   88.288    0.332    0.228   20.399
  414.552  161.486   81.080    0.319    0.269   22.246
  414.802  162.465   83.797    0.314    0.273   24.988
  415.052  163.976   88.957    0.312    0.240   26.296
  415.302  166.443   94.119    0.330    0.204   23.947
  415.552  170.188   84.902    0.334    0.149   22.511
  415.802  167.661   79.140    0.322    0.175   22.147
  416.052  163.747   68.793    0.310    0.226   22.180
  416.302  161.541   65.919    0.304    0.241   23.992
  416.552  161.136   65.181    0.289    0.241   26.011
  416.802  160.208   60.734    0.276    0.263   29.277
  417.052  159.483   56.354    0.262    0.347   33.745
  417.302  159.716   57.937    0.255    0.348   38.357
  417.552  159.633   61.404    0.248    0.341   43.343
  417.802  159.763   61.982    0.242    0.344   48.492
  418.052  160.321   64.444    0.248    0.361   48.956
  418.302  160.660   66.090    0.281    0.350   44.760
  418.552  161.430   70.940    0.293    0.327   38.951
  418.802  162.196   72.460    0.307    0.289   35.827
  419.052  163.496   71.656    0.317    0.251   34.417
  419.302  164.265   72.425    0.300    0.153   36.942
  419.552  164.921   76.393    0.289    0.086   36.557
  419.802  165.797   88.839    0.278    0.072   34.707
  420.052  166.031  115.161    0.279    0.072   27.303
  420.302  166.271  127.796    0.317    0.125   17.585
  420.552  166.505  130.258    0.351    0.157   13.860
  420.802  167.059  126.190    0.410    0.165   11.917
  421.052  167.299  117.854    0.414    0.184   11.983
  421.302  165.724  110.584    0.385    0.173   13.434
  421.552  163.406  102.310    0.372    0.225   15.919
  421.802  161.728   94.914    0.342    0.257   18.903
  422.052  160.372   90.030    0.322    0.286   24.390
  422.302  159.651   91.176    0.318    0.303   32.935
  422.552  159.354   91.376    0.332    0.294   45.364
  422.802  159.268   89.316    0.332    0.285   46.614
  423.052  159.398   94.353    0.325    0.293   46.132
  423.302  159.534  102.970    0.305    0.282   39.749
  423.552  159.552  107.756    0.328    0.258   40.927
  423.802  159.148  114.110    0.321    0.247   39.945
  424.052  160.343  115.004    0.309    0.304   36.740
  424.302  160.579  114.328    0.291    0.304   38.356
  424.552  160.818  110.258    0.275    0.292   39.648
  424.802  161.265  103.867    0.283    0.285   39.233
  425.052  162.880  100.490    0.295    0.282   38.835
  425.302  163.328   97.805    0.307    0.277   38.814
  425.552  162.507   98.071    0.329    0.253   39.259
  425.802  162.099   99.151    0.347    0.231   38.777
  426.052  161.376   98.159    0.355    0.212   38.756
  426.302  160.868  101.250    0.359    0.213   37.308
  426.552  160.893  107.667    0.365    0.246   31.081
  426.802  162.501  117.762    0.339    0.229   21.454
  427.052  163.263  119.429    0.331    0.218   15.213
  427.302  165.086  119.780    0.338    0.189   11.723
  427.552  166.803  122.614    0.366    0.181    8.999
  427.802  167.458  129.362    0.399    0.185    8.901
  428.052  166.632  133.201    0.386    0.189    9.860
  428.302  165.702  137.086    0.355    0.190    9.988
  428.552  165.723  133.003    0.343    0.189    9.998
  428.802  167.015  125.690    0.378    0.161   10.028
  429.052  168.304  125.948    0.414    0.125   10.159
  429.302  167.585  131.447    0.309    0.017   10.561
  429.552  164.427  127.485    0.259    0.047   11.088
  429.802  165.510  108.146    0.267    0.083   11.410
  430.052  165.315  104.743    0.299    0.143   11.513
  430.302  163.748  121.592    0.444    0.192   10.480
  430.552  163.558  136.350    0.436    0.208   10.004
  430.802  164.745  142.752    0.422    0.244   10.565
  431.052  165.086  127.052    0.442    0.293   10.959
  431.302  164.784  117.904    0.495    0.332   11.125
  431.552  163.957  121.863    0.515    0.338   10.704
  431.802  163.660  129.115    0.505    0.324   10.077
  432.052  163.683  126.367    0.472    0.256    9.392
  432.302  164.021  125.500    0.430    0.223    8.635
  432.552  165.102  129.525    0.432    0.234    8.002
  432.802  165.757  136.091    0.460    0.258    7.774
  433.052  166.418  138.444    0.507    0.232    7.753
  433.302  165.695  137.717    0.476    0.175    7.899
  433.552  163.914  140.876    0.444    0.139    8.211
  433.802  163.513  146.204    0.420    0.137    8.741
  434.052  164.169  151.280    0.402    0.119    9.287
  434.302  164.400  149.145    0.412    0.150    9.711
  434.552  163.892  141.983    0.402    0.143   10.153
  434.802  163.914  137.606    0.416    0.147   10.514
  435.052  164.571  137.298    0.444    0.213   10.713
  435.302  165.013  141.047    0.492    0.211   10.725
  435.552  164.505  145.499    0.444    0.189   10.716
  435.802  162.830  142.475    0.395    0.178   10.790
  436.052  163.383  128.226    0.362    0.212   11.351
  436.302  164.994  126.937    0.361    0.233   11.988
  436.552  166.074  135.376    0.374    0.223   12.142
  436.802  166.414  141.732    0.386    0.217   11.847
  437.052  167.279  147.502    0.387    0.232   11.742
  437.302  168.467  140.553    0.397    0.235   11.778
  437.552  168.807  146.746    0.417    0.246   11.838
  437.802  169.356  153.572    0.481    0.252   11.711
  438.052  169.910  156.150    0.470    0.249   11.815
  438.302  170.246  155.140    0.490    0.226   12.627
  438.552  169.419  139.428    0.502    0.220   13.230
  438.802  166.049  130.850    0.482    0.078   13.752
  439.052  162.575  118.144    0.352    0.033   14.042
  439.302  162.807  115.427    0.344    0.075   14.311
  439.552  163.887  126.337    0.361    0.174   14.642
  439.802  163.593  133.178    0.371    0.240   14.803
  440.052  162.552  128.611    0.328    0.259   15.056
  440.302  162.575  111.208    0.293    0.281   15.713
  440.552  162.913   95.062    0.289    0.290   15.824
  440.802  163.676   96.930    0.291    0.263   15.133
  441.052  164.122  104.791    0.301    0.261   14.532
  441.302  165.099  110.519    0.316    0.251   14.547
  441.552  165.220  114.982    0.337    0.215   15.151
  441.802  164.287  119.569    0.360    0.223   16.518
  442.052  163.464  120.743    0.373    0.246   17.687
  442.302  163.269  106.149    0.353    0.271   18.645
  442.552  162.554   88.191    0.330    0.306   19.074
  442.802  162.254   90.397    0.318    0.318   18.903
  443.052  161.531   91.896    0.323    0.310   18.553
  443.302  161.129   90.754    0.347    0.293   17.744
  443.552  161.576   91.575    0.364    0.264   16.573
  443.802  162.443   96.015    0.380    0.207   14.936
  444.052  163.630  102.018    0.392    0.183   13.277
  444.302  164.499  110.391    0.389    0.212   12.131
