~VERSION INFORMATION
 VERS.                 2.0:   CWLS LOG ASCII STANDARD -VERSION 2.0
 WRAP.                  NO:   ONE LINE PER DEPTH STEP
~WELL INFORMATION BLOCK
#MNEM.UNIT           DATA                    DESCRIPTION OF MNEMONIC
#---------    -------------------            -------------------------------
# Generated from Intellog Unique Number	CW_73_75/WELL/901
WELL.         08-05-075-25W4                 : Well_name    - WELL
LOC .         00/08-05-075-25W4/0            : Location     - LOCATION
UWI .         00/08-05-075-25W4/0            : Uwi          - UNIQUE WELL ID
ENTR.         JAYE                           : Entered      - ENTERED BY
SRVC.         SCHLUMBERGER                   : Scn          - SERVICE COMPANY
DATE.         16 NOV 74                      : Date         - LOG DATE
STRT.M        423.672                        : top_depth    - START DEPTH
STOP.M        621.672                        : bot_depth    - STOP DEPTH
STEP.M        0.25                           : increment    - STEP LENGTH
 NULL. -999.2500:NULL Value
~CURVE INFORMATION BLOCK
#MNEM UNIT       ERCB CURVE CODE    CURVE DESCRIPTION
#-----------   ------------------   ----------------------------------
DEPT.M        00 001 00 00         : DEPTH        - DEPTH
ILD .OHMM     00 120 00 00         : RESD         - DEEP RESISTIVITY (DIL)
NPHI.V/V      00 330 00 00         : PHIN         - NEUTRON POROSITY (SANDSTONE)
DPHI.V/V      00 890 00 00         : PHID         - DENSITY POROSITY (SANDSTONE)
GR  .API      00 310 00 00         : GR           - GAMMA RAY
CALI.MM       00 280 01 00         : CAL          - CALIPER
~PARAMETER INFORMATION
#MNEM.UNIT           DATA             DESCRIPTION OF MNEMONIC
#---------         -----------     ------------------------------
GL  .M        700.126              : gl           - GROUND LEVEL ELEVATION
EREF.M        704.088              : kb           - ELEVATION OF DEPTH REFERENCE
DATM.M        700.126              : datum        - DATUM ELEVATION
TDD .M        622.402              : tdd          - TOTAL DEPTH DRILLER
RUN .         ONE                  : Run          - RUN NUMBER
ENG .         SIMPSON              : Engineer     - RECORDING ENGINEER
WIT .         OXTOBY               : Witness      - WITNESSED BY
BASE.         EDM                  : Branch       - HOME BASE OF LOGGING UNIT
MUD .         GEL                  : Mud_type     - MUD TYPE
MATR.         SANDSTONE            : Logunit      - NEUTRON MATRIX
TMAX.C        23.3333              : BHT          - MAXIMUM RECORDED TEMPERATURE
BHTD.M        623.011              : BHTDEP       - MAXIMUM RECORDED TEMPERATURE
RMT .C        15                   : MDTP         - TEMPERATURE OF MUD
MUDD.KG/M     1080                 : MWT          - MUD DENSITY
NEUT.         1                    : NEUTRON      - NEUTRON TYPE
RESI.         0                    : RESIST       - RESISTIVITY TYPE
RM  .OHMM     1.8                  : RM           - RESISTIVITY OF MUD
RMC .OHMM     0                    : RMC          - RESISTIVITY OF MUD CAKE
RMF .OHMM     2.27                 : RMF          - RESISTIVITY OF MUD FILTRATE
SUFT.C        -17.7778             : SUFT         - SURFACE TEMPERATURE
~A  DEPTH     RESD     PHIN     PHID       GR      CAL
# ...
  533.172    4.988    0.513    0.177   77.680  221.680
  533.422    5.056    0.492    0.204   84.475  224.562
  533.672    5.202    0.472    0.214   88.056  225.288
  533.922    5.273    0.508    0.200   89.576  223.343
  534.172    5.346    0.555    0.222   85.153  220.886
  534.422    5.450    0.536    0.213   82.126  219.558
  534.672    5.535    0.517    0.227   81.038  219.359
  534.922    5.632    0.497    0.222   77.707  220.803
  535.172    5.880    0.466    0.212   77.712  222.247
  535.422    6.358    0.507    0.208   80.626  224.512
  535.672    7.029    0.574    0.212   81.721  224.621
  535.922    7.365    0.554    0.235   80.755  222.678
  536.172    7.197    0.507    0.209   71.664  221.452
  536.422    6.605    0.407    0.190   68.394  221.049
  536.672    5.714    0.398    0.186   68.216  221.466
  536.922    5.401    0.419    0.178   68.523  221.986
  537.172    5.040    0.445    0.163   68.891  222.300
  537.422    4.746    0.460    0.187   71.745  222.923
  537.672    4.495    0.523    0.238   76.114  223.238
  537.922    4.351    0.563    0.249   80.665  223.243
  538.172    4.395    0.581    0.255   82.124  223.456
  538.422    4.563    0.544    0.244   81.339  223.975
  538.672    5.111    0.512    0.245   81.283  224.394
  538.922    5.405    0.515    0.252   77.467  224.708
  539.172    5.644    0.511    0.226   76.440  224.817
  539.422    5.721    0.493    0.183   76.687  224.927
  539.672    5.528    0.473    0.171   76.569  225.139
  539.922    5.216    0.461    0.177   75.906  225.350
  540.172    4.985    0.460    0.183   75.850  225.460
  540.422    4.862    0.460    0.185   76.520  225.570
  540.672    4.812    0.490    0.199   78.525  225.677
  540.922    4.816    0.507    0.211   84.531  225.582
  541.172    4.819    0.502    0.225   88.173  225.896
  541.422    4.868    0.491    0.219   89.329  226.315
  541.672    4.917    0.471    0.222   87.635  226.423
  541.922    4.975    0.468    0.211   86.972  223.966
  542.172    5.262    0.490    0.210   91.887  220.790
  542.422    5.596    0.488    0.217   93.043  219.052
  542.672    5.864    0.469    0.207   87.044  218.647
  542.922    6.271    0.488    0.191   83.592  219.783
  543.172    7.340    0.494    0.170   81.050  221.330
  543.422    7.981    0.465    0.143   74.263  223.595
  543.672    8.211    0.410    0.109   70.144  226.271
  543.922    7.861    0.330    0.087   66.571  225.969
  544.172    7.308    0.321    0.072   71.850  221.150
  544.422    6.683    0.358    0.108   74.036  218.899
  544.672    6.110    0.449    0.171   73.616  218.597
  544.922    5.765    0.441    0.155   75.014  218.501
  545.172    5.654    0.440    0.175   77.080  218.405
  545.422    5.637    0.437    0.165   79.690  218.105
  545.672    5.800    0.444    0.163   80.482  217.904
  545.922    6.168    0.465    0.160   76.424  217.604
  546.172    6.669    0.453    0.148   74.670  217.303
  546.422    7.041    0.402    0.160   76.008  217.206
  546.672    7.087    0.405    0.161   79.286  217.213
  546.922    6.924    0.418    0.146   80.078  217.219
  547.172    6.739    0.400    0.144   80.385  217.226
  547.422    6.477    0.392    0.149   81.298  218.054
  547.672    6.270    0.407    0.142   82.090  218.779
  547.922    6.060    0.416    0.130   83.731  219.813
  548.172    5.910    0.432    0.140   85.069  220.434
  548.422    5.914    0.445    0.156   86.771  219.517
  548.672    6.383    0.446    0.174   88.169  218.292
  548.922    6.915    0.449    0.188   89.325  218.504
  549.172    7.787    0.495    0.170   90.541  220.563
  549.422    8.735    0.500    0.162   91.879  222.522
  549.672    8.630    0.386    0.166   86.912  223.657
  549.922    7.761    0.349    0.144   81.701  224.280
  550.172    7.058    0.321    0.106   76.187  224.184
  550.422    6.441    0.347    0.104   78.920  225.012
  550.672    5.793    0.402    0.160   85.472  225.430
  550.922    5.486    0.494    0.159   89.538  225.538
  551.172    5.360    0.480    0.147   89.724  225.544
  551.422    5.345    0.469    0.182   89.667  225.552
  551.672    5.319    0.485    0.193   90.156  225.763
  551.922    5.343    0.493    0.195   91.676  226.181
  552.172    5.376    0.476    0.186   92.286  226.598
  552.422    5.292    0.441    0.172   87.864  227.221
  552.672    5.230    0.430    0.166   89.747  227.330
  552.922    5.195    0.450    0.179   90.903  227.644
  553.172    5.208    0.465    0.165   90.058  228.063
  553.422    5.212    0.463    0.159   90.183  228.171
  553.672    5.303    0.431    0.177   90.854  228.485
  553.922    5.455    0.421    0.165   92.798  228.595
  554.172    5.727    0.449    0.155   94.621  228.704
  554.422    5.991    0.458    0.167   94.868  228.813
  554.672    5.973    0.446    0.164   92.749  228.820
  554.922    5.804    0.451    0.147   89.721  228.827
  555.172    5.672    0.425    0.124   89.604  228.833
  555.422    5.646    0.397    0.136   92.822  228.840
  555.672    5.618    0.431    0.165   93.068  228.949
  555.922    5.570    0.451    0.160   90.950  228.854
  556.172    5.545    0.453    0.150   93.925  228.655
  556.422    5.529    0.467    0.157   94.111  228.354
  556.672    5.543    0.481    0.151   93.205  228.257
  556.922    5.671    0.482    0.178   92.845  227.956
  557.172    5.823    0.451    0.183   90.060  227.962
  557.422    6.160    0.421    0.177   89.458  227.969
  557.672    6.466    0.442    0.186   88.976  227.976
  557.922    6.641    0.479    0.179   86.312  228.188
  558.172    6.670    0.410    0.167   86.438  228.503
  558.422    6.482    0.396    0.150   89.231  229.639
  558.672    6.275    0.424    0.114   92.630  230.671
  558.922    5.998    0.489    0.137   96.575  231.294
  559.172    5.914    0.467    0.136   98.337  232.224
  559.422    5.919    0.452    0.173   94.340  232.642
  559.672    5.978    0.449    0.161   91.372  232.956
  559.922    6.185    0.443    0.160   89.012  233.065
  560.172    6.421    0.450    0.160   86.347  233.073
  560.422    6.918    0.485    0.153   82.714  232.873
  560.672    7.564    0.472    0.164   79.686  229.697
  560.922    8.360    0.490    0.158   77.144  226.418
  561.172   10.098    0.528    0.167   74.480  224.166
  561.422   11.752    0.553    0.198   71.816  222.222
  561.672   16.786    0.546    0.247   65.878  220.073
  561.922   22.433    0.505    0.254   61.274  218.437
  562.172   27.293    0.460    0.238   61.217  217.212
  562.422   29.459    0.440    0.220   63.100  217.012
  562.672   29.160    0.468    0.210   62.135  217.943
  562.922   28.384    0.497    0.210   62.442  218.875
  563.172   28.404    0.454    0.229   63.294  219.496
  563.422   30.208    0.439    0.217   64.814  220.632
  563.672   32.427    0.432    0.203   65.970  222.179
  563.922   34.489    0.425    0.188   63.002  223.623
  564.172   36.270    0.415    0.184   60.520  225.785
  564.422   38.432    0.387    0.176   60.100  226.203
  564.672   40.872    0.364    0.173   60.286  226.107
  564.922   43.711    0.370    0.168   62.655  226.011
  565.172   45.134    0.376    0.177   63.689  226.120
  565.422   42.739    0.372    0.187   63.147  226.538
  565.672   33.786    0.369    0.194   63.576  226.133
  565.922   27.866    0.381    0.188   65.520  225.217
  566.172   22.232    0.409    0.195   67.888  224.915
  566.422   20.031    0.437    0.221   69.287  224.922
  566.672   18.863    0.466    0.210   70.806  224.210
  566.922   19.406    0.511    0.209   71.720  224.113
  567.172   21.652    0.472    0.235   69.117  224.223
  567.422   24.697    0.444    0.221   64.331  224.434
  567.672   29.337    0.421    0.222   61.606  225.160
  567.922   32.430    0.406    0.210   59.245  225.475
  568.172   30.882    0.396    0.202   58.825  225.481
  568.422   26.328    0.408    0.221   61.193  225.386
  568.672   22.569    0.424    0.228   65.805  225.494
  568.922   19.780    0.449    0.242   66.779  225.912
  569.172   19.081    0.440    0.243   68.117  226.638
  569.422   19.343    0.443    0.243   69.879  227.054
