~VERSION INFORMATION
 VERS.                 2.0:   CWLS LOG ASCII STANDARD -VERSION 2.0
 WRAP.                  NO:   ONE LINE PER DEPTH STEP
~WELL INFORMATION BLOCK
#MNEM.UNIT           DATA                    DESCRIPTION OF MNEMONIC
#---------    -------------------            -------------------------------
# Generated from Intellog Unique Number	CW_70_72/WELL/3014
NULL.         -999.25                        : NULL_VALUE
WELL.         DEKALB ET AL MITSUE 06-35      : Well_name    - WELL              
LOC .         06-35-070-03W5                : Location     - LOCATION          
UWI .         00/06-35-070-03W5/0            : Uwi          - UNIQUE WELL ID    
ENTR.         JAYE                           : Entered      - ENTERED BY        
SRVC.         SCHLUMBERGER                   : Scn          - SERVICE COMPANY   
DATE.         10 FEB 80                      : Date         - LOG DATE          
STRT.M        460                            : top_depth    - START DEPTH       
STOP.M        680                            : bot_depth    - STOP DEPTH        
STEP.M        0.25                           : increment    - STEP LENGTH       
~CURVE INFORMATION BLOCK
#MNEM UNIT       ERCB CURVE CODE    CURVE DESCRIPTION
#-----------   ------------------   ----------------------------------
DEPT.M        00 001 00 00         : DEPTH        - DEPTH                       
ILD .OHMM     00 120 00 00         : RESD         - DEEP RESISTIVITY (DIL)      
CALI.MM       00 280 01 00         : CAL          - CALIPER                     
GR  .API      00 310 00 00         : GR           - GAMMA RAY                   
NPHI.V/V      00 330 00 00         : PHIN         - NEUTRON POROSITY (SANDSTONE)
DPHI.V/V      00 890 00 00         : PHID         - DENSITY POROSITY (SANDSTONE)
~PARAMETER INFORMATION       
#MNEM.UNIT           DATA             DESCRIPTION OF MNEMONIC
#---------         -----------     ------------------------------
GL  .M        617.4                : gl           - GROUND LEVEL ELEVATION      
EREF.M        620.6                : kb           - ELEVATION OF DEPTH REFERENCE
DATM.M        617.4                : datum        - DATUM ELEVATION             
TDD .M        685                  : tdd          - TOTAL DEPTH DRILLER         
RUN .         ONE                  : Run          - RUN NUMBER                  
ENG .         COOK                 : Engineer     - RECORDING ENGINEER          
WIT .         LOWTHER              : Witness      - WITNESSED BY                
BASE.         RD                   : Branch       - HOME BASE OF LOGGING UNIT   
MUD .         GEL CHEM             : Mud_type     - MUD TYPE                    
MATR.         SANDSTONE            : Logunit      - NEUTRON MATRIX              
TMAX.C        31                   : BHT          - MAXIMUM RECORDED TEMPERATURE
BHTD.M        686                  : BHTDEP       - MAXIMUM RECORDED TEMPERATURE
RMT .C        10                   : MDTP         - TEMPERATURE OF MUD          
MUDD.KG/M     1120                 : MWT          - MUD DENSITY                 
NEUT.         1                    : NEUTRON      - NEUTRON TYPE                
RESI.         0                    : RESIST       - RESISTIVITY TYPE            
RM  .OHMM     4.39                 : RM           - RESISTIVITY OF MUD          
RMC .OHMM     0.25                 : RMC          - RESISTIVITY OF MUD CAKE     
RMF .OHMM     2.49                 : RMF          - RESISTIVITY OF MUD FILTRATE 
SUFT.C        0                    : SUFT         - SURFACE TEMPERATURE         
~A  DEPTH     RESD      CAL       GR     PHIN     PHID
# ...
  533.000    4.419  165.095   50.850    0.273    0.202
  533.250    3.880  164.804   54.277    0.314    0.246
  533.500    3.414  164.719   57.268    0.401    0.273
  533.750    3.177  164.851   60.384    0.419    0.280
  534.000    3.068  164.869   62.880    0.414    0.279
  534.250    3.146  165.205   62.522    0.407    0.272
  534.500    3.475  165.330   54.100    0.415    0.262
  534.750    3.796  165.562   50.949    0.424    0.249
  535.000    4.313  165.998   50.529    0.421    0.161
  535.250    5.039  166.125   48.558    0.317    0.120
  535.500    6.168  166.150   45.099    0.179    0.058
  535.750    7.592  166.383   47.532    0.171    0.031
  536.000    9.021  166.713   46.802    0.224    0.061
  536.250    9.318  166.839   46.816    0.271    0.193
  536.500    8.306  167.072   50.615    0.350    0.226
  536.750    6.961  167.305   53.919    0.387    0.252
  537.000    5.878  166.919   54.426    0.409    0.264
  537.250    5.152  166.932   52.580    0.368    0.230
  537.500    4.491  166.755   50.051    0.311    0.205
  537.750    4.086  166.885   54.966    0.355    0.218
  538.000    3.628  166.908   58.641    0.394    0.247
  538.250    3.277  167.026   58.406    0.402    0.268
  538.500    2.942  166.639   58.482    0.393    0.278
  538.750    2.638  166.973   61.784    0.389    0.287
  539.000    2.500  168.240   68.377    0.405    0.267
  539.250    2.507  169.814   74.469    0.432    0.219
  539.500    2.614  171.387   82.176    0.458    0.194
  539.750    2.735  172.855   84.608    0.487    0.198
  540.000    2.727  174.641   82.947    0.509    0.196
  540.250    2.542  175.696   82.280    0.533    0.195
  540.500    2.334  176.546   84.158    0.555    0.228
  540.750    2.144  178.234   86.961    0.575    0.230
  541.000    2.040  179.384   90.822    0.567    0.222
  541.250    1.974  181.372   92.076    0.583    0.206
  541.500    1.975  182.015   89.238    0.600    0.228
  541.750    2.052  176.562   84.598    0.550    0.242
  542.000    2.163  169.655   77.540    0.515    0.225
  542.250    2.333  164.510   77.058    0.485    0.201
  542.500    2.446  162.775   78.003    0.469    0.203
  542.750    2.588  161.975   79.071    0.466    0.211
  543.000    2.664  161.998   78.031    0.444    0.224
  543.250    2.651  162.020   77.303    0.428    0.238
  543.500    2.579  162.252   81.968    0.439    0.250
  543.750    2.468  162.279   84.029    0.460    0.260
  544.000    2.384  162.506   80.940    0.459    0.267
  544.250    2.332  162.531   70.594    0.449    0.275
  544.500    2.304  162.968   69.744    0.440    0.283
  544.750    2.275  163.196   70.003    0.433    0.281
  545.000    2.252  163.531   67.412    0.440    0.276
  545.250    2.245  163.759   65.504    0.461    0.262
  545.500    2.259  163.683   67.005    0.459    0.248
  545.750    2.290  163.709   67.517    0.457    0.258
  546.000    2.326  163.418   68.834    0.476    0.274
  546.250    2.399  163.132   71.083    0.465    0.284
  546.500    2.492  163.055   73.579    0.430    0.257
  546.750    2.593  163.181   75.887    0.415    0.222
  547.000    2.719  163.203   79.436    0.414    0.191
  547.250    2.834  163.432   81.808    0.430    0.178
  547.500    3.137  164.085   82.504    0.437    0.193
  547.750    3.302  164.202   79.354    0.428    0.205
  548.000    3.359  164.202   75.523    0.413    0.195
  548.250    3.419  165.092   76.342    0.403    0.177
  548.500    3.434  165.307   78.343    0.431    0.169
  548.750    3.462  165.434   80.217    0.446    0.157
  549.000    3.503  165.434   82.341    0.433    0.177
  549.250    3.519  165.696   83.907    0.442    0.183
  549.500    3.548  165.504   84.789    0.456    0.180
  549.750    3.564  165.116   86.169    0.457    0.176
  550.000    3.552  165.040   86.741    0.443    0.171
  550.250    3.509  165.162   81.915    0.455    0.165
  550.500    3.492  165.091   81.001    0.466    0.165
  550.750    3.442  165.110   83.743    0.469    0.176
  551.000    3.400  165.238   87.293    0.467    0.179
  551.250    3.296  165.363   87.309    0.461    0.157
  551.500    3.219  165.285   86.763    0.436    0.141
  551.750    3.144  165.412   89.011    0.464    0.158
  552.000    3.043  165.952   93.739    0.487    0.189
  552.250    2.994  166.177   94.064    0.507    0.205
  552.500    2.935  166.204   88.061    0.513    0.197
  552.750    2.910  166.198   85.594    0.478    0.184
  553.000    2.858  162.025   82.381    0.438    0.252
  553.250    2.750  161.517   76.626    0.434    0.284
  553.500    2.428  161.517   63.551    0.437    0.313
  553.750    2.078  159.607   55.872    0.424    0.330
  554.000    1.807  159.415   56.385    0.438    0.328
  554.250    1.593  159.338   59.126    0.491    0.296
  554.500    1.505  159.361   69.563    0.530    0.272
  554.750    1.662  159.282   72.246    0.444    0.264
  555.000    1.829  159.282   68.536    0.435    0.289
  555.250    1.984  159.234   58.687    0.436    0.308
  555.500    2.038  158.941   56.840    0.449    0.317
  555.750    1.972  159.170   53.752    0.457    0.314
  556.000    1.908  159.504   53.022    0.429    0.312
  556.250    1.819  159.835   58.433    0.428    0.321
  556.500    1.753  160.068   57.703    0.433    0.327
  556.750    1.713  160.199   53.313    0.426    0.324
  557.000    1.698  160.527   55.499    0.426    0.321
  557.250    1.689  160.655   55.081    0.431    0.330
  557.500    1.694  160.655   54.471    0.442    0.324
  557.750    1.698  159.684   59.636    0.454    0.311
  558.000    1.718  159.694   61.448    0.437    0.304
  558.250    1.713  160.543   60.906    0.424    0.300
  558.500    1.766  161.287   60.918    0.434    0.305
  558.750    1.841  161.209   61.739    0.444    0.303
  559.000    2.019  160.926   63.428    0.452    0.296
  559.250    2.109  160.951   65.800    0.456    0.289
  559.500    2.154  160.972   65.567    0.459    0.293
  559.750    2.217  160.993   63.596    0.463    0.299
  560.000    2.265  161.331   61.874    0.469    0.292
  560.250    2.262  161.349   60.523    0.475    0.287
  560.500    2.255  161.178   59.356    0.478    0.284
  560.750    2.236  161.411   59.495    0.474    0.279
  561.000    2.229  161.320   62.363    0.458    0.287
  561.250    2.247  161.239   66.160    0.469    0.279
  561.500    2.266  161.470   65.555    0.477    0.283
  561.750    2.297  161.595   61.723    0.456    0.291
  562.000    2.333  161.730   60.992    0.466    0.285
  562.250    2.446  161.747   59.641    0.467    0.279
  562.500    2.555  161.357   58.230    0.442    0.272
  562.750    2.694  161.176   61.720    0.408    0.268
  563.000    2.793  161.617   64.338    0.410    0.275
  563.250    2.800  162.062   61.436    0.427    0.281
  563.500    2.751  162.077   59.466    0.425    0.283
  563.750    2.627  162.094   58.921    0.406    0.289
  564.000    2.444  162.327   57.321    0.419    0.314
  564.250    2.257  162.354   57.274    0.423    0.313
  564.500    2.100  161.961   62.810    0.416    0.291
  564.750    1.951  161.880   68.966    0.409    0.276
  565.000    1.891  161.805   72.144    0.428    0.270
  565.250    1.850  162.033   65.023    0.446    0.288
  565.500    1.824  162.161   61.316    0.441    0.302
  565.750    1.812  162.388   65.859    0.430    0.294
  566.000    1.806  162.410   63.330    0.432    0.293
  566.250    1.808  162.025   60.240    0.443    0.301
  566.500    1.822  162.047   62.860    0.448    0.294
  566.750    1.851  161.861   64.549    0.440    0.279
  567.000    1.873  161.884   61.090    0.406    0.265
  567.250    1.878  162.020   61.542    0.425    0.280
  567.500    1.890  162.354   67.696    0.447    0.304
  567.750    1.895  162.584   69.444    0.428    0.304
  568.000    1.875  162.806   67.474    0.412    0.299
  568.250    1.880  162.727   68.359    0.415    0.290
  568.500    1.931  161.928   68.370    0.433    0.283
  568.750    2.036  160.913   64.043    0.450    0.279
  569.000    2.107  160.428   60.644    0.451    0.280
  569.250    2.168  160.348   60.912    0.441    0.281
