~VERSION INFORMATION
 VERS.                 2.0:   CWLS LOG ASCII STANDARD -VERSION 2.0
 WRAP.                  NO:   ONE LINE PER DEPTH STEP
~WELL INFORMATION BLOCK
#MNEM.UNIT           DATA                    DESCRIPTION OF MNEMONIC
#---------    -------------------            -------------------------------
# Generated from Intellog Unique Number	CN_91_93/WELL/2699
WELL.         07-14-091-18W4                 : Well_name    - WELL
LOC .         00/07-14-091-18W4/0            : Location     - LOCATION
UWI .         00/07-14-091-18W400            : Uwi          - UNIQUE WELL ID
ENTR.         JOETTE                         : Entered      - ENTERED BY
SRVC.         SCHLUMBERGER                   : Scn          - SERVICE COMPANY
DATE.         02/09/92                       : Date         - LOG DATE
STRT.M        100                            : top_depth    - START DEPTH
STOP.M        240                            : bot_depth    - STOP DEPTH
STEP.M        0.25                           : increment    - STEP LENGTH
 NULL. -999.2500:NULL Value
~CURVE INFORMATION BLOCK
#MNEM UNIT       ERCB CURVE CODE    CURVE DESCRIPTION
#-----------   ------------------   ----------------------------------
DEPT.M        00 001 00 00         : DEPTH        - DEPTH
GR  .API      00 310 00 00         : GR           - GAMMA RAY
CALI.MM       00 280 01 00         : CAL          - CALIPER
NPHI.V/V      00 330 00 00         : PHIN         - NEUTRON POROSITY (SANDSTONE)
DPHI.V/V      00 890 00 00         : PHID         - DENSITY POROSITY (SANDSTONE)
ILD .OHMM     00 120 00 00         : RESD         - DEEP RESISTIVITY (DIL)
~PARAMETER INFORMATION
#MNEM.UNIT           DATA             DESCRIPTION OF MNEMONIC
#---------         -----------     ------------------------------
GL  .M        507.02               : gl           - GROUND LEVEL ELEVATION
EREF.M        509.87               : kb           - ELEVATION OF DEPTH REFERENCE
DATM.M        509.87               : datum        - DATUM ELEVATION
TDD .M        248                  : tdd          - TOTAL DEPTH DRILLER
RUN .         ONE                  : Run          - RUN NUMBER
ENG .         JO                   : Engineer     - RECORDING ENGINEER
WIT .         TIM                  : Witness      - WITNESSED BY
MUD .         GEL                  : Mud_type     - MUD TYPE
MATR.         SANDSTONE            : Logunit      - NEUTRON MATRIX
TMAX.C        17                   : BHT          - MAXIMUM RECORDED TEMPERATURE
BHTD.M        248                  : BHTDEP       - MAXIMUM RECORDED TEMPERATURE
RMT .C        6                    : MDTP         - TEMPERATURE OF MUD
MUDD.KG/M     1050                 : MWT          - MUD DENSITY
NEUT.         1                    : NEUTRON      - NEUTRON TYPE
RESI.         0                    : RESIST       - RESISTIVITY TYPE
RM  .OHMM     7.92                 : RM           - RESISTIVITY OF MUD
RMC .OHMM     7.3                  : RMC          - RESISTIVITY OF MUD CAKE
RMF .OHMM     7.14                 : RMF          - RESISTIVITY OF MUD FILTRATE
SUFT.C        4                    : SUFT         - SURFACE TEMPERATURE
~A  DEPTH       GR      CAL     PHIN     PHID     RESD
  100.000   50.857  244.364    0.346    0.346   41.583
  100.250   51.476  241.894    0.349    0.348   38.302
  100.500   48.490  243.431    0.357    0.356   35.932
  100.750   48.808  244.964    0.362    0.368   34.646
  101.000   53.042  244.003    0.368    0.372   32.507
  101.250   53.366  245.536    0.373    0.379   31.950
  101.500   52.485  256.605    0.381    0.388   31.396
  101.750   52.199  256.141    0.388    0.404   31.453
  102.000   53.124  253.658    0.398    0.430   31.784
  102.250   53.743  248.175    0.426    0.369   32.425
  102.500   51.960  242.692    0.425    0.159   31.863
  102.750   53.785  240.217    0.423    0.248   24.576
  103.000   56.816  239.753    0.427    0.308   16.182
  103.250   60.143  241.290    0.434    0.328   12.365
  103.500   68.891  243.329    0.428    0.324    8.854
  103.750   79.748  244.365    0.422    0.290    6.765
  104.000   83.674  244.899    0.432    0.246    6.114
  104.250   93.626  244.932    0.445    0.224    5.736
  104.500  107.185  244.969    0.500    0.243    5.535
  104.750  109.915  244.998    0.530    0.266    5.440
  105.000  112.946  244.538    0.576    0.279    5.396
  105.250  116.274  244.069    0.570    0.260    5.402
  105.500  117.196  244.069    0.574    0.266    5.410
  105.750  115.109  244.139    0.571    0.266    5.269
  106.000  116.032  243.169    0.574    0.267    5.129
  106.250  118.461  242.692    0.584    0.268    5.088
  106.500  118.784  242.692    0.536    0.260    5.289
  106.750  117.297  242.273    0.514    0.269    5.603
  107.000  113.706  241.796    0.548    0.275    5.663
  107.250  115.536  241.796    0.552    0.280    5.564
  107.500  114.651  242.384    0.526    0.282    5.367
  107.750  111.963  243.399    0.516    0.266    5.226
  108.000  111.082  244.443    0.520    0.269    5.334
  108.250  114.108  244.468    0.522    0.252    5.440
  108.500  111.119  245.003    0.542    0.226    5.497
  108.750  107.533  245.040    0.552    0.244    5.453
  109.000  104.840  245.068    0.548    0.273    5.410
  109.250  108.473  244.102    0.556    0.276    5.269
  109.500  110.599  246.647    0.544    0.271    5.130
  109.750  107.911  248.682    0.535    0.279    4.995
  110.000  105.523  248.213    0.544    0.281    5.003
  110.250  107.649  247.243    0.539    0.268    5.056
  110.500  107.674  246.779    0.547    0.275    5.159
  110.750  106.786  246.816    0.547    0.286    5.214
  111.000  108.313  246.844    0.525    0.294    5.318
  111.250  106.833  245.878    0.504    0.288    5.790
  111.500  104.742  243.400    0.517    0.272    6.364
  111.750  100.850  239.421    0.526    0.260    7.330
  112.000   95.155  236.445    0.517    0.248    8.284
  112.250   90.963  234.472    0.522    0.204    8.854
  112.500   87.971  233.001    0.513    0.123    9.206
  112.750   83.781  231.529    0.438    0.168    9.304
  113.000   82.895  233.071    0.459    0.247    9.057
  113.250   86.228  237.115    0.453    0.273    8.656
  113.500   86.245  239.656    0.462    0.270    8.509
  113.750   84.467  242.697    0.474    0.276    8.132
  114.000   84.782  246.241    0.476    0.271    7.844
  114.250   88.112  248.288    0.477    0.278    7.156
  114.500   90.844  248.316    0.483    0.266    6.528
  114.750   90.859  248.349    0.497    0.252    5.737
  115.000   94.492  248.386    0.517    0.195    5.284
  115.250   95.720  248.415    0.537    0.202    5.002
  115.500   95.735  248.473    0.538    0.204    4.479
  115.750  104.180  248.493    0.550    0.253    4.048
  116.000  110.824  248.518    0.540    0.309    3.694
  116.250  109.638  248.559    0.540    0.298    3.432
  116.500  106.950  249.599    0.553    0.308    3.280
  116.750  106.074  250.121    0.560    0.305    3.255
  117.000  105.184  251.157    0.568    0.312    3.351
  117.250  101.595  252.703    0.581    0.314    3.717
  117.500  100.715  252.732    0.586    0.283    4.049
  117.750   99.225  252.263    0.592    0.239    4.169
  118.000   94.135  251.794    0.600    0.185    4.253
  118.250   92.650  254.335    0.574    0.176    4.258
  118.500   97.181  254.368    0.587    0.247    4.032
  118.750  100.209  253.402    0.598    0.271    3.854
  119.000  100.532  250.931    0.588    0.306    3.788
  119.250  102.962  249.961    0.592    0.320    3.793
  119.500  104.784  251.006    0.586    0.318    3.870
  119.750  105.707  251.532    0.582    0.293    4.060
  120.000  106.032  251.565    0.583    0.294    4.380
  120.250  106.348  251.092    0.571    0.289    4.904
  120.500  105.769  249.123    0.579    0.300    5.543
  120.750  102.777  247.150    0.520    0.308    6.878
  121.000   94.974  245.177    0.481    0.294    8.856
  121.250   87.170  242.205    0.506    0.280   10.487
  121.500   84.184  240.228    0.499    0.256   12.076
  121.750   81.195  238.259    0.458    0.219   13.399
  122.000   80.011  236.792    0.446    0.185   13.926
  122.250   81.535  235.818    0.437    0.203   14.077
  122.500   83.661  235.851    0.433    0.231   12.605
  122.750   84.282  235.382    0.440    0.208   11.392
  123.000   83.400  235.415    0.439    0.186   10.296
  123.250   81.316  235.949    0.454    0.182    9.659
  123.500   80.132  237.988    0.468    0.237    9.060
  123.750   83.762  240.529    0.483    0.266    8.660
  124.000   87.393  242.070    0.475    0.257    8.589
  124.250   90.722  240.101    0.459    0.253    9.097
  124.500   92.850  239.633    0.468    0.247    9.908
  124.750   88.056  239.160    0.475    0.247   10.586
  125.000   82.660  239.193    0.460    0.237   11.316
  125.250   79.974  238.733    0.447    0.209   11.120
  125.500   82.702  237.762    0.462    0.269   10.432
  125.750   81.817  237.294    0.477    0.286   10.944
  126.000   81.237  236.825    0.463    0.285   13.453
  126.250   81.254  235.855    0.482    0.289   15.350
  126.500   81.276  235.888    0.478    0.274   18.695
  126.750   79.491  235.416    0.457    0.269   19.796
  127.000   71.988  235.449    0.436    0.271   20.767
  127.250   71.406  235.490    0.433    0.253   20.989
  127.500   69.922  235.518    0.429    0.219   20.822
  127.750   65.130  235.054    0.426    0.238   20.278
  128.000   63.645  234.590    0.435    0.223   19.556
  128.250   63.665  234.117    0.402    0.165   17.187
  128.500   65.487  234.150    0.378    0.187   14.689
  128.750   72.731  233.685    0.410    0.239   12.321
  129.000   75.764  235.724    0.400    0.237   10.830
  129.250   77.284  237.262    0.394    0.229    9.430
  129.500   91.450  238.799    0.405    0.217    7.910
  129.750   95.981  240.336    0.422    0.231    7.283
  130.000  102.923  241.874    0.437    0.230    6.706
  130.250  101.737  242.910    0.444    0.228    6.061
  130.500   95.739  242.947    0.456    0.237    5.426
  130.750   96.965  242.478    0.490    0.233    5.090
  131.000   99.392  242.478    0.503    0.255    5.243
  131.250   99.414  242.046    0.516    0.251    5.398
  131.500   96.121  242.071    0.526    0.182    5.507
  131.750   90.124  242.071    0.519    0.159    5.516
  132.000   91.349  242.647    0.512    0.212    5.422
  132.250   98.590  243.678    0.524    0.233    5.529
  132.500  101.925  243.716    0.517    0.259    7.324
  132.750  103.143  243.247    0.509    0.263    8.834
  133.000  106.174  242.277    0.506    0.263    9.356
  133.250  107.400  241.307    0.508    0.247   10.186
  133.500  101.399  240.341    0.500    0.220   11.304
  133.750   91.788  239.371    0.444    0.200   11.425
  134.000   92.112  239.408    0.440    0.184   11.020
  134.250   93.335  239.934    0.464    0.241   10.434
  134.500   90.047  239.971    0.442    0.248    9.698
  134.750   90.666  240.004    0.444    0.252    8.930
  135.000   90.084  238.537    0.473    0.259    8.860
  135.250   87.398  235.063    0.486    0.221   10.490
  135.500   85.310  233.082    0.494    0.218   12.773
  135.750   81.418  233.082    0.464    0.231   14.577
  136.000   76.022  231.660    0.437    0.212   14.196
  136.250   69.424  231.179    0.414    0.172   12.826
