~VERSION INFORMATION
 VERS.                 2.0:   CWLS LOG ASCII STANDARD -VERSION 2.0
 WRAP.                  NO:   ONE LINE PER DEPTH STEP
~WELL INFORMATION BLOCK
#MNEM.UNIT           DATA                    DESCRIPTION OF MNEMONIC
#---------    -------------------            -------------------------------
# Generated from Intellog Unique Number	CC_84_87/WELL/1073
NULL.         -999.25                        : NULL_VALUE
WELL.         PETROREP ET AL HOUSE           : Well_name    - WELL              
LOC .         06-34-084-16W4                 : Location     - LOCATION          
UWI .         00/06-34-084-16W400            : Uwi          - UNIQUE WELL ID    
ENTR.         JHS                            : Entered      - ENTERED BY        
SRVC.         COMPUTALOG                    : Scn          - SERVICE COMPANY   
DATE.         13 FEB 81                      : Date         - LOG DATE
STRT.M        100                            : top_depth    - START DEPTH       
STOP.M        277.901                        : bot_depth    - STOP DEPTH        
STEP.M        0.3                            : increment    - STEP LENGTH       
~CURVE INFORMATION BLOCK
#MNEM UNIT       ERCB CURVE CODE    CURVE DESCRIPTION
#-----------   ------------------   ----------------------------------
DEPT.M        00 001 00 00         : DEPTH        - DEPTH                       
DPHI.V/V      00 890 00 00         : PHID         - DENSITY POROSITY (LIMESTONE)
NPHI.V/V      00 330 00 00         : PHIN         - NEUTRON POROSITY (LIMESTONE)
GR  .API      00 310 00 00         : GR           - GAMMA RAY                   
ILD .OHMM     00 120 00 00         : RESD         - DEEP RESISTIVITY (DIL)      
~PARAMETER INFORMATION       
#MNEM.UNIT           DATA             DESCRIPTION OF MNEMONIC
#---------         -----------     ------------------------------
GL  .M        528.6                : gl           - GROUND LEVEL ELEVATION      
EREF.M        532.3                : kb           - ELEVATION OF DEPTH REFERENCE
DATM.M        532.3                : datum        - DATUM ELEVATION             
TDD .M        280                  : tdd          - TOTAL DEPTH DRILLER         
RUN .         ONE                  : Run          - RUN NUMBER                  
ENG .         BILL                 : Engineer     - RECORDING ENGINEER          
WIT .         JIM                  : Witness      - WITNESSED BY                
MUD .         GEL                  : Mud_type     - MUD TYPE                    
MATR.         LIMESTONE            : Logunit      - NEUTRON MATRIX              
TMAX.C        17                   : BHT          - MAXIMUM RECORDED TEMPERATURE
BHTD.M        280                  : BHTDEP       - MAXIMUM RECORDED TEMPERATURE
MATR.         1                    : LOGUNIT      - NEUTRON MATRIX              
RMT .C        25                   : MDTP         - TEMPERATURE OF MUD          
NEUT.         1                    : NEUTRON      - NEUTRON TYPE                
RESI.         0                    : RESIST       - RESISTIVITY TYPE            
RMC .OHMM     0.25                 : RMC          - RESISTIVITY OF MUD CAKE     
RMF .OHMM     0.25                 : RMF          - RESISTIVITY OF MUD FILTRATE 
SUFT.C        15                   : SUFT         - SURFACE TEMPERATURE         
~A  DEPTH     PHID     PHIN       GR     RESD
# ...
  152.201    0.313    0.270   40.824   22.408
  152.501    0.314    0.303   47.515   21.995
  152.801    0.311    0.331   48.742   21.589
  153.101    0.314    0.345   46.323   21.191
  153.401    0.311    0.305   41.476   20.800
  153.701    0.306    0.285   40.273   20.416
  154.001    0.300    0.277   45.142   19.670
  154.301    0.292    0.285   49.405   18.601
  154.601    0.288    0.309   53.667   18.258
  154.901    0.292    0.305   50.641   17.591
  155.201    0.304    0.321   48.831   17.591
  155.501    0.322    0.312   49.450   17.921
  155.801    0.321    0.301   48.856   16.027
  156.101    0.327    0.294   51.294   13.554
  156.401    0.323    0.294   52.520    9.877
  156.701    0.312    0.309   54.353    7.610
  157.001    0.299    0.310   53.150    5.974
  157.301    0.301    0.316   53.768    5.343
  157.601    0.284    0.317   58.032    5.052
  157.901    0.213    0.329   74.439    5.052
  158.201    0.165    0.334   77.487    5.147
  158.501    0.133    0.313   80.535    5.244
  158.801    0.151    0.328   93.298    5.244
  159.101    0.170    0.312   97.561    5.244
  159.401    0.157    0.299  100.001    5.244
  159.701    0.175    0.286  101.835    5.244
  160.001    0.182    0.291   96.988    5.244
  160.301    0.169    0.306   95.178    5.244
  160.601    0.166    0.302   95.796    5.244
  160.901    0.158    0.298   93.984    5.244
  161.201    0.168    0.291   95.211    5.244
  161.501    0.189    0.291   98.258    5.147
  161.801    0.193    0.286   98.876    5.147
  162.101    0.184    0.289  101.318    5.147
  162.401    0.171    0.300  101.937    5.052
  162.701    0.171    0.326  100.733    5.052
  163.001    0.182    0.325   98.316    4.959
  163.301    0.196    0.316   96.504    4.868
  163.601    0.179    0.288   96.515    4.778
  163.901    0.181    0.273  106.243    4.690
  164.201    0.199    0.254  106.863    4.690
  164.501    0.197    0.273  103.837    4.690
  164.801    0.205    0.331   98.990    4.603
  165.101    0.203    0.357   94.749    4.518
  165.401    0.188    0.353   94.156    4.353
  165.701    0.185    0.304   97.808    4.353
  166.001    0.207    0.286  105.107    4.690
  166.301    0.215    0.274  103.904    5.343
  166.601    0.237    0.310   98.449    6.317
  166.901    0.238    0.305   92.996    7.470
  167.201    0.228    0.345   82.684    9.516
  167.501    0.231    0.355   76.013   10.444
  167.801    0.189    0.378   66.308   10.640
  168.101    0.202    0.357   62.676   10.251
  168.401    0.240    0.332   62.079    9.516
  168.701    0.289    0.295   65.735    8.999
  169.001    0.283    0.301   66.355    8.833
  169.301    0.248    0.327   67.581    8.833
  169.601    0.219    0.358   70.021    9.168
  169.901    0.226    0.344   77.317    9.168
  170.201    0.218    0.318   82.188    9.168
  170.501    0.203    0.293   75.519    9.168
  170.801    0.190    0.278   73.101    9.168
  171.101    0.193    0.276   76.755    9.168
  171.401    0.207    0.294   79.804    8.999
  171.701    0.211    0.302   74.957    8.833
  172.001    0.208    0.299   76.182    8.833
  172.301    0.198    0.307   78.622    8.670
  172.601    0.193    0.305   77.420    8.670
  172.901    0.198    0.317   78.645    8.510
  173.201    0.223    0.292   74.405    8.510
  173.501    0.211    0.283   68.344    8.353
  173.801    0.218    0.269   68.965    8.353
  174.101    0.224    0.250   71.402    8.199
  174.401    0.218    0.244   74.450    8.199
  174.701    0.194    0.268   72.639    8.353
  175.001    0.211    0.284   69.616    7.753
  175.301    0.215    0.278   68.410    7.064
  175.601    0.159    0.272   69.638    6.934
  175.901    0.161    0.326   74.506    7.064
  176.201    0.199    0.350   83.019    7.332
  176.501    0.210    0.361   75.136    6.806
  176.801    0.222    0.330   62.395    6.201
  177.101    0.193    0.275   58.154    5.244
  177.401    0.151    0.270   59.380    4.959
  177.701    0.178    0.274   70.930    5.147
  178.001    0.259    0.315   80.050    5.864
  178.301    0.288    0.339   86.741    6.806
  178.601    0.275    0.363   83.717    7.753
  178.901    0.258    0.338   75.833    8.353
  179.201    0.240    0.328   63.698    8.670
  179.501    0.257    0.308   66.139    8.353
  179.801    0.268    0.318   71.009    8.047
  180.101    0.261    0.294   73.451    7.470
  180.401    0.243    0.275   69.817    7.197
  180.701    0.246    0.265   69.827    7.064
  181.001    0.235    0.297   72.267    6.934
  181.301    0.214    0.334   80.174    6.806
  181.601    0.209    0.355   78.971    6.806
  181.901    0.208    0.347   75.338    6.806
  182.201    0.203    0.315   74.135    6.806
  182.501    0.215    0.301   76.575    6.934
  182.801    0.220    0.295   72.942    6.934
  183.101    0.214    0.324   70.525    6.806
  183.401    0.211    0.311   75.394    6.557
  183.701    0.219    0.281   81.478    6.436
  184.001    0.217    0.268   79.062    6.317
  184.301    0.213    0.302   76.035    6.436
  184.601    0.226    0.340   75.439    6.806
  184.901    0.229    0.333   77.272    7.332
  185.201    0.211    0.336   76.070    7.899
  185.501    0.200    0.291   77.902    8.353
  185.801    0.204    0.277   83.986    8.833
  186.101    0.225    0.274   80.963    9.168
  186.401    0.216    0.291   77.936    9.516
  186.701    0.227    0.319   76.732    9.694
  187.001    0.207    0.358   73.709    9.877
  187.301    0.233    0.395   70.685    9.877
  187.601    0.263    0.376   68.871   10.062
  187.901    0.228    0.307   57.344   10.251
  188.201    0.169    0.291   53.104   10.251
  188.501    0.217    0.308   57.367   10.444
  188.801    0.274    0.292   64.059   10.251
  189.101    0.286    0.268   63.462   10.251
  189.401    0.281    0.264   61.651   10.251
  189.701    0.274    0.307   64.699   10.251
  190.001    0.273    0.296   61.675   10.251
  190.301    0.276    0.284   58.648   10.251
  190.601    0.280    0.268   60.481   10.251
  190.901    0.275    0.242   55.635   10.062
  191.201    0.274    0.254   53.825   10.062
  191.501    0.285    0.275   56.265   10.062
  191.801    0.279    0.312   59.312   10.062
  192.101    0.272    0.293   61.147   10.062
  192.401    0.277    0.297   58.730   10.062
  192.701    0.276    0.309   56.919   10.062
  193.001    0.272    0.295   56.929   10.062
  193.301    0.272    0.286   56.334    9.877
  193.601    0.269    0.282   56.344    9.694
  193.901    0.261    0.275   58.179    9.516
  194.201    0.270    0.263   62.439    9.340
  194.501    0.266    0.258   65.486    9.516
  194.801    0.260    0.327   63.069   10.251
  195.101    0.282    0.334   61.259   11.678
  195.401    0.284    0.317   62.484   14.333
  195.701    0.264    0.331   61.889   16.948
  196.001    0.245    0.277   57.041   20.800
  196.301    0.082    0.111   50.981   22.408
  196.601    0.000    0.089   50.383   21.589
  196.901    0.000    0.113   51.001   17.266
  197.201    0.000    0.140   51.619   13.809
  197.501    0.045    0.169   53.454   11.898
  197.801    0.072    0.196   56.502   11.252
  198.101    0.147    0.225   57.120   10.444
  198.401    0.248    0.259   63.203    9.877
  198.701    0.251    0.289   59.571    9.168
  199.001    0.246    0.302   59.583    8.670
  199.301    0.250    0.320   65.060    8.353
  199.601    0.241    0.346   66.894    8.353
  199.901    0.222    0.338   67.510    8.353
  200.201    0.207    0.298   70.558    8.353
  200.501    0.200    0.293   73.607    8.353
  200.801    0.195    0.310   74.831    8.199
  201.101    0.205    0.312   70.592    7.899
  201.401    0.198    0.290   71.817    7.753
  201.701    0.188    0.296   79.117    7.610
  202.001    0.195    0.309   75.486    7.470
  202.301    0.200    0.330   73.675    7.610
  202.601    0.196    0.330   74.900    7.610
  202.901    0.200    0.313   78.555    7.610
  203.201    0.196    0.307   80.994    7.610
  203.501    0.195    0.280   84.651    7.610
  203.801    0.194    0.263   87.697    7.610
  204.101    0.186    0.288   90.138    7.610
