~VERSION INFORMATION
 VERS.                 2.0:   CWLS LOG ASCII STANDARD -VERSION 2.0
 WRAP.                  NO:   ONE LINE PER DEPTH STEP
~WELL INFORMATION BLOCK
#MNEM.UNIT           DATA                    DESCRIPTION OF MNEMONIC
#---------    -------------------            -------------------------------
# Generated from Intellog Unique Number	CX_WELLS/WELL/3707
WELL.         HANGINGSTONE                   : Well_name    - WELL
LOC .         00/06-23-085-11W4/0            : Location     - LOCATION
UWI .         00/06-23-085-11W400            : Uwi          - UNIQUE WELL ID
ENTR.         T                              : Entered      - ENTERED BY
SRVC.         SCHLUMBERGER                   : Scn          - SERVICE COMPANY
DATE.         03/04/92                       : Date         - LOG DATE
STRT.M        100                            : top_depth    - START DEPTH
STOP.M        275                            : bot_depth    - STOP DEPTH
STEP.M        0.25                           : increment    - STEP LENGTH
 NULL. -999.2500:NULL Value
~CURVE INFORMATION BLOCK
#MNEM UNIT       ERCB CURVE CODE    CURVE DESCRIPTION
#-----------   ------------------   ----------------------------------
DEPT.M        00 001 00 00         : DEPTH        - DEPTH
GR  .API      00 310 00 00         : GR           - GAMMA RAY
NPHI.V/V      00 330 00 00         : PHIN         - NEUTRON POROSITY (SANDSTONE)
DPHI.V/V      00 890 00 00         : PHID         - DENSITY POROSITY (SANDSTONE)
ILD .OHMM     00 120 00 00         : RESD         - DEEP RESISTIVITY (DIL)
~PARAMETER INFORMATION
#MNEM.UNIT           DATA             DESCRIPTION OF MNEMONIC
#---------         -----------     ------------------------------
GL  .M        520                  : gl           - GROUND LEVEL ELEVATION
EREF.M        524.9                : kb           - ELEVATION OF DEPTH REFERENCE
DATM.M        524.9                : datum        - DATUM ELEVATION
TDD .M        281                  : tdd          - TOTAL DEPTH DRILLER
RUN .         ONE                  : Run          - RUN NUMBER
ENG .         JO                   : Engineer     - RECORDING ENGINEER
WIT .         TIM                  : Witness      - WITNESSED BY
MUD .         GEL                  : Mud_type     - MUD TYPE
MATR.         SANDSTONE            : Logunit      - NEUTRON MATRIX
TMAX.C        26                   : BHT          - MAXIMUM RECORDED TEMPERATURE
BHTD.M        283                  : BHTDEP       - MAXIMUM RECORDED TEMPERATURE
RMT .C        18                   : MDTP         - TEMPERATURE OF MUD
MUDD.KG/M     1                    : MWT          - MUD DENSITY
NEUT.         1                    : NEUTRON      - NEUTRON TYPE
RESI.         0                    : RESIST       - RESISTIVITY TYPE
RM  .OHMM     3.7                  : RM           - RESISTIVITY OF MUD
RMC .OHMM     2.9                  : RMC          - RESISTIVITY OF MUD CAKE
RMF .OHMM     3.4                  : RMF          - RESISTIVITY OF MUD FILTRATE
SUFT.C        4                    : SUFT         - SURFACE TEMPERATURE
~A  DEPTH       GR     PHIN     PHID     RESD
  100.000   54.702    0.444    0.316   22.668
  100.250   55.934    0.451    0.329   21.858
  100.500   58.354    0.452    0.340   20.312
  100.750   61.380    0.445    0.345   19.586
  101.000   60.840    0.441    0.344   18.200
  101.250   59.078    0.420    0.340   16.599
  101.500   58.527    0.377    0.338   15.424
  101.750   66.308    0.402    0.336   14.878
  102.000   72.294    0.438    0.337   14.903
  102.250   69.971    0.480    0.337   14.918
  102.500   68.220    0.450    0.336   15.511
  102.750   69.452    0.440    0.334   15.824
  103.000   67.139    0.440    0.321   15.845
  103.250   66.567    0.433    0.314   15.011
  103.500   66.632    0.425    0.295   14.470
  103.750   67.853    0.405    0.245   13.958
  104.000   68.479    0.390    0.147   13.722
  104.250   70.305    0.372    0.175   13.477
  104.500   72.726    0.399    0.205   13.250
  104.750   79.318    0.416    0.260   12.793
  105.000   82.949    0.425    0.283   12.332
  105.250   83.565    0.436    0.307   11.672
  105.500   85.391    0.443    0.323   10.846
  105.750   87.812    0.449    0.323    9.705
  106.000   90.827    0.443    0.310    8.852
  106.250   98.002    0.443    0.279    8.073
  106.500  102.216    0.433    0.258    7.502
  106.750  105.826    0.434    0.249    7.102
  107.000  109.435    0.438    0.247    6.726
  107.250  113.044    0.449    0.256    6.486
  107.500  116.654    0.454    0.270    6.145
  107.750  115.508    0.452    0.285    6.265
  108.000  110.796    0.452    0.301    6.887
  108.250   97.775    0.449    0.318   10.604
  108.500   93.636    0.416    0.324   12.097
  108.750   90.113    0.410    0.321   13.554
  109.000   88.968    0.417    0.322   12.836
  109.250   90.210    0.444    0.338   12.374
  109.500   91.442    0.504    0.394   10.872
  109.750   92.685    0.546    0.415    9.381
  110.000   94.522    0.510    0.411    9.387
  110.250   95.732    0.435    0.407    9.226
  110.500   99.352    0.433    0.402    9.412
  110.750  101.773    0.428    0.345    9.786
  111.000   98.833    0.418    0.376    9.981
  111.250   93.549    0.412    0.337   10.573
  111.500   93.581    0.418    0.305   10.990
  111.750   92.436    0.430    0.298   11.216
  112.000   92.479    0.442    0.296   11.227
  112.250   94.294    0.437    0.296   11.242
  112.500   99.093    0.440    0.297   11.465
  112.750  100.324    0.443    0.298   11.700
  113.000   92.047    0.448    0.299   12.162
  113.250   88.524    0.432    0.301   12.412
  113.500   92.144    0.421    0.304   12.428
  113.750   91.582    0.424    0.313   12.448
  114.000   92.825    0.426    0.350   12.457
  114.250   94.640    0.434    0.402   12.712
  114.500   96.466    0.450    0.419   14.243
  114.750   85.811    0.455    0.371   15.363
  115.000   63.258    0.445    0.352   16.884
  115.250   48.443    0.439    0.347   17.881
  115.500   44.920    0.438    0.341   18.949
  115.750   49.123    0.445    0.339   19.325
  116.000   55.715    0.454    0.339   19.709
  116.250   56.342    0.456    0.339   20.486
  116.500   56.396    0.462    0.339   21.301
  116.750   54.656    0.468    0.340   22.565
  117.000   51.123    0.458    0.340   23.897
  117.250   46.411    0.441    0.339   24.372
  117.500   41.710    0.406    0.330   24.864
  117.750   41.148    0.379    0.323   25.366
  118.000   43.569    0.308    0.122   25.879
  118.250   43.623    0.267    0.126   26.410
  118.500   44.260    0.314    0.171   26.436
  118.750   46.670    0.378    0.263   26.497
  119.000   51.479    0.428    0.314   26.024
  119.250   56.277    0.444    0.314   25.568
  119.500   58.708    0.438    0.301   23.334
  119.750   53.391    0.426    0.316   22.917
  120.000   47.502    0.401    0.325   22.106
  120.250   50.528    0.404    0.338   22.142
  120.500   53.532    0.405    0.337   22.164
  120.750   58.319    0.405    0.325   22.193
  121.000   61.950    0.406    0.319   22.230
  121.250   59.000    0.407    0.310   21.855
  121.500   53.694    0.408    0.309   21.464
  121.750   43.633    0.405    0.320   21.500
  122.000   41.299    0.398    0.329   21.927
  122.250   43.719    0.391    0.336   21.955
  122.500   44.962    0.383    0.332   21.585
  122.750   44.400    0.387    0.327   20.820
  123.000   46.237    0.398    0.321   19.718
  123.250   48.658    0.407    0.315   19.366
  123.500   51.673    0.409    0.307   18.335
  123.750   55.865    0.414    0.299   18.365
  124.000   64.835    0.421    0.298   18.049
  124.250   69.038    0.431    0.301   18.414
  124.500   68.498    0.431    0.304   18.779
  124.750   65.559    0.427    0.306   19.533
  125.000   60.264    0.424    0.309   19.552
  125.250   62.090    0.422    0.314   18.168
  125.500   63.916    0.420    0.319   17.850
  125.750   65.731    0.412    0.314   17.229
  126.000   66.963    0.416    0.307   17.246
  126.250   69.384    0.422    0.303   17.263
  126.500   72.399    0.428    0.308   16.966
  126.750   74.819    0.420    0.306   15.771
  127.000   77.251    0.397    0.299   14.650
  127.250   80.860    0.409    0.294   12.637
  127.500   84.469    0.433    0.286   11.739
  127.750   88.684    0.446    0.279   10.508
  128.000   92.293    0.447    0.272    9.065
  128.250   96.486    0.434    0.266    8.426
  128.500  100.700    0.417    0.247    8.122
  128.750  102.527    0.407    0.244    7.840
  129.000  103.164    0.409    0.271    7.848
  129.250  102.019    0.416    0.283    7.855
  129.500   98.485    0.425    0.287    8.173
  129.750   98.528    0.432    0.262    8.335
  130.000  102.764    0.427    0.256    8.341
  130.250  102.786    0.426    0.265    8.352
  130.500  104.018    0.429    0.272    8.363
  130.750  104.655    0.428    0.274    8.374
  131.000  107.087    0.412    0.265    8.230
  131.250  110.685    0.410    0.261    8.091
  131.500  114.294    0.417    0.248    7.807
  131.750  117.904    0.428    0.241    7.815
  132.000  118.541    0.440    0.248    7.678
  132.250  123.361    0.434    0.238    7.548
  132.500  126.376    0.430    0.230    7.416
  132.750  125.814    0.430    0.223    7.158
  133.000  119.924    0.430    0.220    7.032
  133.250  116.985    0.428    0.227    6.909
  133.500  111.668    0.428    0.242    6.548
  133.750  103.390    0.428    0.250    6.429
  134.000   99.868    0.427    0.259    6.318
  134.250  102.288    0.429    0.267    6.094
  134.500  104.709    0.432    0.265    5.880
  134.750  106.535    0.428    0.265    5.779
  135.000  105.984    0.420    0.273    5.575
  135.250  102.461    0.422    0.283    5.479
  135.500   97.760    0.421    0.291    5.386
  135.750   96.604    0.423    0.290    5.290
  136.000  101.402    0.426    0.282    5.199
  136.250  106.211    0.430    0.277    5.015
  136.500  111.603    0.429    0.275    4.930
  136.750  117.006    0.422    0.271    4.757
  137.000  118.238    0.419    0.265    4.674
  137.250  119.470    0.420    0.261    4.595
  137.500  118.919    0.427    0.261    4.689
  137.750  115.990    0.437    0.298    4.692
  138.000  113.656    0.443    0.331    4.877
  138.250  110.717    0.444    0.382    5.169
  138.500  104.816    0.443    0.391    5.369
  138.750   98.322    0.445    0.383    5.584
  139.000   91.243    0.453    0.372    5.486
  139.250   88.293    0.441    0.383    5.390
  139.500   87.742    0.429    0.397    5.201
  139.750   91.373    0.425    0.373    5.110
  140.000   91.416    0.425    0.358    5.117
  140.250   90.865    0.436    0.358    5.223
  140.500   89.719    0.432    0.370    5.427
  140.750   88.563    0.429    0.365    5.535
  141.000   88.617    0.435    0.358    6.087
  141.250   88.055    0.441    0.345    6.444
  141.500   87.504    0.440    0.333    7.220
  141.750   85.170    0.425    0.315    8.243
  142.000   82.836    0.423    0.241    9.058
  142.250   78.124    0.423    0.259   10.337
  142.500   75.195    0.422    0.287   11.801
  142.750   77.627    0.419    0.295   12.497
  143.000   79.453    0.417    0.303   11.609
  143.250   81.269    0.413    0.304    9.826
