~VERSION INFORMATION
 VERS.                 2.0:   CWLS LOG ASCII STANDARD -VERSION 2.0
 WRAP.                  NO:   ONE LINE PER DEPTH STEP
~WELL INFORMATION BLOCK
#MNEM.UNIT           DATA                    DESCRIPTION OF MNEMONIC
#---------    -------------------            -------------------------------
# Generated from Intellog Unique Number	CW_70_72/WELL/693
NULL.         -999.25                        : NULL_VALUE
WELL.         AMOCO MIAMI B-1 SPURFIELD 06-2 : Well_name    - WELL              
LOC .         06-22-071-02W5                 : Location     - LOCATION          
UWI .         00/06-22-071-02W5/0            : Uwi          - UNIQUE WELL ID    
ENTR.         JAYE                           : Entered      - ENTERED BY        
SRVC.         SCHLUMBERGER                   : Scn          - SERVICE COMPANY   
DATE.         12 MAR 75                      : Date         - LOG DATE          
STRT.M        365.76                         : top_depth    - START DEPTH       
STOP.M        615.76                         : bot_depth    - STOP DEPTH        
STEP.M        0.25                           : increment    - STEP LENGTH       
~CURVE INFORMATION BLOCK
#MNEM UNIT       ERCB CURVE CODE    CURVE DESCRIPTION
#-----------   ------------------   ----------------------------------
DEPT.M        00 001 00 00         : DEPTH        - DEPTH                       
DPHI.V/V      00 890 00 00         : PHID         - DENSITY POROSITY (SANDSTONE)
NPHI.V/V      00 330 00 00         : PHIN         - NEUTRON POROSITY (SANDSTONE)
GR  .API      00 310 00 00         : GR           - GAMMA RAY                   
CALI.MM       00 280 01 00         : CAL          - CALIPER                     
ILD .OHMM     00 120 00 00         : RESD         - DEEP RESISTIVITY (DIL)      
~PARAMETER INFORMATION       
#MNEM.UNIT           DATA             DESCRIPTION OF MNEMONIC
#---------         -----------     ------------------------------
GL  .M        584.911              : gl           - GROUND LEVEL ELEVATION      
EREF.M        589.026              : kb           - ELEVATION OF DEPTH REFERENCE
DATM.M        584.911              : datum        - DATUM ELEVATION             
TDD .M        614.172              : tdd          - TOTAL DEPTH DRILLER         
RUN .         ONE                  : Run          - RUN NUMBER                  
ENG .         JENSEN               : Engineer     - RECORDING ENGINEER          
WIT .         GIBSON               : Witness      - WITNESSED BY                
BASE.         R.D.                 : Branch       - HOME BASE OF LOGGING UNIT   
MATR.         SANDSTONE            : Logunit      - NEUTRON MATRIX              
TMAX.C        32.2222              : BHT          - MAXIMUM RECORDED TEMPERATURE
BHTD.M        613.867              : BHTDEP       - MAXIMUM RECORDED TEMPERATURE
RMT .C        23.3333              : MDTP         - TEMPERATURE OF MUD          
MUDD.KG/M     0                    : MWT          - MUD DENSITY                 
NEUT.         1                    : NEUTRON      - NEUTRON TYPE                
RESI.         0                    : RESIST       - RESISTIVITY TYPE            
RM  .OHMM     2                    : RM           - RESISTIVITY OF MUD          
RMC .OHMM     0                    : RMC          - RESISTIVITY OF MUD CAKE     
RMF .OHMM     1.95                 : RMF          - RESISTIVITY OF MUD FILTRATE 
SUFT.C        -17.7778             : SUFT         - SURFACE TEMPERATURE         
~A  DEPTH     PHID     PHIN       GR      CAL     RESD
# ...
  475.260    0.290    0.470   63.646  209.257    2.984
  475.510    0.276    0.467   66.046  209.591    2.756
  475.760    0.277    0.475   65.628  210.020    2.477
  476.010    0.267    0.475   62.327  210.640    2.149
  476.260    0.287    0.442   52.599  210.773    1.945
  476.510    0.305    0.422   53.282  211.500    1.813
  476.760    0.321    0.427   53.162  211.721    1.735
  477.010    0.334    0.424   53.114  212.059    1.700
  477.260    0.318    0.416   53.362  212.792    1.676
  477.510    0.314    0.412   54.109  213.854    1.661
  477.760    0.329    0.419   54.237  215.520    1.664
  478.010    0.323    0.428   54.063  216.160    1.674
  478.260    0.320    0.436   54.566  216.053    1.683
  478.510    0.325    0.442   54.085  215.977    1.690
  478.760    0.314    0.439   52.561  215.485    1.697
  479.010    0.318    0.433   51.035  214.754    1.703
  479.260    0.323    0.418   49.880  213.949    1.710
  479.510    0.314    0.431   49.648  213.041    1.720
  479.760    0.326    0.446   51.430  212.021    1.724
  480.010    0.319    0.456   53.770  210.052    1.737
  480.260    0.315    0.446   54.391  208.413    1.747
  480.510    0.319    0.438   53.664  207.289    1.763
  480.760    0.307    0.434   53.303  207.413    1.784
  481.010    0.293    0.432   53.189  207.738    1.800
  481.260    0.310    0.430   54.182  208.782    1.824
  481.510    0.324    0.418   55.962  210.561    1.859
  481.760    0.304    0.414   52.789  212.318    1.880
  482.010    0.319    0.427   50.042  213.172    1.905
  482.260    0.321    0.436   52.376  213.398    1.930
  482.510    0.312    0.443   55.695  212.800    1.959
  482.760    0.301    0.451   58.398  210.426    1.996
  483.010    0.312    0.452   59.448  207.852    2.042
  483.260    0.304    0.435   58.171  205.175    2.100
  483.510    0.302    0.436   57.196  202.180    2.135
  483.760    0.307    0.443   57.207  204.466    2.172
  484.010    0.316    0.425   58.866  208.847    2.221
  484.260    0.313    0.407   61.207  213.308    2.280
  484.510    0.303    0.408   58.766  215.409    2.423
  484.760    0.295    0.423   54.852  216.971    2.754
  485.010    0.280    0.431   50.390  217.826    3.283
  485.260    0.271    0.422   45.684  219.479    3.843
  485.510    0.254    0.396   43.731  220.962    4.531
  485.760    0.138    0.318   45.517  222.321    4.558
  486.010    0.159    0.284   50.794  223.277    3.860
  486.260    0.197    0.332   55.273  222.457    3.405
  486.510    0.245    0.414   58.341  219.989    3.163
  486.760    0.266    0.428   59.333  213.876    2.800
  487.010    0.271    0.432   63.263  209.326    2.709
  487.260    0.243    0.426   70.435  209.040    2.994
  487.510    0.212    0.403   76.264  214.656    3.213
  487.760    0.166    0.417   80.071  220.472    3.422
  488.010    0.151    0.428   81.613  223.391    3.611
  488.260    0.155    0.433   78.556  225.165    3.748
  488.510    0.162    0.437   78.077  226.529    3.819
  488.760    0.155    0.446   80.043  227.575    3.891
  489.010    0.165    0.448   82.810  228.222    3.935
  489.260    0.143    0.443   85.085  228.644    3.973
  489.510    0.150    0.452   81.355  228.762    4.026
  489.760    0.158    0.442   82.160  228.687    4.071
  490.010    0.176    0.450   84.865  228.360    4.087
  490.260    0.178    0.448   84.322  228.058    4.126
  490.510    0.165    0.433   84.024  227.893    4.135
  490.760    0.167    0.417   82.502  227.687    4.136
  491.010    0.178    0.422   81.655  227.718    4.091
  491.260    0.179    0.437   81.352  227.935    3.987
  491.510    0.180    0.450   81.978  228.245    3.794
  491.760    0.191    0.443   81.924  228.278    3.486
  492.010    0.171    0.432   81.995  228.189    3.280
  492.260    0.182    0.436   83.718  228.503    3.052
  492.510    0.195    0.433   84.216  228.735    2.748
  492.760    0.207    0.423   81.286  228.956    2.441
  493.010    0.232    0.420   71.187  228.255    2.186
  493.260    0.272    0.419   62.009  218.098    2.068
  493.510    0.292    0.418   59.749  212.205    2.038
  493.760    0.287    0.412   62.578  213.871    2.151
  494.010    0.272    0.419   66.259  216.894    2.364
  494.260    0.255    0.455   69.454  218.992    2.542
  494.510    0.256    0.448   72.650  220.969    2.788
  494.760    0.245    0.430   74.312  221.821    3.031
  495.010    0.233    0.411   74.257  222.356    3.193
  495.260    0.227    0.432   76.288  222.668    3.164
  495.510    0.223    0.448   78.688  222.794    3.011
  495.760    0.208    0.438   79.982  222.704    2.680
  496.010    0.225    0.435   72.518  222.619    2.444
  496.260    0.281    0.451   61.563  222.426    2.245
  496.510    0.301    0.444   57.833  222.237    2.117
  496.760    0.315    0.437   55.882  222.138    2.063
  497.010    0.313    0.441   54.607  221.951    2.052
  497.260    0.302    0.449   53.994  221.959    2.076
  497.510    0.319    0.460   54.251  221.761    2.111
  497.760    0.323    0.476   55.121  221.552    2.131
  498.010    0.302    0.466   57.089  221.374    2.159
  498.260    0.284    0.471   60.463  221.200    2.164
  498.510    0.278    0.482   64.029  220.795    2.176
  498.760    0.276    0.466   68.630  220.293    2.242
  499.010    0.282    0.446   73.784  219.465    2.306
  499.260    0.277    0.445   80.350  218.960    2.411
  499.510    0.262    0.446   90.588  218.767    2.592
  499.760    0.255    0.435   83.978  218.675    2.730
  500.010    0.262    0.440   75.414  218.700    2.666
  500.260    0.294    0.459   68.187  218.703    2.454
  500.510    0.334    0.469   65.017  218.736    2.352
  500.760    0.331    0.426   61.900  217.716    2.305
  501.010    0.345    0.429   58.171  216.589    2.314
  501.260    0.357    0.425   56.102  216.901    2.345
  501.510    0.331    0.411   54.514  217.848    2.402
  501.760    0.309    0.400   54.156  219.311    2.430
  502.010    0.304    0.411   54.351  220.578    2.457
  502.260    0.298    0.417   55.214  221.827    2.467
  502.510    0.285    0.423   56.020  222.686    2.477
  502.760    0.284    0.432   56.888  223.212    2.477
  503.010    0.279    0.438   58.918  223.656    2.451
  503.260    0.284    0.445   59.595  224.173    2.433
  503.510    0.294    0.448   58.875  224.191    2.429
  503.760    0.291    0.427   57.229  224.093    2.416
  504.010    0.284    0.418   55.887  224.025    2.417
  504.260    0.271    0.427   54.855  223.922    2.404
  504.510    0.270    0.432   54.126  223.733    2.400
  504.760    0.283    0.433   53.645  223.347    2.387
  505.010    0.278    0.436   52.247  220.547    2.370
  505.260    0.271    0.446   49.928  219.431    2.340
  505.510    0.273    0.437   50.858  219.758    2.328
  505.760    0.284    0.438   53.011  220.906    2.324
  506.010    0.293    0.452   54.858  221.650    2.324
  506.260    0.284    0.451   55.715  222.178    2.435
  506.510    0.269    0.433   55.484  222.203    2.672
  506.760    0.221    0.387   55.251  222.515    3.092
  507.010    0.186    0.328   54.885  222.948    3.728
  507.260    0.147    0.242   54.165  223.176    4.630
  507.510    0.106    0.225   53.070  223.300    6.447
  507.760    0.077    0.220   51.243  223.204    8.494
  508.010    0.048    0.214   48.980  223.423   11.129
  508.260    0.037    0.208   45.872  223.761   13.922
  508.510    0.028    0.198   44.224  224.293   16.116
  508.760    0.018    0.187   45.578  224.614   18.586
  509.010    0.007    0.173   46.322  224.939   20.733
  509.260    0.003    0.165   45.166  225.259   20.546
  509.510    0.003    0.164   44.562  225.699   15.982
  509.760   -0.002    0.203   47.146  226.013   12.002
  510.010    0.033    0.287   51.139  225.930    8.402
  510.260    0.142    0.376   55.921  221.492    6.333
  510.510    0.245    0.413   59.480  204.597    4.686
  510.760    0.299    0.444   61.760  197.556    3.748
  511.010    0.261    0.437   62.132  200.056    3.133
  511.260    0.227    0.420   63.248  205.666    2.900
  511.510    0.238    0.400   65.829  210.564    3.043
