~VERSION INFORMATION
 VERS.                 2.0:   CWLS LOG ASCII STANDARD -VERSION 2.0
 WRAP.                  NO:   ONE LINE PER DEPTH STEP
~WELL INFORMATION BLOCK
#MNEM.UNIT           DATA                    DESCRIPTION OF MNEMONIC
#---------    -------------------            -------------------------------
# Generated from Intellog Unique Number	CW_79_81/WELL/2457
WELL.         SHELL MISTEHAE                 : Well_name    - WELL
LOC .         00/07-09-081-02W5/0            : Location     - LOCATION
UWI .         00/07-09-081-02W5/0            : Uwi          - UNIQUE WELL ID
ENTR.         MAX                            : Entered      - ENTERED BY
SRVC.         SCHLUMBERGER                   : Scn          - SERVICE COMPANY
STRT.M        243.84                         : top_depth    - START DEPTH
STOP.M        490.59                         : bot_depth    - STOP DEPTH
STEP.M        0.25                           : increment    - STEP LENGTH
 NULL. -999.2500:NULL Value
~CURVE INFORMATION BLOCK
#MNEM UNIT       ERCB CURVE CODE    CURVE DESCRIPTION
#-----------   ------------------   ----------------------------------
DEPT.M        00 001 00 00         : DEPTH        - DEPTH
ILD .OHMM     00 120 00 00         : RESD         - DEEP RESISTIVITY (DIL)
NPHI.V/V      00 330 00 00         : PHIN         - NEUTRON POROSITY (SANDSTONE)
DPHI.V/V      00 890 00 00         : PHID         - DENSITY POROSITY (SANDSTONE)
GR  .API      00 310 00 00         : GR           - GAMMA RAY
CALI.MM       00 280 01 00         : CAL          - CALIPER
~PARAMETER INFORMATION
#MNEM.UNIT           DATA             DESCRIPTION OF MNEMONIC
#---------         -----------     ------------------------------
GL  .M        607.771              : gl           - GROUND LEVEL ELEVATION
EREF.M        612.023              : kb           - ELEVATION OF DEPTH REFERENCE
DATM.M        607.771              : datum        - DATUM ELEVATION
TDD .M        492.557              : tdd          - TOTAL DEPTH DRILLER
RUN .         ONE                  : Run          - RUN NUMBER
ENG .         BILL                 : Engineer     - RECORDING ENGINEER
WIT .         JIM                  : Witness      - WITNESSED BY
MUD .         GEL                  : Mud_type     - MUD TYPE
MATR.         SANDSTONE            : Logunit      - NEUTRON MATRIX
TMAX.C        25.5556              : BHT          - MAXIMUM RECORDED TEMPERATURE
BHTD.M        492.557              : BHTDEP       - MAXIMUM RECORDED TEMPERATURE
MATR.         1                    : LOGUNIT      - NEUTRON MATRIX
RMT .C        21.1111              : MDTP         - TEMPERATURE OF MUD
NEUT.         1                    : NEUTRON      - NEUTRON TYPE
RESI.         0                    : RESIST       - RESISTIVITY TYPE
RMC .OHMM     3.28                 : RMC          - RESISTIVITY OF MUD CAKE
RMF .OHMM     4.9                  : RMF          - RESISTIVITY OF MUD FILTRATE
SUFT.C        -18.3333             : SUFT         - SURFACE TEMPERATURE
~A  DEPTH     RESD     PHIN     PHID       GR      CAL
# ...
  426.340    7.267    0.490    0.248   78.498  298.484
  426.590    7.586    0.497    0.223   79.575  303.002
  426.840    8.131    0.488    0.217   77.845  305.511
  427.090    8.807    0.473    0.185   76.421  303.502
  427.340    9.996    0.469    0.186   74.997  298.481
  427.590   11.871    0.470    0.194   73.454  295.064
  427.840   14.650    0.472    0.198   71.912  294.460
  428.090   18.748    0.471    0.205   70.626  294.543
  428.340   21.048    0.457    0.212   70.131  294.960
  428.590   23.792    0.441    0.192   72.265  295.360
  428.840   24.198    0.435    0.186   72.264  295.459
  429.090   21.543    0.434    0.190   71.789  295.860
  429.340   17.819    0.434    0.194   71.966  296.561
  429.590   14.363    0.429    0.183   73.932  297.045
  429.840   12.105    0.441    0.178   76.649  297.463
  430.090   10.129    0.452    0.177   76.886  297.461
  430.340    9.208    0.460    0.178   77.478  297.460
  430.590    8.924    0.467    0.180   78.901  297.459
  430.840    8.994    0.472    0.182   80.560  297.458
  431.090    9.079    0.477    0.180   80.945  297.373
  431.340    9.152    0.484    0.169   81.686  296.953
  431.590    9.290    0.480    0.179   81.685  296.148
  431.840    9.483    0.470    0.172   81.150  295.344
  432.090    9.628    0.452    0.161   81.268  294.539
  432.340    9.685    0.433    0.153   81.623  293.735
  432.590    9.691    0.423    0.155   80.347  292.846
  432.840    9.695    0.423    0.170   81.088  292.426
  433.090    9.490    0.430    0.169   82.510  291.622
  433.340    9.391    0.442    0.166   82.866  291.420
  433.590    9.361    0.446    0.165   81.916  291.017
  433.840    9.366    0.442    0.162   79.721  290.212
  434.090    9.372    0.442    0.148   76.785  289.240
  434.340    9.377    0.436    0.139   77.525  288.402
  434.590    9.312    0.423    0.159   79.422  288.401
  434.840    9.198    0.423    0.155   79.718  288.399
  435.090    9.103    0.428    0.159   80.310  288.398
  435.340    9.074    0.435    0.170   81.377  288.397
  435.590    9.173    0.447    0.155   80.882  288.228
  435.840    9.319    0.437    0.158   78.410  287.390
  436.090    9.390    0.440    0.153   79.358  286.184
  436.340    9.361    0.442    0.166   81.552  284.074
  436.590    9.298    0.441    0.167   83.923  282.466
  436.840    9.251    0.438    0.158   84.990  281.762
  437.090    9.285    0.436    0.165   83.002  281.191
  437.340    9.431    0.422    0.155   83.743  280.353
  437.590    9.505    0.409    0.135   86.588  278.745
  437.840    9.631    0.408    0.146   89.612  277.137
  438.090    9.671    0.414    0.160   91.628  275.730
  438.340    9.605    0.422    0.176   92.161  274.524
  438.590    9.512    0.430    0.215   91.300  272.815
  438.840    9.373    0.453    0.234   90.558  270.303
  439.090    9.725    0.481    0.270   88.186  268.294
  439.340   10.416    0.488    0.242   84.567  266.284
  439.590   11.787    0.473    0.204   80.059  262.868
  439.840   14.055    0.450    0.184   75.611  258.349
  440.090   16.813    0.442    0.181   72.665  254.146
  440.340   17.474    0.438    0.180   72.170  251.216
  440.590   16.485    0.444    0.178   72.644  250.813
  440.840   15.731    0.451    0.165   71.160  249.205
  441.090   16.124    0.446    0.148   68.195  247.597
  441.340   17.717    0.412    0.130   64.043  246.291
  441.590   19.453    0.325    0.104   59.070  244.013
  441.840   19.915    0.320    0.075   60.305  240.664
  442.090   19.349    0.335    0.083   66.945  239.458
  442.340   18.178    0.371    0.091   71.452  239.156
  442.590   16.449    0.410    0.108   74.535  239.556
  442.840   14.461    0.435    0.130   76.728  240.258
  443.090   12.344    0.439    0.148   78.141  240.825
  443.340   11.453    0.443    0.153   76.905  241.661
  443.590   10.965    0.450    0.160   75.007  242.061
  443.840   10.675    0.454    0.150   75.421  242.462
  444.090   10.527    0.452    0.139   76.606  242.862
  444.340   10.416    0.447    0.132   78.029  243.363
  444.590   10.119    0.447    0.124   80.459  244.248
  444.840    9.749    0.444    0.114   81.941  244.666
  445.090    9.542    0.437    0.118   82.177  245.066
  445.340    9.340    0.434    0.124   81.880  245.467
  445.590    9.175    0.443    0.130   81.287  245.666
  445.840    9.063    0.454    0.137   80.752  245.765
  446.090    9.003    0.442    0.151   80.751  246.249
  446.340    9.007    0.435    0.160   80.750  246.666
  446.590    9.077    0.437    0.169   79.801  247.067
  446.840    9.248    0.438    0.172   79.741  247.768
  447.090    9.456    0.438    0.166   79.977  248.370
  447.340    9.755    0.438    0.153   79.621  248.770
  447.590   10.549    0.437    0.140   76.744  249.254
  447.840   11.660    0.434    0.125   73.037  249.671
  448.090   12.630    0.375    0.109   68.292  250.072
  448.340   13.044    0.337    0.075   66.216  250.472
  448.590   13.098    0.352    0.066   67.282  251.073
  448.840   12.839    0.405    0.091   70.958  251.875
  449.090   11.774    0.435    0.120   76.541  252.845
  449.340   10.294    0.442    0.130   80.741  253.680
  449.590    9.640    0.440    0.143   80.266  255.286
  449.840    9.285    0.441    0.154   78.902  257.193
  450.090    9.089    0.453    0.151   77.478  258.999
  450.340    9.011    0.469    0.137   76.350  261.006
  450.590    9.082    0.467    0.143   75.499  264.720
  450.840    9.088    0.448    0.159   75.993  267.229
  451.090    9.092    0.446    0.167   77.889  270.040
  451.340    9.096    0.437    0.160   77.652  272.850
  451.590    9.100    0.434    0.147   77.177  275.259
  451.840    9.104    0.445    0.141   77.413  276.965
  452.090    9.110    0.474    0.153   78.410  277.934
  452.340    9.115    0.474    0.138   78.657  278.770
  452.590    9.118    0.476    0.128   78.182  279.572
  452.840    9.073    0.469    0.136   78.596  279.771
  453.090    9.044    0.456    0.145   79.900  279.971
  453.340    9.065    0.447    0.150   81.441  280.271
  453.590    9.164    0.457    0.147   81.618  280.270
  453.840    9.309    0.445    0.136   80.135  280.268
  454.090    9.381    0.449    0.126   79.185  279.464
  454.340    9.454    0.438    0.115   78.947  278.057
  454.590    9.563    0.431    0.113   79.302  276.850
  454.840    9.691    0.431    0.122   79.717  275.644
  455.090    9.796    0.421    0.132   79.044  272.814
  455.340    9.952    0.399    0.141   78.055  270.721
  455.590   10.103    0.387    0.148   77.105  268.309
  455.840   10.256    0.380    0.146   77.579  266.200
  456.090   10.412    0.385    0.141   78.882  263.588
  456.340   10.626    0.392    0.139   80.543  260.774
  456.590   11.128    0.377    0.136   82.103  258.999
  456.840   11.654    0.377    0.128   81.608  258.161
  457.090   12.714    0.354    0.114   77.813  257.758
  457.340   14.460    0.300    0.089   71.705  257.355
  457.590   16.631    0.267    0.047   67.552  256.952
  457.840   18.778    0.271    0.011   66.720  256.649
  458.090   20.186    0.299    0.029   68.064  256.648
  458.340   19.299    0.305    0.035   70.040  256.647
  458.590   17.674    0.314    0.044   71.225  256.645
  458.840   16.101    0.325    0.056   72.054  256.343
  459.090   14.421    0.329    0.061   72.884  256.141
  459.340   12.888    0.331    0.063   74.188  256.039
  459.590   11.679    0.350    0.086   76.905  255.636
  459.840   10.999    0.380    0.117   78.634  255.635
  460.090   10.608    0.375    0.132   79.582  255.634
  460.340   10.290    0.392    0.132   81.064  255.632
  460.590   10.073    0.419    0.128   83.317  255.832
  460.840    9.932    0.439    0.128   86.162  256.232
  461.090    9.764    0.427    0.133   89.601  256.716
  461.340    9.621    0.417    0.130   92.565  257.133
  461.590    9.556    0.420    0.128   93.514  257.534
  461.840    9.544    0.425    0.127   92.683  257.934
  462.090    9.548    0.430    0.129   88.532  258.335
  462.340    9.499    0.432    0.133   83.667  258.835
  462.590    9.229    0.431    0.137   84.852  259.637
