~VERSION INFORMATION
 VERS.                 2.0:   CWLS LOG ASCII STANDARD -VERSION 2.0
 WRAP.                  NO:   ONE LINE PER DEPTH STEP
~WELL INFORMATION BLOCK
#MNEM.UNIT           DATA                    DESCRIPTION OF MNEMONIC
#---------    -------------------            -------------------------------
# Generated from Intellog Unique Number	CX_WELLS/WELL/2780
WELL.         NEWBY                          : Well_name    - WELL
LOC .         00/09-36-081-06W4/0            : Location     - LOCATION
UWI .         00/09-36-081-06W4/0            : Uwi          - UNIQUE WELL ID
ENTR.         T                              : Entered      - ENTERED BY
SRVC.         SCHLUMBERGER                   : Scn          - SERVICE COMPANY
STRT.M        150                            : top_depth    - START DEPTH
STOP.M        263                            : bot_depth    - STOP DEPTH
STEP.M        0.25                           : increment    - STEP LENGTH
 NULL. -999.2500:NULL Value
~CURVE INFORMATION BLOCK
#MNEM UNIT       ERCB CURVE CODE    CURVE DESCRIPTION
#-----------   ------------------   ----------------------------------
DEPT.M        00 001 00 00         : DEPTH        - DEPTH
GR  .API      00 310 00 00         : GR           - GAMMA RAY
NPHI.V/V      00 330 00 00         : PHIN         - NEUTRON POROSITY (SANDSTONE)
DPHI.V/V      00 890 00 00         : PHID         - DENSITY POROSITY (SANDSTONE)
ILD .OHMM     00 120 00 00         : RESD         - DEEP RESISTIVITY (DLL)
~PARAMETER INFORMATION
#MNEM.UNIT           DATA             DESCRIPTION OF MNEMONIC
#---------         -----------     ------------------------------
GL  .M        478.6                : gl           - GROUND LEVEL ELEVATION
EREF.M        481.7                : kb           - ELEVATION OF DEPTH REFERENCE
DATM.M        481.7                : datum        - DATUM ELEVATION
TDD .M        263.5                : tdd          - TOTAL DEPTH DRILLER
RUN .         ONE                  : Run          - RUN NUMBER
ENG .         BILL                 : Engineer     - RECORDING ENGINEER
WIT .         JIM                  : Witness      - WITNESSED BY
MUD .         GEL                  : Mud_type     - MUD TYPE
MATR.         SANDSTONE            : Logunit      - NEUTRON MATRIX
TMAX.C        22                   : BHT          - MAXIMUM RECORDED TEMPERATURE
BHTD.M        264                  : BHTDEP       - MAXIMUM RECORDED TEMPERATURE
MATR.         1                    : LOGUNIT      - NEUTRON MATRIX
RMT .C        16                   : MDTP         - TEMPERATURE OF MUD
NEUT.         1                    : NEUTRON      - NEUTRON TYPE
RESI.         3.5                  : RESIST       - RESISTIVITY TYPE
RMC .OHMM     4                    : RMC          - RESISTIVITY OF MUD CAKE
RMF .OHMM     4.4                  : RMF          - RESISTIVITY OF MUD FILTRATE
SUFT.C        4                    : SUFT         - SURFACE TEMPERATURE
~A  DEPTH       GR     PHIN     PHID     RESD
# ...
  237.000   39.761    0.380    0.331  122.242
  237.250   37.401    0.380    0.327  116.176
  237.500   35.036    0.380    0.325  112.268
  237.750   34.436    0.380    0.331  104.903
  238.000   34.411    0.380    0.336   99.698
  238.250   36.151    0.384    0.337   85.614
  238.500   41.982    0.389    0.342   78.667
  238.750   42.547    0.389    0.348   73.506
  239.000   41.357    0.387    0.355   78.599
  239.250   37.822    0.386    0.353   86.945
  239.500   33.706    0.381    0.349   97.804
  239.750   33.686    0.369    0.344  111.891
  240.000   35.407    0.360    0.339  121.667
  240.250   35.977    0.358    0.336  123.701
  240.500   36.552    0.361    0.338  125.745
  240.750   37.702    0.363    0.344  121.539
  241.000   40.023    0.367    0.355  111.644
  241.250   42.338    0.370    0.355  106.115
  241.500   45.243    0.377    0.355   91.125
  241.750   48.154    0.383    0.359   80.953
  242.000   55.740    0.394    0.362   61.775
  242.250   62.741    0.397    0.365   55.807
  242.500   63.306    0.400    0.365   52.151
  242.750   60.361    0.398    0.351   40.474
  243.000   54.485    0.388    0.348   33.606
  243.250   53.880    0.371    0.338   28.379
  243.500   57.371    0.367    0.326   23.963
  243.750   62.621    0.374    0.293   22.774
  244.000   69.622    0.376    0.280   24.349
  244.250   73.688    0.383    0.285   25.606
  244.500   69.578    0.387    0.294   27.851
  244.750   61.952    0.384    0.316   31.329
  245.000   56.081    0.380    0.325   34.653
  245.250   53.136    0.380    0.331   43.866
  245.500   51.946    0.378    0.331   52.789
  245.750   48.996    0.374    0.332   62.459
  246.000   44.880    0.374    0.336   67.935
  246.250   40.765    0.376    0.340   75.142
  246.500   36.650    0.378    0.344   80.333
  246.750   35.455    0.379    0.347   80.309
  247.000   35.440    0.380    0.350   80.279
  247.250   36.000    0.380    0.352   78.906
  247.500   37.150    0.382    0.353   74.976
  247.750   40.060    0.383    0.355   71.263
  248.000   42.381    0.383    0.354   62.243
  248.250   45.286    0.380    0.352   53.450
  248.500   47.022    0.373    0.351   50.793
  248.750   46.412    0.373    0.350   49.929
  249.000   44.056    0.376    0.350   50.754
  249.250   41.691    0.376    0.349   49.886
  249.500   43.427    0.376    0.348   48.208
  249.750   45.157    0.378    0.344   47.383
  250.000   45.727    0.378    0.342   46.573
  250.250   45.707    0.378    0.339   45.772
  250.500   45.687    0.377    0.338   45.759
  250.750   46.252    0.375    0.336   46.515
  251.000   47.983    0.374    0.333   47.292
  251.250   50.303    0.376    0.327   48.083
  251.500   50.868    0.377    0.326   53.179
  251.750   49.673    0.379    0.326   56.874
  252.000   48.493    0.380    0.330   63.971
  252.250   47.298    0.376    0.337   68.410
  252.500   46.108    0.369    0.341   69.554
  252.750   44.918    0.360    0.342   69.520
  253.000   43.143    0.358    0.342   70.676
  253.250   41.953    0.358    0.342   70.642
  253.500   41.348    0.361    0.342   71.809
  253.750   41.318    0.361    0.342   71.788
  254.000   41.303    0.361    0.342   71.768
  254.250   41.288    0.361    0.342   71.733
  254.500   40.683    0.359    0.344   69.327
  254.750   39.493    0.359    0.344   65.881
  255.000   39.468    0.360    0.344   63.677
  255.250   39.449    0.360    0.344   59.494
  255.500   39.429    0.358    0.343   57.492
  255.750   39.999    0.358    0.340   56.520
  256.000   39.974    0.358    0.338   55.553
  256.250   41.119    0.360    0.335   53.685
  256.500   41.109    0.360    0.332   51.006
  256.750   42.259    0.360    0.331   49.300
  257.000   43.410    0.360    0.332   48.461
  257.250   43.385    0.360    0.334   46.052
  257.500   43.365    0.359    0.336   43.759
  257.750   43.345    0.360    0.337   43.014
  258.000   43.325    0.360    0.337   40.876
  258.250   43.890    0.362    0.336   40.173
  258.500   44.446    0.365    0.335   39.486
  258.750   44.435    0.365    0.335   38.814
  259.000   43.826    0.369    0.335   38.147
  259.250   43.226    0.371    0.335   38.132
  259.500   43.206    0.379    0.335   38.766
  259.750   43.186    0.383    0.336   39.410
  260.000   44.336    0.387    0.337   40.057
  260.250   45.481    0.390    0.340   40.731
  260.500   46.632    0.392    0.341   41.408
  260.750   46.607    0.393    0.342   41.388
  261.000   46.597    0.392    0.340   41.372
  261.250   45.982    0.391    0.319   39.981
  261.500   45.382    0.391    0.285   39.304
  261.750   45.362    0.391    0.149   36.722
  262.000   45.342    0.392    0.056   34.313
  262.250   48.833    0.392    0.054   31.523
  262.500   52.908    0.392    0.057   29.959
  262.750   58.154    0.394    0.065   28.467
  263.000   66.325    0.397    0.071   27.509
