~VERSION INFORMATION
 VERS.                 2.0:   CWLS LOG ASCII STANDARD -VERSION 2.0
 WRAP.                  NO:   ONE LINE PER DEPTH STEP
~WELL INFORMATION BLOCK
#MNEM.UNIT           DATA                    DESCRIPTION OF MNEMONIC
#---------    -------------------            -------------------------------
# Generated from Intellog Unique Number	CW_79_81/WELL/2455
WELL.         06-29-080-24W4                 : Well_name    - WELL
LOC .         00/06-29-080-24W4/0            : Location     - LOCATION
UWI .         00/06-29-080-24W4/0            : Uwi          - UNIQUE WELL ID
ENTR.         MAX                            : Entered      - ENTERED BY
SRVC.         WESTERN ATLAS                  : Scn          - SERVICE COMPANY
STRT.M        198.12                         : top_depth    - START DEPTH
STOP.M        426.37                         : bot_depth    - STOP DEPTH
STEP.M        0.25                           : increment    - STEP LENGTH
 NULL. -999.2500:NULL Value
~CURVE INFORMATION BLOCK
#MNEM UNIT       ERCB CURVE CODE    CURVE DESCRIPTION
#-----------   ------------------   ----------------------------------
DEPT.M        00 001 00 00         : DEPTH        - DEPTH
ILD .OHMM     00 120 00 00         : RESD         - DEEP RESISTIVITY (DIL)
NPHI.V/V      00 330 00 00         : PHIN         - NEUTRON POROSITY (SANDSTONE)
DPHI.V/V      00 890 00 00         : PHID         - DENSITY POROSITY (SANDSTONE)
GR  .API      00 310 00 00         : GR           - GAMMA RAY
CALI.MM       00 280 01 00         : CAL          - CALIPER
~PARAMETER INFORMATION
#MNEM.UNIT           DATA             DESCRIPTION OF MNEMONIC
#---------         -----------     ------------------------------
GL  .M        546.811              : gl           - GROUND LEVEL ELEVATION
EREF.M        552.907              : kb           - ELEVATION OF DEPTH REFERENCE
DATM.M        546.811              : datum        - DATUM ELEVATION
TDD .M        426.72               : tdd          - TOTAL DEPTH DRILLER
RUN .         ONE                  : Run          - RUN NUMBER
ENG .         BILL                 : Engineer     - RECORDING ENGINEER
WIT .         JIM                  : Witness      - WITNESSED BY
MUD .         GEL                  : Mud_type     - MUD TYPE
MATR.         SANDSTONE            : Logunit      - NEUTRON MATRIX
TMAX.C        26.6667              : BHT          - MAXIMUM RECORDED TEMPERATURE
BHTD.M        426.72               : BHTDEP       - MAXIMUM RECORDED TEMPERATURE
MATR.         1                    : LOGUNIT      - NEUTRON MATRIX
RMT .C        16.6667              : MDTP         - TEMPERATURE OF MUD
NEUT.         1                    : NEUTRON      - NEUTRON TYPE
RESI.         0                    : RESIST       - RESISTIVITY TYPE
RMC .OHMM     1                    : RMC          - RESISTIVITY OF MUD CAKE
RMF .OHMM     1.2                  : RMF          - RESISTIVITY OF MUD FILTRATE
SUFT.C        -20.5556             : SUFT         - SURFACE TEMPERATURE
~A  DEPTH     RESD     PHIN     PHID       GR      CAL
  198.120    2.193    0.482    0.186   96.507  305.242
  198.370    2.197    0.466    0.175   95.820  290.681
  198.620    2.212    0.469    0.171   96.613  290.270
  198.870    2.232    0.477    0.168   97.384  286.552
  199.120    2.255    0.479    0.160   97.980  276.686
  199.370    2.308    0.464    0.147   99.520  269.230
  199.620    2.380    0.447    0.138   99.835  267.680
  199.870    2.506    0.444    0.133  101.312  269.780
  200.120    2.626    0.467    0.142  103.515  269.174
  200.370    2.737    0.478    0.163  103.099  269.470
  200.620    2.837    0.467    0.189  100.064  272.074
  200.870    2.934    0.451    0.203   97.961  276.217
  201.120    2.984    0.444    0.200   99.024  276.331
  201.370    2.988    0.446    0.193  100.496  258.725
  201.620    2.928    0.440    0.188  105.363  208.555
  201.870    2.829    0.435    0.182  106.730  188.138
  202.120    2.733    0.434    0.172  104.177  200.798
  202.370    2.712    0.443    0.167  103.769  198.230
  202.620    2.778    0.460    0.168  103.836  235.200
  202.870    3.250    0.446    0.169  101.996  226.068
  203.120    3.603    0.418    0.167   97.121  211.484
  203.370    3.960    0.403    0.153   86.368  208.362
  203.620    4.491    0.403    0.132   72.767  214.799
  203.870    5.782    0.385    0.108   63.901  210.006
  204.120    8.822    0.361    0.072   57.287  209.712
  204.370   13.358    0.366    0.156   55.203  220.242
  204.620   18.236    0.389    0.210   55.617  224.465
  204.870   20.893    0.407    0.233   56.865  243.872
  205.120   20.736    0.416    0.235   57.760  262.875
  205.370   19.858    0.431    0.234   56.999  238.097
  205.620   19.013    0.433    0.244   54.087  284.707
  205.870   18.499    0.446    0.251   54.627  300.093
  206.120   18.495    0.458    0.250   52.127  302.817
  206.370   18.857    0.470    0.247   51.352  322.625
  206.620   19.705    0.475    0.245   53.255  353.690
  206.870   21.807    0.452    0.248   55.435  350.000
  207.120   23.201    0.444    0.247   57.734  327.076
  207.370   24.607    0.426    0.254   56.369  323.949
  207.620   25.967    0.415    0.253   54.109  319.316
  207.870   27.355    0.432    0.251   52.379  308.553
  208.120   28.674    0.465    0.252   52.135  299.100
  208.370   29.796    0.475    0.255   54.076  309.232
  208.620   30.997    0.483    0.253   55.121  303.066
  208.870   31.718    0.480    0.256   56.129  316.832
  209.120   32.986    0.476    0.254   57.846  326.974
  209.370   34.376    0.471    0.253   58.260  340.338
  209.620   35.876    0.467    0.256   57.313  354.416
  209.870   38.498    0.466    0.261   56.905  356.606
  210.120   40.649    0.470    0.265   56.973  352.942
  210.370   41.593    0.463    0.274   57.750  356.257
  210.620   40.982    0.459    0.272   59.582  358.065
  210.870   39.583    0.454    0.259   60.469  351.121
  211.120   38.183    0.448    0.238   60.175  333.414
  211.370   37.391    0.454    0.225   61.476  305.008
  211.620   37.195    0.452    0.224   67.719  289.191
  211.870   36.689    0.440    0.214   70.395  309.006
  212.120   36.603    0.442    0.220   70.930  312.822
  212.370   36.392    0.455    0.237   68.494  311.108
  212.620   36.057    0.472    0.257   63.621  312.316
  212.870   36.392    0.489    0.270   58.081  323.150
  213.120   37.852    0.503    0.274   57.413  324.521
  213.370   41.597    0.494    0.278   55.805  324.611
  213.620   43.856    0.488    0.272   54.018  326.215
  213.870   44.085    0.471    0.265   52.531  328.526
  214.120   42.819    0.444    0.261   51.759  331.643
  214.370   41.007    0.418    0.263   52.564  337.267
  214.620   39.276    0.415    0.272   55.104  340.721
  214.870   37.931    0.426    0.278   57.525  336.801
  215.120   37.043    0.449    0.282   57.996  328.646
  215.370   36.436    0.469    0.278   56.157  322.717
  215.620   35.965    0.478    0.268   54.377  320.314
  215.870   35.464    0.481    0.257   58.370  316.263
  216.120   35.255    0.476    0.256   61.392  309.678
  216.370   35.827    0.449    0.252   59.089  300.102
  216.620   36.989    0.448    0.247   57.303  279.085
  216.870   38.275    0.459    0.248   55.222  249.220
  217.120   39.186    0.471    0.253   53.031  223.674
  217.370   39.129    0.473    0.263   52.209  227.221
  217.620   38.608    0.448    0.259   53.742  232.349
  217.870   37.849    0.454    0.254   56.898  202.283
  218.120   36.891    0.447    0.251   58.440  184.290
  218.370   36.020    0.433    0.255   58.849  174.331
  218.620   35.362    0.423    0.263   57.776  177.335
  218.870   34.874    0.431    0.266   53.951  209.074
  219.120   34.669    0.436    0.267   53.524  218.390
  219.370   34.467    0.438    0.266   54.290  228.147
  219.620   35.209    0.445    0.265   54.525  249.057
  219.870   36.296    0.450    0.265   54.228  271.676
  220.120   37.283    0.450    0.267   54.051  284.846
  220.370   37.885    0.440    0.270   55.611  274.371
  220.620   37.885    0.442    0.273   57.149  267.776
  220.870   37.729    0.461    0.273   56.496  288.395
  221.120   37.331    0.462    0.270   56.560  285.478
  221.370   36.853    0.452    0.267   57.331  273.706
  221.620   36.376    0.438    0.266   57.979  258.314
  221.870   35.916    0.429    0.261   56.367  235.612
  222.120   35.974    0.427    0.264   53.950  238.228
  222.370   36.035    0.413    0.256   53.297  245.171
  222.620   36.284    0.403    0.252   53.182  246.372
  222.870   37.129    0.407    0.262   53.481  248.079
  223.120   38.427    0.423    0.280   53.600  251.601
  223.370   39.510    0.449    0.279   52.532  256.335
  223.620   40.492    0.473    0.272   52.835  271.523
  223.870   40.835    0.447    0.265   55.036  255.537
  224.120   40.974    0.441    0.263   55.270  244.371
  224.370   40.599    0.443    0.259   54.495  245.686
  224.620   39.721    0.445    0.255   54.615  257.764
  224.870   38.365    0.441    0.253   58.389  270.285
  225.120   37.008    0.428    0.253   57.944  274.157
  225.370   34.712    0.414    0.253   58.958  272.640
  225.620   31.307    0.396    0.247   60.858  271.137
  225.870   25.166    0.387    0.240   62.697  272.246
  226.120   19.536    0.386    0.229   63.650  275.057
  226.370   15.967    0.377    0.209   62.522  274.669
  226.620   14.100    0.374    0.185   60.093  272.282
  226.870   12.937    0.369    0.156   57.541  260.706
  227.120   12.690    0.371    0.146   58.731  253.960
  227.370   12.983    0.377    0.151   59.977  257.073
  227.620   13.603    0.388    0.168   59.321  266.529
  227.870   14.506    0.407    0.197   56.300  272.201
  228.120   15.441    0.414    0.196   55.113  281.924
  228.370   16.491    0.408    0.205   58.263  283.251
  228.620   16.253    0.399    0.228   61.409  280.628
  228.870   14.944    0.397    0.250   63.015  274.683
  229.120   13.276    0.404    0.257   63.848  269.952
  229.370   11.571    0.416    0.226   67.248  274.563
  229.620   10.290    0.399    0.198   68.552  273.003
  229.870    9.796    0.380    0.177   69.791  279.936
  230.120    9.693    0.368    0.160   76.381  280.531
  230.370    9.567    0.363    0.158   84.636  276.812
  230.620    9.359    0.360    0.170   89.329  271.895
  230.870    9.366    0.353    0.194   83.115  270.676
  231.120    9.668    0.355    0.187   80.203  274.129
  231.370    9.893    0.363    0.181   81.454  275.425
  231.620    9.694    0.369    0.178   83.944  274.618
  231.870    8.697    0.372    0.177   87.201  276.125
  232.120    7.549    0.371    0.175   90.401  281.251
  232.370    7.039    0.366    0.170   91.827  287.378
  232.620    7.039    0.373    0.169   89.169  283.295
  232.870    6.859    0.380    0.163   85.424  276.953
  233.120    7.082    0.386    0.184   79.013  273.325
  233.370    7.966    0.389    0.214   72.185  270.606
  233.620    9.819    0.388    0.232   65.652  267.194
  233.870   13.492    0.375    0.213   57.364  262.040
  234.120   20.097    0.363    0.202   51.231  263.809
  234.370   25.351    0.350    0.193   47.730  268.320
