~VERSION INFORMATION
 VERS.                 2.0:   CWLS LOG ASCII STANDARD -VERSION 2.0
 WRAP.                  NO:   ONE LINE PER DEPTH STEP
~WELL INFORMATION BLOCK
#MNEM.UNIT           DATA                    DESCRIPTION OF MNEMONIC
#---------    -------------------            -------------------------------
# Generated from Intellog Unique Number	CX_WELLS/WELL/2894
WELL.         NOVALTA NEWBY                  : Well_name    - WELL
LOC .         00/05-22-082-04W4/0            : Location     - LOCATION
UWI .         00/05-22-082-04W400            : Uwi          - UNIQUE WELL ID
ENTR.         T                              : Entered      - ENTERED BY
SRVC.         SCHLUMBERGER                   : Scn          - SERVICE COMPANY
STRT.M        90                             : top_depth    - START DEPTH
STOP.M        260                            : bot_depth    - STOP DEPTH
STEP.M        0.25                           : increment    - STEP LENGTH
 NULL. -999.2500:NULL Value
~CURVE INFORMATION BLOCK
#MNEM UNIT       ERCB CURVE CODE    CURVE DESCRIPTION
#-----------   ------------------   ----------------------------------
DEPT.M        00 001 00 00         : DEPTH        - DEPTH
GR  .API      00 310 00 00         : GR           - GAMMA RAY
NPHI.V/V      00 330 00 00         : PHIN         - NEUTRON POROSITY (SANDSTONE)
DPHI.V/V      00 890 00 00         : PHID         - DENSITY POROSITY (SANDSTONE)
ILD .OHMM     00 120 00 00         : RESD         - DEEP RESISTIVITY (OTHER)
~PARAMETER INFORMATION
#MNEM.UNIT           DATA             DESCRIPTION OF MNEMONIC
#---------         -----------     ------------------------------
GL  .M        456.56               : gl           - GROUND LEVEL ELEVATION
EREF.M        460.2                : kb           - ELEVATION OF DEPTH REFERENCE
DATM.M        460.2                : datum        - DATUM ELEVATION
TDD .M        284                  : tdd          - TOTAL DEPTH DRILLER
RUN .         ONE                  : Run          - RUN NUMBER
ENG .         BILL                 : Engineer     - RECORDING ENGINEER
WIT .         JIM                  : Witness      - WITNESSED BY
MUD .         GEL                  : Mud_type     - MUD TYPE
MATR.         SANDSTONE            : Logunit      - NEUTRON MATRIX
TMAX.C        24                   : BHT          - MAXIMUM RECORDED TEMPERATURE
BHTD.M        284                  : BHTDEP       - MAXIMUM RECORDED TEMPERATURE
MATR.         1                    : LOGUNIT      - NEUTRON MATRIX
RMT .C        19                   : MDTP         - TEMPERATURE OF MUD
NEUT.         1                    : NEUTRON      - NEUTRON TYPE
RESI.         3.4                  : RESIST       - RESISTIVITY TYPE
RMC .OHMM     2                    : RMC          - RESISTIVITY OF MUD CAKE
RMF .OHMM     3.5                  : RMF          - RESISTIVITY OF MUD FILTRATE
SUFT.C        4                    : SUFT         - SURFACE TEMPERATURE
~A  DEPTH       GR     PHIN     PHID     RESD
   90.000   59.073    0.412    0.318   19.151
   90.250   59.076    0.415    0.330   18.440
   90.500   60.328    0.416    0.335   18.102
   90.750   60.955    0.407    0.339   18.814
   91.000   62.207    0.406    0.341   19.190
   91.250   62.212    0.412    0.345   19.197
   91.500   62.222    0.425    0.346   19.204
   91.750   62.227    0.435    0.345   19.219
   92.000   62.232    0.434    0.341   19.226
   92.250   62.240    0.426    0.335   19.236
   92.500   62.244    0.432    0.332   19.248
   92.750   62.874    0.440    0.332   19.253
   93.000   63.502    0.452    0.335   18.544
   93.250   63.509    0.446    0.335   17.858
   93.500   62.892    0.435    0.329   16.877
   93.750   61.659    0.430    0.319   16.885
   94.000   61.040    0.420    0.309   17.548
   94.250   59.183    0.402    0.300   18.240
   94.500   58.568    0.400    0.305   18.598
   94.750   60.440    0.403    0.317   18.607
   95.000   62.934    0.409    0.331   18.270
   95.250   63.563    0.409    0.339   17.930
   95.500   62.947    0.416    0.327   17.266
   95.750   62.956    0.442    0.308   15.413
   96.000   63.581    0.448    0.297   14.563
   96.250   64.833    0.458    0.304   14.295
   96.500   65.461    0.462    0.328   14.858
   96.750   65.461    0.433    0.332   16.044
   97.000   65.473    0.414    0.338   16.671
   97.250   64.858    0.404    0.342   17.327
   97.500   63.621    0.410    0.344   16.692
   97.750   62.384    0.414    0.347   16.381
   98.000   61.148    0.415    0.350   15.777
   98.250   59.911    0.421    0.352   14.908
   98.500   59.297    0.424    0.346   13.562
   98.750   58.679    0.432    0.339   13.064
   99.000   58.067    0.434    0.326   13.574
   99.250   58.071    0.432    0.326   14.940
   99.500   59.322    0.432    0.329   17.079
   99.750   60.571    0.430    0.335   19.154
  100.000   61.825    0.423    0.340   21.899
  100.250   61.830    0.411    0.342   23.644
  100.500   62.456    0.396    0.344   24.108
  100.750   62.463    0.386    0.345   24.587
  101.000   62.471    0.389    0.346   23.233
  101.250   61.855    0.388    0.348   20.730
  101.500   61.241    0.381    0.355   17.809
  101.750   60.003    0.376    0.363   16.831
  102.000   57.524    0.372    0.371   16.521
  102.250   53.802    0.373    0.376   16.216
  102.500   51.942    0.405    0.381   15.325
  102.750   50.701    0.449    0.367   14.759
  103.000   47.601    0.455    0.335   14.217
  103.250   44.501    0.444    0.322   14.220
  103.500   43.884    0.414    0.318   14.229
  103.750   42.647    0.400    0.314   13.706
  104.000   44.517    0.400    0.302   13.451
  104.250   47.633    0.404    0.302   12.956
  104.500   53.235    0.415    0.302   12.244
  104.750   63.190    0.421    0.296   12.016
  105.000   63.197    0.424    0.295   11.575
  105.250   60.095    0.408    0.303   11.362
  105.500   56.371    0.397    0.326   11.150
  105.750   52.025    0.395    0.333   11.156
  106.000   47.680    0.402    0.354   10.543
  106.250   48.930    0.417    0.356   10.348
  106.500   52.667    0.431    0.351    9.966
  106.750   59.517    0.439    0.287    9.240
  107.000   60.142    0.426    0.249    7.356
  107.250   61.392    0.409    0.193    5.856
  107.500   65.751    0.457    0.208    5.031
  107.750   73.841    0.535    0.222    4.322
  108.000   88.770    0.552    0.256    3.714
  108.250   94.373    0.558    0.267    3.509
  108.500   95.623    0.566    0.270    3.192
  108.750   96.251    0.566    0.271    3.073
  109.000   95.016    0.571    0.275    2.960
  109.250   93.778    0.575    0.280    2.851
  109.500   91.922    0.567    0.292    2.853
  109.750   91.305    0.555    0.307    2.909
  110.000   91.309    0.539    0.312    3.140
  110.250   90.072    0.534    0.315    3.590
  110.500   88.835    0.520    0.318    4.871
  110.750   85.736    0.508    0.325    6.363
  111.000   83.876    0.500    0.331    7.850
  111.250   81.396    0.489    0.340    9.686
  111.500   78.292    0.466    0.353   11.072
  111.750   72.703    0.446    0.361   12.183
  112.000   68.357    0.426    0.359   12.666
  112.250   62.148    0.413    0.357   12.669
  112.500   64.642    0.407    0.354   12.680
  112.750   64.028    0.407    0.353   12.683
  113.000   63.411    0.409    0.353   12.688
  113.250   64.040    0.414    0.352   12.694
  113.500   65.912    0.429    0.352   12.701
  113.750   65.920    0.432    0.350   12.709
  114.000   65.305    0.432    0.349   12.715
  114.250   65.308    0.432    0.344   12.721
  114.500   65.315    0.432    0.343   12.488
  114.750   64.080    0.432    0.345   12.258
  115.000   64.083    0.438    0.348   12.266
  115.250   62.848    0.432    0.342   12.269
  115.500   62.231    0.424    0.333   12.275
  115.750   62.240    0.452    0.322   12.281
  116.000   62.868    0.458    0.321   12.290
  116.250   63.497    0.466    0.324   12.531
  116.500   64.124    0.470    0.332   12.535
  116.750   64.135    0.478    0.340   13.031
  117.000   63.517    0.482    0.344   13.542
  117.250   62.904    0.473    0.343   13.808
  117.500   62.908    0.457    0.341   14.629
  117.750   61.672    0.435    0.340   15.795
  118.000   61.055    0.418    0.337   16.732
  118.250   60.440    0.400    0.330   18.065
  118.500   59.203    0.399    0.316   19.503
  118.750   57.966    0.397    0.280   22.301
  119.000   56.109    0.158    0.208   23.618
  119.250   55.493    0.185    0.050   25.503
  119.500   54.256    0.240    0.039   26.507
  119.750   54.886    0.299    0.228   25.047
  120.000   56.758    0.419    0.346   21.929
  120.250   58.005    0.411    0.348   18.484
  120.500   63.609    0.398    0.347   16.189
  120.750   64.237    0.404    0.342   15.590
  121.000   64.243    0.411    0.340   15.302
  121.250   64.249    0.416    0.340   14.739
  121.500   64.258    0.422    0.341   14.466
  121.750   64.264    0.431    0.344   13.936
  122.000   63.028    0.448    0.344   13.940
  122.250   60.547    0.460    0.344   13.684
  122.500   58.688    0.461    0.344   13.434
  122.750   58.695    0.412    0.344   13.437
  123.000   60.566    0.408    0.344   13.190
  123.250   62.438    0.418    0.343   13.199
  123.500   63.066    0.424    0.343   12.956
  123.750   63.074    0.429    0.342   12.961
  124.000   63.079    0.432    0.341   12.968
  124.250   63.088    0.434    0.342   12.974
  124.500   63.096    0.431    0.342   12.736
  124.750   63.721    0.424    0.342   12.505
  125.000   64.350    0.426    0.342   12.508
  125.250   64.358    0.428    0.342   12.283
  125.500   63.121    0.427    0.339   12.287
  125.750   63.128    0.421    0.337   12.290
  126.000   63.131    0.419    0.338   12.535
  126.250   63.138    0.425    0.342   12.782
  126.500   63.145    0.434    0.350   12.789
  126.750   62.530    0.439    0.357   12.796
  127.000   60.671    0.443    0.357   12.560
  127.250   58.812    0.435    0.357   12.563
  127.500   58.199    0.423    0.355   12.569
  127.750   58.828    0.416    0.352   12.341
  128.000   60.700    0.411    0.350   12.345
  128.250   60.705    0.409    0.350   12.352
  128.500   61.333    0.411    0.348   12.127
  128.750   60.096    0.418    0.348   12.130
  129.000   59.481    0.439    0.347   11.909
  129.250   59.489    0.445    0.346   11.913
  129.500   60.121    0.452    0.347   11.919
  129.750   60.745    0.455    0.347   11.925
  130.000   60.753    0.457    0.348   11.932
  130.250   60.760    0.453    0.349   11.937
  130.500   60.765    0.445    0.351   11.717
  130.750   60.773    0.434    0.351   11.725
  131.000   60.780    0.422    0.351   11.729
  131.250   60.787    0.413    0.351   11.517
  131.500   62.037    0.412    0.351   11.521
  131.750   62.662    0.413    0.349   11.525
  132.000   63.912    0.413    0.347   11.533
  132.250   65.162    0.417    0.344   11.537
  132.500   67.034    0.420    0.342   11.544
  132.750   67.663    0.426    0.338   11.547
  133.000   67.049    0.437    0.338   11.775
  133.250   67.055    0.425    0.339   12.238
