~VERSION INFORMATION
 VERS.                 2.0:   CWLS LOG ASCII STANDARD -VERSION 2.0
 WRAP.                  NO:   ONE LINE PER DEPTH STEP
~WELL INFORMATION BLOCK
#MNEM.UNIT           DATA                    DESCRIPTION OF MNEMONIC
#---------    -------------------            -------------------------------
# Generated from Intellog Unique Number	CS_67_68/WELL/2164
WELL.         TOTAL ATMORE                   : Well_name    - WELL
LOC .         00/03-34-067-16W4/0            : Location     - LOCATION
UWI .         00/03-34-067-16W4/0            : Uwi          - UNIQUE WELL ID
ENTR.         SP                             : Entered      - ENTERED BY
SRVC.         SCHLUMBERGER                   : Scn          - SERVICE COMPANY
STRT.M        300                            : top_depth    - START DEPTH
STOP.M        462                            : bot_depth    - STOP DEPTH
STEP.M        0.25                           : increment    - STEP LENGTH
 NULL. -999.2500:NULL Value
~CURVE INFORMATION BLOCK
#MNEM UNIT       ERCB CURVE CODE    CURVE DESCRIPTION
#-----------   ------------------   ----------------------------------
DEPT.M        00 001 00 00         : DEPTH        - DEPTH
ILD .OHMM     00 120 00 00         : RESD         - DEEP RESISTIVITY (DIL)
DPHI.V/V      00 890 00 00         : PHID         - DENSITY POROSITY (LIMESTONE)
NPHI.V/V      00 330 00 00         : PHIN         - NEUTRON POROSITY (LIMESTONE)
GR  .API      00 310 00 00         : GR           - GAMMA RAY
CALI.MM       00 280 01 00         : CAL          - CALIPER
~PARAMETER INFORMATION
#MNEM.UNIT           DATA             DESCRIPTION OF MNEMONIC
#---------         -----------     ------------------------------
GL  .M        549.7                : gl           - GROUND LEVEL ELEVATION
EREF.M        553                  : kb           - ELEVATION OF DEPTH REFERENCE
DATM.M        553                  : datum        - DATUM ELEVATION
TDD .M        510                  : tdd          - TOTAL DEPTH DRILLER
RUN .         ONE                  : Run          - RUN NUMBER
ENG .         BILL                 : Engineer     - RECORDING ENGINEER
WIT .         JIM                  : Witness      - WITNESSED BY
MUD .         GEL                  : Mud_type     - MUD TYPE
MATR.         LIMESTONE            : Logunit      - NEUTRON MATRIX
TMAX.C        32                   : BHT          - MAXIMUM RECORDED TEMPERATURE
BHTD.M        509                  : BHTDEP       - MAXIMUM RECORDED TEMPERATURE
MATR.         1                    : LOGUNIT      - NEUTRON MATRIX
RMT .C        25                   : MDTP         - TEMPERATURE OF MUD
NEUT.         1                    : NEUTRON      - NEUTRON TYPE
RESI.         0                    : RESIST       - RESISTIVITY TYPE
RMC .OHMM     0.25                 : RMC          - RESISTIVITY OF MUD CAKE
RMF .OHMM     0.25                 : RMF          - RESISTIVITY OF MUD FILTRATE
SUFT.C        15                   : SUFT         - SURFACE TEMPERATURE
~A  DEPTH     RESD     PHID     PHIN       GR      CAL
# ...
  336.500    3.180    0.230    0.497  119.454  169.093
  336.750    3.169    0.219    0.474  115.952  167.530
  337.000    3.151    0.213    0.476  119.468  166.779
  337.250    3.133    0.211    0.491  120.788  166.333
  337.500    3.109    0.205    0.490  114.239  166.004
  337.750    3.086    0.198    0.489  107.502  165.554
  338.000    3.034    0.212    0.493  100.891  165.304
  338.250    2.972    0.224    0.487   95.802  165.072
  338.500    2.911    0.233    0.488   90.715  164.829
  338.750    2.841    0.242    0.480   87.153  164.687
  339.000    2.767    0.254    0.453   84.874  164.443
  339.250    2.685    0.266    0.432   80.763  164.513
  339.500    2.562    0.274    0.423   76.957  164.181
  339.750    2.500    0.290    0.442   74.310  164.036
  340.000    2.454    0.297    0.439   74.350  163.397
  340.250    2.412    0.294    0.436   72.251  163.239
  340.500    2.399    0.294    0.447   68.934  162.697
  340.750    2.394    0.296    0.467   69.588  162.051
  341.000    2.381    0.297    0.461   72.798  162.011
  341.250    2.376    0.291    0.456   75.823  161.875
  341.500    2.385    0.283    0.473   80.682  161.837
  341.750    2.390    0.276    0.488   82.003  161.699
  342.000    2.399    0.268    0.486   81.066  161.667
  342.250    2.399    0.261    0.469   81.530  161.522
  342.500    2.412    0.264    0.460   82.606  161.076
  342.750    2.430    0.261    0.453   83.323  161.140
  343.000    2.453    0.263    0.459   83.111  160.908
  343.250    2.463    0.269    0.453   83.030  160.760
  343.500    2.449    0.272    0.452   80.382  160.824
  343.750    2.449    0.277    0.454   77.435  160.897
  344.000    2.458    0.271    0.459   75.763  160.956
  344.250    2.463    0.269    0.471   74.401  161.030
  344.500    2.533    0.279    0.490   74.314  161.186
  344.750    2.746    0.251    0.476   73.985  161.157
  345.000    2.983    0.091    0.469   72.865  160.905
  345.250    3.345    0.061    0.243   68.573  160.769
  345.500    4.200    0.030    0.193   62.871  160.322
  345.750    5.322    0.000    0.170   55.648  160.603
  346.000    7.055    0.000    0.152   49.828  160.461
  346.250    8.356    0.000    0.137   54.937  160.523
  346.500    8.185    0.044    0.193   61.870  160.588
  346.750    5.673    0.131    0.256   68.439  160.646
  347.000    3.925    0.210    0.353   71.405  160.710
  347.250    3.074    0.280    0.420   78.282  161.078
  347.500    2.660    0.264    0.461   87.103  161.346
  347.750    2.421    0.246    0.439   91.536  162.031
  348.000    2.363    0.231    0.444   94.626  163.527
  348.250    2.542    0.221    0.450   95.152  165.100
  348.500    2.746    0.213    0.454  100.560  167.098
  348.750    2.894    0.233    0.495   99.499  169.093
  349.000    3.114    0.259    0.509   96.000  170.685
  349.250    3.222    0.235    0.491  100.984  170.653
  349.500    3.370    0.229    0.480  102.240  170.306
  349.750    3.486    0.244    0.500   99.049  169.764
  350.000    3.579    0.255    0.480   92.371  170.028
  350.250    3.613    0.227    0.465   85.574  170.721
  350.500    3.586    0.208    0.453   87.753  171.176
  350.750    3.512    0.193    0.464   95.236  171.648
  351.000    3.428    0.180    0.472   99.240  171.812
  351.250    3.320    0.200    0.465  100.740  171.566
  351.500    3.203    0.207    0.462   95.781  171.027
  351.750    3.132    0.206    0.482   97.218  170.579
  352.000    3.138    0.219    0.511  104.156  170.642
  352.250    3.185    0.230    0.530  105.045  169.994
  352.500    3.295    0.234    0.517  101.910  169.452
  352.750    3.434    0.230    0.505   99.690  167.685
  353.000    3.552    0.212    0.495   98.815  166.123
  353.250    3.709    0.221    0.491   94.460  165.166
  353.500    3.917    0.226    0.460   90.226  164.926
  353.750    4.074    0.210    0.442   97.899  166.618
  354.000    4.215    0.194    0.435  101.776  167.814
  354.250    4.295    0.186    0.436   99.007  168.686
  354.500    4.335    0.174    0.413   96.547  169.556
  354.750    4.270    0.181    0.398   95.363  169.926
  355.000    4.595    0.190    0.406   95.462  170.299
  355.250    4.595    0.195    0.429   99.409  170.056
  355.500    4.604    0.199    0.438  101.217  169.719
  355.750    4.595    0.204    0.437   99.975  168.760
  356.000    4.518    0.211    0.444   95.374  167.400
  356.250    4.638    0.236    0.419   88.641  165.940
  356.500    5.153    0.272    0.389   81.845  164.581
  356.750    5.889    0.299    0.362   76.328  163.224
  357.000    6.742    0.321    0.349   72.460  162.372
  357.250    7.324    0.300    0.337   71.647  161.930
  357.500    7.940    0.340    0.287   70.768  161.798
  357.750    8.244    0.340    0.274   68.856  161.553
  358.000    8.592    0.355    0.276   66.635  161.615
  358.250    8.905    0.342    0.287   64.358  161.373
  358.500    8.955    0.339    0.296   63.237  160.933
  358.750    8.706    0.344    0.304   63.154  160.690
  359.000    8.198    0.347    0.307   64.047  160.448
  359.250    7.547    0.350    0.297   64.509  160.008
  359.500    6.518    0.339    0.289   64.549  159.977
  359.750    5.462    0.317    0.373   65.624  159.926
  360.000    4.535    0.294    0.404   69.574  159.587
  360.250    3.558    0.272    0.422   72.474  159.249
  360.500    3.073    0.253    0.433   77.156  159.110
  360.750    2.649    0.247    0.436   79.632  159.178
  361.000    2.357    0.272    0.458   75.644  158.930
  361.250    2.166    0.295    0.481   67.566  158.785
  361.500    2.032    0.301    0.491   61.868  158.660
  361.750    1.906    0.302    0.469   59.404  158.318
  362.000    1.788    0.304    0.454   60.115  158.273
  362.250    1.722    0.304    0.447   61.190  158.436
  362.500    1.678    0.304    0.448   61.596  158.505
  362.750    1.668    0.304    0.449   61.816  158.669
  363.000    1.690    0.306    0.459   62.228  158.931
  363.250    1.713    0.309    0.463   62.689  159.409
  363.500    1.772    0.311    0.463   63.764  159.889
  363.750    1.826    0.307    0.453   66.427  160.044
  364.000    1.972    0.298    0.445   69.393  160.514
  364.250    2.166    0.289    0.441   74.865  160.787
  364.500    2.402    0.274    0.426   84.427  162.169
  364.750    2.590    0.250    0.405   91.417  164.678
  365.000    2.861    0.227    0.386   95.423  166.976
  365.250    3.113    0.207    0.406   97.292  168.665
  365.500    3.420    0.195    0.415   97.820  170.565
  365.750    3.680    0.193    0.421   98.101  172.263
  366.000    3.879    0.187    0.427   96.921  173.238
  366.250    3.967    0.195    0.412   98.241  174.008
  366.500    3.938    0.220    0.436  101.332  174.788
  366.750    3.814    0.237    0.453  101.001  174.953
  367.000    3.757    0.221    0.462  100.432  174.713
  367.250    3.778    0.196    0.471  100.656  174.878
  367.500    3.923    0.207    0.485   98.560  175.146
  367.750    4.043    0.215    0.424   97.436  175.516
  368.000    4.073    0.200    0.391  100.282  175.579
  368.250    4.073    0.183    0.410  102.822  175.241
  368.500    3.997    0.178    0.430  102.192  173.270
  368.750    3.886    0.187    0.446  101.251  170.390
  369.000    3.708    0.193    0.451   93.233  167.195
  369.250    3.439    0.220    0.445   84.608  164.311
  369.500    3.113    0.239    0.463   78.301  162.742
  369.750    2.755    0.264    0.481   73.151  161.093
  370.000    2.470    0.280    0.467   75.266  160.840
  370.250    2.331    0.269    0.452   78.847  161.922
  370.500    2.397    0.260    0.441   84.068  165.239
  370.750    2.579    0.253    0.436   91.867  169.066
  371.000    2.739    0.278    0.466   96.903  175.436
  371.250    2.953    0.303    0.506  102.308  181.304
  371.500    3.055    0.247    0.519   99.173  180.255
  371.750    3.072    0.209    0.530   97.686  174.216
  372.000    3.049    0.213    0.497   96.992  171.119
  372.250    2.904    0.234    0.466   87.453  167.525
  372.500    2.739    0.257    0.454   81.391  165.145
  372.750    2.579    0.273    0.450   77.041  163.588
