~VERSION INFORMATION
 VERS.                 2.0:   CWLS LOG ASCII STANDARD -VERSION 2.0
 WRAP.                  NO:   ONE LINE PER DEPTH STEP
~WELL INFORMATION BLOCK
#MNEM.UNIT           DATA                    DESCRIPTION OF MNEMONIC
#---------    -------------------            -------------------------------
# Generated from Intellog Unique Number	CX_WELLS/WELL/3164
LOC .         00/03-13-083-10W4/0            : Location     - LOCATION
UWI .         00/03-13-083-10W400            : Uwi          - UNIQUE WELL ID
ENTR.         DW                             : Entered      - ENTERED BY
SRVC.         SCHLUMBERGER                   : Scn          - SERVICE COMPANY
STRT.F        738.189                        : top_depth    - START DEPTH
STOP.F        1573.98                        : bot_depth    - STOP DEPTH
STEP.F        0.82                           : increment    - STEP LENGTH
 NULL. -999.2500:NULL Value
~CURVE INFORMATION BLOCK
#MNEM UNIT       ERCB CURVE CODE    CURVE DESCRIPTION
#-----------   ------------------   ----------------------------------
DEPT.F        00 001 00 00         : DEPTH        - DEPTH
NPHI.V/V      00 330 00 00         : PHIN         - NEUTRON POROSITY (SANDSTONE)
DPHI.V/V      00 890 00 00         : PHID         - DENSITY POROSITY (SANDSTONE)
GR  .API      00 310 00 00         : GR           - GAMMA RAY
ILD .OHMM     00 120 00 00         : RESD         - DEEP RESISTIVITY (DIL)
~PARAMETER INFORMATION
#MNEM.UNIT           DATA             DESCRIPTION OF MNEMONIC
#---------         -----------     ------------------------------
GL  .F        2341.54              : gl           - GROUND LEVEL ELEVATION
EREF.F        2354                 : kb           - ELEVATION OF DEPTH REFERENCE
DATM.F        2354                 : datum        - DATUM ELEVATION
TDD .F        1587.93              : tdd          - TOTAL DEPTH DRILLER
RUN .         ONE                  : Run          - RUN NUMBER
ENG .         BILL                 : Engineer     - RECORDING ENGINEER
WIT .         JIM                  : Witness      - WITNESSED BY
MUD .         GEL                  : Mud_type     - MUD TYPE
MATR.         SANDSTONE            : Logunit      - NEUTRON MATRIX
TMAX.F        69.8                 : BHT          - MAXIMUM RECORDED TEMPERATURE
BHTD.F        1587.93              : BHTDEP       - MAXIMUM RECORDED TEMPERATURE
MATR.         1                    : LOGUNIT      - NEUTRON MATRIX
RMT .F        77                   : MDTP         - TEMPERATURE OF MUD
NEUT.         1                    : NEUTRON      - NEUTRON TYPE
RESI.         0                    : RESIST       - RESISTIVITY TYPE
RMC .OHMM     0.25                 : RMC          - RESISTIVITY OF MUD CAKE
RMF .OHMM     0.25                 : RMF          - RESISTIVITY OF MUD FILTRATE
SUFT.F        59                   : SUFT         - SURFACE TEMPERATURE
~A  DEPTH     PHIN     PHID       GR     RESD
# ...
 1166.340    0.424    0.373   58.691   12.992
 1167.160    0.443    0.359   57.222   12.310
 1167.980    0.436    0.363   54.974   12.323
 1168.800    0.434    0.374   53.913   12.108
 1169.620    0.445    0.378   55.001   11.909
 1170.440    0.462    0.372   57.230   11.922
 1171.260    0.466    0.360   59.252   11.718
 1172.080    0.446    0.361   60.945   11.731
 1172.900    0.436    0.367   60.285   11.748
 1173.720    0.436    0.372   56.605   11.764
 1174.540    0.448    0.376   53.026   11.786
 1175.360    0.467    0.378   51.401   12.029
 1176.180    0.464    0.376   51.083   12.270
 1177.000    0.432    0.364   54.015   12.519
 1177.820    0.416    0.357   57.953   12.769
 1178.640    0.418    0.347   60.098   13.280
 1179.460    0.441    0.377   61.703   13.550
 1180.280    0.459    0.331   59.517   13.564
 1181.100    0.435    0.121   49.570   13.584
 1181.920    0.385    0.116   43.647   13.109
 1182.740    0.287    0.220   46.454   12.650
 1183.560    0.342    0.301   53.548   12.195
 1184.380    0.441    0.338   58.700   11.764
 1185.200    0.441    0.351   60.391   11.352
 1186.020    0.455    0.351   60.125   11.361
 1186.840    0.445    0.355   57.442   10.963
 1187.660    0.433    0.360   56.560   10.983
 1188.480    0.442    0.358   58.247   10.995
 1189.300    0.465    0.354   58.358   11.011
 1190.120    0.466    0.354   55.865   11.239
 1190.940    0.436    0.353   55.754   11.251
 1191.770    0.424    0.351   59.506   11.488
 1192.590    0.425    0.353   60.174   11.496
 1193.410    0.440    0.355   57.712   11.734
 1194.230    0.448    0.358   55.672   11.977
 1195.050    0.431    0.361   55.858   11.986
 1195.870    0.417    0.364   57.493   12.229
 1196.690    0.415    0.365   58.986   12.478
 1197.510    0.410    0.367   61.001   12.732
 1198.330    0.444    0.359   62.557   13.241
 1199.150    0.468    0.341   61.486   13.255
 1199.970    0.439    0.305   58.758   13.534
 1200.790    0.419    0.277   57.348   13.549
 1201.610    0.441    0.333   56.645   13.563
 1202.430    0.454    0.359   58.182   13.336
 1203.250    0.453    0.356   60.729   12.870
 1204.070    0.449    0.358   61.751   12.879
 1204.890    0.443    0.362   60.679   12.207
 1205.710    0.437    0.359   59.103   12.216
 1206.530    0.435    0.354   58.417   12.011
 1207.350    0.446    0.352   59.392   11.797
 1208.170    0.459    0.352   59.551   11.818
 1208.990    0.456    0.352   58.805   11.616
 1209.810    0.438    0.352   58.304   11.633
 1210.630    0.433    0.351   57.779   11.649
 1211.450    0.452    0.346   57.748   11.662
 1212.270    0.437    0.338   57.748   11.687
 1213.090    0.423    0.330   57.833   11.695
 1213.910    0.444    0.332   59.091   11.712
 1214.730    0.458    0.343   61.196   11.737
 1215.550    0.429    0.345   61.377   11.750
 1216.370    0.418    0.337   58.650   11.771
 1217.190    0.416    0.279   58.477   11.784
 1218.010    0.422    0.253   61.848   11.796
 1218.830    0.430    0.297   62.795   11.813
 1219.650    0.437    0.350   60.312   12.062
 1220.470    0.449    0.354   59.426   12.075
 1221.290    0.456    0.336   58.196   12.088
 1222.110    0.461    0.334   59.570   12.106
 1222.930    0.468    0.344   62.141   12.356
 1223.750    0.476    0.352   61.672   12.379
 1224.570    0.478    0.359   57.872   12.626
 1225.390    0.463    0.364   54.332   12.644
 1226.210    0.440    0.364   52.460   12.667
 1227.030    0.423    0.363   54.523   12.210
 1227.850    0.431    0.344   59.109   11.141
 1228.670    0.449    0.312   59.945   10.544
 1229.490    0.455    0.313   56.914    9.617
 1230.310    0.455    0.352   58.742    8.446
 1231.140    0.454    0.346   67.529    7.284
 1231.960    0.450    0.322   74.375    6.399
 1232.780    0.445    0.298   77.748    5.416
 1233.600    0.442    0.289   79.806    5.035
 1234.420    0.476    0.293   80.955    5.042
 1235.240    0.537    0.293   79.508    5.047
 1236.060    0.499    0.299   75.874    4.965
 1236.880    0.466    0.308   79.565    4.876
 1237.700    0.435    0.304   84.862    4.794
 1238.520    0.441    0.294   85.177    4.539
 1239.340    0.484    0.286   82.809    4.218
 1240.160    0.488    0.280   81.941    3.917
 1240.980    0.492    0.310   81.735    3.779
 1241.800    0.494    0.319   84.167    3.645
 1242.620    0.496    0.304   87.988    3.652
 1243.440    0.492    0.285   89.363    3.868
 1244.260    0.513    0.286   87.610    4.499
 1245.080    0.568    0.308   86.187    5.431
 1245.900    0.543    0.306   86.269    6.085
 1246.720    0.507    0.285   84.652    6.569
 1247.540    0.492    0.266   82.219    6.703
 1248.360    0.494    0.271   80.686    6.841
 1249.180    0.495    0.295   80.701    6.978
 1250.000    0.470    0.299   81.761    7.123
 1250.820    0.448    0.267   82.572    7.128
 1251.640    0.449    0.242   86.044    7.011
 1252.460    0.481    0.238   87.850    7.016
 1253.280    0.486    0.257   84.932    6.896
 1254.100    0.450    0.267   82.222    6.652
 1254.920    0.438    0.238   86.127    6.301
 1255.740    0.474    0.231   93.577    5.855
 1256.560    0.504    0.241   96.812    5.340
 1257.380    0.488    0.269   94.937    4.870
 1258.200    0.461    0.296   96.234    4.360
 1259.020    0.461    0.297  102.732    3.975
 1259.840    0.470    0.279  104.408    3.626
 1260.660    0.481    0.277   97.587    3.306
 1261.480    0.492    0.286   93.721    3.015
 1262.300    0.520    0.289   92.700    2.909
 1263.120    0.543    0.283   93.239    2.859
 1263.940    0.537    0.286   98.831    2.973
 1264.760    0.520    0.302  108.888    3.149
 1265.580    0.525    0.300  113.744    3.397
 1266.400    0.564    0.304  109.481    3.666
 1267.220    0.598    0.316  100.410    3.883
 1268.040    0.598    0.316   94.867    4.273
 1268.860    0.551    0.305   94.278    4.524
 1269.690    0.479    0.299   93.737    5.069
 1270.510    0.454    0.291   93.083    5.472
 1271.330    0.455    0.273   87.638    5.903
 1272.150    0.504    0.267   84.559    6.371
 1272.970    0.533    0.260   85.569    6.875
 1273.790    0.498    0.239   89.422    7.420
 1274.610    0.463    0.242   96.871    8.162
 1275.430    0.449    0.280  100.124    8.811
 1276.250    0.449    0.279   95.760    9.154
 1277.070    0.439    0.256   94.542    9.886
 1277.890    0.424    0.243   99.983   10.270
 1278.710    0.414    0.242  103.513   10.684
 1279.530    0.404    0.238  100.275   10.901
 1280.350    0.404    0.227   96.064   10.917
 1281.170    0.413    0.220   87.199   10.527
 1281.990    0.426    0.221   87.748   10.344
 1282.810    0.422    0.228   92.839    9.797
 1283.630    0.407    0.238   92.887    9.101
 1284.450    0.412    0.248   93.429    8.301
 1285.270    0.419    0.252   92.763    7.571
 1286.090    0.425    0.254   94.052    7.035
 1286.910    0.431    0.256   94.971    6.661
 1287.730    0.442    0.262   97.518    6.549
 1288.550    0.456    0.279  101.206    7.199
 1289.370    0.461    0.296  100.745    9.723
 1290.190    0.466    0.288   99.753   11.107
 1291.010    0.477    0.294   97.901   11.328
 1291.830    0.455    0.288   95.247   11.777
 1292.650    0.397    0.266   88.206   11.794
 1293.470    0.357    0.262   79.529   11.596
 1294.290    0.366    0.277   80.364   11.393
 1295.110    0.382    0.274   90.061   10.791
 1295.930    0.395    0.270   92.153   10.406
 1296.750    0.429    0.274   87.864   10.039
 1297.570    0.443    0.270   86.789    9.156
 1298.390    0.414    0.253   90.150    8.666
 1299.210    0.417    0.241   92.551    7.907
 1300.030    0.487    0.258   94.176    7.625
 1300.850    0.513    0.267   94.343    7.222
 1301.670    0.495    0.265   91.790    7.230
 1302.490    0.459    0.268   89.231    7.111
 1303.310    0.420    0.275   89.676    7.250
 1304.130    0.422    0.273   91.830    7.538
 1304.950    0.460    0.263   92.199    8.140
 1305.770    0.436    0.260   88.410    8.303
 1306.590    0.402    0.265   88.017    8.629
 1307.410    0.397    0.255   89.367    8.804
 1308.230    0.407    0.250   88.486    8.493
