~VERSION INFORMATION
 VERS.                 2.0:   CWLS LOG ASCII STANDARD -VERSION 2.0
 WRAP.                  NO:   ONE LINE PER DEPTH STEP
~WELL INFORMATION BLOCK
#MNEM.UNIT           DATA                    DESCRIPTION OF MNEMONIC
#---------    -------------------            -------------------------------
# Generated from Intellog Unique Number	CS_67_68/WELL/799
WELL.         DOME PETROLEUM LIMITED         : Well_name    - WELL
LOC .         00/09-11-068-02W4/0            : Location     - LOCATION
UWI .         00/09-11-068-02W4/0            : Uwi          - UNIQUE WELL ID
ENTR.         SP                             : Entered      - ENTERED BY
SRVC.         SCHLUMBERGER                   : Scn          - SERVICE COMPANY
STRT.M        350                            : top_depth    - START DEPTH
STOP.M        605                            : bot_depth    - STOP DEPTH
STEP.M        0.25                           : increment    - STEP LENGTH
 NULL. -999.2500:NULL Value
~CURVE INFORMATION BLOCK
#MNEM UNIT       ERCB CURVE CODE    CURVE DESCRIPTION
#-----------   ------------------   ----------------------------------
DEPT.M        00 001 00 00         : DEPTH        - DEPTH
ILD .OHMM     00 120 00 00         : RESD         - DEEP RESISTIVITY (DIL)
DPHI.V/V      00 890 00 00         : PHID         - DENSITY POROSITY (LIMESTONE)
NPHI.V/V      00 330 00 00         : PHIN         - NEUTRON POROSITY (LIMESTONE)
GR  .API      00 310 00 00         : GR           - GAMMA RAY
~PARAMETER INFORMATION
#MNEM.UNIT           DATA             DESCRIPTION OF MNEMONIC
#---------         -----------     ------------------------------
GL  .M        681.9                : gl           - GROUND LEVEL ELEVATION
EREF.M        686                  : kb           - ELEVATION OF DEPTH REFERENCE
DATM.M        681.9                : datum        - DATUM ELEVATION
TDD .M        609                  : tdd          - TOTAL DEPTH DRILLER
RUN .         ONE                  : Run          - RUN NUMBER
ENG .         BILL                 : Engineer     - RECORDING ENGINEER
WIT .         JIM                  : Witness      - WITNESSED BY
MUD .         GEL                  : Mud_type     - MUD TYPE
MATR.         LIMESTONE            : Logunit      - NEUTRON MATRIX
TMAX.C        21.1                 : BHT          - MAXIMUM RECORDED TEMPERATURE
BHTD.M        609                  : BHTDEP       - MAXIMUM RECORDED TEMPERATURE
MATR.         1                    : LOGUNIT      - NEUTRON MATRIX
RMT .C        25                   : MDTP         - TEMPERATURE OF MUD
NEUT.         1                    : NEUTRON      - NEUTRON TYPE
RESI.         0                    : RESIST       - RESISTIVITY TYPE
RMC .OHMM     0.25                 : RMC          - RESISTIVITY OF MUD CAKE
RMF .OHMM     0.25                 : RMF          - RESISTIVITY OF MUD FILTRATE
SUFT.C        15                   : SUFT         - SURFACE TEMPERATURE
~A  DEPTH     RESD     PHID     PHIN       GR
  350.000    2.774    0.237    0.519  103.204
  350.250    2.855    0.229    0.523   98.143
  350.500    2.863    0.233    0.535   93.691
  350.750    2.891    0.245    0.507   95.630
  351.000    2.926    0.250    0.492  102.131
  351.250    3.006    0.244    0.507  106.382
  351.500    3.053    0.237    0.516  109.109
  351.750    3.084    0.236    0.521  108.733
  352.000    3.138    0.239    0.530  107.813
  352.250    3.224    0.237    0.539  107.316
  352.500    3.287    0.231    0.509  104.690
  352.750    3.357    0.219    0.495  103.402
  353.000    3.455    0.217    0.488  103.149
  353.250    3.432    0.217    0.463  103.383
  353.500    3.385    0.214    0.448  101.669
  353.750    3.293    0.227    0.451  101.052
  354.000    3.112    0.244    0.489  104.083
  354.250    2.951    0.254    0.506  107.178
  354.500    2.840    0.246    0.526  107.472
  354.750    2.749    0.239    0.520  107.098
  355.000    2.756    0.245    0.500  107.514
  355.250    2.800    0.243    0.494  108.294
  355.500    2.849    0.242    0.514  108.164
  355.750    2.926    0.245    0.524  107.849
  356.000    2.995    0.232    0.517  107.171
  356.250    3.065    0.236    0.515  105.884
  356.500    3.113    0.268    0.518  101.918
  356.750    3.180    0.276    0.518  100.205
  357.000    3.279    0.270    0.511  101.047
  357.250    3.380    0.248    0.492  106.392
  357.500    3.518    0.227    0.486  108.756
  357.750    3.606    0.215    0.498  103.818
  358.000    3.697    0.236    0.505   95.592
  358.250    3.687    0.173    0.441   89.985
  358.500    3.535    0.175    0.425   93.018
  358.750    3.409    0.194    0.453   95.686
  359.000    3.287    0.228    0.471   97.805
  359.250    3.182    0.243    0.483   98.159
  359.500    3.125    0.247    0.482   99.185
  359.750    3.093    0.247    0.494  102.522
  360.000    3.005    0.242    0.506  102.636
  360.250    3.007    0.250    0.461   74.147
  360.500    4.870    0.304    0.112   46.511
  360.750   25.390    0.362    0.089   35.974
  361.000   38.095    0.342    0.110   29.331
  361.250   68.210    0.306    0.132   26.886
  361.500   79.647    0.292    0.150   28.276
  361.750   82.115    0.317    0.137   30.031
  362.000   58.383    0.370    0.102   30.752
  362.250   45.125    0.392    0.115   30.865
  362.500   35.338    0.383    0.172   30.612
  362.750   29.147    0.372    0.216   28.108
  363.000   22.741    0.360    0.260   30.957
  363.250   18.517    0.350    0.290   31.922
  363.500   15.677    0.340    0.304   29.965
  363.750   13.903    0.333    0.318   30.137
  364.000   12.609    0.338    0.333   37.978
  364.250   11.415    0.328    0.329   50.808
  364.500   10.199    0.318    0.372   61.021
  364.750    9.012    0.396    0.516   69.348
  365.000    7.517    0.240    0.566   86.986
  365.250    5.757    0.216    0.556   96.103
  365.500    4.965    0.209    0.521   98.344
  365.750    6.142    0.212    0.489   98.275
  366.000    6.683    0.210    0.452   96.136
  366.250    7.205    0.202    0.430   92.657
  366.500    8.156    0.198    0.412   85.284
  366.750    8.404    0.198    0.408   78.521
  367.000    9.403    0.221    0.415   73.704
  367.250    9.970    0.238    0.422   71.869
  367.500   10.411    0.254    0.402   72.892
  367.750   10.956    0.259    0.384   72.822
  368.000   11.358    0.258    0.372   71.110
  368.250   11.559    0.259    0.381   68.116
  368.500   11.829    0.267    0.381   65.248
  368.750   12.059    0.282    0.367   61.101
  369.000   12.161    0.295    0.369   56.710
  369.250   12.237    0.303    0.381   51.953
  369.500   12.271    0.289    0.371   50.179
  369.750   12.372    0.285    0.364   51.202
  370.000   12.449    0.300    0.364   52.351
  370.250   12.646    0.304    0.373   55.870
  370.500   12.777    0.285    0.367   61.154
  370.750   12.785    0.277    0.355   63.823
  371.000   12.724    0.271    0.359   58.944
  371.250   12.639    0.283    0.370   54.612
  371.500   12.625    0.286    0.371   52.658
  371.750   12.613    0.289    0.372   51.066
  372.000   12.598    0.298    0.375   52.213
  372.250   12.608    0.299    0.384   56.340
  372.500   12.525    0.305    0.369   61.259
  372.750   12.513    0.301    0.358   66.969
  373.000   12.406    0.282    0.343   72.255
  373.250   12.323    0.266    0.360   76.869
  373.500   12.265    0.256    0.384   79.234
  373.750   12.047    0.250    0.407   82.632
  374.000   11.488    0.270    0.417   88.768
  374.250   10.653    0.276    0.420   92.653
  374.500    9.173    0.274    0.444   95.807
  374.750    8.427    0.269    0.456   91.904
  375.000    8.097    0.264    0.457   80.940
  375.250    8.178    0.270    0.430   74.297
  375.500    8.719    0.288    0.408   69.176
  375.750    9.260    0.297    0.400   65.576
  376.000    9.764    0.303    0.403   63.072
  376.250    9.842    0.306    0.406   67.687
  376.500    9.868    0.299    0.406   74.493
  376.750    9.731    0.243    0.408   83.367
  377.000    9.126    0.240    0.409   90.050
  377.250    8.964    0.250    0.415   92.658
  377.500    9.040    0.254    0.414   90.215
  377.750    9.147    0.253    0.418   86.494
  378.000    9.273    0.263    0.421   94.575
  378.250    9.386    0.278    0.423   96.331
  378.500    9.376    0.288    0.440   98.452
  378.750    9.245    0.294    0.458  108.057
  379.000    8.636    0.284    0.474  117.784
  379.250    7.890    0.285    0.475  127.935
  379.500    7.116    0.285    0.468  125.614
  379.750    6.550    0.261    0.456  118.911
  380.000    5.897    0.221    0.466  117.319
  380.250    5.269    0.212    0.492  116.944
  380.500    4.968    0.211    0.507  115.170
  380.750    4.818    0.213    0.497  112.057
  381.000    4.858    0.227    0.513  104.622
  381.250    5.083    0.269    0.529   94.999
  381.500    5.816    0.302    0.470   77.707
  381.750    6.753    0.325    0.425   61.815
  382.000    8.004    0.338    0.393   51.218
  382.250    9.242    0.345    0.392   51.817
  382.500   10.536    0.349    0.399   53.328
  382.750   11.484    0.349    0.401   54.595
  383.000   11.709    0.353    0.398   58.846
  383.250   11.062    0.340    0.420   62.852
  383.500   10.827    0.330    0.434   66.130
  383.750   10.636    0.324    0.414   69.403
  384.000   10.467    0.322    0.402   70.430
  384.250   10.226    0.321    0.403   72.307
  384.500   10.045    0.299    0.432   76.070
  384.750    9.978    0.286    0.434   80.503
  385.000   10.423    0.281    0.429   73.615
  385.250   10.805    0.256    0.438   68.921
  385.500   11.203    0.233    0.428   70.189
  385.750   11.679    0.249    0.445   81.193
  386.000   13.018    0.262    0.459   85.018
  386.250   14.730    0.244    0.471   65.232
  386.500   16.511    0.184    0.200   51.834
  386.750   18.959   -0.007    0.173   45.497
  387.000   21.134    0.002    0.158   45.913
  387.250   22.867    0.096    0.254   56.187
  387.500   18.758    0.155    0.344   66.035
  387.750   12.849    0.224    0.396   77.040
  388.000   10.250    0.250    0.431   83.419
  388.250    9.076    0.254    0.446   79.392
  388.500    8.850    0.223    0.442   77.497
  388.750    8.725    0.223    0.442   82.113
  389.000    8.492    0.256    0.446   83.686
  389.250    8.249    0.279    0.457   83.797
  389.500    8.088    0.280    0.460   85.248
  389.750    7.975    0.275    0.460   87.793
  390.000    7.937    0.272    0.461   89.608
  390.250    7.885    0.256    0.465   90.877
  390.500    8.175    0.241    0.448   90.441
  390.750    8.683    0.246    0.433   89.521
  391.000    9.188    0.288    0.457   80.443
  391.250    9.632    0.319    0.480   71.489
  391.500   10.079    0.343    0.407   62.230
  391.750   10.276    0.338    0.378   57.778
  392.000   10.323    0.319    0.383   63.609
  392.250   10.332    0.322    0.394   69.319
  392.500   10.320    0.322    0.400   70.589
  392.750   10.272    0.322    0.407   67.779
  393.000   10.203    0.331    0.409   67.952
  393.250   10.135    0.327    0.410   73.663
