~VERSION INFORMATION
 VERS.                 2.0:   CWLS LOG ASCII STANDARD -VERSION 2.0
 WRAP.                  NO:   ONE LINE PER DEPTH STEP
~WELL INFORMATION BLOCK
#MNEM.UNIT           DATA                    DESCRIPTION OF MNEMONIC
#---------    -------------------            -------------------------------
# Generated from Intellog Unique Number	CC_80_83/WELL/1180
NULL.         -999.25                        : NULL_VALUE
WELL.         CAN SUP PONY                   : Well_name    - WELL              
LOC .         07-08-082-07W4                 : Location     - LOCATION          
UWI .         00/07-08-082-07W4/0            : Uwi          - UNIQUE WELL ID    
ENTR.         DW                             : Entered      - ENTERED BY        
SRVC.         SCHLUMBERGER                   : Scn          - SERVICE COMPANY   
DATE.         12 MAR 76                      : Date         - LOG DATE
STRT.M        289.56                         : top_depth    - START DEPTH       
STOP.M        530.36                         : bot_depth    - STOP DEPTH        
STEP.M        0.305                          : increment    - STEP LENGTH       
~CURVE INFORMATION BLOCK
#MNEM UNIT       ERCB CURVE CODE    CURVE DESCRIPTION
#-----------   ------------------   ----------------------------------
DEPT.M        00 001 00 00         : DEPTH        - DEPTH                       
DPHI.V/V      00 890 00 00         : PHID         - DENSITY POROSITY (LIMESTONE)
NPHI.V/V      00 330 00 00         : PHIN         - NEUTRON POROSITY (LIMESTONE)
GR  .API      00 310 00 00         : GR           - GAMMA RAY                   
ILD .OHMM     00 120 00 00         : RESD         - DEEP RESISTIVITY (DIL)      
~PARAMETER INFORMATION       
#MNEM.UNIT           DATA             DESCRIPTION OF MNEMONIC
#---------         -----------     ------------------------------
GL  .M        743.102              : gl           - GROUND LEVEL ELEVATION      
EREF.M        745.846              : kb           - ELEVATION OF DEPTH REFERENCE
DATM.M        745.846              : datum        - DATUM ELEVATION             
TDD .M        533.4                : tdd          - TOTAL DEPTH DRILLER         
RUN .         ONE                  : Run          - RUN NUMBER                  
ENG .         BILL                 : Engineer     - RECORDING ENGINEER          
WIT .         JIM                  : Witness      - WITNESSED BY                
MUD .         GEL                  : Mud_type     - MUD TYPE                    
MATR.         LIMESTONE            : Logunit      - NEUTRON MATRIX              
TMAX.C        23.8889              : BHT          - MAXIMUM RECORDED TEMPERATURE
BHTD.M        533.4                : BHTDEP       - MAXIMUM RECORDED TEMPERATURE
MATR.         1                    : LOGUNIT      - NEUTRON MATRIX              
RMT .C        25                   : MDTP         - TEMPERATURE OF MUD          
NEUT.         1                    : NEUTRON      - NEUTRON TYPE                
RESI.         0                    : RESIST       - RESISTIVITY TYPE            
RMC .OHMM     0.25                 : RMC          - RESISTIVITY OF MUD CAKE     
RMF .OHMM     0.25                 : RMF          - RESISTIVITY OF MUD FILTRATE 
SUFT.C        4                    : SUFT         - SURFACE TEMPERATURE         
~A  DEPTH     PHID     PHIN       GR     RESD
  289.560    0.248    0.543  129.017    3.660
  289.865    0.250    0.527  130.839    3.595
  290.170    0.252    0.501  131.463    3.468
  290.474    0.246    0.511  130.885    3.407
  290.779    0.231    0.543  129.709    3.348
  291.084    0.257    0.561  127.933    3.350
  291.389    0.263    0.577  126.159    3.353
  291.694    0.244    0.562  128.580    3.357
  291.998    0.252    0.563  132.809    3.298
  292.303    0.238    0.580  133.431    3.300
  292.608    0.245    0.582  131.056    3.243
  292.913    0.262    0.586  131.078    3.185
  293.218    0.265    0.562  129.302    3.073
  293.523    0.271    0.537  126.328    3.019
  293.827    0.273    0.587  126.953    3.023
  294.132    0.278    0.603  128.172    3.025
  294.437    0.291    0.586  127.598    3.083
  294.742    0.279    0.568  125.219    3.145
  295.047    0.256    0.550  122.845    3.205
  295.351    0.263    0.577  124.069    3.149
  295.656    0.284    0.598  124.093    3.094
  295.961    0.273    0.570  119.915    2.984
  296.266    0.285    0.548  118.737    2.878
  296.571    0.289    0.555  119.966    2.776
  296.875    0.267    0.601  121.786    2.678
  297.180    0.274    0.636  123.014    2.582
  297.485    0.285    0.598  121.236    2.537
  297.790    0.281    0.562  118.256    2.539
  298.095    0.304    0.556  115.880    2.495
  298.399    0.296    0.590  115.308    2.544
  298.704    0.294    0.586  115.933    2.546
  299.009    0.302    0.588  115.952    2.548
  299.314    0.316    0.625  113.580    2.598
  299.619    0.311    0.583  112.401    2.600
  299.924    0.320    0.562  112.423    2.602
  300.228    0.303    0.572  116.651    2.557
  300.533    0.295    0.579  119.073    2.512
  300.838    0.283    0.590  116.697    2.514
  301.143    0.262    0.546  112.525    2.661
  301.448    0.237    0.528  112.546    2.713
  301.752    0.171    0.540  114.372    2.818
  302.057    0.210    0.588  114.395    2.873
  302.362    0.273    0.544  113.219    3.040
  302.667    0.272    0.527  112.041    3.157
  302.972    0.256    0.510  112.666    3.279
  303.276    0.257    0.483  118.690    3.406
  303.581    0.238    0.503  122.913    3.472
  303.886    0.190    0.537  122.937    3.542
  304.191    0.247    0.537  118.762    3.544
  304.496    0.247    0.560  115.786    3.547
  304.800    0.233    0.555  114.612    3.485
  305.105    0.224    0.512  115.234    3.361
  305.410    0.246    0.507  115.856    3.303
  305.715    0.260    0.520  117.083    3.367
  306.020    0.264    0.529  117.706    3.497
  306.325    0.249    0.519  117.130    3.700
  306.629    0.260    0.524  112.954    3.773
  306.934    0.257    0.508  108.774    3.776
  307.239    0.244    0.536  107.597    4.146
  307.544    0.222    0.555   99.219    4.724
  307.849    0.200    0.492   76.437    5.691
  308.153    0.196    0.446   74.062    6.485
  308.458    0.159    0.395   81.886    6.737
  308.763    0.181    0.406   96.915    6.377
  309.068    0.208    0.441  110.741    5.503
  309.373    0.249    0.492  113.767    4.492
  309.677    0.252    0.515  114.389    3.534
  309.982    0.245    0.513  113.214    3.284
  310.287    0.248    0.512  109.037    4.260
  310.592    0.250    0.493   97.057    7.435
  310.897    0.250    0.463   83.879   10.582
  311.201    0.274    0.434   76.704   14.784
  311.506    0.309    0.441   79.125   17.164
  311.811    0.311    0.447   86.951   17.497
  312.116    0.334    0.446   94.176   17.191
  312.421    0.332    0.442  102.602   15.399
  312.726    0.321    0.426  111.028   13.534
  313.030    0.310    0.458  114.655    9.527
  313.335    0.298    0.461  117.678    5.889
  313.640    0.268    0.448  117.702    5.896
  313.945    0.249    0.467  117.126    6.472
  314.250    0.260    0.483  110.548    8.399
  314.554    0.258    0.478  100.972   10.498
  314.859    0.292    0.461   94.993   13.369
  315.164    0.281    0.446   89.016   17.345
  315.469    0.301    0.433   69.235   19.762
  315.774    0.301    0.439   53.054   20.527
  316.078    0.276    0.413   53.680   20.166
  316.383    0.302    0.399   69.908   18.062
  316.688    0.289    0.400   78.932   14.473
  316.993    0.262    0.395   84.960   11.815
  317.298    0.210    0.423   89.785   10.781
  317.602    0.273    0.443   93.411   10.207
  317.907    0.267    0.457   93.431   10.406
  318.212    0.269    0.432   92.857   11.012
  318.517    0.278    0.431   89.878   11.437
  318.822    0.263    0.436   83.906   11.447
  319.127    0.261    0.422   92.927   11.244
  319.431    0.283    0.405  101.956   10.846
  319.736    0.259    0.425  102.578   10.269
  320.041    0.251    0.441  102.601    9.723
  320.346    0.252    0.449  103.825    9.554
  320.651    0.263    0.461  104.449    9.558
  320.955    0.251    0.451  102.076    9.747
  321.260    0.257    0.439   99.097    9.757
  321.565    0.254    0.451   98.525    9.950
  321.870    0.255    0.438  101.547    9.957
  322.175    0.252    0.429  106.370   10.154
  322.479    0.250    0.443  109.394   10.544
  322.784    0.243    0.443  107.018   10.956
  323.089    0.226    0.417  105.845   11.169
  323.394    0.279    0.405  107.668   10.972
  323.699    0.260    0.430  111.890   10.978
  324.003    0.247    0.455  112.517   10.590
  324.308    0.250    0.433  113.741   10.213
  324.613    0.259    0.428  117.965   10.036
  324.918    0.243    0.434  120.388   10.046
  325.223    0.260    0.445  118.612   10.052
  325.528    0.247    0.445  113.235   10.064
  325.832    0.237    0.441  113.861   10.071
  326.137    0.255    0.453  114.485   10.077
  326.442    0.256    0.458  112.105   10.280
  326.747    0.256    0.440  110.337   10.287
  327.052    0.262    0.431  112.160   10.104
  327.356    0.265    0.427  113.982    9.930
  327.661    0.253    0.444  118.202    9.400
  327.966    0.250    0.459  121.832    8.898
  328.271    0.242    0.444  119.455    8.906
  328.576    0.230    0.437  118.275    9.781
  328.880    0.224    0.442  115.901   10.541
  329.185    0.226    0.453  110.523   12.701
  329.490    0.229    0.476  101.542   14.205
  329.795    0.285    0.472   88.365   15.887
  330.100    0.339    0.474   86.591   17.127
  330.404    0.348    0.468   88.414   16.516
  330.709    0.343    0.446   92.039   15.640
  331.014    0.338    0.460   94.465   14.533
  331.319    0.315    0.459   98.087   13.018
  331.624    0.318    0.438  102.911   11.875
  331.929    0.311    0.450  109.536   11.245
  332.233    0.291    0.448  121.563   11.252
  332.538    0.260    0.447  122.191   11.263
  332.843    0.249    0.454  115.608   11.275
  333.148    0.303    0.491   94.628   11.075
  333.453    0.320    0.522   86.251   10.882
  333.757    0.565    0.593   80.878   11.727
  334.062    0.493    0.581   77.295   13.869
  334.367    0.402    0.528   62.318   16.705
  334.672    0.362    0.482   59.342   18.692
  334.977    0.360    0.454   62.964   18.704
  335.281    0.349    0.450   68.992   17.715
  335.586    0.343    0.465   75.017   17.077
  335.891    0.349    0.479   75.641   15.582
  336.196    0.339    0.473   76.866   14.481
  336.501    0.356    0.464   81.689   12.971
  336.805    0.353    0.460   88.315   12.280
  337.110    0.319    0.471   87.140   12.290
  337.415    0.336    0.465   85.365   12.531
  337.720    0.354    0.445   90.789   13.510
  338.025    0.337    0.444   90.813   13.769
  338.330    0.310    0.439   83.635   15.123
  338.634    0.293    0.435   81.861   16.302
  338.939    0.292    0.431   83.086   16.934
  339.244    0.317    0.447   84.311   16.942
  339.549    0.327    0.448   87.333   16.962
  339.854    0.323    0.443   92.157   15.763
  340.158    0.316    0.431   97.579   13.601
  340.463    0.311    0.428  104.805   10.119
  340.768    0.293    0.453  112.630    6.492
  341.073    0.230    0.508  130.060    6.034
  341.378    0.208    0.504  128.882    6.876
  341.682    0.191    0.483  123.506    8.282
  341.987    0.191    0.469  121.729   12.461
  342.292    0.332    0.466  119.354   16.167
