~VERSION INFORMATION
 VERS.                 2.0:   CWLS LOG ASCII STANDARD -VERSION 2.0
 WRAP.                  NO:   ONE LINE PER DEPTH STEP
~WELL INFORMATION BLOCK
#MNEM.UNIT           DATA                    DESCRIPTION OF MNEMONIC
#---------    -------------------            -------------------------------
# Generated from Intellog Unique Number	CS_77_79/WELL/867
WELL.         ICGR GRAHAM                    : Well_name    - WELL
LOC .         00/06-05-079-05W4/0            : Location     - LOCATION
UWI .         00/06-05-079-05W4/0            : Uwi          - UNIQUE WELL ID
ENTR.         JHS                            : Entered      - ENTERED BY
SRVC.         SCHLUMBERGER                   : Scn          - SERVICE COMPANY
STRT.M        105                            : top_depth    - START DEPTH
STOP.M        365                            : bot_depth    - STOP DEPTH
STEP.M        0.25                           : increment    - STEP LENGTH
 NULL. -999.2500:NULL Value
~CURVE INFORMATION BLOCK
#MNEM UNIT       ERCB CURVE CODE    CURVE DESCRIPTION
#-----------   ------------------   ----------------------------------
DEPT.M        00 001 00 00         : DEPTH        - DEPTH
DPHI.V/V      00 890 00 00         : PHID         - DENSITY POROSITY (LIMESTONE)
NPHI.V/V      00 330 00 00         : PHIN         - NEUTRON POROSITY (LIMESTONE)
GR  .API      00 310 00 00         : GR           - GAMMA RAY
ILD .OHMM     00 120 00 00         : RESD         - DEEP RESISTIVITY (DIL)
RHOB.KG/M3    00 350 00 00         : DENS         - BULK DENSITY
~PARAMETER INFORMATION
#MNEM.UNIT           DATA             DESCRIPTION OF MNEMONIC
#---------         -----------     ------------------------------
GL  .M        529.39               : gl           - GROUND LEVEL ELEVATION
EREF.M        533.04               : kb           - ELEVATION OF DEPTH REFERENCE
DATM.M        533.04               : datum        - DATUM ELEVATION
TDD .M        374                  : tdd          - TOTAL DEPTH DRILLER
RUN .         ONE                  : Run          - RUN NUMBER
ENG .         BILL                 : Engineer     - RECORDING ENGINEER
WIT .         JIM                  : Witness      - WITNESSED BY
MUD .         GEL                  : Mud_type     - MUD TYPE
MATR.         LIMESTONE            : Logunit      - NEUTRON MATRIX
TMAX.C        20.4                 : BHT          - MAXIMUM RECORDED TEMPERATURE
BHTD.M        374                  : BHTDEP       - MAXIMUM RECORDED TEMPERATURE
MATR.         1                    : LOGUNIT      - NEUTRON MATRIX
RMT .C        25                   : MDTP         - TEMPERATURE OF MUD
NEUT.         1                    : NEUTRON      - NEUTRON TYPE
RESI.         0                    : RESIST       - RESISTIVITY TYPE
RMC .OHMM     0.25                 : RMC          - RESISTIVITY OF MUD CAKE
RMF .OHMM     0.25                 : RMF          - RESISTIVITY OF MUD FILTRATE
SUFT.C        15                   : SUFT         - SURFACE TEMPERATURE
~A  DEPTH     PHID     PHIN       GR     RESD     DENS
# ...
  214.500    0.252    0.507   87.657    7.051    0.000
  214.750    0.251    0.508   85.161    6.926    0.000
  215.000    0.232    0.481   81.398    6.678    0.000
  215.250    0.224    0.458   79.535    6.681    0.000
  215.500    0.242    0.456   83.969    6.689    0.000
  215.750    0.225    0.466   86.510    6.693    0.000
  216.000    0.217    0.497   88.415    6.702    0.000
  216.250    0.250    0.510   86.551    6.833    0.000
  216.500    0.261    0.482   80.276    7.102    0.000
  216.750    0.256    0.461   79.027    7.242    0.000
  217.000    0.248    0.458   80.315    7.249    0.000
  217.250    0.249    0.446   83.483    7.120    0.000
  217.500    0.242    0.457   88.547    6.610    0.000
  217.750    0.218    0.509   92.980    6.021    0.000
  218.000    0.212    0.555   97.420    5.088    0.000
  218.250    0.252    0.575   98.695    4.218    0.000
  218.500    0.269    0.598   93.045    3.632    0.000
  218.750    0.283    0.494   91.181    3.501    0.000
  219.000    0.306    0.459   88.048    3.850    0.000
  219.250    0.324    0.445   70.422    5.306    0.000
  219.500    0.333    0.444   66.033    7.313    0.000
  219.750    0.319    0.465   67.325    9.527    0.000
  220.000    0.315    0.512   67.967   10.880    0.000
  220.250    0.315    0.540   66.730   11.738    0.000
  220.500    0.284    0.466   62.338   13.156    0.000
  220.750    0.244    0.389   56.685   14.201    0.000
  221.000    0.147    0.251   51.038   14.480    0.000
  221.250    0.132    0.261   55.471   14.765    0.000
  221.500    0.158    0.395   61.792   13.970    0.000
  221.750    0.326    0.461   63.706   12.730    0.000
  222.000    0.319    0.466   63.733   12.499    0.000
  222.250    0.317    0.460   65.645   11.602    0.000
  222.500    0.322    0.465   69.447   10.373    0.000
  222.750    0.317    0.456   75.142    9.101    0.000
  223.000    0.293    0.462   78.310    8.138    0.000
  223.250    0.268    0.486   83.382    7.995    0.000
  223.500    0.268    0.493   84.656    7.851    0.000
  223.750    0.268    0.490   86.575    7.860    0.000
  224.000    0.258    0.483   85.333    7.864    0.000
  224.250    0.269    0.472   81.569    7.872    0.000
  224.500    0.264    0.464   82.221    7.883    0.000
  224.750    0.260    0.462   87.296    7.741    0.000
  225.000    0.264    0.463   91.090    7.461    0.000
  225.250    0.254    0.473   96.153    7.326    0.000
  225.500    0.250    0.490   93.022    7.196    0.000
  225.750    0.247    0.494   89.899    6.938    0.000
  226.000    0.238    0.490   91.810    6.815    0.000
  226.250    0.239    0.483   97.503    6.570    0.000
  226.500    0.253    0.512  100.671    6.451    0.000
  226.750    0.253    0.531  103.845    5.989    0.000
  227.000    0.233    0.517  102.608    5.772    0.000
  227.250    0.219    0.535   97.593    5.358    0.000
  227.500    0.219    0.498   95.716    4.974    0.000
  227.750    0.280    0.470   86.287    4.203    0.000
  228.000    0.280    0.490   88.197    3.420    0.000
  228.250    0.290    0.526   99.566    2.783    0.000
  228.500    0.286    0.541   99.588    2.634    0.000
  228.750    0.272    0.553   95.196    2.586    0.000
  229.000    0.262    0.550   95.851    2.588    0.000
  229.250    0.258    0.522  100.914    2.639    0.000
  229.500    0.273    0.529  100.308    2.903    0.000
  229.750    0.262    0.534   99.701    3.074    0.000
  230.000    0.252    0.544  102.237    3.318    0.000
  230.250    0.259    0.565  101.629    3.581    0.000
  230.500    0.259    0.575   97.241    3.937    0.000
  230.750    0.261    0.502   96.001    4.248    0.000
  231.000    0.252    0.487   96.022    4.851    0.000
  231.250    0.247    0.505   91.007    5.335    0.000
  231.500    0.258    0.494   84.724    5.866    0.000
  231.750    0.268    0.468   79.071    6.451    0.000
  232.000    0.284    0.454   79.722    6.961    0.000
  232.250    0.300    0.445   84.792    7.511    0.000
  232.500    0.289    0.443   84.179    8.418    0.000
  232.750    0.279    0.402   79.785    9.082    0.000
  233.000    0.296    0.341   76.664   10.180    0.000
  233.250    0.316    0.320   82.353   10.779    0.000
  233.500    0.347    0.361   82.376   11.857    0.000
  233.750    0.356    0.459   76.724   12.090    0.000
  234.000    0.287    0.451   70.440   12.566    0.000
  234.250    0.190    0.382   62.900   12.114    0.000
  234.500    0.158    0.359   61.031   11.677    0.000
  234.750    0.163    0.438   75.551   11.252    0.000
  235.000    0.238    0.447   79.353   10.445    0.000
  235.250    0.255    0.447   76.225    9.888    0.000
  235.500    0.241    0.449   77.506    9.708    0.000
  235.750    0.263    0.441   80.048    9.715    0.000
  236.000    0.281    0.422   78.814    9.727    0.000
  236.250    0.304    0.411   78.207    9.733    0.000
  236.500    0.309    0.405   79.485    9.742    0.000
  236.750    0.302    0.443   83.287    9.749    0.000
  237.000    0.298    0.467   82.681    9.943    0.000
  237.250    0.294    0.476   80.178   10.334    0.000
  237.500    0.295    0.484   75.790   10.739    0.000
  237.750    0.292    0.399   72.028   11.373    0.000
  238.000    0.280    0.335   74.570   12.276    0.000
  238.250    0.264    0.257   63.251   13.000    0.000
  238.500    0.073    0.246   57.596   13.009    0.000
  238.750    0.088    0.339   68.334   12.778    0.000
  239.000    0.286    0.433   74.659   12.091    0.000
  239.250    0.304    0.468   75.308   11.651    0.000
  239.500    0.301    0.458   71.549   11.025    0.000
  239.750    0.281    0.433   70.315   10.234    0.000
  240.000    0.279    0.418   75.376    9.500    0.000
  240.250    0.296    0.412   83.590    9.329    0.000
  240.500    0.299    0.440   87.398    8.663    0.000
  240.750    0.272    0.465   84.263    8.350    0.000
  241.000    0.255    0.450   84.914    8.049    0.000
  241.250    0.249    0.465   92.501    7.761    0.000
  241.500    0.252    0.492   93.783    7.764    0.000
  241.750    0.257    0.471   90.652    7.627    0.000
  242.000    0.255    0.435   85.638    7.633    0.000
  242.250    0.250    0.455   83.767    7.784    0.000
  242.500    0.262    0.461   83.788    7.791    0.000
  242.750    0.276    0.453   82.550    7.652    0.000
  243.000    0.283    0.440   81.312    7.241    0.000
  243.250    0.275    0.429   81.327    6.721    0.000
  243.500    0.245    0.440   87.030    6.356    0.000
  243.750    0.233    0.478   88.304    5.794    0.000
  244.000    0.238    0.492   88.325    5.689    0.000
  244.250    0.248    0.498   88.349    5.590    0.000
  244.500    0.264    0.510   90.260    5.593    0.000
  244.750    0.266    0.500   92.172    5.495    0.000
  245.000    0.254    0.490   92.828    5.498    0.000
  245.250    0.249    0.485   89.696    5.402    0.000
  245.500    0.257    0.485   89.724    5.305    0.000
  245.750    0.258    0.493   90.370    5.212    0.000
  246.000    0.265    0.504   92.288    5.117    0.000
  246.250    0.275    0.517   92.935    5.028    0.000
  246.500    0.273    0.522   92.326    4.846    0.000
  246.750    0.278    0.538   93.610    4.759    0.000
  247.000    0.270    0.551   96.148    4.588    0.000
  247.250    0.271    0.535   98.066    4.506    0.000
  247.500    0.286    0.501   94.303    4.426    0.000
  247.750    0.299    0.468   88.020    4.347    0.000
  248.000    0.292    0.479   79.856    4.270    0.000
  248.250    0.272    0.544   82.392    4.116    0.000
  248.500    0.265    0.523   91.868    3.968 2257.040
  248.750    0.272    0.488   91.896    4.123 2244.350
  249.000    0.276    0.461   81.827    4.620 2238.080
  249.250    0.272    0.447   78.697    5.177 2244.510
  249.500    0.286    0.468   83.134    5.913 2221.220
  249.750    0.263    0.478   87.572    6.502 2259.540
  250.000    0.247    0.471   91.634    6.885 2288.160
  250.250    0.249    0.460   89.761    7.155 2283.950
  250.500    0.276    0.446   84.122    7.162 2237.340
  250.750    0.290    0.471   75.973    7.038 2214.050
