~VERSION INFORMATION
 VERS.                 2.0:   CWLS LOG ASCII STANDARD -VERSION 2.0
 WRAP.                  NO:   ONE LINE PER DEPTH STEP
~WELL INFORMATION BLOCK
#MNEM.UNIT           DATA                    DESCRIPTION OF MNEMONIC
#---------    -------------------            -------------------------------
# Generated from Intellog Unique Number	CC_88_90/WELL/1062
WELL.         06-19-089-18W4                 : Well_name    - WELL
LOC .         00/06-19-089-18W4/0            : Location     - LOCATION
UWI .         00/06-19-089-18W400            : Uwi          - UNIQUE WELL ID
ENTR.         DW                             : Entered      - ENTERED BY
SRVC.         SCHLUMBERGER                   : Scn          - SERVICE COMPANY
STRT.M        89                             : top_depth    - START DEPTH
STOP.M        212.75                         : bot_depth    - STOP DEPTH
STEP.M        0.25                           : increment    - STEP LENGTH
 NULL. -999.2500:NULL Value
~CURVE INFORMATION BLOCK
#MNEM UNIT       ERCB CURVE CODE    CURVE DESCRIPTION
#-----------   ------------------   ----------------------------------
DEPT.M        00 001 00 00         : DEPTH        - DEPTH
GR  .API      00 310 00 00         : GR           - GAMMA RAY
DPHI.V/V      00 890 00 00         : PHID         - DENSITY POROSITY (SANDSTONE)
NPHI.V/V      00 330 00 00         : PHIN         - NEUTRON POROSITY (SANDSTONE)
ILD .OHMM     00 120 00 00         : RESD         - DEEP RESISTIVITY (DIL)
~PARAMETER INFORMATION
#MNEM.UNIT           DATA             DESCRIPTION OF MNEMONIC
#---------         -----------     ------------------------------
GL  .M        488.7                : gl           - GROUND LEVEL ELEVATION
EREF.M        491.7                : kb           - ELEVATION OF DEPTH REFERENCE
DATM.M        491.7                : datum        - DATUM ELEVATION
TDD .M        217                  : tdd          - TOTAL DEPTH DRILLER
RUN .         ONE                  : Run          - RUN NUMBER
ENG .         BILL                 : Engineer     - RECORDING ENGINEER
WIT .         JIM                  : Witness      - WITNESSED BY
MUD .         GEL                  : Mud_type     - MUD TYPE
MATR.         SANDSTONE            : Logunit      - NEUTRON MATRIX
TMAX.C        21.6                 : BHT          - MAXIMUM RECORDED TEMPERATURE
BHTD.M        217                  : BHTDEP       - MAXIMUM RECORDED TEMPERATURE
MATR.         1                    : LOGUNIT      - NEUTRON MATRIX
RMT .C        25                   : MDTP         - TEMPERATURE OF MUD
NEUT.         1                    : NEUTRON      - NEUTRON TYPE
RESI.         0                    : RESIST       - RESISTIVITY TYPE
RMC .OHMM     0.25                 : RMC          - RESISTIVITY OF MUD CAKE
RMF .OHMM     0.25                 : RMF          - RESISTIVITY OF MUD FILTRATE
SUFT.C        15                   : SUFT         - SURFACE TEMPERATURE
~A  DEPTH       GR     PHID     PHIN     RESD
   89.000   70.295    0.281    0.391   23.554
   89.250   64.258    0.271    0.361   25.600
   89.500   61.362    0.262    0.314   26.683
   89.750   61.026    0.216    0.300   26.954
   90.000   63.622    0.243    0.324   26.740
   90.250   67.949    0.351    0.359   26.183
   90.500   69.629    0.371    0.389   25.330
   90.750   66.132    0.370    0.410   24.847
   91.000   62.559    0.352    0.429   25.040
   91.250   60.312    0.358    0.455   25.799
   91.500   61.247    0.397    0.480   26.433
   91.750   64.481    0.444    0.497   26.059
   92.000   65.228    0.483    0.506   24.770
   92.250   63.240    0.503    0.501   24.208
   92.500   56.024    0.505    0.493   25.150
   92.750   57.427    0.521    0.484   26.307
   93.000   67.170    0.474    0.473   26.790
   93.250   72.389    0.390    0.462   26.539
   93.500   70.782    0.415    0.453   25.640
   93.750   68.331    0.450    0.449   24.784
   94.000   64.596    0.463    0.451   24.342
   94.250   64.916    0.446    0.457   23.877
   94.500   64.875    0.405    0.464   23.785
   94.750   59.743    0.379    0.465   24.213
   95.000   55.812    0.392    0.460   24.601
   95.250   54.927    0.416    0.459   25.454
   95.500   57.422    0.457    0.480   25.248
   95.750   60.992    0.472    0.483   24.884
   96.000   63.342    0.482    0.462   24.006
   96.250   64.835    0.553    0.464   22.511
   96.500   66.960    0.617    0.507   21.866
   96.750   68.287    0.496    0.529   20.869
   97.000   66.400    0.348    0.485   19.797
   97.250   63.238    0.297    0.444   19.184
   97.500   61.611    0.297    0.433   19.150
   97.750   63.215    0.300    0.430   19.554
   98.000   66.916    0.336    0.451   20.192
   98.250   67.647    0.381    0.484   21.068
   98.500   66.831    0.420    0.467   23.044
   98.750   65.138    0.378    0.441   25.008
   99.000   62.837    0.322    0.433   26.223
   99.250   60.013    0.331    0.433   26.863
   99.500   55.680    0.352    0.444   26.774
   99.750   50.196    0.385    0.462   25.911
  100.000   48.730    0.395    0.466   25.118
  100.250   51.648    0.427    0.458   21.950
  100.500   61.071    0.467    0.453   16.184
  100.750   71.008    0.450    0.463   12.059
  101.000   68.076    0.392    0.484   12.226
  101.250   57.839    0.393    0.481   12.949
  101.500   53.933    0.416    0.477   14.790
  101.750   55.840    0.512    0.478   17.910
  102.000   59.999    0.609    0.490   20.372
  102.250   65.396    0.576    0.510   21.332
  102.500   69.897    0.467    0.520   21.978
  102.750   70.200    0.423    0.510   22.040
  103.000   62.922    0.403    0.464   21.415
  103.250   60.703    0.391    0.442   20.784
  103.500   65.944    0.402    0.453   19.843
  103.750   69.529    0.426    0.466   18.640
  104.000   68.609    0.426    0.481   18.108
  104.250   67.023    0.384    0.476   17.527
  104.500   65.924    0.348    0.477   17.022
  104.750   67.416    0.325    0.479   16.186
  105.000   70.244    0.371    0.470   15.089
  105.250   73.972    0.453    0.462   13.786
  105.500   82.252    0.452    0.473   11.872
  105.750   93.969    0.441    0.484    9.933
  106.000  100.469    0.347    0.483    8.691
  106.250   99.816    0.293    0.475    7.494
  106.500   98.232    0.304    0.476    6.559
  106.750  102.240    0.307    0.490    6.468
  107.000  107.713    0.320    0.499    6.682
  107.250  102.281    0.348    0.493    6.607
  107.500   98.119    0.338    0.519    6.252
  107.750  103.040    0.343    0.548    5.781
  108.000  109.590    0.350    0.531    5.361
  108.250  109.754    0.328    0.509    5.045
  108.500  106.422    0.330    0.550    4.818
  108.750  102.800    0.352    0.571    4.746
  109.000   93.750    0.359    0.531    4.613
  109.250   90.415    0.354    0.504    4.844
  109.500   96.103    0.350    0.516    5.173
  109.750  102.371    0.350    0.539    5.180
  110.000  104.514    0.353    0.565    5.181
  110.250  103.230    0.355    0.573    5.204
  110.500   99.650    0.354    0.524    4.941
  110.750   96.808    0.357    0.517    4.627
  111.000   93.440    0.323    0.541    4.498
  111.250   87.745    0.267    0.524    4.545
  111.500   88.296    0.280    0.505    4.695
  111.750  104.300    0.340    0.513    4.844
  112.000  103.659    0.349    0.506    5.004
  112.250   92.267    0.339    0.512    5.132
  112.500   94.281    0.338    0.517    5.388
  112.750  106.878    0.335    0.492    5.705
  113.000  106.914    0.330    0.481    5.880
  113.250   96.156    0.319    0.507    6.429
  113.500   87.153    0.312    0.501    7.307
  113.750   86.023    0.278    0.395    8.161
  114.000   86.691    0.284    0.304    9.287
  114.250   79.765    0.343    0.334   11.251
  114.500   67.056    0.372    0.399   13.801
  114.750   62.461    0.432    0.432   15.802
  115.000   65.904    0.425    0.436   16.579
  115.250   69.040    0.391    0.437   16.751
  115.500   69.816    0.368    0.442   16.442
  115.750   72.113    0.338    0.446   15.508
  116.000   79.454    0.314    0.449   13.753
  116.250   92.640    0.322    0.464   10.280
  116.500  101.027    0.335    0.487    7.351
  116.750  102.702    0.338    0.501    6.163
  117.000   91.392    0.311    0.509    6.057
  117.250   80.877    0.272    0.495    6.214
  117.500   91.850    0.273    0.457    6.523
  117.750   92.669    0.283    0.483    6.825
  118.000   89.661    0.236    0.491    7.281
  118.250   95.383    0.232    0.475    7.552
  118.500  102.062    0.284    0.475    7.226
  118.750  100.479    0.317    0.491    6.688
  119.000   97.404    0.321    0.502    6.626
  119.250   97.023    0.309    0.503    6.781
  119.500   93.897    0.300    0.460    7.573
  119.750   88.512    0.297    0.415    8.619
  120.000   84.003    0.303    0.398    9.404
  120.250   82.450    0.314    0.417    9.669
  120.500   83.674    0.323    0.466    9.480
  120.750   83.831    0.338    0.479    9.452
  121.000   82.169    0.340    0.462    9.640
  121.250   76.767    0.340    0.438   10.327
  121.500   69.897    0.310    0.440   11.597
  121.750   64.632    0.265    0.443   14.771
  122.000   61.236    0.278    0.404   20.617
  122.250   61.574    0.319    0.392   24.940
  122.500   62.958    0.317    0.387   25.795
  122.750   65.474    0.295    0.401   24.308
  123.000   71.894    0.322    0.429   21.115
  123.250   81.917    0.364    0.448   16.266
  123.500   90.429    0.341    0.458   11.389
  123.750   92.064    0.327    0.473    8.955
  124.000   82.423    0.316    0.505    8.294
  124.250   68.619    0.304    0.478    8.889
  124.500   61.604    0.312    0.414   10.536
  124.750   63.900    0.336    0.386   14.259
  125.000   67.991    0.352    0.386   20.090
  125.250   66.960    0.370    0.399   23.445
  125.500   61.929    0.377    0.419   24.573
  125.750   60.380    0.375    0.432   22.712
  126.000   61.305    0.342    0.433   17.846
  126.250   66.218    0.299    0.430   12.932
  126.500   81.012    0.297    0.432   10.682
  126.750   91.685    0.296    0.451    9.363
  127.000   88.696    0.300    0.470    8.630
  127.250   83.784    0.309    0.464    8.401
  127.500   85.502    0.318    0.442    8.634
  127.750   90.727    0.318    0.437    9.030
  128.000   94.653    0.326    0.466    8.969
  128.250   95.124    0.377    0.495    8.409
  128.500   90.884    0.365    0.518    8.103
  128.750   84.579    0.311    0.480    8.380
  129.000   77.171    0.281    0.442    9.110
  129.250   72.711    0.280    0.452   10.031
  129.500   76.566    0.287    0.450   13.080
  129.750   81.153    0.312    0.458   21.067
  130.000   81.290    0.329    0.438   23.556
  130.250   83.722    0.346    0.414   22.488
  130.500   85.976    0.331    0.406   21.189
  130.750   83.412    0.293    0.406   18.325
  131.000   81.501    0.301    0.413   13.541
  131.250   83.343    0.314    0.442    9.001
  131.500   92.237    0.315    0.459    7.367
  131.750   98.793    0.301    0.467    6.909
  132.000  102.568    0.284    0.481    6.698
  132.250  106.989    0.277    0.472    6.978
