~VERSION INFORMATION
 VERS.                 2.0:   CWLS LOG ASCII STANDARD -VERSION 2.0
 WRAP.                  NO:   ONE LINE PER DEPTH STEP
~WELL INFORMATION BLOCK
#MNEM.UNIT           DATA                    DESCRIPTION OF MNEMONIC
#---------    -------------------            -------------------------------
# Generated from Intellog Unique Number	CS_73_76/WELL/2914
WELL.         HOME HB LEISMER                : Well_name    - WELL
LOC .         00/07-35-075-08W4/0            : Location     - LOCATION
UWI .         00/07-35-075-08W4/0            : Uwi          - UNIQUE WELL ID
ENTR.         SP                             : Entered      - ENTERED BY
SRVC.         SCHLUMBERGER                   : Scn          - SERVICE COMPANY
STRT.M        235                            : top_depth    - START DEPTH
STOP.M        465                            : bot_depth    - STOP DEPTH
STEP.M        0.25                           : increment    - STEP LENGTH
 NULL. -999.2500:NULL Value
~CURVE INFORMATION BLOCK
#MNEM UNIT       ERCB CURVE CODE    CURVE DESCRIPTION
#-----------   ------------------   ----------------------------------
DEPT.M        00 001 00 00         : DEPTH        - DEPTH
ILD .OHMM     00 120 00 00         : RESD         - DEEP RESISTIVITY (DIL)
DPHI.V/V      00 890 00 00         : PHID         - DENSITY POROSITY (LIMESTONE)
NPHI.V/V      00 330 00 00         : PHIN         - NEUTRON POROSITY (LIMESTONE)
GR  .API      00 310 00 00         : GR           - GAMMA RAY
~PARAMETER INFORMATION
#MNEM.UNIT           DATA             DESCRIPTION OF MNEMONIC
#---------         -----------     ------------------------------
GL  .M        637.83               : gl           - GROUND LEVEL ELEVATION
EREF.M        641.29               : kb           - ELEVATION OF DEPTH REFERENCE
DATM.M        637.83               : datum        - DATUM ELEVATION
TDD .M        407                  : tdd          - TOTAL DEPTH DRILLER
RUN .         ONE                  : Run          - RUN NUMBER
ENG .         BILL                 : Engineer     - RECORDING ENGINEER
WIT .         JIM                  : Witness      - WITNESSED BY
MUD .         GEL                  : Mud_type     - MUD TYPE
MATR.         LIMESTONE            : Logunit      - NEUTRON MATRIX
TMAX.C        21                   : BHT          - MAXIMUM RECORDED TEMPERATURE
BHTD.M        407                  : BHTDEP       - MAXIMUM RECORDED TEMPERATURE
MATR.         1                    : LOGUNIT      - NEUTRON MATRIX
RMT .C        25                   : MDTP         - TEMPERATURE OF MUD
NEUT.         1                    : NEUTRON      - NEUTRON TYPE
RESI.         0                    : RESIST       - RESISTIVITY TYPE
RMC .OHMM     0.25                 : RMC          - RESISTIVITY OF MUD CAKE
RMF .OHMM     0.25                 : RMF          - RESISTIVITY OF MUD FILTRATE
SUFT.C        15                   : SUFT         - SURFACE TEMPERATURE
~A  DEPTH     RESD     PHID     PHIN       GR
# ...
  409.000    8.781    0.246    0.366   69.655
  409.250    9.111    0.175    0.336   72.096
  409.500    9.632    0.159    0.316   76.367
  409.750    9.995    0.199    0.356   80.028
  410.000   10.566    0.271    0.376   65.397
  410.250   10.964    0.324    0.414   56.253
  410.500   11.166    0.297    0.426   50.768
  410.750   11.372    0.293    0.316   58.698
  411.000   11.582    0.284    0.295   79.433
  411.250   11.579    0.289    0.386   96.509
  411.500   11.577    0.343    0.447  109.927
  411.750   11.572    0.375    0.515  123.345
  412.000   11.569    0.298    0.319  122.128
  412.250   12.004    0.228    0.302   96.521
  412.500   12.928    0.223    0.327   72.742
  412.750   13.925    0.239    0.360   55.062
  413.000   16.459    0.249    0.402   57.503
  413.250   19.820    0.277    0.413   64.824
  413.500   21.749    0.292    0.375   74.584
  413.750   23.864    0.294    0.307   81.293
  414.000   23.418    0.275    0.275   91.662
  414.250   20.169    0.261    0.307   88.007
  414.500   18.031    0.252    0.300   83.131
  414.750   17.048    0.235    0.287   89.843
  415.000   15.819    0.225    0.280   86.796
  415.250   15.235    0.208    0.270   86.188
  415.500   14.950    0.207    0.274   94.118
  415.750   14.947    0.220    0.296  100.218
  416.000   15.223    0.216    0.277   96.563
  416.250   15.503    0.213    0.315   78.883
  416.500   15.791    0.220    0.363   69.129
  416.750   16.081    0.252    0.383   78.888
  417.000   17.001    0.269    0.373   75.843
  417.250   18.654    0.260    0.321   70.967
  417.500   20.849    0.258    0.296   69.140
  417.750   22.043    0.274    0.298   66.094
  418.000   23.304    0.271    0.315   63.048
  418.250   25.095    0.271    0.324   69.758
  418.500   25.561    0.281    0.313   78.298
  418.750   25.554    0.278    0.348   70.984
  419.000   25.543    0.252    0.383   64.279
  419.250   25.064    0.252    0.401   71.600
  419.500   25.057    0.270    0.393   84.407
  419.750   24.588    0.287    0.315   85.020
  420.000   24.128    0.262    0.275   82.583
  420.250   23.678    0.249    0.296   88.074
  420.500   20.774    0.243    0.308   91.126
  420.750   19.279    0.252    0.303   92.958
  421.000   15.414    0.254    0.312  108.205
  421.250   13.527    0.247    0.321  121.013
  421.500   11.437    0.217    0.298  134.431
  421.750   10.225    0.177    0.265  123.458
  422.000    9.667    0.172    0.308  110.046
  422.250    9.310    0.184    0.370  118.585
  422.500    9.308    0.176    0.395  114.320
  422.750    9.657    0.161    0.315  108.225
  423.000    9.837    0.149    0.295  110.057
  423.250   10.398    0.212    0.319  115.547
  423.500   10.790    0.235    0.347  111.892
  423.750   11.196    0.212    0.314   94.212
  424.000   12.055    0.189    0.345   87.508
  424.250   12.508    0.190    0.393   86.290
  424.500   12.276    0.221    0.415   84.463
  424.750   12.977    0.244    0.388   91.785
  425.000   13.975    0.244    0.356   96.055
  425.250   14.503    0.234    0.335   93.619
  425.500   15.049    0.236    0.358   86.914
  425.750   15.328    0.251    0.383   92.405
  426.000   15.611    0.244    0.382   97.285
  426.250   16.501    0.260    0.383   83.874
  426.500   17.771    0.228    0.390   72.291
  426.750   18.442    0.218    0.399   80.221
  427.000   17.761    0.183    0.422   91.809
  427.250   15.879    0.213    0.246   87.544
  427.500   13.934    0.199    0.257   84.497
  427.750   12.930    0.200    0.290   93.038
  428.000   12.689    0.216    0.313   94.259
  428.250   13.165    0.213    0.335   86.945
  428.500   13.409    0.206    0.339   85.119
  428.750   14.442    0.241    0.356   79.024
  429.000   17.070    0.271    0.383   77.198
  429.250   20.556    0.258    0.354   80.249
  429.500   22.141    0.261    0.347   75.984
  429.750   23.407    0.289    0.349   73.547
  430.000   23.400    0.274    0.375   82.087
  430.250   19.061    0.272    0.265   83.310
  430.500   17.040    0.194    0.264   79.043
  430.750   16.721    0.197    0.300   72.949
  431.000   18.690    0.238    0.380   69.293
  431.250   20.130    0.288    0.326   72.955
  431.500   22.503    0.275    0.331   50.396
  431.750   25.628    0.266    0.400   69.912
  432.000   28.648    0.288    0.448   85.158
  432.250   27.590    0.322    0.457   81.503
  432.500   26.085    0.249    0.374   60.163
  432.750   28.623    0.242    0.349   44.312
  433.000   33.833    0.270    0.394   60.169
  433.250   39.990    0.311    0.459   57.733
  433.500   46.402    0.327    0.367   49.809
  433.750   59.090    0.314    0.344   62.617
  434.000   67.300    0.323    0.352   83.962
  434.250   48.117    0.328    0.330   89.452
  434.500   33.773    0.299    0.294   90.065
  434.750   24.148    0.225    0.302   82.141
  435.000   19.670    0.206    0.312   71.168
  435.250   17.586    0.213    0.331   66.902
  435.500   20.787    0.225    0.364   60.807
  435.750   30.722    0.246    0.389   55.322
  436.000   41.373    0.284    0.351   51.667
  436.250   52.688    0.308    0.339   52.889
  436.500   50.745    0.324    0.352   58.379
  436.750   45.363    0.323    0.342   68.748
  437.000   40.561    0.332    0.331   76.069
  437.250   29.001    0.311    0.340   88.267
  437.500   24.068    0.303    0.356   93.757
  437.750   20.731    0.263    0.313   79.735
  438.000   19.600    0.230    0.298   76.079
  438.250   19.591    0.247    0.361   71.815
  438.500   20.329    0.266    0.362   74.866
  438.750   21.894    0.252    0.338   74.869
  439.000   23.579    0.257    0.326   67.554
  439.250   24.927    0.279    0.343   77.923
  439.500   20.687    0.295    0.331   86.463
  439.750   15.935    0.257    0.306   95.002
  440.000   13.985    0.202    0.286   74.273
  440.250   13.723    0.187    0.345   59.642
  440.500   20.662    0.226    0.383   51.107
  440.750   28.347    0.292    0.422   47.452
  441.000   41.123    0.312    0.390   57.211
  441.250   55.376    0.318    0.351   60.873
  441.500   51.382    0.309    0.332   59.046
  441.750   45.944    0.326    0.337   71.854
  442.000   35.391    0.340    0.334   79.783
  442.250   28.828    0.322    0.323   84.665
  442.500   25.298    0.296    0.326   79.790
  442.750   22.198    0.291    0.365   73.694
  443.000   20.600    0.296    0.384   86.502
  443.250   19.474    0.307    0.372   82.237
  443.500   20.588    0.313    0.386   65.166
  443.750   24.793    0.277    0.405   54.803
  444.000   32.769    0.240    0.410   53.586
  444.250   45.804    0.234    0.392   49.321
  444.500   61.682    0.251    0.391   48.714
  444.750   56.173    0.271    0.401   50.546
  445.000   52.130    0.320    0.376   55.427
  445.250   45.749    0.330    0.344   50.552
  445.500   35.903    0.343    0.345   45.676
  445.750   28.705    0.295    0.390   63.363
  446.000   24.268    0.306    0.442   74.341
  446.250   21.298    0.338    0.410   73.734
  446.500   15.807    0.339    0.333   67.031
  446.750   17.668    0.234    0.302   65.203
  447.000   21.278    0.127    0.319   66.425
  447.250   26.595    0.307    0.354   73.136
  447.500   29.730    0.318    0.371   66.432
  447.750   30.282    0.280    0.343   62.166
  448.000   29.165    0.263    0.345   63.998
  448.250   27.062    0.266    0.365   72.538
  448.500   25.587    0.302    0.369   72.540
  448.750   24.640    0.325    0.292   66.445
  449.000   25.099    0.243    0.369   62.179
  449.250   33.796    0.246    0.383   48.158
  449.500   41.465    0.268    0.396   40.843
  449.750   40.692    0.296    0.393   47.553
  450.000   24.795    0.304    0.335   71.346
  450.250   21.740    0.283    0.365   74.421
  450.500   19.794    0.287    0.392   67.118
  450.750   24.747    0.323    0.385   55.553
  451.000   37.295    0.283    0.416   47.036
  451.250   47.509    0.253    0.447   49.492
  451.500   53.100    0.296    0.428   45.854
  451.750   54.076    0.323    0.388   45.875
  452.000   54.042    0.328    0.371   41.020
  452.250   51.062    0.335    0.383   42.260
