~VERSION INFORMATION
 VERS.                 2.0:   CWLS LOG ASCII STANDARD -VERSION 2.0
 WRAP.                  NO:   ONE LINE PER DEPTH STEP
~WELL INFORMATION BLOCK
#MNEM.UNIT           DATA                    DESCRIPTION OF MNEMONIC
#---------    -------------------            -------------------------------
# Generated from Intellog Unique Number	CS_71_72/WELL/834
WELL.         KISSINGER ET AL TWEEDIE        : Well_name    - WELL
LOC .         00/08-01-072-12W4/0            : Location     - LOCATION
UWI .         00/08-01-072-12W4/0            : Uwi          - UNIQUE WELL ID
ENTR.         SP                             : Entered      - ENTERED BY
SRVC.         SCHLUMBERGER                   : Scn          - SERVICE COMPANY
STRT.M        290                            : top_depth    - START DEPTH
STOP.M        510                            : bot_depth    - STOP DEPTH
STEP.M        0.25                           : increment    - STEP LENGTH
 NULL. -999.2500:NULL Value
~CURVE INFORMATION BLOCK
#MNEM UNIT       ERCB CURVE CODE    CURVE DESCRIPTION
#-----------   ------------------   ----------------------------------
DEPT.M        00 001 00 00         : DEPTH        - DEPTH
GR  .API      00 310 00 00         : GR           - GAMMA RAY
NPHI.V/V      00 330 00 00         : PHIN         - NEUTRON POROSITY (LIMESTONE)
DPHI.V/V      00 890 00 00         : PHID         - DENSITY POROSITY (LIMESTONE)
ILD .OHMM     00 120 00 00         : RESD         - DEEP RESISTIVITY (DIL)
~PARAMETER INFORMATION
#MNEM.UNIT           DATA             DESCRIPTION OF MNEMONIC
#---------         -----------     ------------------------------
GL  .M        626.5                : gl           - GROUND LEVEL ELEVATION
EREF.M        630                  : kb           - ELEVATION OF DEPTH REFERENCE
DATM.M        626.5                : datum        - DATUM ELEVATION
TDD .M        522.6                : tdd          - TOTAL DEPTH DRILLER
RUN .         ONE                  : Run          - RUN NUMBER
ENG .         BILL                 : Engineer     - RECORDING ENGINEER
WIT .         JIM                  : Witness      - WITNESSED BY
MUD .         GEL                  : Mud_type     - MUD TYPE
MATR.         LIMESTONE            : Logunit      - NEUTRON MATRIX
TMAX.C        20                   : BHT          - MAXIMUM RECORDED TEMPERATURE
BHTD.M        522.6                : BHTDEP       - MAXIMUM RECORDED TEMPERATURE
MATR.         1                    : LOGUNIT      - NEUTRON MATRIX
RMT .C        25                   : MDTP         - TEMPERATURE OF MUD
NEUT.         1                    : NEUTRON      - NEUTRON TYPE
RESI.         0                    : RESIST       - RESISTIVITY TYPE
RMC .OHMM     0.25                 : RMC          - RESISTIVITY OF MUD CAKE
RMF .OHMM     0.25                 : RMF          - RESISTIVITY OF MUD FILTRATE
SUFT.C        15                   : SUFT         - SURFACE TEMPERATURE
~A  DEPTH       GR     PHIN     PHID     RESD
# ...
  420.500   93.424    0.410    0.208    5.258
  420.750   95.874    0.419    0.209    5.259
  421.000   95.262    0.401    0.204    5.260
  421.250   94.651    0.383    0.195    5.260
  421.500   96.488    0.374    0.220    5.261
  421.750   98.326    0.377    0.231    5.262
  422.000   90.979    0.396    0.225    5.262
  422.250   87.919    0.405    0.221    5.345
  422.500   91.593    0.400    0.232    5.427
  422.750   89.757    0.398    0.230    5.510
  423.000   87.921    0.384    0.225    5.593
  423.250   89.146    0.380    0.235    5.675
  423.500   90.984    0.395    0.237    5.758
  423.750   90.984    0.398    0.227    5.840
  424.000   86.699    0.403    0.220    5.841
  424.250   86.700    0.415    0.236    5.924
  424.500   90.986    0.399    0.218    5.842
  424.750   92.211    0.373    0.199    5.843
  425.000   89.151    0.362    0.187    5.762
  425.250   90.988    0.384    0.181    5.680
  425.500   93.438    0.410    0.189    5.599
  425.750   93.439    0.422    0.186    5.436
  426.000   93.439    0.415    0.205    5.354
  426.250   92.828    0.415    0.214    5.028
  426.500   94.665    0.409    0.220    4.864
  426.750   92.217    0.395    0.218    4.701
  427.000   94.054    0.399    0.213    4.373
  427.250   96.504    0.417    0.220    4.046
  427.500   97.117    0.432    0.229    3.473
  427.750   95.281    0.439    0.236    3.228
  428.000   96.506    0.423    0.247    2.982
  428.250   97.119    0.404    0.255    2.819
  428.500   96.508    0.379    0.262    2.656
  428.750   92.835    0.375    0.255    2.902
  429.000   89.774    0.394    0.245    3.313
  429.250   87.326    0.395    0.225    3.969
  429.500   85.490    0.391    0.235    4.462
  429.750   86.103    0.385    0.219    4.626
  430.000   84.879    0.398    0.197    4.463
  430.250   86.104    0.409    0.221    4.300
  430.500   90.391    0.425    0.257    4.137
  430.750   94.677    0.385    0.279    4.137
  431.000   94.678    0.377    0.273    4.220
  431.250   97.128    0.379    0.237    4.467
  431.500   99.577    0.378    0.224    4.877
  431.750  101.414    0.374    0.220    5.123
  432.000   91.620    0.362    0.209    5.698
  432.250   88.559    0.353    0.167    6.436
  432.500   83.662    0.336    0.119    7.011
  432.750   79.989    0.291    0.075    7.749
  433.000   75.091    0.252    0.027    8.733
  433.250   67.133    0.287    0.001    9.799
  433.500   61.011    0.321    0.091   10.292
  433.750   65.910    0.342    0.150    9.309
  434.000   72.645    0.373    0.167    8.490
  434.250   78.769    0.410    0.188    6.933
  434.500   82.443    0.428    0.198    5.786
  434.750   86.729    0.411    0.205    5.377
  435.000   89.179    0.407    0.193    4.968
  435.250   89.792    0.404    0.199    5.051
  435.500   92.241    0.409    0.215    5.051
  435.750   94.691    0.410    0.221    5.134
  436.000   97.141    0.406    0.207    5.135
  436.250   93.468    0.394    0.202    5.135
  436.500   88.571    0.384    0.208    5.136
  436.750   88.571    0.375    0.202    5.137
  437.000   95.307    0.375    0.207    5.137
  437.250   99.593    0.379    0.195    5.056
  437.500   94.696    0.383    0.213    5.057
  437.750   96.533    0.378    0.226    5.057
  438.000   98.371    0.375    0.207    5.058
  438.250  102.045    0.377    0.200    4.976
  438.500  103.270    0.385    0.213    4.977
  438.750  100.209    0.411    0.209    4.896
  439.000   94.700    0.437    0.220    4.814
  439.250   96.538    0.420    0.230    4.734
  439.500   98.987    0.414    0.202    4.734
  439.750   99.600    0.399    0.199    4.652
  440.000  100.213    0.389    0.225    4.653
  440.250   97.765    0.384    0.220    4.572
  440.500   99.602    0.391    0.203    4.491
  440.750   99.603    0.386    0.194    4.409
  441.000   95.930    0.388    0.237    4.410
  441.250   92.870    0.404    0.235    4.328
  441.500   89.197    0.402    0.229    4.165
  441.750   84.912    0.411    0.224    4.002
  442.000   88.586    0.421    0.214    3.921
  442.250   92.872    0.413    0.218    4.003
  442.500   95.322    0.431    0.223    3.922
  442.750   93.486    0.460    0.224    3.513
  443.000   88.589    0.487    0.252    3.104
  443.250   86.140    0.493    0.315    2.858
  443.500   89.202    0.464    0.292    2.531
  443.750   97.162    0.442    0.277    2.122
  444.000  102.061    0.448    0.261    1.877
  444.250  106.347    0.464    0.241    1.713
  444.500  110.021    0.487    0.230    1.714
  444.750  109.410    0.501    0.241    1.879
  445.000  105.125    0.480    0.234    2.043
  445.250  103.901    0.411    0.255    2.454
  445.500  100.228    0.406    0.269    2.618
  445.750   96.555    0.428    0.235    2.947
  446.000   92.883    0.416    0.221    3.193
  446.250   89.822    0.416    0.226    3.194
  446.500   86.149    0.426    0.232    3.195
  446.750   85.538    0.450    0.297    3.113
  447.000   89.824    0.420    0.292    3.114
  447.250   91.050    0.393    0.269    3.115
  447.500   91.662    0.415    0.266    3.197
  447.750   92.275    0.416    0.266    3.608
  448.000   90.439    0.338    0.265    4.346
  448.250   84.930    0.297    0.050    4.839
  448.500   81.257    0.318   -0.004    5.167
  448.750   77.584    0.353    0.061    5.577
  449.000   81.871    0.362    0.145    5.414
  449.250   87.382    0.369    0.191    4.759
  449.500   91.668    0.390    0.233    4.022
  449.750   84.934    0.396    0.253    3.613
  450.000   82.486    0.425    0.249    3.286
  450.250   87.384    0.434    0.242    3.041
  450.500   94.732    0.445    0.251    2.877
  450.750   99.631    0.434    0.228    2.714
  451.000   98.407    0.426    0.220    2.550
  451.250  102.081    0.442    0.239    2.551
  451.500  105.755    0.427    0.237    2.470
  451.750  108.205    0.438    0.245    2.471
  452.000  108.205    0.459    0.237    2.472
  452.250  108.206    0.471    0.220    2.390
  452.500  108.207    0.471    0.228    2.391
  452.750  107.595    0.447    0.237    2.392
  453.000  106.371    0.436    0.208    2.474
  453.250  104.536    0.424    0.209    2.557
  453.500  102.699    0.421    0.215    2.639
  453.750  103.925    0.443    0.214    2.722
  454.000  103.925    0.455    0.201    2.640
  454.250  104.538    0.476    0.191    2.559
  454.500  110.661    0.455    0.201    2.478
  454.750  116.172    0.438    0.208    2.479
  455.000  112.500    0.429    0.204    2.479
  455.250  104.541    0.413    0.220    2.562
  455.500   99.644    0.416    0.210    2.890
  455.750  100.869    0.449    0.213    2.809
  456.000  103.931    0.466    0.215    2.563
  456.250  108.218    0.444    0.187    2.318
  456.500  109.443    0.423    0.204    2.073
  456.750  110.668    0.406    0.214    1.992
  457.000  111.281    0.394    0.213    2.074
  457.250  110.057    0.374    0.191    2.895
  457.500  105.772    0.364    0.175    3.715
  457.750  100.262    0.362    0.159    4.536
  458.000   95.365    0.378    0.139    5.028
  458.250   93.529    0.353    0.191    5.766
  458.500   91.081    0.342    0.207    6.095
  458.750   84.959    0.370    0.183    5.603
  459.000   83.735    0.353    0.189    5.030
  459.250   83.736    0.364    0.204    4.949
  459.500   83.124    0.356    0.215    5.441
  459.750   81.900    0.352    0.231    6.508
  460.000   77.003    0.343    0.249    6.836
  460.250   72.718    0.315    0.262    7.821
  460.500   69.658    0.290    0.160    8.723
  460.750   66.597    0.273    0.098   10.691
  461.000   65.373    0.270    0.098   12.249
  461.250   64.150    0.258    0.065   12.823
  461.500   67.824    0.254    0.034   13.562
  461.750   78.845    0.286    0.079   14.382
  462.000   84.356    0.316    0.136   12.415
  462.250   89.867    0.337    0.189    9.711
  462.500   91.704    0.385    0.210    8.646
  462.750   82.521    0.379    0.213    8.319
  463.000   71.501    0.356    0.256    8.483
  463.250   75.175    0.352    0.289    9.468
  463.500   82.523    0.351    0.244    9.960
  463.750   85.585    0.354    0.222    9.961
