~VERSION INFORMATION
 VERS.                 2.0:   CWLS LOG ASCII STANDARD -VERSION 2.0
 WRAP.                  NO:   ONE LINE PER DEPTH STEP
~WELL INFORMATION BLOCK
#MNEM.UNIT           DATA                    DESCRIPTION OF MNEMONIC
#---------    -------------------            -------------------------------
# Generated from Intellog Unique Number	CW_73_75/WELL/3519
WELL.         PINNACLE RESOURCES             : Well_name    - WELL
LOC .         00/04-05-074-02W5/0            : Location     - LOCATION
UWI .         00/04-05-074-02W5/0            : Uwi          - UNIQUE WELL ID
ENTR.         T                              : Entered      - ENTERED BY
SRVC.         SCHLUMBERGER                   : Scn          - SERVICE COMPANY
STRT.M        390                            : top_depth    - START DEPTH
STOP.M        655                            : bot_depth    - STOP DEPTH
STEP.M        0.25                           : increment    - STEP LENGTH
 NULL. -999.2500:NULL Value
~CURVE INFORMATION BLOCK
#MNEM UNIT       ERCB CURVE CODE    CURVE DESCRIPTION
#-----------   ------------------   ----------------------------------
DEPT.M        00 001 00 00         : DEPTH        - DEPTH
ILD .OHMM     00 120 00 00         : RESD         - DEEP RESISTIVITY (DIL)
DPHI.V/V      00 890 00 00         : PHID         - DENSITY POROSITY (SANDSTONE)
NPHI.V/V      00 330 00 00         : PHIN         - NEUTRON POROSITY (SANDSTONE)
GR  .API      00 310 00 00         : GR           - GAMMA RAY
~PARAMETER INFORMATION
#MNEM.UNIT           DATA             DESCRIPTION OF MNEMONIC
#---------         -----------     ------------------------------
GL  .M        665                  : gl           - GROUND LEVEL ELEVATION
EREF.M        669.22               : kb           - ELEVATION OF DEPTH REFERENCE
DATM.M        669.22               : datum        - DATUM ELEVATION
TDD .M        670                  : tdd          - TOTAL DEPTH DRILLER
RUN .         ONE                  : Run          - RUN NUMBER
ENG .         BILL                 : Engineer     - RECORDING ENGINEER
WIT .         JIM                  : Witness      - WITNESSED BY
MUD .         GEL                  : Mud_type     - MUD TYPE
MATR.         SANDSTONE            : Logunit      - NEUTRON MATRIX
TMAX.C        30                   : BHT          - MAXIMUM RECORDED TEMPERATURE
BHTD.M        670                  : BHTDEP       - MAXIMUM RECORDED TEMPERATURE
RMT .C        30                   : MDTP         - TEMPERATURE OF MUD
MUDD.KG/M     1120                 : MWT          - MUD DENSITY
NEUT.         1                    : NEUTRON      - NEUTRON TYPE
RESI.         0                    : RESIST       - RESISTIVITY TYPE
RM  .OHMM     3.1                  : RM           - RESISTIVITY OF MUD
RMC .OHMM     0.29                 : RMC          - RESISTIVITY OF MUD CAKE
RMF .OHMM     2.26                 : RMF          - RESISTIVITY OF MUD FILTRATE
SUFT.C        4                    : SUFT         - SURFACE TEMPERATURE
~A  DEPTH     RESD     PHID     PHIN       GR
  390.000    6.314    0.205    0.413  106.534
  390.250    7.035    0.193    0.421  106.485
  390.500    7.692    0.190    0.426  102.362
  390.750    8.266    0.188    0.393   96.494
  391.000    9.205    0.182    0.364   87.703
  391.250   10.251    0.181    0.362   78.925
  391.500   11.016    0.188    0.362   75.384
  391.750   11.826    0.193    0.362   68.339
  392.000   12.256    0.200    0.356   33.943
  392.250   13.157    0.213    0.340   21.078
  392.500   13.137    0.246    0.324   19.271
  392.750   13.112    0.256    0.309   16.312
  393.000   13.080    0.268    0.301   15.100
  393.250   13.048    0.283    0.301   17.378
  393.500   13.035    0.289    0.308   19.075
  393.750   12.990    0.264    0.311   19.026
  394.000   12.977    0.263    0.314   19.559
  394.250   12.946    0.263    0.318   20.092
  394.500   12.927    0.267    0.318   18.879
  394.750   12.895    0.275    0.319   17.072
  395.000   12.636    0.285    0.321   17.023
  395.250   12.611    0.286    0.327   18.707
  395.500   12.580    0.286    0.330   20.416
  395.750   12.794    0.289    0.329   20.937
  396.000   12.775    0.294    0.328   20.330
  396.250   12.980    0.296    0.328   18.523
  396.500   12.961    0.297    0.328   19.068
  396.750   12.457    0.293    0.329   20.183
  397.000   11.991    0.289    0.329   20.122
  397.250   11.115    0.287    0.330   20.667
  397.500   10.699    0.285    0.332   21.782
  397.750   10.106    0.284    0.336   22.872
  398.000    9.372    0.278    0.339   25.745
  398.250    8.530    0.274    0.340   32.110
  398.500    7.763    0.267    0.340   40.208
  398.750    7.199    0.266    0.341   50.634
  399.000    6.800    0.264    0.346   63.401
  399.250    6.913    0.261    0.352   69.159
  399.500    7.566    0.257    0.362   66.200
  399.750    9.240    0.251    0.376   56.827
  400.000   11.923    0.244    0.369   68.430
  400.250   12.338    0.239    0.354   68.380
  400.500   11.871    0.220    0.341   34.566
  400.750   11.004    0.238    0.330   25.206
  401.000   10.404    0.254    0.338   27.472
  401.250    9.644    0.265    0.340   28.575
  401.500    9.455    0.267    0.343   31.435
  401.750    9.092    0.265    0.338   33.145
  402.000    8.743    0.264    0.337   35.423
  402.250    8.407    0.264    0.342   37.120
  402.500    8.246    0.264    0.345   38.235
  402.750    8.080    0.268    0.349   39.350
  403.000    7.770    0.269    0.349   39.870
  403.250    7.479    0.267    0.348   40.985
  403.500    7.061    0.253    0.347   46.186
  403.750    6.426    0.229    0.347   52.538
  404.000    6.186    0.198    0.348   56.575
  404.250    5.731    0.165    0.351   62.928
  404.500    5.516    0.153    0.353   69.268
  404.750    5.305    0.128    0.357   69.801
  405.000    5.106    0.119    0.360   69.752
  405.250    5.001    0.132    0.366   72.043
  405.500    4.809    0.176    0.374   75.486
  405.750    4.802    0.222    0.379   78.928
  406.000    4.708    0.214    0.390   82.953
  406.250    4.611    0.207    0.421   89.887
  406.500    4.687    0.196    0.432   93.912
  406.750    4.764    0.185    0.433   87.461
  407.000    4.843    0.179    0.415   86.236
  407.250    4.831    0.183    0.413   86.769
  407.500    4.916    0.184    0.414   81.482
  407.750    4.904    0.183    0.404   76.778
  408.000    4.894    0.183    0.430   78.474
  408.250    4.887    0.186    0.436   84.827
  408.500    4.965    0.183    0.440   90.597
  408.750    4.956    0.180    0.459   93.458
  409.000    4.943    0.182    0.464   91.081
  409.250    4.931    0.188    0.468   79.950
  409.500    4.837    0.196    0.477   84.582
  409.750    4.827    0.202    0.461   88.606
  410.000    4.730    0.208    0.451   90.303
  410.250    4.635    0.210    0.443   90.799
  410.500    4.542    0.213    0.442   90.193
  410.750    4.368    0.212    0.447   90.725
  411.000    4.278    0.209    0.453   93.586
  411.250    4.274    0.214    0.488   97.029
  411.500    4.263    0.219    0.582   88.238
  411.750    4.253    0.223    0.556   85.874
  412.000    4.325    0.224    0.501   88.722
  412.250    4.312    0.226    0.471   88.091
  412.500    4.306    0.223    0.502   93.292
  412.750    4.300    0.220    0.494  108.361
  413.000    4.289    0.221    0.475  103.087
  413.250    4.283    0.228    0.453  100.710
  413.500    4.193    0.238    0.462   97.751
  413.750    4.189    0.248    0.486   92.452
  414.000    4.180    0.256    0.504   89.494
  414.250    4.092    0.253    0.496   88.281
  414.500    4.012    0.244    0.485  103.362
  414.750    3.929    0.240    0.532   99.227
  415.000    3.922    0.235    0.568   93.953
  415.250    3.914    0.230    0.537   91.576
  415.500    3.908    0.229    0.504   89.781
  415.750    3.901    0.227    0.488   87.974
  416.000    3.965    0.225    0.472   87.343
  416.250    4.031    0.227    0.465   88.446
  416.500    4.095    0.230    0.486   91.319
  416.750    4.089    0.230    0.509   91.269
  417.000    4.077    0.228    0.490   88.298
  417.250    4.071    0.223    0.477   85.934
  417.500    4.063    0.221    0.470   85.873
  417.750    4.128    0.220    0.476   86.987
  418.000    4.120    0.220    0.488   90.442
  418.250    4.188    0.213    0.482   93.303
  418.500    4.260    0.194    0.458   87.422
  418.750    4.326    0.179    0.418   84.463
  419.000    4.319    0.200    0.450  101.303
  419.250    4.393    0.199    0.483  103.000
  419.500    4.382    0.196    0.485  107.025
  419.750    4.371    0.192    0.466  105.230
  420.000    4.288    0.184    0.451   90.038
  420.250    4.279    0.174    0.445   94.050
  420.500    4.269    0.186    0.457   93.431
  420.750    4.256    0.218    0.473   92.800
  421.000    4.252    0.228    0.477   94.497
  421.250    4.240    0.225    0.469  101.431
  421.500    4.235    0.215    0.482  103.128
  421.750    4.303    0.207    0.493   97.841
  422.000    4.293    0.199    0.493   91.379
  422.250    4.289    0.196    0.479   87.838
  422.500    4.278    0.212    0.441   83.133
  422.750    4.272    0.211    0.445   91.232
  423.000    4.421    0.204    0.448   88.260
  423.250    4.750    0.199    0.449   84.150
  423.500    4.826    0.199    0.420   80.597
  423.750    4.395    0.201    0.401   77.056
  424.000    4.149    0.203    0.407   75.843
  424.250    4.145    0.203    0.431   83.360
  424.500    4.287    0.199    0.430   84.474
  424.750    4.521    0.195    0.399   77.430
  425.000    4.768    0.198    0.390   74.483
  425.250    4.934    0.200    0.386   85.491
  425.500    5.018    0.200    0.370   91.262
  425.750    5.010    0.192    0.369   86.557
  426.000    5.182    0.186    0.397   77.754
  426.250    5.273    0.197    0.421   76.553
  426.500    5.460    0.210    0.423   75.922
  426.750    5.864    0.214    0.399   72.964
  427.000    6.181    0.212    0.391   65.931
  427.250    6.283    0.213    0.386   62.366
  427.500    6.159    0.215    0.388   68.731
  427.750    5.709    0.218    0.396   73.337
  428.000    5.496    0.218    0.403   75.628
  428.250    5.092    0.218    0.422   78.464
  428.500    4.901    0.217    0.427   79.591
  428.750    4.802    0.222    0.434   81.882
  429.000    4.791    0.226    0.450   79.481
  429.250    4.870    0.232    0.462   78.268
  429.500    5.231    0.240    0.473   82.305
  429.750    6.513    0.239    0.464   79.346
  430.000    7.391    0.233    0.432   68.822
  430.250    7.790    0.208    0.407   61.195
  430.500    8.061    0.201    0.384   58.818
  430.750    8.662    0.216    0.377   59.327
  431.000    9.835    0.232    0.382   58.126
  431.250   13.409    0.258    0.386   56.925
  431.500   16.368    0.227    0.398   55.130
  431.750   16.647    0.170    0.383   60.319
  432.000   25.338    0.135    0.343   55.602
  432.250   18.854    0.098    0.320   50.315
  432.500   16.541    0.064    0.231   46.193
  432.750   14.262    0.030    0.232   50.799
  433.000   11.207    0.088    0.384   53.066
  433.250    9.837    0.261    0.390   48.955
