~VERSION INFORMATION
 VERS.                 2.0:   CWLS LOG ASCII STANDARD -VERSION 2.0
 WRAP.                  NO:   ONE LINE PER DEPTH STEP
~WELL INFORMATION BLOCK
#MNEM.UNIT           DATA                    DESCRIPTION OF MNEMONIC
#---------    -------------------            -------------------------------
# Generated from Intellog Unique Number	CS_71_72/WELL/702
WELL.         PROVIDENT RESOURCES  LTD       : Well_name    - WELL
LOC .         00/06-03-071-17W4/0            : Location     - LOCATION
UWI .         00/06-03-071-17W4/0            : Uwi          - UNIQUE WELL ID
ENTR.         SP                             : Entered      - ENTERED BY
SRVC.         SCHLUMBERGER                   : Scn          - SERVICE COMPANY
STRT.M        277.368                        : top_depth    - START DEPTH
STOP.M        479.618                        : bot_depth    - STOP DEPTH
STEP.M        0.25                           : increment    - STEP LENGTH
 NULL. -999.2500:NULL Value
~CURVE INFORMATION BLOCK
#MNEM UNIT       ERCB CURVE CODE    CURVE DESCRIPTION
#-----------   ------------------   ----------------------------------
DEPT.M        00 001 00 00         : DEPTH        - DEPTH
GR  .API      00 310 00 00         : GR           - GAMMA RAY
DPHI.V/V      00 890 00 00         : PHID         - DENSITY POROSITY (SANDSTONE)
NPHI.V/V      00 330 00 00         : PHIN         - NEUTRON POROSITY (SANDSTONE)
ILD .OHMM     00 120 00 00         : RESD         - DEEP RESISTIVITY (DIL)
~PARAMETER INFORMATION
#MNEM.UNIT           DATA             DESCRIPTION OF MNEMONIC
#---------         -----------     ------------------------------
GL  .M        558.851              : gl           - GROUND LEVEL ELEVATION
EREF.M        562.356              : kb           - ELEVATION OF DEPTH REFERENCE
DATM.M        558.851              : datum        - DATUM ELEVATION
TDD .M        481.584              : tdd          - TOTAL DEPTH DRILLER
RUN .         ONE                  : Run          - RUN NUMBER
ENG .         BILL                 : Engineer     - RECORDING ENGINEER
WIT .         JIM                  : Witness      - WITNESSED BY
MUD .         GEL                  : Mud_type     - MUD TYPE
MATR.         SANDSTONE            : Logunit      - NEUTRON MATRIX
TMAX.C        23.3333              : BHT          - MAXIMUM RECORDED TEMPERATURE
BHTD.M        481.584              : BHTDEP       - MAXIMUM RECORDED TEMPERATURE
MATR.         1                    : LOGUNIT      - NEUTRON MATRIX
RMT .C        25                   : MDTP         - TEMPERATURE OF MUD
NEUT.         1                    : NEUTRON      - NEUTRON TYPE
RESI.         0                    : RESIST       - RESISTIVITY TYPE
RMC .OHMM     0.25                 : RMC          - RESISTIVITY OF MUD CAKE
RMF .OHMM     0.25                 : RMF          - RESISTIVITY OF MUD FILTRATE
SUFT.C        15                   : SUFT         - SURFACE TEMPERATURE
~A  DEPTH       GR     PHID     PHIN     RESD
# ...
  364.368   88.546    0.223    0.449    3.128
  364.618   92.381    0.214    0.456    3.085
  364.868   95.429    0.208    0.464    3.074
  365.118   97.541    0.249    0.472    3.093
  365.368   98.966    0.258    0.451    3.105
  365.618  100.239    0.251    0.453    3.155
  365.868  100.360    0.245    0.466    3.220
  366.118   97.839    0.241    0.476    3.264
  366.368   95.823    0.246    0.485    3.272
  366.618   93.496    0.264    0.494    3.272
  366.868   94.248    0.260    0.499    3.246
  367.118   95.512    0.264    0.507    3.199
  367.368   95.158    0.270    0.521    3.104
  367.618   95.468    0.288    0.531    3.027
  367.868   96.856    0.284    0.540    2.991
  368.118   97.822    0.279    0.538    3.020
  368.368   98.381    0.267    0.543    3.095
  368.618   98.156    0.248    0.548    3.165
  368.868   96.974    0.255    0.553    3.230
  369.118   95.768    0.254    0.560    3.250
  369.368   94.221    0.255    0.552    3.285
  369.618   92.393    0.267    0.545    3.372
  369.868   88.928    0.279    0.554    3.520
  370.118   84.794    0.292    0.547    3.787
  370.368   82.220    0.308    0.525    4.084
  370.618   79.569    0.331    0.503    4.324
  370.868   78.406    0.326    0.488    4.523
  371.118   78.354    0.318    0.500    4.597
  371.368   78.549    0.312    0.503    4.670
  371.618   78.175    0.322    0.499    4.662
  371.868   77.301    0.327    0.499    4.571
  372.118   75.926    0.334    0.510    4.370
  372.368   73.852    0.330    0.521    4.035
  372.618   71.784    0.306    0.537    3.757
  372.868   69.194    0.293    0.519    3.500
  373.118   66.593    0.296    0.498    3.558
  373.368   61.861    0.322    0.508    4.031
  373.618   54.503    0.354    0.553    4.495
  373.868   48.595    0.389    0.588    4.878
  374.118   41.365    0.504    0.618    4.919
  374.368   36.220    0.580    0.633    4.671
  374.618   45.328    0.605    0.623    4.366
  374.868   55.350    0.455    0.613    4.000
  375.118   66.654    0.278    0.520    3.710
  375.368   71.692    0.278    0.458    3.509
  375.618   74.739    0.269    0.466    3.391
  375.868   76.427    0.287    0.479    3.351
  376.118   74.409    0.284    0.493    3.333
  376.368   71.631    0.274    0.480    3.346
  376.618   68.854    0.278    0.469    3.364
  376.868   66.284    0.293    0.459    3.426
  377.118   64.373    0.294    0.447    3.390
  377.368   62.682    0.298    0.441    3.364
  377.618   61.090    0.301    0.444    3.333
  377.868   59.492    0.309    0.449    3.328
  378.118   58.411    0.315    0.453    3.337
  378.368   58.276    0.314    0.456    3.465
  378.618   58.154    0.301    0.447    3.804
  378.868   56.748    0.272    0.443    4.950
  379.118   54.921    0.208    0.427    8.160
  379.368   52.393    0.133    0.313   19.568
  379.618   49.255    0.043    0.170   34.385
  379.868   45.711   -0.003    0.142   50.245
  380.118   43.150   -0.008    0.128   60.404
  380.368   41.770   -0.007    0.122   58.854
  380.618   41.285   -0.002    0.122   55.482
  380.868   42.801    0.003    0.121   52.967
  381.118   43.883    0.005    0.122   51.052
  381.368   44.839    0.008    0.120   50.231
  381.618   45.484    0.001    0.119   49.751
  381.868   45.600   -0.006    0.120   49.132
  382.118   45.309    0.000    0.121   48.477
  382.368   44.774    0.006    0.120   47.273
  382.618   44.701   -0.002    0.120   47.079
  382.868   44.843   -0.007    0.120   45.526
  383.118   45.576   -0.007    0.121   42.341
  383.368   46.153   -0.002    0.125   40.112
  383.618   46.984    0.011    0.130   38.307
  383.868   48.250    0.022    0.136   35.636
  384.118   49.235    0.027    0.143   35.205
  384.368   50.131    0.017    0.143   34.511
  384.618   50.266    0.018    0.138   33.882
  384.868   50.242    0.020    0.146   33.141
  385.118   50.595    0.039    0.159   30.360
  385.368   51.950    0.068    0.193   20.136
  385.618   53.520    0.125    0.222   11.827
  385.868   56.516    0.192    0.248    7.597
  386.118   59.384    0.247    0.255    6.071
  386.368   63.630    0.275    0.361    5.043
  386.618   65.538    0.275    0.386    4.429
  386.868   65.004    0.272    0.421    3.861
  387.118   64.617    0.278    0.429    3.603
  387.368   64.972    0.284    0.430    3.468
  387.618   66.266    0.290    0.431    3.351
  387.868   67.047    0.297    0.432    3.326
  388.118   68.288    0.290    0.436    3.329
  388.368   69.273    0.286    0.443    3.298
  388.618   69.747    0.288    0.443    3.290
  388.868   70.517    0.297    0.438    3.281
  389.118   71.516    0.301    0.446    3.283
  389.368   73.972    0.299    0.454    3.280
  389.618   75.999    0.303    0.461    3.192
  389.868   77.473    0.294    0.450    2.980
  390.118   79.151    0.278    0.437    2.669
  390.368   84.260    0.259    0.436    2.422
  390.618   90.724    0.244    0.456    2.230
  390.868   98.430    0.225    0.490    2.114
  391.118  104.411    0.238    0.519    2.079
  391.368  107.285    0.247    0.533    2.103
  391.618  104.544    0.227    0.536    2.205
  391.868  101.329    0.230    0.529    2.385
  392.118  100.923    0.220    0.516    2.594
  392.368  103.231    0.217    0.483    2.897
  392.618  102.162    0.213    0.456    3.273
  392.868   99.380    0.225    0.440    3.574
  393.118   96.548    0.235    0.433    3.918
  393.368   96.063    0.239    0.435    4.126
  393.618   96.927    0.233    0.443    3.983
  393.868   97.357    0.222    0.453    3.852
  394.118   97.512    0.210    0.465    3.796
  394.368   95.549    0.204    0.473    3.871
  394.618   94.425    0.207    0.468    4.057
  394.868   96.183    0.216    0.456    4.250
  395.118  100.007    0.225    0.445    4.416
  395.368  102.174    0.231    0.431    4.467
  395.618  103.420    0.241    0.436    4.529
  395.868   99.812    0.232    0.436    4.555
  396.118   94.971    0.223    0.439    4.544
  396.368   92.608    0.221    0.449    4.478
  396.618   91.059    0.218    0.453    4.374
  396.868   89.259    0.216    0.449    4.189
  397.118   87.877    0.226    0.445    4.038
  397.368   86.644    0.235    0.440    4.065
  397.618   86.242    0.223    0.440    4.491
  397.868   85.975    0.229    0.447    5.265
  398.118   82.111    0.218    0.429    6.508
  398.368   77.340    0.156    0.345    7.280
  398.618   71.515    0.071    0.308    7.481
  398.868   67.747    0.201    0.290    7.172
  399.118   76.620    0.241    0.297    5.904
  399.368   82.047    0.276    0.357    4.651
  399.618   85.364    0.298    0.425    3.819
  399.868   83.003    0.310    0.450    3.425
  400.118   74.334    0.322    0.455    3.095
  400.368   66.763    0.325    0.442    2.938
  400.618   60.445    0.321    0.440    2.884
  400.868   62.719    0.316    0.439    2.903
  401.118   64.637    0.317    0.437    3.046
  401.368   67.117    0.297    0.430    3.150
  401.618   69.503    0.279    0.425    3.275
  401.868   76.189    0.248    0.429    3.423
  402.118   81.716    0.251    0.439    3.528
  402.368   85.117    0.257    0.443    3.526
  402.618   80.861    0.259    0.442    3.497
  402.868   78.378    0.255    0.446    3.474
  403.118   79.120    0.250    0.459    3.555
  403.368   81.395    0.246    0.462    3.707
  403.618   82.818    0.244    0.441    3.853
  403.868   83.922    0.252    0.426    3.969
  404.118   83.528    0.254    0.426    4.027
  404.368   82.187    0.262    0.433    4.106
  404.618   82.231    0.268    0.424    4.081
  404.868   82.645    0.258    0.428    3.988
  405.118   82.584    0.246    0.434    3.895
  405.368   81.373    0.239    0.439    3.871
  405.618   79.826    0.250    0.439    3.878
  405.868   78.877    0.251    0.438    3.911
  406.118   78.097    0.247    0.437    3.976
  406.368   80.634    0.240    0.437    4.016
  406.618   81.311    0.236    0.427    4.094
  406.868   80.383    0.236    0.418    4.204
  407.118   78.964    0.235    0.411    4.344
  407.368   77.919    0.235    0.407    4.472
  407.618   77.608    0.241    0.410    4.566
