~VERSION INFORMATION
 VERS.                 2.0:   CWLS LOG ASCII STANDARD -VERSION 2.0
 WRAP.                  NO:   ONE LINE PER DEPTH STEP
~WELL INFORMATION BLOCK
#MNEM.UNIT           DATA                    DESCRIPTION OF MNEMONIC
#---------    -------------------            -------------------------------
# Generated from Intellog Unique Number	CS_73_76/WELL/2165
WELL.         AMOCO KIRBY 6-20               : Well_name    - WELL
LOC .         00/06-20-074-06W4/0            : Location     - LOCATION
UWI .         00/06-20-074-06W4/0            : Uwi          - UNIQUE WELL ID
ENTR.         SP                             : Entered      - ENTERED BY
SRVC.         SCHLUMBERGER                   : Scn          - SERVICE COMPANY
STRT.M        245                            : top_depth    - START DEPTH
STOP.M        475                            : bot_depth    - STOP DEPTH
STEP.M        0.25                           : increment    - STEP LENGTH
 NULL. -999.2500:NULL Value
~CURVE INFORMATION BLOCK
#MNEM UNIT       ERCB CURVE CODE    CURVE DESCRIPTION
#-----------   ------------------   ----------------------------------
DEPT.M        00 001 00 00         : DEPTH        - DEPTH
ILD .OHMM     00 120 00 00         : RESD         - DEEP RESISTIVITY (DIL)
DPHI.V/V      00 890 00 00         : PHID         - DENSITY POROSITY (LIMESTONE)
NPHI.V/V      00 330 00 00         : PHIN         - NEUTRON POROSITY (LIMESTONE)
GR  .API      00 310 00 00         : GR           - GAMMA RAY
~PARAMETER INFORMATION
#MNEM.UNIT           DATA             DESCRIPTION OF MNEMONIC
#---------         -----------     ------------------------------
GL  .M        640.5                : gl           - GROUND LEVEL ELEVATION
EREF.M        643.6                : kb           - ELEVATION OF DEPTH REFERENCE
DATM.M        640.5                : datum        - DATUM ELEVATION
TDD .M        480                  : tdd          - TOTAL DEPTH DRILLER
RUN .         ONE                  : Run          - RUN NUMBER
ENG .         BILL                 : Engineer     - RECORDING ENGINEER
WIT .         JIM                  : Witness      - WITNESSED BY
MUD .         GEL                  : Mud_type     - MUD TYPE
MATR.         LIMESTONE            : Logunit      - NEUTRON MATRIX
TMAX.C        21                   : BHT          - MAXIMUM RECORDED TEMPERATURE
BHTD.M        480                  : BHTDEP       - MAXIMUM RECORDED TEMPERATURE
MATR.         1                    : LOGUNIT      - NEUTRON MATRIX
RMT .C        25                   : MDTP         - TEMPERATURE OF MUD
NEUT.         1                    : NEUTRON      - NEUTRON TYPE
RESI.         0                    : RESIST       - RESISTIVITY TYPE
RMC .OHMM     0.25                 : RMC          - RESISTIVITY OF MUD CAKE
RMF .OHMM     0.25                 : RMF          - RESISTIVITY OF MUD FILTRATE
SUFT.C        15                   : SUFT         - SURFACE TEMPERATURE
~A  DEPTH     RESD     PHID     PHIN       GR
# ...
  419.000   16.951    0.271    0.354   56.620
  419.250   17.284    0.270    0.358   59.075
  419.500   17.620    0.271    0.350   61.532
  419.750   17.964    0.276    0.358   59.090
  420.000   18.321    0.280    0.369   52.976
  420.250   18.676    0.283    0.374   50.534
  420.500   19.038    0.284    0.357   51.766
  420.750   19.407    0.284    0.353   52.997
  421.000   20.551    0.286    0.351   46.882
  421.250   22.175    0.284    0.332   48.113
  421.500   23.473    0.252    0.320   49.959
  421.750   25.326    0.224    0.324   50.578
  422.000   26.310    0.250    0.340   47.523
  422.250   26.325    0.279    0.355   50.594
  422.500   24.420    0.303    0.356   49.376
  422.750   23.085    0.320    0.364   47.547
  423.000   25.866    0.283    0.380   54.289
  423.250   31.850    0.293    0.388   62.256
  423.500   37.767    0.324    0.375   57.977
  423.750   40.744    0.346    0.378   48.189
  424.000   42.334    0.346    0.379   45.748
  424.250   41.559    0.340    0.378   44.529
  424.500   42.370    0.336    0.380   46.376
  424.750   47.468    0.330    0.386   48.221
  425.000   56.282    0.328    0.391   49.452
  425.250   77.618    0.331    0.383   50.070
  425.500   93.774    0.343    0.376   43.342
  425.750  117.664    0.348    0.367   43.964
  426.000  139.511    0.343    0.357   47.643
  426.250  159.302    0.342    0.360   48.263
  426.500  175.141    0.344    0.359   42.149
  426.750  188.942    0.346    0.364   42.157
  427.000  207.774    0.338    0.373   42.165
  427.250  211.854    0.333    0.369   41.561
  427.500  207.956    0.344    0.363   40.341
  427.750  182.300    0.344    0.362   38.515
  428.000  142.688    0.342    0.374   39.132
  428.250  101.640    0.339    0.369   43.425
  428.500   76.620    0.336    0.370   52.616
  428.750   72.433    0.336    0.382   55.075
  429.000   69.790    0.337    0.389   55.081
  429.250   69.816    0.338    0.385   56.314
  429.500   68.562    0.339    0.390   57.544
  429.750   68.584    0.339    0.387   58.775
  430.000   67.322    0.339    0.387   61.234
  430.250   63.655    0.339    0.399   61.239
  430.500   60.167    0.340    0.395   58.188
  430.750   52.747    0.343    0.390   53.296
  431.000   46.238    0.344    0.390   52.078
  431.250   36.889    0.345    0.391   52.088
  431.500   32.951    0.346    0.397   52.096
  431.750   28.349    0.314    0.404   55.162
  432.000   25.808    0.300    0.396   64.356
  432.250   23.495    0.300    0.388   68.648
  432.500   21.388    0.317    0.386   71.102
  432.750   19.470    0.332    0.385   68.661
  433.000   17.069    0.329    0.380   61.321
  433.250   14.142    0.306    0.381   60.718
  433.500   12.873    0.293    0.381   64.398
  433.750   10.466    0.290    0.376   67.466
  434.000    9.708    0.285    0.373   68.086
  434.250    8.838    0.270    0.377   71.156
  434.500    8.355    0.251    0.381   74.837
  434.750    7.899    0.243    0.388   78.517
  435.000    7.610    0.234    0.387   83.423
  435.250    7.614    0.235    0.381   87.716
  435.500    7.911    0.239    0.393   93.233
  435.750    8.218    0.243    0.399   96.915
  436.000    8.538    0.256    0.387   96.310
  436.250    9.039    0.272    0.362   77.338
  436.500    9.571    0.284    0.340   72.447
  436.750   10.132    0.245    0.344   71.844
  437.000   10.935    0.218    0.348   69.401
  437.250   11.146    0.191    0.364   66.346
  437.500   11.581    0.238    0.357   65.130
  437.750   12.032    0.241    0.353   66.362
  438.000   12.036    0.244    0.351   68.205
  438.250   12.747    0.249    0.350   68.213
  438.500   12.995    0.252    0.346   69.447
  438.750   13.249    0.253    0.358   75.577
  439.000   13.763    0.253    0.372   78.643
  439.250   14.030    0.258    0.375   70.079
  439.500   14.306    0.264    0.373   69.475
  439.750   14.586    0.262    0.367   74.380
  440.000   14.590    0.257    0.362   73.777
  440.250   14.324    0.258    0.372   70.722
  440.500   14.331    0.255    0.380   69.504
  440.750   14.612    0.248    0.374   74.412
  441.000   15.180    0.246    0.381   76.867
  441.250   17.009    0.248    0.392   77.486
  441.500   18.697    0.268    0.404   74.433
  441.750   22.172    0.303    0.389   58.521
  442.000   24.376    0.326    0.386   46.895
  442.250   25.806    0.326    0.379   47.517
  442.500   26.813    0.330    0.359   45.074
  442.750   26.828    0.322    0.353   40.184
  443.000   26.335    0.307    0.378   45.701
  443.250   24.895    0.309    0.386   49.994
  443.500   26.864    0.300    0.371   49.389
  443.750   30.099    0.280    0.365   53.685
  444.000   32.470    0.273    0.377   60.428
  444.250   36.383    0.290    0.384   62.269
  444.500   38.515    0.337    0.398   50.032
  444.750   40.016    0.349    0.400   39.631
  445.000   38.554    0.364    0.392   36.579
  445.250   35.767    0.348    0.381   42.706
  445.500   33.187    0.328    0.377   52.511
  445.750   31.965    0.327    0.382   46.396
  446.000   29.655    0.342    0.380   39.668
  446.250   26.494    0.350    0.396   36.002
  446.500   24.118    0.334    0.412   41.522
  446.750   23.238    0.324    0.404   48.263
  447.000   23.247    0.319    0.392   52.555
  447.250   24.613    0.298    0.386   55.014
  447.500   27.061    0.282    0.374   56.855
  447.750   31.488    0.321    0.366   58.700
  448.000   35.277    0.329    0.359   50.136
  448.250   40.276    0.330    0.362   45.860
  448.500   42.639    0.324    0.372   42.806
  448.750   41.079    0.332    0.377   39.750
  449.000   40.329    0.345    0.380   35.472
  449.250   42.709    0.343    0.362   34.254
  449.500   43.531    0.324    0.360   40.386
  449.750   47.870    0.322    0.365   43.453
  450.000   48.011    0.336    0.373   43.040
  450.250   50.798    0.336    0.359   45.511
  450.500   51.753    0.320    0.361   49.217
  450.750   52.727    0.312    0.363   45.548
  451.000   52.707    0.304    0.368   42.492
  451.250   56.843    0.302    0.356   41.897
  451.500   62.481    0.300    0.342   43.141
  451.750   74.079    0.302    0.348   44.389
  452.000   84.576    0.304    0.341   41.337
  452.250   91.219    0.314    0.343   40.123
  452.500   94.712    0.322    0.367   35.228
  452.750   94.679    0.332    0.381   32.786
  453.000   84.458    0.330    0.391   34.656
  453.250   81.282    0.324    0.374   35.285
  453.500   82.803    0.309    0.367   36.527
  453.750   87.623    0.301    0.363   37.778
  454.000   90.964    0.299    0.352   38.410
  454.250   92.686    0.297    0.354   37.202
  454.500   81.125    0.298    0.365   32.915
  454.750   69.674    0.310    0.365   31.700
  455.000   63.343    0.328    0.365   39.710
  455.250   58.691    0.357    0.382   40.961
  455.500   57.563    0.369    0.391   37.903
  455.750   59.764    0.372    0.401   41.000
  456.000   64.455    0.369    0.406   42.243
  456.250   68.197    0.361    0.410   42.877
  456.500   68.178    0.356    0.408   41.672
  456.750   65.612    0.359    0.392   41.072
  457.000   50.290    0.354    0.388   40.474
  457.250   37.107    0.347    0.388   39.879
  457.500   26.862    0.335    0.381   39.279
  457.750   21.384    0.326    0.370   45.446
  458.000   14.624    0.279    0.362   60.218
  458.250   10.998    0.249    0.361   70.070
  458.500    8.922    0.238    0.364   78.082
  458.750    7.959    0.229    0.364   85.478
  459.000    7.235    0.226    0.361   89.798
  459.250    6.963    0.225    0.370   89.199
  459.500    7.094    0.244    0.386   78.773
  459.750    7.506    0.267    0.398   70.181
  460.000    7.647    0.285    0.367   62.214
  460.250    7.792    0.252    0.356   64.069
  460.500    7.788    0.220    0.354   75.768
  460.750    7.934    0.212    0.357   85.621
  461.000    7.932    0.210    0.345   81.961
  461.250    7.927    0.219    0.360   80.125
  461.500    7.925    0.232    0.374   76.460
  461.750    7.923    0.248    0.374   75.864
  462.000    7.771    0.255    0.363   76.498
  462.250    7.767    0.250    0.369   77.741
