~VERSION INFORMATION
 VERS.                 2.0:   CWLS LOG ASCII STANDARD -VERSION 2.0
 WRAP.                  NO:   ONE LINE PER DEPTH STEP
~WELL INFORMATION BLOCK
#MNEM.UNIT           DATA                    DESCRIPTION OF MNEMONIC
#---------    -------------------            -------------------------------
# Generated from Intellog Unique Number	CS_71_72/WELL/2057
WELL.         HUS BVX UNIGAS LYLE            : Well_name    - WELL
LOC .         00/07-13-071-16W4/0            : Location     - LOCATION
UWI .         00/07-13-071-16W4/0            : Uwi          - UNIQUE WELL ID
ENTR.         T                              : Entered      - ENTERED BY
SRVC.         WESTERN ATLAS                  : Scn          - SERVICE COMPANY
DATE.         01\13\92                       : Date         - LOG DATE
STRT.M        304.8                          : top_depth    - START DEPTH
STOP.M        499.8                          : bot_depth    - STOP DEPTH
STEP.M        0.25                           : increment    - STEP LENGTH
 NULL. -999.2500:NULL Value
~CURVE INFORMATION BLOCK
#MNEM UNIT       ERCB CURVE CODE    CURVE DESCRIPTION
#-----------   ------------------   ----------------------------------
DEPT.M        00 001 00 00         : DEPTH        - DEPTH
GR  .API      00 310 00 00         : GR           - GAMMA RAY
NPHI.V/V      00 330 00 00         : PHIN         - NEUTRON POROSITY (SANDSTONE)
ILD .OHMM     00 120 00 00         : RESD         - DEEP RESISTIVITY (DIL)
~PARAMETER INFORMATION
#MNEM.UNIT           DATA             DESCRIPTION OF MNEMONIC
#---------         -----------     ------------------------------
GL  .M        600.151              : gl           - GROUND LEVEL ELEVATION
EREF.M        603.199              : kb           - ELEVATION OF DEPTH REFERENCE
DATM.M        603.199              : datum        - DATUM ELEVATION
TDD .M        500.482              : tdd          - TOTAL DEPTH DRILLER
RUN .         ONE                  : Run          - RUN NUMBER
ENG .         JO                   : Engineer     - RECORDING ENGINEER
WIT .         TIM                  : Witness      - WITNESSED BY
MUD .         GEL                  : Mud_type     - MUD TYPE
MATR.         SANDSTONE            : Logunit      - NEUTRON MATRIX
TMAX.C        24.4444              : BHT          - MAXIMUM RECORDED TEMPERATURE
BHTD.M        500.482              : BHTDEP       - MAXIMUM RECORDED TEMPERATURE
RMT .C        14.4444              : MDTP         - TEMPERATURE OF MUD
MUDD.KG/M     9483.33              : MWT          - MUD DENSITY
NEUT.         1                    : NEUTRON      - NEUTRON TYPE
RESI.         0                    : RESIST       - RESISTIVITY TYPE
RM  .OHMM     4.16                 : RM           - RESISTIVITY OF MUD
RMC .OHMM     4.16                 : RMC          - RESISTIVITY OF MUD CAKE
RMF .OHMM     4.16                 : RMF          - RESISTIVITY OF MUD FILTRATE
SUFT.C        4                    : SUFT         - SURFACE TEMPERATURE
~A  DEPTH       GR     PHIN     RESD
# ...
  359.050   45.127    0.398    2.769
  359.300   49.886    0.401    2.769
  359.550   51.781    0.402    2.768
  359.800   53.681    0.406    2.767
  360.050   56.049    0.409    2.817
  360.300   56.504    0.410    2.816
  360.550   54.576    0.414    2.866
  360.800   51.687    0.417    2.866
  361.050   52.147    0.421    2.865
  361.300   55.477    0.425    2.916
  361.550   60.241    0.425    2.968
  361.800   60.696    0.426    3.022
  362.050   62.108    0.424    3.021
  362.300   63.055    0.417    3.020
  362.550   64.471    0.410    3.019
  362.800   63.496    0.407    3.019
  363.050   58.211    0.410    3.018
  363.300   54.843    0.415    3.301
  363.550   53.389    0.420    3.677
  363.800   52.892    0.420    4.096
  364.050   57.662    0.420    4.323
  364.300   61.470    0.421    4.815
  364.550   65.278    0.417    4.990
  364.800   70.038    0.406    5.080
  365.050   73.368    0.405    5.170
  365.300   69.522    0.414    5.169
  365.550   65.677    0.421    4.984
  365.800   61.831    0.426    4.807
  366.050   59.899    0.428    4.553
  366.300   58.445    0.429    4.312
  366.550   60.340    0.422    4.234
  366.800   64.148    0.416    4.083
  367.050   68.434    0.408    3.937
  367.300   75.112    0.416    3.797
  367.550   82.747    0.424    3.728
  367.800   88.464    0.429    3.661
  368.050   89.885    0.435    3.595
  368.300   84.604    0.436    3.530
  368.550   76.453    0.435    3.529
  368.800   66.385    0.409    3.528
  369.050   59.190    0.394    3.656
  369.300   54.388    0.395    4.000
  369.550   52.456    0.392    4.456
  369.800   51.959    0.384    5.334
  370.050   52.897    0.365    6.272
  370.300   53.835    0.328    6.985
  370.550   55.246    0.268    6.983
  370.800   57.136    0.232    6.496
  371.050   57.605    0.242    5.327
  371.300   59.012    0.335    4.290
  371.550   59.476    0.372    3.781
  371.800   59.936    0.387    3.454
  372.050   57.994    0.396    3.271
  372.300   57.028    0.391    3.155
  372.550   54.618    0.381    3.154
  372.800   51.251    0.382    3.097
  373.050   56.015    0.387    3.096
  373.300   55.514    0.391    3.095
  373.550   52.151    0.393    3.039
  373.800   49.262    0.390    3.038
  374.050   46.842    0.385    3.092
  374.300   48.263    0.385    3.092
  374.550   50.636    0.386    3.091
  374.800   53.487    0.389    3.146
  375.050   56.334    0.390    3.145
  375.300   55.842    0.391    3.202
  375.550   51.039    0.391    3.318
  375.800   54.843    0.391    3.378
  376.050   57.216    0.393    3.438
  376.300   57.680    0.395    3.564
  376.550   59.575    0.397    3.562
  376.800   62.900    0.403    3.498
  377.050   65.277    0.412    3.373
  377.300   67.646    0.409    3.253
  377.550   69.067    0.408    3.137
  377.800   71.918    0.415    3.026
  378.050   76.683    0.420    2.918
  378.300   77.621    0.426    3.024
  378.550   77.602    0.443    3.249
  378.800   76.617    0.455    3.490
  379.050   75.168    0.452    3.618
  379.300   71.787    0.443    3.958
  379.550   70.820    0.432    3.682
  379.800   69.367    0.421    3.748
  380.050   68.391    0.413    3.955
  380.300   68.368    0.406    4.099
  380.550   68.832    0.404    4.025
  380.800   68.818    0.404    3.812
  381.050   68.321    0.403    3.610
  381.300   66.867    0.401    3.545
  381.550   64.456    0.401    3.481
  381.800   60.606    0.400    3.543
  382.050   57.717    0.399    3.672
  382.300   54.828    0.400    3.875
  382.550   50.500    0.395    4.090
  382.800   48.094    0.390    4.316
  383.050   47.114    0.390    4.473
  383.300   49.008    0.391    4.553
  383.550   49.951    0.391    4.552
  383.800   49.454    0.390    4.469
  384.050   47.512    0.389    4.388
  384.300   46.541    0.376    4.232
  384.550   46.044    0.341    4.008
  384.800   46.495    0.318    3.796
  385.050   47.920    0.352    3.661
  385.300   49.815    0.368    3.530
  385.550   55.058    0.388    3.343
  385.800   60.779    0.392    3.283
  386.050   66.501    0.396    3.282
  386.300   66.951    0.408    3.223
  386.550   66.459    0.421    3.164
  386.800   65.478    0.425    3.163
  387.050   64.991    0.423    3.162
  387.300   61.145    0.421    3.162
  387.550   57.778    0.416    3.161
  387.800   54.889    0.411    3.217
  388.050   51.995    0.406    3.275
  388.300   48.623    0.408    3.274
  388.550   48.609    0.419    3.215
  388.800   49.069    0.424    3.157
  389.050   50.007    0.424    3.100
  389.300   50.945    0.423    3.044
  389.550   52.839    0.422    2.988
  389.800   56.648    0.421    2.988
  390.050   64.278    0.419    2.986
  390.300   62.824    0.418    2.986
  390.550   61.370    0.414    3.039
  390.800   55.616    0.408    3.266
  391.050   44.107    0.400    3.573
  391.300   43.132    0.396    4.681
  391.550   43.117    0.396    6.710
  391.800   42.142    0.396   10.717
  392.050   41.166    0.394   15.088
  392.300   40.191    0.384   16.507
  392.550   40.646    0.370   15.634
  392.800   41.110    0.333   13.532
  393.050   43.474    0.294    7.738
  393.300   44.421    0.291    6.011
  393.550   48.708    0.378    5.393
  393.800   56.821    0.412    5.490
  394.050   61.586    0.414    6.340
  394.300   63.959    0.407   10.126
  394.550   67.767    0.381   14.516
  394.800   63.443    0.331   13.502
  395.050   56.727    0.288   10.302
  395.300   54.785    0.248    7.055
  395.550   57.158    0.260    4.034
  395.800   58.092    0.290    3.249
  396.050   58.082    0.358    3.077
  396.300   57.585    0.403    3.247
  396.550   61.393    0.411    3.617
  396.800   63.288    0.417    4.029
  397.050   47.483    0.413    4.175
  397.300   46.025    0.409    4.175
  397.550   48.393    0.404    4.249
  397.800   50.292    0.400    4.248
  398.050   52.192    0.400    4.247
  398.300   55.043    0.399    4.095
  398.550   59.330    0.391    4.095
  398.800   62.659    0.374    3.949
  399.050   65.989    0.369    3.877
  399.300   66.927    0.382    3.807
  399.550   66.899    0.389    3.671
  399.800   65.923    0.397    3.604
  400.050   63.039    0.401    3.476
  400.300   58.237    0.402    3.475
  400.550   57.257    0.406    3.474
  400.800   56.281    0.410    3.473
  401.050   53.392    0.410    3.472
  401.300   53.373    0.409    3.472
  401.550   55.273    0.407    3.598
  401.800   56.689    0.407    3.662
  402.050   57.149    0.405    3.795
  402.300   60.952    0.404    3.795
  402.550   59.015    0.399    3.933
  402.800   56.605    0.396    4.076
  403.050   55.629    0.393    4.075
  403.300   54.644    0.393    4.223
  403.550   54.157    0.393    4.223
  403.800   52.224    0.393    4.298
  404.050   50.287    0.393    4.375
  404.300   49.800    0.393    4.454
  404.550   51.694    0.393    4.533
  404.800   55.981    0.392    4.532
  405.050   60.267    0.392    4.531
  405.300   64.549    0.394    4.530
  405.550   62.617    0.398    4.448
  405.800   64.516    0.400    4.289
  406.050   69.281    0.400    4.136
  406.300   75.481    0.401    3.645
  406.550   84.072    0.404    3.330
  406.800   83.575    0.408    3.043
  407.050   81.638    0.417    2.681
  407.300   83.055    0.432    2.363
  407.550   85.423    0.453    2.120
  407.800   87.791    0.477    2.158
  408.050   89.690    0.502    2.361
  408.300   88.715    0.503    2.630
  408.550   86.309    0.501    2.930
  408.800   82.459    0.493    3.205
  409.050   80.053    0.475    3.701
  409.300   79.546    0.460    4.431
  409.550   79.528    0.444    5.116
  409.800   79.992    0.422    5.115
  410.050   80.456    0.412    5.114
  410.300   82.346    0.412    5.021
  410.550   83.767    0.417    4.755
  410.800   85.179    0.418    4.585
  411.050   81.329    0.421    4.503
  411.300   79.401    0.418    4.421
  411.550   75.551    0.411    4.420
  411.800   74.097    0.405    4.419
  412.050   73.600    0.401    4.498
  412.300   71.672    0.407    4.746
  412.550   69.262    0.417    5.100
  412.800   66.847    0.429    5.580
  413.050   65.876    0.431    6.680
