~VERSION INFORMATION
 VERS.                 2.0:   CWLS LOG ASCII STANDARD -VERSION 2.0
 WRAP.                  NO:   ONE LINE PER DEPTH STEP
~WELL INFORMATION BLOCK
#MNEM.UNIT           DATA                    DESCRIPTION OF MNEMONIC
#---------    -------------------            -------------------------------
# Generated from Intellog Unique Number	CW_70_72/WELL/702
NULL.         -999.25                        : NULL_VALUE
WELL.         LANDBANK ET AL VICTOR 06-26    : Well_name    - WELL              
LOC .         06-26-071-01W5                 : Location     - LOCATION          
UWI .         00/06-26-071-01W5/0            : Uwi          - UNIQUE WELL ID    
ENTR.         JAYE                           : Entered      - ENTERED BY        
SRVC.         SCHLUMBERGER                   : Scn          - SERVICE COMPANY   
DATE.         20 NOV 79                      : Date         - LOG DATE          
STRT.M        410                            : top_depth    - START DEPTH       
STOP.M        665                            : bot_depth    - STOP DEPTH        
STEP.M        0.25                           : increment    - STEP LENGTH       
~CURVE INFORMATION BLOCK
#MNEM UNIT       ERCB CURVE CODE    CURVE DESCRIPTION
#-----------   ------------------   ----------------------------------
DEPT.M        00 001 00 00         : DEPTH        - DEPTH                       
DPHI.V/V      00 890 00 00         : PHID         - DENSITY POROSITY (SANDSTONE)
NPHI.V/V      00 330 00 00         : PHIN         - NEUTRON POROSITY (SANDSTONE)
GR  .API      00 310 00 00         : GR           - GAMMA RAY                   
CALI.MM       00 280 01 00         : CAL          - CALIPER                     
ILD .OHMM     00 120 00 00         : RESD         - DEEP RESISTIVITY (DIL)      
~PARAMETER INFORMATION       
#MNEM.UNIT           DATA             DESCRIPTION OF MNEMONIC
#---------         -----------     ------------------------------
GL  .M        603.9                : gl           - GROUND LEVEL ELEVATION      
EREF.M        607.7                : kb           - ELEVATION OF DEPTH REFERENCE
DATM.M        603.9                : datum        - DATUM ELEVATION             
TDD .M        679                  : tdd          - TOTAL DEPTH DRILLER         
RUN .         ONE                  : Run          - RUN NUMBER                  
ENG .         WALTERHOUSE          : Engineer     - RECORDING ENGINEER          
WIT .         LOWTHER              : Witness      - WITNESSED BY                
BASE.         EDM                  : Branch       - HOME BASE OF LOGGING UNIT   
MUD .         GEL CHEM             : Mud_type     - MUD TYPE                    
MATR.         SANDSTONE            : Logunit      - NEUTRON MATRIX              
TMAX.C        41.7                 : BHT          - MAXIMUM RECORDED TEMPERATURE
BHTD.M        680                  : BHTDEP       - MAXIMUM RECORDED TEMPERATURE
RMT .C        20                   : MDTP         - TEMPERATURE OF MUD          
MUDD.KG/M     1090                 : MWT          - MUD DENSITY                 
NEUT.         1                    : NEUTRON      - NEUTRON TYPE                
RESI.         0                    : RESIST       - RESISTIVITY TYPE            
RM  .OHMM     2.97                 : RM           - RESISTIVITY OF MUD          
RMC .OHMM     0                    : RMC          - RESISTIVITY OF MUD CAKE     
RMF .OHMM     3.58                 : RMF          - RESISTIVITY OF MUD FILTRATE 
SUFT.C        0                    : SUFT         - SURFACE TEMPERATURE         
~A  DEPTH     PHID     PHIN       GR      CAL     RESD
# ...
  483.000    0.269    0.452   77.626  152.363    2.287
  483.250    0.271    0.459   75.384  151.740    2.381
  483.500    0.278    0.446   74.574  151.428    2.455
  483.750    0.279    0.447   73.827  151.013    2.508
  484.000    0.276    0.459   72.706  150.805    2.499
  484.250    0.267    0.459   70.339  150.700    2.445
  484.500    0.262    0.452   70.215  150.596    2.360
  484.750    0.268    0.454   71.460  150.699    2.295
  485.000    0.282    0.468   74.137  150.907    2.237
  485.250    0.292    0.491   75.818  151.114    2.196
  485.500    0.302    0.481   74.510  151.425    2.172
  485.750    0.307    0.469   72.019  151.320    2.149
  486.000    0.306    0.472   71.396  150.905    2.138
  486.250    0.298    0.477   74.073  150.074    2.107
  486.500    0.292    0.480   75.879  149.866    2.045
  486.750    0.286    0.477   74.820  149.866    1.971
  487.000    0.302    0.467   69.153  149.865    1.870
  487.250    0.307    0.453   63.362  150.072    1.802
  487.500    0.314    0.451   66.164  150.279    1.733
  487.750    0.301    0.453   68.467  150.901    1.711
  488.000    0.283    0.452   69.962  151.316    1.712
  488.250    0.267    0.461   70.708  151.731    1.742
  488.500    0.251    0.479   72.452  152.042    1.820
  488.750    0.229    0.473   76.249  152.871    1.898
  489.000    0.219    0.453   79.238  153.078    2.048
  489.250    0.261    0.437   79.674  153.597    2.201
  489.500    0.270    0.448   79.237  153.493    2.335
  489.750    0.274    0.446   78.801  153.181    2.345
  490.000    0.282    0.448   78.427  152.661    2.272
  490.250    0.271    0.445   77.182  152.972    2.218
  490.500    0.258    0.476   75.438  152.868    2.227
  490.750    0.260    0.473   74.068  152.452    2.284
  491.000    0.281    0.436   74.130  151.725    2.355
  491.250    0.290    0.431   78.052  150.999    2.460
  491.500    0.286    0.429   81.726  150.894    2.556
  491.750    0.292    0.434   84.465  150.167    2.696
  492.000    0.271    0.441   87.392  149.959    2.892
  492.250    0.265    0.431   91.688  149.544    3.109
  492.500    0.252    0.428   98.101  149.543    3.316
  492.750    0.227    0.421  105.822  149.958    3.544
  493.000    0.204    0.393  106.942  150.373    3.780
  493.250    0.215    0.357  100.528  150.580    3.898
  493.500    0.200    0.385   99.532  150.579    3.849
  493.750    0.215    0.410  101.960  150.475    3.584
  494.000    0.251    0.437   98.535  150.890    3.257
  494.250    0.245    0.460   96.542  150.889    2.900
  494.500    0.243    0.477   98.036  150.889    2.665
  494.750    0.253    0.482   94.611  150.888    2.459
  495.000    0.259    0.452   93.490  150.992    2.623
  495.250    0.266    0.448   94.050  151.302    2.674
  495.500    0.259    0.458   94.984  151.302    2.721
  495.750    0.230    0.471   94.672  151.405    2.723
  496.000    0.203    0.466   94.299  151.508    2.739
  496.250    0.206    0.448   95.046  151.404    2.762
  496.500    0.232    0.442   93.613  151.300    2.774
  496.750    0.241    0.447   90.499  151.507    2.749
  497.000    0.244    0.442   88.195  151.714    2.658
  497.250    0.239    0.434   89.627  151.714    2.566
  497.500    0.224    0.429   90.872  152.025    2.486
  497.750    0.229    0.435   91.930  152.024    2.405
  498.000    0.236    0.445   92.491  151.712    2.286
  498.250    0.245    0.448   91.930  151.712    2.191
  498.500    0.258    0.452   88.754  151.711    2.143
  498.750    0.288    0.443   86.886  151.918    2.168
  499.000    0.285    0.429   87.321  151.918    2.231
  499.250    0.267    0.418   90.248  151.710    2.331
  499.500    0.251    0.423   94.606  152.021    2.530
  499.750    0.236    0.436   97.781  151.709    2.683
  500.000    0.229    0.449   92.924  151.605    2.798
  500.250    0.244    0.460   93.360  151.293    2.837
  500.500    0.236    0.455   94.044  150.981    2.822
  500.750    0.229    0.445   94.916  150.877    2.802
  501.000    0.227    0.450   93.359  150.461    2.751
  501.250    0.229    0.459   88.938  150.565    2.666
  501.500    0.219    0.464   87.817  150.357    2.564
  501.750    0.209    0.463   85.699  150.149    2.428
  502.000    0.238    0.457   83.457  150.148    2.283
  502.250    0.274    0.444   80.282  150.148    2.155
  502.500    0.284    0.442   76.545  150.355    2.037
  502.750    0.289    0.440   74.988  150.666    1.945
  503.000    0.278    0.449   77.603  150.873    1.934
  503.250    0.271    0.442   79.845  150.665    2.025
  503.500    0.277    0.425   81.837  150.457    2.108
  503.750    0.279    0.428   83.642  149.522    2.265
  504.000    0.296    0.445   83.580  149.314    2.398
  504.250    0.293    0.456   84.825  148.898    2.553
  504.500    0.279    0.451   86.942  148.379    2.714
  504.750    0.256    0.432   89.619  148.067    2.841
  505.000    0.234    0.441   91.860  148.586    2.912
  505.250    0.223    0.451   94.350  149.415    2.953
  505.500    0.218    0.459   96.716  150.868    3.022
  505.750    0.209    0.468   99.207  151.905    3.075
  506.000    0.192    0.475  100.078  152.943    3.059
  506.250    0.195    0.483  100.514  157.197    2.992
  506.500    0.188    0.493   99.642  158.961    2.894
  506.750    0.197    0.506   97.960  159.168    2.793
  507.000    0.214    0.515   95.158  157.818    2.707
  507.250    0.245    0.516   91.920  155.431    2.608
  507.500    0.250    0.489   85.817  153.562    2.532
  507.750    0.263    0.474   80.649  151.694    2.514
  508.000    0.258    0.467   77.722  150.033    2.568
  508.250    0.229    0.472   79.154  149.099    2.588
  508.500    0.266    0.486   79.341  148.268    2.461
  508.750    0.309    0.538   77.161  148.164    2.297
  509.000    0.334    0.577   80.025  148.993    2.091
  509.250    0.354    0.510   82.951  150.031    1.955
  509.500    0.294    0.469   83.013  150.030    1.873
  509.750    0.301    0.444   82.266  149.096    1.849
  510.000    0.301    0.456   83.137  147.123    1.882
  510.250    0.294    0.457   79.774  145.566    1.988
  510.500    0.286    0.456   74.232  144.943    2.133
  510.750    0.284    0.454   74.730  144.943    2.267
  511.000    0.276    0.451   78.715  144.631    2.333
  511.250    0.277    0.447   80.334  144.838    2.388
  511.500    0.284    0.442   80.084  144.941    2.380
  511.750    0.273    0.437   78.154  145.252    2.390
  512.000    0.279    0.431   75.352  145.356    2.446
  512.250    0.281    0.413   73.110  145.666    2.560
  512.500    0.271    0.419   69.934  145.770    2.794
  512.750    0.254    0.420   65.139  145.769    3.048
  513.000    0.256    0.405   66.260  145.769    3.682
  513.250    0.268    0.388   65.948  146.495    4.243
  513.500    0.254    0.367   63.893  147.117    4.936
  513.750    0.215    0.289   60.219  148.881    5.753
  514.000    0.147    0.243   59.533  151.267    6.126
  514.250    0.092    0.244   60.529  154.484    5.291
  514.500    0.085    0.258   60.031  155.106    4.409
  514.750    0.101    0.271   59.159  152.822    3.932
  515.000    0.127    0.293   58.412  150.539    3.587
  515.250    0.143    0.339   59.906  149.189    3.322
  515.500    0.163    0.410   62.209  148.462    3.048
  515.750    0.187    0.455   65.945  148.669    2.791
  516.000    0.221    0.485   69.743  148.980    2.609
  516.250    0.262    0.492   69.930  149.810    2.690
  516.500    0.249    0.439   68.124  150.017    2.952
  516.750    0.254    0.403   67.376  150.639    3.203
  517.000    0.251    0.378   67.127  151.261    3.359
  517.250    0.238    0.350   66.006  151.884    3.392
  517.500    0.209    0.312   67.126  152.921    3.124
  517.750    0.165    0.316   70.924  152.609    2.693
  518.000    0.176    0.378   75.345  151.156    2.471
  518.250    0.225    0.402   80.014  149.598    2.362
  518.500    0.258    0.426   76.652  148.353    2.324
  518.750    0.272    0.430   73.040  147.522    2.308
  519.000    0.262    0.412   70.300  147.937    2.317
  519.250    0.254    0.401   68.681  149.804    2.297
