~VERSION INFORMATION
 VERS.                 2.0:   CWLS LOG ASCII STANDARD -VERSION 2.0
 WRAP.                  NO:   ONE LINE PER DEPTH STEP
~WELL INFORMATION BLOCK
#MNEM.UNIT           DATA                    DESCRIPTION OF MNEMONIC
#---------    -------------------            -------------------------------
# Generated from Intellog Unique Number	CN_94_101/WELL/3829
WELL.         08-23-096-18W4                 : Well_name    - WELL
LOC .         00/08-23-096-18W4/0            : Location     - LOCATION
UWI .         00/08-23-096-18W400            : Uwi          - UNIQUE WELL ID
ENTR.         T                              : Entered      - ENTERED BY
SRVC.         SCHLUMBERGER                   : Scn          - SERVICE COMPANY
DATE.         08/05/92                       : Date         - LOG DATE
STRT.M        270                            : top_depth    - START DEPTH
STOP.M        439.75                         : bot_depth    - STOP DEPTH
STEP.M        0.25                           : increment    - STEP LENGTH
 NULL. -999.2500:NULL Value
~CURVE INFORMATION BLOCK
#MNEM UNIT       ERCB CURVE CODE    CURVE DESCRIPTION
#-----------   ------------------   ----------------------------------
DEPT.M        00 001 00 00         : DEPTH        - DEPTH
GR  .API      00 310 00 00         : GR           - GAMMA RAY
CALI.MM       00 280 01 00         : CAL          - CALIPER
NPHI.V/V      00 330 00 00         : PHIN         - NEUTRON POROSITY (SANDSTONE)
DPHI.V/V      00 890 00 00         : PHID         - DENSITY POROSITY (SANDSTONE)
ILD .OHMM     00 120 00 00         : RESD         - DEEP RESISTIVITY (DIL)
~PARAMETER INFORMATION
#MNEM.UNIT           DATA             DESCRIPTION OF MNEMONIC
#---------         -----------     ------------------------------
GL  .M        685                  : gl           - GROUND LEVEL ELEVATION
EREF.M        689.4                : kb           - ELEVATION OF DEPTH REFERENCE
DATM.M        689.4                : datum        - DATUM ELEVATION
TDD .M        440                  : tdd          - TOTAL DEPTH DRILLER
RUN .         0.000000             : Run          - RUN NUMBER
MUD .         GEL                  : Mud_type     - MUD TYPE
MATR.         SANDSTONE            : Logunit      - NEUTRON MATRIX
TMAX.C        0                    : BHT          - MAXIMUM RECORDED TEMPERATURE
BHTD.M        229.972              : BHTDEP       - MAXIMUM RECORDED TEMPERATURE
RMT .C        -17.7778             : MDTP         - TEMPERATURE OF MUD
MUDD.KG/M     6900                 : MWT          - MUD DENSITY
NEUT.         1                    : NEUTRON      - NEUTRON TYPE
RESI.         0                    : RESIST       - RESISTIVITY TYPE
RM  .OHMM     0                    : RM           - RESISTIVITY OF MUD
RMC .OHMM     0                    : RMC          - RESISTIVITY OF MUD CAKE
RMF .OHMM     0                    : RMF          - RESISTIVITY OF MUD FILTRATE
SUFT.C        4                    : SUFT         - SURFACE TEMPERATURE
BTZC.MM       0                    : BITZC        - BIT SIZE CONSTANT
MDW .KG/M     0                    : MDW          - MUD WEIGHT
~A  DEPTH       GR      CAL     PHIN     PHID     RESD
  270.000  114.375  163.542    0.488    0.228    4.467
  270.250  116.875  161.458    0.511    0.227    4.467
  270.500  115.625  163.542    0.515    0.225    4.467
  270.750  115.625  161.458    0.497    0.225    4.299
  271.000  113.750  161.458    0.491    0.226    4.299
  271.250  113.750  161.458    0.495    0.231    4.217
  271.500  116.250  167.708    0.512    0.240    4.217
  271.750  119.375  163.542    0.517    0.244    4.217
  272.000  122.500  164.583    0.521    0.242    4.217
  272.250  123.750  166.667    0.525    0.236    4.217
  272.500  118.750  168.750    0.487    0.238    4.642
  272.750  109.375  168.750    0.447    0.241    5.208
  273.000  105.625  168.750    0.417    0.232    5.109
  273.250  108.125  167.531    0.415    0.235    4.917
  273.500  106.250  162.344    0.423    0.238    4.823
  273.750  105.000  165.456    0.436    0.238    4.467
  274.000  110.000  162.344    0.424    0.238    4.137
  274.250  116.875  165.456    0.428    0.236    4.058
  274.500  114.375  162.344    0.433    0.235    3.981
  274.750  103.750  165.456    0.423    0.231    4.823
  275.000   98.125  164.583    0.404    0.227    5.208
  275.250   96.875  164.583    0.415    0.226    6.683
  275.500   98.125  164.583    0.414    0.236    8.097
  275.750   96.250  164.583    0.397    0.244    7.943
  276.000   95.000  166.667    0.393    0.250    7.499
  276.250   96.875  162.500    0.418    0.246    7.217
  276.500   96.250  162.500    0.427    0.238    7.217
  276.750   92.500  169.792    0.432    0.213    7.356
  277.000   82.500  166.667    0.441    0.203    7.356
  277.250   82.500  163.542    0.441    0.244    7.079
  277.500   93.125  163.542    0.451    0.252    6.432
  277.750  109.375  165.625    0.467    0.241    5.843
  278.000  116.250  162.500    0.481    0.242    5.309
  278.250  118.125  162.500    0.461    0.242    4.823
  278.500  108.750  162.500    0.442    0.242    4.553
  278.750  104.375  161.458    0.451    0.250    4.299
  279.000  106.875  163.542    0.478    0.255    4.217
  279.250  110.625  163.542    0.477    0.255    3.981
  279.500  108.750  164.583    0.472    0.257    3.905
  279.750  106.875  163.542    0.482    0.259    3.905
  280.000  105.000  164.583    0.488    0.257    4.058
  280.250  100.625  165.625    0.469    0.264    4.642
  280.500   98.125  164.583    0.438    0.272    5.208
  280.750  101.250  163.542    0.435    0.277    5.957
  281.000  105.625  163.542    0.426    0.279    6.813
  281.250  101.250  164.583    0.409    0.279    7.356
  281.500   93.750  163.542    0.418    0.278    7.356
  281.750   91.875  162.500    0.423    0.263    7.792
  282.000   89.375  162.500    0.393    0.243    8.097
  282.250   81.250  162.500    0.393    0.187    7.943
  282.500   79.375  164.583    0.415    0.212    7.079
  282.750   84.375  163.542    0.414    0.263    6.556
  283.000   93.125  165.625    0.410    0.263    5.957
  283.250   95.000  166.667    0.413    0.256    5.309
  283.500   96.250  167.708    0.390    0.256    4.732
  283.750   98.750  166.667    0.394    0.254    4.299
  284.000   99.375  164.583    0.424    0.252    4.299
  284.250  102.500  164.583    0.445    0.251    4.382
  284.500  105.625  164.583    0.448    0.262    4.823
  284.750  100.625  164.583    0.438    0.277    5.623
  285.000   89.375  165.625    0.404    0.296    6.190
  285.250   83.750  162.500    0.388    0.293    6.190
  285.500   89.375  162.500    0.418    0.269    5.957
  285.750  102.500  162.500    0.435    0.246    6.072
  286.000  106.875  164.583    0.446    0.241    6.072
  286.250  107.500  173.958    0.454    0.241    5.012
  286.500  106.875  172.917    0.456    0.241    5.386
  286.750  105.000  171.875    0.443    0.229    5.284
  287.000   93.125  169.792    0.379    0.208    5.927
  287.250   80.625  168.750    0.379    0.183    6.522
  287.500   82.500  164.583    0.398    0.204    6.042
  287.750   92.500  164.583    0.421    0.301    5.491
  288.000   98.750  162.500    0.426    0.299    5.184
  288.250  103.750  160.417    0.439    0.272    4.802
  288.500  103.750  163.542    0.448    0.261    4.622
  288.750  101.250  165.625    0.454    0.266    4.448
  289.000   97.500  165.625    0.476    0.268    4.200
  289.250  101.250  167.708    0.510    0.266    4.121
  289.500  101.875  168.750    0.533    0.262    4.121
  289.750   98.125  169.792    0.504    0.261    4.200
  290.000   98.125  170.833    0.430    0.258    4.121
  290.250  100.625  169.792    0.431    0.255    3.891
  290.500  103.125  165.625    0.479    0.255    3.817
  290.750  101.250  166.667    0.485    0.255    3.745
  291.000  100.625  164.583    0.488    0.256    3.745
  291.250  101.250  164.583    0.501    0.254    3.891
  291.500  103.750  163.542    0.508    0.249    4.364
  291.750   98.750  163.542    0.480    0.241    5.086
  292.000   93.750  163.542    0.429    0.219    5.491
  292.250   85.000  165.625    0.423    0.185    5.927
  292.500   83.750  164.583    0.429    0.201    6.042
  292.750   88.125  164.583    0.423    0.244    5.597
  293.000   91.875  165.625    0.419    0.251    5.184
  293.250   98.125  165.625    0.418    0.256    5.161
  293.500   94.375  165.625    0.449    0.263    4.967
  293.750   91.250  165.625    0.464    0.264    5.063
  294.000   93.750  166.667    0.460    0.261    5.260
  294.250   96.875  163.542    0.461    0.258    5.361
  294.500   96.875  164.583    0.470    0.254    5.677
  294.750   95.625  164.583    0.460    0.233    5.898
  295.000   84.375  164.583    0.390    0.193    5.898
  295.250   78.125  163.542    0.343    0.154    5.677
  295.500   88.750  163.542    0.440    0.188    5.570
  295.750  102.500  168.750    0.435    0.256    5.361
  296.000   96.875  163.542    0.404    0.249    5.063
  296.250   98.750  170.833    0.420    0.244    5.063
  296.500  106.250  163.542    0.429    0.251    5.161
  296.750  108.125  163.542    0.446    0.263    5.260
  297.000  103.125  164.583    0.459    0.273    5.465
  297.250   96.250  167.708    0.449    0.291    5.361
  297.500   88.750  166.667    0.430    0.289    5.465
  297.750   88.750  164.583    0.429    0.283    5.361
  298.000   86.250  165.625    0.420    0.285    5.570
  298.250   80.000  169.792    0.404    0.301    5.898
  298.500   68.125  162.500    0.399    0.314    5.898
  298.750   60.625  162.500    0.403    0.329    6.012
  299.000   63.125  162.500    0.430    0.324    6.246
  299.250   70.000  162.500    0.435    0.301    6.128
  299.500   71.875  162.500    0.415    0.298    5.787
  299.750   72.500  162.500    0.403    0.291    5.570
  300.000   81.250  165.625    0.413    0.273    5.361
  300.250   92.500  166.667    0.420    0.255    5.063
  300.500   97.500  166.667    0.449    0.248    4.781
  300.750   98.750  165.625    0.444    0.254    4.515
  301.000   99.375  164.583    0.438    0.255    4.515
  301.250  102.500  164.583    0.433    0.249    4.602
  301.500  103.750  163.542    0.431    0.246    4.602
  301.750  100.000  167.708    0.469    0.244    4.264
  302.000  101.875  168.750    0.476    0.244    4.184
  302.250  103.750  168.750    0.469    0.245    4.027
  302.500  101.875  168.750    0.438    0.261    4.027
  302.750  100.000  167.708    0.434    0.271    3.951
  303.000  100.000  165.625    0.450    0.274    3.951
  303.250  101.250  168.750    0.466    0.265    3.951
  303.500  105.000  169.792    0.474    0.261    3.951
  303.750  108.750  167.708    0.470    0.265    4.027
  304.000  107.500  162.500    0.480    0.263    4.027
  304.250  104.375  164.583    0.483    0.258    4.027
  304.500  102.500  166.667    0.449    0.251    4.027
  304.750  103.750  163.542    0.448    0.253    3.951
  305.000  102.500  160.417    0.471    0.254    3.951
  305.250  101.250  157.292    0.458    0.258    4.027
  305.500   97.500  163.542    0.431    0.259    4.184
  305.750   95.000  163.542    0.448    0.259    4.430
  306.000   98.750  163.542    0.474    0.255    4.602
  306.250  108.750  163.542    0.476    0.248    4.781
