~VERSION INFORMATION
 VERS.                 2.0:   CWLS LOG ASCII STANDARD -VERSION 2.0
 WRAP.                  NO:   ONE LINE PER DEPTH STEP
~WELL INFORMATION BLOCK
#MNEM.UNIT           DATA                    DESCRIPTION OF MNEMONIC
#---------    -------------------            -------------------------------
# Generated from Intellog Unique Number	CS_73_76/WELL/2106
WELL.         ANDERSON EXPLORATION LTD.      : Well_name    - WELL
LOC .         00/07-10-075-11W4/0            : Location     - LOCATION
UWI .         00/07-10-075-11W4/0            : Uwi          - UNIQUE WELL ID
ENTR.         SP                             : Entered      - ENTERED BY
SRVC.         SCHLUMBERGER                   : Scn          - SERVICE COMPANY
STRT.M        270                            : top_depth    - START DEPTH
STOP.M        500                            : bot_depth    - STOP DEPTH
STEP.M        0.25                           : increment    - STEP LENGTH
 NULL. -999.2500:NULL Value
~CURVE INFORMATION BLOCK
#MNEM UNIT       ERCB CURVE CODE    CURVE DESCRIPTION
#-----------   ------------------   ----------------------------------
DEPT.M        00 001 00 00         : DEPTH        - DEPTH
ILD .OHMM     00 120 00 00         : RESD         - DEEP RESISTIVITY (DIL)
DPHI.V/V      00 890 00 00         : PHID         - DENSITY POROSITY (LIMESTONE)
GR  .API      00 310 00 00         : GR           - GAMMA RAY
NPHI.V/V      00 330 00 00         : PHIN         - NEUTRON POROSITY (LIMESTONE)
~PARAMETER INFORMATION
#MNEM.UNIT           DATA             DESCRIPTION OF MNEMONIC
#---------         -----------     ------------------------------
GL  .M        649                  : gl           - GROUND LEVEL ELEVATION
EREF.M        652.5                : kb           - ELEVATION OF DEPTH REFERENCE
DATM.M        649                  : datum        - DATUM ELEVATION
TDD .M        505                  : tdd          - TOTAL DEPTH DRILLER
RUN .         ONE                  : Run          - RUN NUMBER
ENG .         BILL                 : Engineer     - RECORDING ENGINEER
WIT .         JIM                  : Witness      - WITNESSED BY
MUD .         GEL                  : Mud_type     - MUD TYPE
MATR.         LIMESTONE            : Logunit      - NEUTRON MATRIX
TMAX.C        10                   : BHT          - MAXIMUM RECORDED TEMPERATURE
BHTD.M        505                  : BHTDEP       - MAXIMUM RECORDED TEMPERATURE
MATR.         1                    : LOGUNIT      - NEUTRON MATRIX
RMT .C        25                   : MDTP         - TEMPERATURE OF MUD
NEUT.         1                    : NEUTRON      - NEUTRON TYPE
RESI.         0                    : RESIST       - RESISTIVITY TYPE
RMC .OHMM     0.25                 : RMC          - RESISTIVITY OF MUD CAKE
RMF .OHMM     0.25                 : RMF          - RESISTIVITY OF MUD FILTRATE
SUFT.C        15                   : SUFT         - SURFACE TEMPERATURE
~A  DEPTH     RESD     PHID       GR     PHIN
# ...
  357.000    7.867    0.350   69.986    0.445
  357.250    7.869    0.351   69.395    0.444
  357.500    7.726    0.347   69.406    0.449
  357.750    7.727    0.340   70.633    0.462
  358.000    7.586    0.346   71.863    0.473
  358.250    6.917    0.339   73.091    0.480
  358.500    6.791    0.333   74.317    0.486
  358.750    6.792    0.325   76.149    0.487
  359.000    6.920    0.301   78.591    0.488
  359.250    7.183    0.312   79.207    0.493
  359.500    7.595    0.308   79.829    0.494
  359.750    7.738    0.307   78.021    0.486
  360.000    7.739    0.323   77.424    0.475
  360.250    7.741    0.313   78.047    0.471
  360.500    7.461    0.317   78.663    0.464
  360.750    6.929    0.300   79.893    0.462
  361.000    6.931    0.291   79.907    0.470
  361.250    6.932    0.305   79.316    0.477
  361.500    6.933    0.314   79.324    0.490
  361.750    6.807    0.338   79.946    0.483
  362.000    6.684    0.319   82.389    0.478
  362.250    6.562    0.318   83.611    0.474
  362.500    6.209    0.308   87.269    0.470
  362.750    6.210    0.309   89.711    0.478
  363.000    6.327    0.323   87.902    0.486
  363.250    6.447    0.308   85.483    0.489
  363.500    6.568    0.301   83.677    0.490
  363.750    6.692    0.310   84.902    0.492
  364.000    6.819    0.327   87.347    0.487
  364.250    6.947    0.339   89.177    0.493
  364.500    6.948    0.325   91.620    0.477
  364.750    7.212    0.306   92.240    0.470
  365.000    7.213    0.320   92.256    0.484
  365.250    7.349    0.309   92.271    0.496
  365.500    7.628    0.281   92.279    0.505
  365.750    7.629    0.278   92.289    0.512
  366.000    7.631    0.270   92.911    0.499
  366.250    7.632    0.266   91.709    0.460
  366.500    7.493    0.266   92.938    0.431
  366.750    7.357    0.278   94.775    0.448
  367.000    7.223    0.284   95.389    0.470
  367.250    7.092    0.281   96.011    0.488
  367.500    6.963    0.276   95.415    0.477
  367.750    6.965    0.277   94.214    0.484
  368.000    6.837    0.283   93.011    0.498
  368.250    6.839    0.285   91.809    0.503
  368.500    6.840    0.292   90.608    0.503
  368.750    6.842    0.309   90.012    0.507
  369.000    6.843    0.317   90.028    0.497
  369.250    6.844    0.311   89.432    0.484
  369.500    6.845    0.305   89.444    0.474
  369.750    6.847    0.309   90.065    0.497
  370.000    6.848    0.304   91.899    0.510
  370.250    6.849    0.297   92.517    0.521
  370.500    6.850    0.292   91.928    0.509
  370.750    6.851    0.292   91.329    0.497
  371.000    6.980    0.296   91.349    0.486
  371.250    7.112    0.284   91.359    0.485
  371.500    7.247    0.270   91.369    0.493
  371.750    7.383    0.240   90.772    0.493
  372.000    7.523    0.212   88.356    0.480
  372.250    7.665    0.196   87.153    0.469
  372.500    7.666    0.226   87.168    0.468
  372.750    7.811    0.242   87.786    0.486
  373.000    7.812    0.217   82.335    0.469
  373.250    7.671    0.167   75.058    0.422
  373.500    7.671    0.115   67.782    0.308
  373.750    7.533    0.249   70.224    0.323
  374.000    7.396    0.290   78.132    0.404
  374.250    7.261    0.311   83.610    0.444
  374.500    6.998    0.301   85.445    0.466
  374.750    6.871    0.286   87.891    0.478
  375.000    6.746    0.286   89.114    0.472
  375.250    6.624    0.280   95.202    0.462
  375.500    6.503    0.286   95.214    0.469
  375.750    6.385    0.277   93.404    0.490
  376.000    6.386    0.273   92.201    0.503
  376.250    6.270    0.281   91.605    0.518
  376.500    6.271    0.275   95.264    0.523
  376.750    6.273    0.286   94.669    0.517
  377.000    6.391    0.291   94.074    0.512
  377.250    6.392    0.284   94.090    0.510
  377.500    6.393    0.279   94.707    0.499
  377.750    6.395    0.268   91.075    0.489
  378.000    6.396    0.276   89.267    0.477
  378.250    6.397    0.274   92.928    0.485
  378.500    6.398    0.284   95.367    0.501
  378.750    6.399    0.287   97.202    0.511
  379.000    6.519    0.276   97.212    0.498
  379.250    6.401    0.269   96.018    0.492
  379.500    5.945    0.277   96.633    0.492
  379.750    5.837    0.279   97.254    0.492
  380.000    5.731    0.277   98.476    0.493
  380.250    5.732    0.269   99.095    0.499
  380.500    5.733    0.276   97.291    0.500
  380.750    5.951    0.281   94.263    0.504
  381.000    6.063    0.287   91.239    0.504
  381.250    6.064    0.277   94.899    0.494
  381.500    6.065    0.283   96.729    0.507
  381.750    5.955    0.276   99.174    0.513
  382.000    5.956    0.274   99.184    0.490
  382.250    5.847    0.341   98.589    0.472
  382.500    5.137    0.404   96.781    0.469
  382.750    4.191    0.443   94.367    0.491
  383.000    3.357    0.488   93.161    0.520
  383.250    2.842    0.520   96.212    0.559
  383.500    2.318    0.491  101.086    0.590
  383.750    2.194    0.457  102.312    0.577
  384.000    2.194    0.394  102.321    0.602
  384.250    2.407    0.365  100.514    0.624
  384.500    2.845    0.366   99.917    0.621
  384.750    3.361    0.360   98.113    0.622
  385.000    3.898    0.346   96.910    0.624
  385.250    4.522    0.333   96.311    0.610
  385.500    4.961    0.330   93.895    0.579
  385.750    5.246    0.309   92.085    0.547
  386.000    5.345    0.296   90.275    0.513
  386.250    5.346    0.292   90.292    0.506
  386.500    5.347    0.288   90.305    0.500
  386.750    5.249    0.280   88.493    0.491
  387.000    5.250    0.275   84.865    0.490
  387.250    5.251    0.309   83.050    0.492
  387.500    5.350    0.332   76.993    0.478
  387.750    5.554    0.363   72.145    0.462
  388.000    5.554    0.384   64.872    0.443
  388.250    5.555    0.399   60.632    0.421
  388.500    5.660    0.389   61.253    0.400
  388.750    5.662    0.382   61.876    0.388
  389.000    5.662    0.385   61.884    0.382
  389.250    5.664    0.384   61.898    0.385
  389.500    5.561    0.387   61.303    0.392
  389.750    5.562    0.379   60.710    0.398
  390.000    5.563    0.387   60.111    0.396
  390.250    5.667    0.391   61.341    0.395
  390.500    5.668    0.394   63.782    0.402
  390.750    5.775    0.390   64.400    0.401
  391.000    5.776    0.386   63.201    0.401
  391.250    5.778    0.393   61.997    0.402
  391.500    5.672    0.393   62.009    0.403
  391.750    5.674    0.397   62.631    0.402
  392.000    5.674    0.391   63.857    0.398
  392.250    5.571    0.387   65.690    0.392
  392.500    5.573    0.386   67.530    0.387
  392.750    5.574    0.392   68.752    0.390
  393.000    5.575    0.398   70.591    0.399
  393.250    5.576    0.398   71.213    0.414
  393.500    5.474    0.390   71.830    0.419
  393.750    5.475    0.382   73.061    0.421
  394.000    5.476    0.377   73.677    0.421
  394.250    5.377    0.384   75.512    0.421
  394.500    5.377    0.384   76.738    0.429
  394.750    5.379    0.390   76.748    0.443
  395.000    5.281    0.393   76.764    0.453
  395.250    5.282    0.378   76.777    0.451
  395.500    5.282    0.373   76.178    0.459
  395.750    5.283    0.405   80.450    0.471
  396.000    5.284    0.385   81.671    0.495
  396.250    5.384    0.370   82.898    0.473
  396.500    5.486    0.368   83.523    0.471
  396.750    5.487    0.358   83.532    0.477
  397.000    5.488    0.337   85.977    0.477
  397.250    5.489    0.321   87.204    0.477
  397.500    5.389    0.296   87.819    0.478
  397.750    5.594    0.282   88.446    0.477
  398.000    5.805    0.272   87.849    0.476
  398.250    6.860    0.261   87.858    0.474
  398.500    7.810    0.275   85.440    0.476
  398.750    9.229    0.293   78.776    0.482
  399.000   10.905    0.279   73.325    0.462
  399.250   11.965    0.173   70.902    0.412
  399.500   12.191    0.086   66.059    0.275
  399.750   10.132    0.067   63.034    0.247
  400.000    8.421    0.192   61.222    0.241
  400.250    7.536    0.270   62.451    0.263
