~VERSION INFORMATION
 VERS.                 2.0:   CWLS LOG ASCII STANDARD -VERSION 2.0
 WRAP.                  NO:   ONE LINE PER DEPTH STEP
~WELL INFORMATION BLOCK
#MNEM.UNIT           DATA                    DESCRIPTION OF MNEMONIC
#---------    -------------------            -------------------------------
# Generated from Intellog Unique Number	CS_69_70/WELL/702
NULL.         -999.25                        : NULL_VALUE
WELL.         HUSKY OIL OPERATION LTD        : Well_name    - WELL              
LOC .         00/05-23-070-06W4/0            : Location     - LOCATION          
UWI .         00/05-23-070-06W4/0            : Uwi          - UNIQUE WELL ID    
ENTR.         SP                             : Entered      - ENTERED BY        
SRVC.         SCHLUMBERGER                   : Scn          - SERVICE COMPANY   
STRT.M        300                            : top_depth    - START DEPTH       
STOP.M        540                            : bot_depth    - STOP DEPTH        
STEP.M        0.25                           : increment    - STEP LENGTH       
~CURVE INFORMATION BLOCK
#MNEM UNIT       ERCB CURVE CODE    CURVE DESCRIPTION
#-----------   ------------------   ----------------------------------
DEPT.M        00 001 00 00         : DEPTH        - DEPTH                       
ILD .OHMM     00 120 00 00         : RESD         - DEEP RESISTIVITY (DIL)      
DPHI.V/V      00 890 00 00         : PHID         - DENSITY POROSITY (LIMESTONE)
NPHI.V/V      00 330 00 00         : PHIN         - NEUTRON POROSITY (LIMESTONE)
GR  .API      00 310 00 00         : GR           - GAMMA RAY                   
~PARAMETER INFORMATION       
#MNEM.UNIT           DATA             DESCRIPTION OF MNEMONIC
#---------         -----------     ------------------------------
GL  .M        657                  : gl           - GROUND LEVEL ELEVATION      
EREF.M        660.6                : kb           - ELEVATION OF DEPTH REFERENCE
DATM.M        657                  : datum        - DATUM ELEVATION             
TDD .M        545                  : tdd          - TOTAL DEPTH DRILLER         
RUN .         ONE                  : Run          - RUN NUMBER                  
ENG .         BILL                 : Engineer     - RECORDING ENGINEER          
WIT .         JIM                  : Witness      - WITNESSED BY                
MUD .         GEL                  : Mud_type     - MUD TYPE                    
MATR.         LIMESTONE            : Logunit      - NEUTRON MATRIX              
TMAX.C        25                   : BHT          - MAXIMUM RECORDED TEMPERATURE
BHTD.M        545                  : BHTDEP       - MAXIMUM RECORDED TEMPERATURE
MATR.         1                    : LOGUNIT      - NEUTRON MATRIX              
RMT .C        25                   : MDTP         - TEMPERATURE OF MUD          
NEUT.         1                    : NEUTRON      - NEUTRON TYPE                
RESI.         0                    : RESIST       - RESISTIVITY TYPE            
RMC .OHMM     0.25                 : RMC          - RESISTIVITY OF MUD CAKE     
RMF .OHMM     0.25                 : RMF          - RESISTIVITY OF MUD FILTRATE 
SUFT.C        15                   : SUFT         - SURFACE TEMPERATURE         
~A  DEPTH     RESD     PHID     PHIN       GR
  300.000    2.777    0.300    0.547   93.754
  300.250    2.778    0.305    0.554   93.760
  300.500    2.727    0.310    0.554   93.766
  300.750    2.728    0.305    0.548   93.773
  301.000    2.779    0.308    0.559   91.359
  301.250    2.885    0.265    0.553   83.504
  301.500    2.995    0.216    0.521   76.253
  301.750    3.052    0.189    0.480   73.233
  302.000    3.109    0.171    0.548   75.056
  302.250    3.168    0.296    0.538   88.973
  302.500    3.229    0.297    0.503   99.263
  302.750    3.229    0.287    0.505  100.479
  303.000    3.230    0.283    0.533   99.881
  303.250    3.291    0.288    0.533   97.470
  303.500    3.354    0.279    0.514   93.848
  303.750    3.354    0.271    0.498   91.435
  304.000    3.355    0.267    0.488   92.651
  304.250    3.355    0.260    0.506   96.285
  304.500    3.419    0.255    0.509   99.921
  304.750    3.484    0.258    0.507   96.904
  305.000    3.616    0.255    0.504   93.284
  305.250    3.825    0.245    0.527   92.685
  305.500    3.825    0.238    0.532   90.878
  305.750    3.687    0.234    0.513   89.070
  306.000    3.423    0.267    0.496   93.311
  306.250    3.299    0.283    0.482   92.711
  306.500    3.425    0.294    0.475   90.299
  306.750    3.622    0.273    0.470   91.516
  307.000    3.760    0.255    0.476   94.546
  307.250    3.903    0.245    0.492   94.553
  307.500    3.976    0.241    0.460   91.536
  307.750    4.052    0.266    0.447   94.566
  308.000    4.053    0.285    0.483  106.067
  308.250    4.053    0.272    0.462  108.491
  308.500    3.764    0.257    0.451  100.635
  308.750    3.561    0.250    0.483   98.223
  309.000    3.432    0.253    0.500   95.810
  309.250    3.629    0.235    0.489   88.560
  309.500    3.838    0.211    0.468   81.309
  309.750    4.212    0.185    0.454   84.341
  310.000    4.373    0.208    0.445   89.184
  310.250    4.799    0.256    0.518   97.054
  310.500    5.673    0.295    0.513  101.900
  310.750    7.223    0.315    0.438   85.576
  311.000   10.282    0.329    0.340   63.204
  311.250   12.382    0.326    0.282   53.533
  311.500   16.983    0.318    0.276   58.380
  311.750   20.075    0.301    0.278   57.176
  312.000   26.041    0.296    0.228   45.086
  312.250   30.217    0.327    0.216   35.416
  312.500   35.724    0.339    0.216   31.188
  312.750   37.081    0.342    0.219   39.057
  313.000   36.406    0.347    0.220   45.113
  313.250   31.388    0.352    0.218   48.143
  313.500   25.123    0.358    0.260   51.780
  313.750   19.020    0.362    0.284   53.601
  314.000   14.668    0.367    0.305   57.240
  314.250   10.120    0.352    0.320   59.057
  314.500    8.100    0.326    0.342   67.532
  314.750    7.663    0.265    0.377   82.659
  315.000    7.249    0.230    0.387   93.553
  315.250    7.250    0.256    0.387   85.698
  315.500    7.252    0.269    0.393   85.705
  315.750    7.254    0.281    0.393   91.156
  316.000    7.392    0.254    0.385   95.397
  316.250    7.532    0.237    0.381   97.217
  316.500    7.533    0.223    0.398   96.014
  316.750    7.535    0.215    0.401   92.393
  317.000    7.536    0.270    0.393   85.142
  317.250    7.264    0.298    0.400   80.913
  317.500    7.131    0.313    0.411   84.551
  317.750    7.132    0.312    0.418   85.765
  318.000    7.003    0.311    0.421   83.961
  318.250    7.004    0.311    0.410   86.385
  318.500    7.006    0.306    0.401   94.862
  318.750    7.139    0.305    0.395   97.284
  319.000    7.274    0.305    0.394   98.501
  319.250    7.411    0.298    0.394   93.066
  319.500    7.694    0.277    0.391   90.047
  319.750    7.839    0.255    0.379   88.239
  320.000    7.989    0.240    0.374   90.668
  320.250    7.990    0.235    0.388   92.487
  320.500    7.991    0.233    0.406   95.520
  320.750    7.846    0.258    0.412   96.735
  321.000    7.703    0.275    0.407   97.951
  321.250    7.704    0.289    0.401   99.169
  321.500    7.564    0.297    0.406  104.620
  321.750    7.156    0.278    0.417  109.463
  322.000    6.770    0.248    0.430  112.495
  322.250    6.171    0.204    0.453  105.849
  322.500    6.059    0.164    0.463  101.017
  322.750    5.523    0.126    0.457   99.812
  323.000    5.322    0.134    0.452  111.917
  323.250    5.035    0.187    0.458  119.786
  323.500    4.676    0.199    0.471  119.793
  323.750    4.342    0.211    0.476  116.174
  324.000    3.958    0.214    0.479  115.573
  324.250    3.814    0.216    0.496  116.790
  324.500    3.477    0.231    0.511  118.610
  324.750    3.351    0.240    0.521  120.432
  325.000    3.170    0.240    0.516  121.043
  325.250    3.112    0.247    0.526  123.472
  325.500    3.679    0.259    0.534  124.081
  325.750    4.269    0.271    0.547  115.019
  326.000    5.047    0.282    0.523  110.789
  326.250    5.966    0.266    0.488  100.513
  326.500    6.923    0.243    0.435   88.424
  326.750    7.458    0.260    0.452   82.381
  327.000    7.600    0.294    0.457   74.525
  327.250    7.601    0.329    0.392   63.645
  327.500    7.462    0.353    0.398   50.949
  327.750    7.192    0.359    0.415   49.146
  328.000    7.062    0.355    0.430   53.387
  328.250    6.945    0.352    0.424   57.021
  328.500    6.319    0.357    0.410   60.051
  328.750    6.560    0.340    0.404   63.080
  329.000    6.809    0.339    0.399   61.881
  329.250    7.336    0.318    0.392   60.677
  329.500    7.615    0.306    0.378   62.497
  329.750    7.905    0.290    0.369   69.762
  330.000    8.206    0.280    0.397   76.423
  330.250    8.056    0.280    0.402   81.268
  330.500    7.765    0.301    0.407   74.622
  330.750    7.624    0.319    0.408   65.556
  331.000    7.347    0.330    0.409   57.700
  331.250    7.349    0.340    0.408   54.682
  331.500    7.916    0.347    0.405   53.479
  331.750    7.629    0.349    0.398   52.275
  332.000    7.353    0.335    0.385   57.726
  332.250    7.087    0.320    0.379   61.361
  332.500    7.087    0.314    0.375   56.532
  332.750    7.089    0.328    0.383   52.907
  333.000    7.091    0.329    0.394   52.914
  333.250    7.092    0.326    0.389   58.365
  333.500    7.226    0.334    0.376   58.976
  333.750    7.228    0.338    0.374   57.169
  334.000    7.366    0.348    0.379   55.965
  334.250    7.367    0.352    0.378   53.554
  334.500    7.369    0.348    0.395   56.584
  334.750    7.370    0.335    0.411   63.849
  335.000    7.371    0.323    0.421   69.905
  335.250    7.511    0.319    0.412   71.120
  335.500    7.653    0.321    0.405   70.522
  335.750    7.799    0.320    0.405   74.162
  336.000    7.801    0.301    0.400   76.585
  336.250    7.948    0.291    0.381   82.037
  336.500    8.099    0.276    0.367   84.461
  336.750    8.101    0.275    0.394   84.468
  337.000    8.254    0.281    0.399   81.450
  337.250    8.255    0.285    0.389   85.692
  337.500    8.412    0.274    0.389   90.540
  337.750    8.571    0.239    0.404   91.753
  338.000    8.898    0.217    0.410   90.549
  338.250    9.066    0.190    0.398   83.299
  338.500    9.768    0.161    0.347   75.442
  338.750   10.139    0.237    0.335   71.216
  339.000   10.525    0.268    0.377   79.691
  339.250   10.333    0.270    0.394   91.189
  339.500    9.076    0.251    0.399   99.058
  339.750    7.680    0.248    0.405   99.067
  340.000    7.001    0.281    0.415   98.467
  340.250    7.828    0.308    0.404   88.193
  340.500    7.976    0.333    0.392   79.126
  340.750    7.978    0.348    0.390   70.060
  341.000    7.832    0.355    0.401   64.020
  341.250    7.982    0.356    0.410   61.608
  341.500    7.983    0.349    0.405   61.612
  341.750    7.985    0.343    0.404   66.462
  342.000    7.986    0.342    0.410   70.698
  342.250    8.138    0.317    0.404   84.014
  342.500    8.139    0.288    0.393   93.092
  342.750    8.142    0.276    0.396  100.356
  343.000    7.994    0.249    0.419  110.648
  343.250    7.848    0.255    0.436  113.676
