~VERSION INFORMATION
 VERS.                 2.0:   CWLS LOG ASCII STANDARD -VERSION 2.0
 WRAP.                  NO:   ONE LINE PER DEPTH STEP
~WELL INFORMATION BLOCK
#MNEM.UNIT           DATA                    DESCRIPTION OF MNEMONIC
#---------    -------------------            -------------------------------
# Generated from Intellog Unique Number	CW_70_72/WELL/528
NULL.         -999.25                        : NULL_VALUE
WELL.         RAVENNA ET AL CALL 05-24       : Well_name    - WELL              
LOC .         05-24-071-19W4                 : Location     - LOCATION          
UWI .         00/05-24-071-19W4/0            : Uwi          - UNIQUE WELL ID    
ENTR.         JAYE                           : Entered      - ENTERED BY        
SRVC.         COMPUTALOG                     : Scn          - SERVICE COMPANY   
DATE.         31 JAN 82                      : Date         - LOG DATE          
STRT.M        310                            : top_depth    - START DEPTH       
STOP.M        477                            : bot_depth    - STOP DEPTH        
STEP.M        0.25                           : increment    - STEP LENGTH       
~CURVE INFORMATION BLOCK
#MNEM UNIT       ERCB CURVE CODE    CURVE DESCRIPTION
#-----------   ------------------   ----------------------------------
DEPT.M        00 001 00 00         : DEPTH        - DEPTH                       
DPHI.V/V      00 890 00 00         : PHID         - DENSITY POROSITY (SANDSTONE)
NPHI.V/V      00 330 00 00         : PHIN         - NEUTRON POROSITY (SANDSTONE)
GR  .API      00 310 00 00         : GR           - GAMMA RAY                   
CALI.MM       00 280 01 00         : CAL          - CALIPER                     
ILD .OHMM     00 120 00 00         : RESD         - DEEP RESISTIVITY (DIL)      
~PARAMETER INFORMATION       
#MNEM.UNIT           DATA             DESCRIPTION OF MNEMONIC
#---------         -----------     ------------------------------
GL  .M        589.6                : gl           - GROUND LEVEL ELEVATION      
EREF.M        593.2                : kb           - ELEVATION OF DEPTH REFERENCE
DATM.M        589.6                : datum        - DATUM ELEVATION             
TDD .M        480                  : tdd          - TOTAL DEPTH DRILLER         
RUN .         ONE                  : Run          - RUN NUMBER                  
ENG .         EISLER               : Engineer     - RECORDING ENGINEER          
WIT .         TAVATAVAI            : Witness      - WITNESSED BY                
BASE.         LLOYDMINISTER        : Branch       - HOME BASE OF LOGGING UNIT   
MUD .         GEL CHEM             : Mud_type     - MUD TYPE                    
MATR.         SANDSTONE            : Logunit      - NEUTRON MATRIX              
TMAX.C        22                   : BHT          - MAXIMUM RECORDED TEMPERATURE
BHTD.M        479.4                : BHTDEP       - MAXIMUM RECORDED TEMPERATURE
RMT .C        17.2                 : MDTP         - TEMPERATURE OF MUD          
MUDD.KG/M     1110                 : MWT          - MUD DENSITY                 
NEUT.         1                    : NEUTRON      - NEUTRON TYPE                
RESI.         0                    : RESIST       - RESISTIVITY TYPE            
RM  .OHMM     5.2                  : RM           - RESISTIVITY OF MUD          
RMC .OHMM     0                    : RMC          - RESISTIVITY OF MUD CAKE     
RMF .OHMM     5                    : RMF          - RESISTIVITY OF MUD FILTRATE 
SUFT.C        0                    : SUFT         - SURFACE TEMPERATURE         
~A  DEPTH     PHID     PHIN       GR      CAL     RESD
# ...
  346.500    0.257    0.364   90.549  150.546    5.569
  346.750    0.270    0.353   91.627  152.448    5.788
  347.000    0.257    0.359   93.840  154.980    6.131
  347.250    0.238    0.442   98.134  156.568    6.809
  347.500    0.230    0.465  101.671  153.951    7.959
  347.750    0.248    0.451   94.238  155.853    9.268
  348.000    0.267    0.418   84.975  160.067   11.230
  348.250    0.272    0.412   79.812  161.866   13.403
  348.500    0.274    0.426   79.693  161.035   15.257
  348.750    0.276    0.417   83.041  159.891   15.561
  349.000    0.268    0.409   85.758  159.273   14.938
  349.250    0.256    0.441   86.017  158.968   14.176
  349.500    0.259    0.423   85.960  158.663   13.531
  349.750    0.264    0.423   86.976  158.568   12.721
  350.000    0.265    0.435   86.478  158.054   12.397
  350.250    0.265    0.435   86.358  157.120   11.634
  350.500    0.266    0.424   86.176  155.975   10.751
  350.750    0.268    0.392   84.480  154.934    9.496
  351.000    0.270    0.429   82.973  153.578    8.826
  351.250    0.278    0.443   81.971  151.908    8.266
  351.500    0.275    0.420   81.662  150.868    7.786
  351.750    0.237    0.403   82.362  151.194    7.101
  352.000    0.224    0.391   87.161  151.941    6.576
  352.250    0.211    0.402   92.148  153.632    6.300
  352.500    0.193    0.405   96.632  155.745    6.164
  352.750    0.192    0.390   97.899  156.911    6.052
  353.000    0.202    0.379   98.726  156.606    5.955
  353.250    0.207    0.351   99.236  155.987    5.848
  353.500    0.195    0.364  100.062  156.524    5.764
  353.750    0.186    0.366  100.699  157.798    5.703
  354.000    0.190    0.367  101.525  158.962    5.685
  354.250    0.196    0.380  102.288  160.656    5.733
  354.500    0.206    0.367  100.025  161.190    5.814
  354.750    0.219    0.357   92.907  160.781    5.896
  355.000    0.229    0.346   86.986  160.266    5.945
  355.250    0.231    0.338   86.993  159.542    6.041
  355.500    0.230    0.358   89.081  157.978    6.092
  355.750    0.230    0.387   91.483  157.358    6.107
  356.000    0.225    0.396   94.200  157.369    6.055
  356.250    0.201    0.388   97.801  157.379    5.946
  356.500    0.186    0.364  102.726  157.809    5.783
  356.750    0.194    0.331  105.254  158.135    5.437
  357.000    0.190    0.319  106.837  159.304    5.092
  357.250    0.188    0.352  108.609  160.785    4.906
  357.500    0.194    0.372  109.119  164.789    4.882
  357.750    0.202    0.352  108.748  165.326    4.998
  358.000    0.197    0.365  111.024  163.445    5.245
  358.250    0.211    0.374  107.247  161.985    5.587
  358.500    0.237    0.364  101.958  161.469    5.963
  358.750    0.259    0.343   93.830  162.320    6.353
  359.000    0.310    0.417   85.703  163.384    6.553
  359.250    0.362    0.533   77.639  164.549    6.747
  359.500    0.370    0.512   72.538  164.982    6.563
  359.750    0.322    0.416   66.051  165.097    6.421
  360.000    0.222    0.416   65.931  165.318    6.257
  360.250    0.236    0.404   66.947  165.013    6.007
  360.500    0.250    0.391   67.520  164.710    5.766
  360.750    0.263    0.384   65.698  163.984    5.555
  361.000    0.269    0.391   64.318  161.262    5.394
  361.250    0.273    0.381   63.001  155.178    5.297
  361.500    0.280    0.355   61.746  153.194    5.250
  361.750    0.280    0.344   60.806  152.785    5.146
  362.000    0.280    0.366   61.002  152.794    5.101
  362.250    0.285    0.396   60.568  153.122    5.067
  362.500    0.288    0.396   59.249  153.237    5.042
  362.750    0.278    0.380   58.499  153.563    5.018
  363.000    0.257    0.385   58.696  153.888    5.011
  363.250    0.258    0.389   59.837  154.216    4.978
  363.500    0.269    0.401   62.618  154.330    4.981
  363.750    0.277    0.395   65.084  154.133    4.967
  364.000    0.285    0.395   66.224  154.248    4.970
  364.250    0.280    0.406   64.907  154.680    4.974
  364.500    0.270    0.404   63.968  155.006    4.978
  364.750    0.274    0.401   64.353  155.015    4.944
  365.000    0.283    0.394   65.116  154.710    4.901
  365.250    0.293    0.404   66.068  154.511    4.840
  365.500    0.296    0.390   66.705  154.208    4.789
  365.750    0.290    0.385   67.090  154.430    4.766
  366.000    0.288    0.394   67.664  154.756    4.752
  366.250    0.290    0.383   68.112  154.555    4.755
  366.500    0.288    0.371   67.930  153.726    4.767
  366.750    0.290    0.382   67.494  152.686    4.790
  367.000    0.298    0.389   66.870  151.856    4.820
  367.250    0.295    0.364   65.805  151.130    4.861
  367.500    0.286    0.378   64.613  150.827    4.883
  367.750    0.278    0.396   63.109  151.155    4.895
  368.000    0.285    0.392   62.734  151.268    4.899
  368.250    0.301    0.355   63.246  151.594    4.884
  368.500    0.309    0.365   65.396  152.239    4.861
  368.750    0.309    0.383   67.799  152.564    4.845
  369.000    0.303    0.393   69.507  152.889    4.804
  369.250    0.301    0.391   70.902  152.689    4.744
  369.500    0.303    0.390   70.845  152.595    4.694
  369.750    0.306    0.397   68.960  152.606    4.679
  370.000    0.310    0.405   67.768  152.827    4.728
  370.250    0.315    0.400   68.342  153.470    4.794
  370.500    0.314    0.388   70.051  153.901    4.835
  370.750    0.302    0.392   71.192  154.226    4.848
  371.000    0.285    0.400   71.957  154.341    4.860
  371.250    0.282    0.386   71.646  154.669    4.855
  371.500    0.295    0.364   70.707  154.994    4.840
  371.750    0.300    0.350   68.255  155.424    4.825
  372.000    0.300    0.366   68.198  155.646    4.784
  372.250    0.298    0.401   71.862  155.656    4.778
  372.500    0.296    0.422   75.273  154.512    4.754
  372.750    0.295    0.429   75.280  153.577    4.776
  373.000    0.296    0.445   72.891  152.851    4.899
  373.250    0.278    0.472   71.258  152.442    5.063
  373.500    0.249    0.441   69.940  152.452    5.612
  373.750    0.131    0.215   68.622  152.884    6.698
  374.000    0.068    0.174   66.927  156.784    7.920
  374.250    0.052    0.179   64.284  162.784    9.032
  374.500    0.044    0.189   61.706  166.998    9.477
  374.750    0.088    0.215   62.218  167.850    8.401
  375.000    0.138    0.236   63.358  166.494    7.158
  375.250    0.183    0.252   65.950  162.513    6.369
  375.500    0.300    0.303   70.119  158.846    5.754
  375.750    0.334    0.445   73.277  155.808    5.209
  376.000    0.319    0.489   75.553  152.562    4.814
  376.250    0.307    0.470   76.128  151.836    4.612
  376.500    0.298    0.427   75.630  152.373    4.504
  376.750    0.289    0.400   73.744  153.330    4.415
  377.000    0.283    0.404   70.031  153.760    4.376
  377.250    0.279    0.395   64.173  154.509    4.379
  377.500    0.276    0.387   58.568  154.203    4.399
  377.750    0.276    0.392   55.737  153.583    4.411
  378.000    0.279    0.408   53.790  152.650    4.457
  378.250    0.285    0.428   52.661  152.343    4.468
  378.500    0.284    0.418   52.857  151.935    4.480
  378.750    0.278    0.402   54.251  151.632    4.466
  379.000    0.283    0.386   59.743  151.220    4.470
  379.250    0.282    0.376   60.569  151.233    4.465
  379.500    0.277    0.368   59.882  151.242    4.476
  379.750    0.273    0.387   60.267  151.779    4.497
  380.000    0.273    0.418   61.471  152.525    4.517
  380.250    0.271    0.424   61.478  152.642    4.556
  380.500    0.262    0.417   61.294  152.442    4.585
  380.750    0.271    0.384   61.239  152.768    4.623
  381.000    0.269    0.359   61.246  153.619    4.662
  381.250    0.264    0.344   61.188  154.891    4.700
  381.500    0.259    0.345   61.825  155.742    4.758
  381.750    0.260    0.367   63.535  150.920    4.798
  382.000    0.271    0.394   65.054  147.462    4.765
  382.250    0.266    0.380   70.104  146.633    4.823
  382.500    0.253    0.362   78.876  146.433    4.864
  382.750    0.240    0.363   85.880  146.549    4.904
