~VERSION INFORMATION
 VERS.                 2.0:   CWLS LOG ASCII STANDARD -VERSION 2.0
 WRAP.                  NO:   ONE LINE PER DEPTH STEP
~WELL INFORMATION BLOCK
#MNEM.UNIT           DATA                    DESCRIPTION OF MNEMONIC
#---------    -------------------            -------------------------------
# Generated from Intellog Unique Number	CN_94_101/WELL/2602
WELL.         PARAMOUNT RESOURCES LTD.       : Well_name    - WELL
LOC .         00/05-24-094-18W4/0            : Location     - LOCATION
UWI .         00/05-24-094-18W400            : Uwi          - UNIQUE WELL ID
ENTR.         JOETTE                         : Entered      - ENTERED BY
SRVC.         COMPUTALOG                     : Scn          - SERVICE COMPANY
DATE.         06/12/92                       : Date         - LOG DATE
STRT.M        95                             : top_depth    - START DEPTH
STOP.M        275                            : bot_depth    - STOP DEPTH
STEP.M        0.25                           : increment    - STEP LENGTH
 NULL. -999.2500:NULL Value
~CURVE INFORMATION BLOCK
#MNEM UNIT       ERCB CURVE CODE    CURVE DESCRIPTION
#-----------   ------------------   ----------------------------------
DEPT.M        00 001 00 00         : DEPTH        - DEPTH
CALI.MM       00 280 01 00         : CAL          - CALIPER
GR  .API      00 310 00 00         : GR           - GAMMA RAY
NPHI.V/V      00 330 00 00         : PHIN         - NEUTRON POROSITY (SANDSTONE)
DPHI.V/V      00 890 00 00         : PHID         - DENSITY POROSITY (SANDSTONE)
ILD .OHMM     00 120 00 00         : RESD         - DEEP RESISTIVITY (DIL)
~PARAMETER INFORMATION
#MNEM.UNIT           DATA             DESCRIPTION OF MNEMONIC
#---------         -----------     ------------------------------
GL  .M        539.64               : gl           - GROUND LEVEL ELEVATION
EREF.M        543.44               : kb           - ELEVATION OF DEPTH REFERENCE
DATM.M        543.44               : datum        - DATUM ELEVATION
TDD .M        278.1                : tdd          - TOTAL DEPTH DRILLER
RUN .         ONE                  : Run          - RUN NUMBER
ENG .         JO                   : Engineer     - RECORDING ENGINEER
WIT .         TIM                  : Witness      - WITNESSED BY
MUD .         GEL                  : Mud_type     - MUD TYPE
MATR.         SANDSTONE            : Logunit      - NEUTRON MATRIX
TMAX.C        23                   : BHT          - MAXIMUM RECORDED TEMPERATURE
BHTD.M        278.1                : BHTDEP       - MAXIMUM RECORDED TEMPERATURE
RMT .C        20                   : MDTP         - TEMPERATURE OF MUD
MUDD.KG/M     1100                 : MWT          - MUD DENSITY
NEUT.         1                    : NEUTRON      - NEUTRON TYPE
RESI.         0                    : RESIST       - RESISTIVITY TYPE
RM  .OHMM     5.3                  : RM           - RESISTIVITY OF MUD
RMC .OHMM     5.3                  : RMC          - RESISTIVITY OF MUD CAKE
RMF .OHMM     7.5                  : RMF          - RESISTIVITY OF MUD FILTRATE
SUFT.C        4                    : SUFT         - SURFACE TEMPERATURE
~A  DEPTH      CAL       GR     PHIN     PHID     RESD
# ...
  204.500  161.456   87.659    0.353    0.239   10.247
  204.750  157.284   89.508    0.336    0.227   10.642
  205.000  161.394   91.354    0.357    0.217   10.435
  205.250  168.601   88.234    0.337    0.218   10.432
  205.500  169.608   82.627    0.313    0.192   10.426
  205.750  162.346   81.374    0.299    0.165   10.224
  206.000  160.236   83.840    0.295    0.134   10.024
  206.250  160.222   86.927    0.343    0.237   10.021
  206.500  165.353   90.626    0.348    0.243    9.825
  206.750  167.401   89.997    0.360    0.241    9.823
  207.000  170.470   87.498    0.369    0.241    9.631
  207.250  171.491   86.240    0.377    0.246    9.444
  207.500  172.491   89.323    0.379    0.247    8.741
  207.750  172.471   91.789    0.370    0.245    8.409
  208.000  174.505   93.634    0.361    0.242    8.089
  208.250  176.540   94.859    0.360    0.237    7.932
  208.500  178.595   95.463    0.363    0.226    7.929
  208.750  181.670   94.822    0.364    0.222    8.557
  209.000  181.643   91.702    0.359    0.226    9.236
  209.250  178.505   89.199    0.355    0.230    9.593
  209.500  173.313   88.570    0.349    0.234    9.590
  209.750  163.975   91.036    0.347    0.237    9.225
  210.000  160.845  100.950    0.369    0.244    8.538
  210.250  164.955  101.554    0.365    0.244    8.213
  210.500  169.065  103.396    0.377    0.235    8.369
  210.750  175.237   99.659    0.414    0.202    9.033
  211.000  179.348   94.678    0.373    0.166    9.563
  211.250  175.182   84.106    0.325    0.123    9.200
  211.500  168.948   80.990    0.282    0.151    8.353
  211.750  164.776   83.457    0.337    0.204    7.586
  212.000  169.921   95.233    0.368    0.236    6.380
  212.250  172.990  100.181    0.398    0.246    5.365
  212.500  172.976   98.924    0.403    0.256    5.362
  212.750  173.983   92.701    0.379    0.259    5.464
  213.000  172.921   90.201    0.366    0.253    5.156
  213.250  172.894   94.529    0.353    0.252    4.420
  213.500  171.832   98.858    0.367    0.258    3.789
  213.750  171.798  103.186    0.382    0.265    3.441
  214.000  171.770  102.544    0.469    0.270    3.065
  214.250  170.708   99.421    0.476    0.265    3.784
  214.500  170.681   97.546    0.443    0.257    5.553
  214.750  170.660   94.427    0.409    0.247    5.880
  215.000  171.660   91.303    0.380    0.247    8.794
  215.250  173.702   92.532    0.369    0.251    9.137
  215.500  178.839   96.856    0.346    0.256    7.114
  215.750  180.894   99.946    0.349    0.251    6.460
  216.000  181.901  103.033    0.398    0.238    5.981
  216.250  173.592  104.258    0.410    0.225    5.977
  216.500  177.709  101.759    0.418    0.215    6.330
  216.750  182.847   99.260    0.407    0.216    7.099
  217.000  183.854  102.347    0.405    0.222    7.963
  217.250  180.723  104.813    0.406    0.210    9.104
  217.500  174.489   89.901    0.359    0.174   10.016
  217.750  168.255   82.436    0.297    0.117   10.405
  218.000  164.090   82.420    0.261    0.083   10.601
  218.250  166.117   87.985    0.318    0.163   10.597
  218.500  168.172   90.455    0.328    0.220   10.391
  218.750  172.283   91.680    0.327    0.227   10.387
  219.000  175.352   91.043    0.342    0.226   10.381
  219.250  175.324   91.647    0.354    0.223   10.377
  219.500  174.262   93.489    0.355    0.220   10.373
  219.750  173.207   94.718    0.348    0.216   10.369
  220.000  171.104   94.701    0.342    0.215   10.564
  220.250  169.008   92.823    0.334    0.215   10.561
  220.500  166.904   96.526    0.331    0.215   10.555
  220.750  167.918  100.233    0.336    0.215   10.550
  221.000  168.918  100.213    0.338    0.215   10.547
  221.250  169.939   98.330    0.337    0.215   10.541
  221.500  171.974   97.081    0.336    0.215   10.537
  221.750  172.987   98.301    0.343    0.214   10.331
  222.000  172.960  100.147    0.358    0.213   10.526
  222.250  172.926   99.506    0.352    0.208   10.727
  222.500  172.898   98.256    0.345    0.208   11.357
  222.750  171.829   98.240    0.335    0.209   12.736
  223.000  171.809  100.085    0.338    0.198   13.749
  223.250  172.816   99.448    0.331    0.196   14.840
  223.500  166.582   95.087    0.310    0.155   16.326
  223.750  160.341   88.864    0.289    0.119   16.639
  224.000  158.238   84.503    0.286    0.149   17.283
  224.250  158.217   80.762    0.314    0.191   17.275
  224.500  158.197   81.983    0.329    0.196   17.601
  224.750  160.231   83.212    0.344    0.165   17.593
  225.000  162.266   83.816    0.335    0.110   17.587
  225.250  164.321   81.317    0.285    0.043   17.919
  225.500  167.390   80.051    0.264    0.046   16.589
  225.750  167.369   81.897    0.284    0.097   14.221
  226.000  168.369   84.979    0.313    0.129   12.189
  226.250  169.369   85.592    0.328    0.156   11.070
  226.500  170.383   84.950    0.341    0.185   10.053
  226.750  169.328   81.831    0.350    0.255    9.127
  227.000  166.177   79.952    0.354    0.264    8.778
  227.250  165.128   80.556    0.356    0.256    8.776
  227.500  164.067   83.018    0.359    0.257    8.941
  227.750  162.991   84.251    0.359    0.266    8.937
  228.000  162.977   81.128    0.358    0.267    8.934
  228.250  162.943   78.633    0.355    0.261    8.930
  228.500  163.957   80.474    0.352    0.255    8.926
  228.750  163.929   82.940    0.355    0.255    9.094
  229.000  164.929   82.924    0.357    0.251    9.447
  229.250  166.971   85.390    0.347    0.245   10.394
  229.500  167.978   87.860    0.347    0.237   11.220
  229.750  168.985   87.223    0.332    0.228   12.583
  230.000  168.957   80.379    0.297    0.207   14.389
  230.250  171.005   71.053    0.264    0.171   21.524
  230.500  170.978   58.619    0.220    0.107   24.142
  230.750  168.875   56.741    0.212    0.038   28.134
  231.000  167.820   56.724    0.208    0.045   31.559
  231.250  168.827   56.704    0.200    0.038   31.546
  231.500  169.834   57.304    0.189    0.019   27.564
  231.750  171.868   57.916    0.197    0.074   21.060
  232.000  174.937   62.865    0.224    0.125   12.779
  232.250  176.992   70.917    0.284    0.165    8.534
  232.500  179.020   80.831    0.355    0.181    7.602
  232.750  181.068   90.124    0.362    0.193    7.173
  233.000  182.068   94.452    0.366    0.204    7.033
  233.250  182.047   98.156    0.368    0.207    7.305
  233.500  182.027   96.902    0.388    0.204    7.589
  233.750  180.958   93.162    0.404    0.173    8.190
  234.000  179.889   92.524    0.382    0.125    8.347
  234.250  178.827   94.370    0.375    0.099    8.505
  234.500  177.772   98.073    0.386    0.124    8.338
  234.750  175.669   99.302    0.397    0.184    8.177
  235.000  173.580  101.768    0.390    0.198    8.018
  235.250  171.470  101.131    0.393    0.198    7.862
  235.500  171.456   99.249    0.384    0.187    7.858
  235.750  176.587   97.370    0.374    0.187    7.856
  236.000  178.635   94.246    0.387    0.196    8.004
  236.250  180.683   94.859    0.399    0.199    8.156
  236.500  180.656   97.937    0.382    0.206    8.310
  236.750  178.553   99.170    0.375    0.210    8.632
  237.000  174.388  101.632    0.381    0.200    8.796
  237.250  173.333  103.474    0.378    0.189    9.310
  237.500  172.271  102.841    0.328    0.144    9.490
  237.750  170.168   95.997    0.325    0.112    9.668
  238.000  169.106   92.252    0.355    0.138    9.478
  238.250  169.078   94.102    0.383    0.163    9.296
  238.500  170.085   97.809    0.386    0.177    8.942
  238.750  171.092  102.133    0.385    0.182    8.601
  239.000  173.140  103.983    0.390    0.179    8.116
  239.250  178.278  106.449    0.403    0.179    7.513
  239.500  179.278  110.153    0.398    0.177    6.954
  239.750  180.285  109.515    0.387    0.177    6.561
  240.000  180.264  108.258    0.388    0.178    6.313
  240.250  179.203  109.482    0.397    0.177    6.189
  240.500  178.141  108.225    0.394    0.174    6.068
  240.750  178.113  104.488    0.385    0.172    6.067
