~VERSION INFORMATION
 VERS.                 2.0:   CWLS LOG ASCII STANDARD -VERSION 2.0
 WRAP.                  NO:   ONE LINE PER DEPTH STEP
~WELL INFORMATION BLOCK
#MNEM.UNIT           DATA                    DESCRIPTION OF MNEMONIC
#---------    -------------------            -------------------------------
# Generated from Intellog Unique Number	CS_77_79/WELL/866
WELL.         GULF LEISMER                   : Well_name    - WELL
LOC .         00/06-03-079-09W4/0            : Location     - LOCATION
UWI .         00/06-03-079-09W4/0            : Uwi          - UNIQUE WELL ID
ENTR.         JHS                            : Entered      - ENTERED BY
SRVC.         SCHLUMBERGER                   : Scn          - SERVICE COMPANY
STRT.M        182.88                         : top_depth    - START DEPTH
STOP.M        447.88                         : bot_depth    - STOP DEPTH
STEP.M        0.25                           : increment    - STEP LENGTH
 NULL. -999.2500:NULL Value
~CURVE INFORMATION BLOCK
#MNEM UNIT       ERCB CURVE CODE    CURVE DESCRIPTION
#-----------   ------------------   ----------------------------------
DEPT.M        00 001 00 00         : DEPTH        - DEPTH
GR  .API      00 310 00 00         : GR           - GAMMA RAY
DPHI.V/V      00 890 00 00         : PHID         - DENSITY POROSITY (SANDSTONE)
NPHI.V/V      00 330 00 00         : PHIN         - NEUTRON POROSITY (SANDSTONE)
ILD .OHMM     00 120 00 00         : RESD         - DEEP RESISTIVITY (DIL)
~PARAMETER INFORMATION
#MNEM.UNIT           DATA             DESCRIPTION OF MNEMONIC
#---------         -----------     ------------------------------
GL  .M        654.71               : gl           - GROUND LEVEL ELEVATION
EREF.M        658.368              : kb           - ELEVATION OF DEPTH REFERENCE
DATM.M        658.368              : datum        - DATUM ELEVATION
TDD .M        449.275              : tdd          - TOTAL DEPTH DRILLER
RUN .         ONE                  : Run          - RUN NUMBER
ENG .         BILL                 : Engineer     - RECORDING ENGINEER
WIT .         JIM                  : Witness      - WITNESSED BY
MUD .         GEL                  : Mud_type     - MUD TYPE
MATR.         SANDSTONE            : Logunit      - NEUTRON MATRIX
TMAX.C        23.3333              : BHT          - MAXIMUM RECORDED TEMPERATURE
BHTD.M        449.275              : BHTDEP       - MAXIMUM RECORDED TEMPERATURE
MATR.         1                    : LOGUNIT      - NEUTRON MATRIX
RMT .C        25                   : MDTP         - TEMPERATURE OF MUD
NEUT.         1                    : NEUTRON      - NEUTRON TYPE
RESI.         0                    : RESIST       - RESISTIVITY TYPE
RMC .OHMM     0.25                 : RMC          - RESISTIVITY OF MUD CAKE
RMF .OHMM     0.25                 : RMF          - RESISTIVITY OF MUD FILTRATE
SUFT.C        15                   : SUFT         - SURFACE TEMPERATURE
~A  DEPTH       GR     PHID     PHIN     RESD
# ...
  356.880  104.823    0.243    0.414    7.487
  357.130  103.982    0.244    0.401    7.756
  357.380  101.682    0.266    0.394    8.005
  357.630   99.523    0.284    0.406    8.234
  357.880   97.801    0.318    0.391    8.659
  358.130   95.677    0.340    0.380    8.644
  358.380   94.871    0.326    0.386    8.476
  358.630   95.627    0.309    0.403    8.295
  358.880   95.633    0.299    0.415    8.035
  359.130   94.865    0.289    0.427    7.905
  359.380   95.633    0.276    0.439    7.578
  359.630   95.289    0.266    0.457    7.352
  359.880   92.689    0.262    0.469    7.180
  360.130   90.103    0.266    0.469    7.048
  360.380   91.592    0.259    0.466    7.055
  360.630   95.356    0.266    0.452    7.053
  360.880   95.665    0.276    0.443    7.060
  361.130   93.692    0.282    0.461    6.836
  361.380   90.660    0.285    0.470    6.780
  361.630   87.822    0.281    0.461    6.674
  361.880   85.271    0.289    0.453    6.668
  362.130   82.699    0.299    0.450    6.823
  362.380   81.291    0.324    0.407    7.235
  362.630   80.278    0.359    0.379    7.853
  362.880   77.874    0.340    0.383    7.900
  363.130   76.338    0.316    0.427    7.422
  363.380   75.514    0.303    0.475    6.979
  363.630   75.563    0.316    0.471    6.695
  363.880   76.659    0.326    0.466    6.495
  364.130   77.061    0.323    0.475    6.295
  364.380   78.061    0.325    0.485    6.222
  364.630   76.968    0.319    0.484    6.090
  364.880   77.517    0.318    0.481    6.085
  365.130   79.514    0.331    0.479    6.090
  365.380   82.555    0.331    0.472    6.108
  365.630   84.771    0.329    0.474    6.117
  365.880   84.379    0.312    0.477    6.182
  366.130   84.313    0.317    0.458    6.232
  366.380   85.665    0.319    0.457    6.181
  366.630   86.457    0.308    0.469    6.199
  366.880   87.926    0.295    0.472    6.017
  367.130   91.050    0.292    0.473    5.659
  367.380   93.700    0.286    0.478    5.318
  367.630   95.502    0.272    0.478    5.120
  367.880   94.953    0.270    0.457    4.879
  368.130   92.395    0.282    0.453    4.974
  368.380   88.991    0.293    0.450    5.214
  368.630   86.703    0.290    0.449    5.628
  368.880   82.364    0.294    0.464    6.115
  369.130   79.533    0.295    0.466    6.491
  369.380   78.352    0.272    0.463    6.920
  369.630   79.297    0.247    0.452    7.203
  369.880   79.683    0.242    0.438    7.528
  370.130   78.377    0.243    0.428    7.785
  370.380   78.449    0.218    0.387    7.857
  370.630   79.475    0.250    0.412    7.988
  370.880   84.581    0.286    0.433    7.777
  371.130   86.578    0.260    0.442    7.182
  371.380   87.016    0.287    0.462    6.279
  371.630   86.931    0.295    0.464    5.151
  371.880   88.418    0.288    0.471    4.656
  372.130   89.546    0.287    0.463    4.586
  372.380   88.523    0.286    0.462    4.748
  372.630   88.893    0.278    0.457    5.056
  372.880   90.626    0.269    0.465    5.549
  373.130   93.460    0.241    0.474    6.095
  373.380   93.746    0.217    0.467    6.437
  373.630   93.306    0.203    0.474    6.648
  373.880   93.771    0.196    0.487    6.666
  374.130   94.884    0.199    0.494    6.581
  374.380   95.373    0.218    0.496    6.406
  374.630   98.933    0.231    0.499    6.088
  374.880  100.798    0.224    0.509    5.923
  375.130  102.218    0.224    0.486    5.795
  375.380  100.358    0.237    0.480    5.686
  375.630   99.674    0.222    0.487    5.697
  375.880  101.209    0.232    0.489    5.694
  376.130  105.381    0.243    0.465    5.812
  376.380  108.844    0.264    0.454    5.997
  376.630  110.113    0.245    0.443    6.189
  376.880  109.094    0.240    0.433    6.378
  377.130  107.110    0.231    0.433    6.656
  377.380  105.051    0.250    0.443    6.629
  377.630  102.557    0.278    0.457    6.423
  377.880   99.281    0.302    0.465    6.187
  378.130   96.663    0.328    0.467    5.811
  378.380   93.947    0.360    0.479    5.379
  378.630   93.015    0.400    0.539    4.913
  378.880   92.032    0.439    0.584    4.262
  379.130   88.913    0.434    0.573    3.714
  379.380   86.479    0.446    0.578    3.086
  379.630   83.653    0.500    0.603    2.650
  379.880   80.960    0.524    0.613    2.385
  380.130   79.974    0.506    0.614    2.269
  380.380   79.429    0.465    0.587    2.125
  380.630   79.334    0.452    0.569    2.103
  380.880   80.012    0.448    0.565    2.086
  381.130   80.988    0.481    0.570    2.087
  381.380   82.082    0.509    0.607    2.104
  381.630   83.871    0.474    0.618    2.176
  381.880   86.955    0.417    0.608    2.274
  382.130   90.559    0.356    0.572    2.525
  382.380   92.811    0.320    0.549    2.876
  382.630   93.463    0.321    0.537    3.327
  382.880   92.336    0.322    0.539    3.890
  383.130   89.846    0.279    0.510    4.392
  383.380   89.230    0.248    0.505    4.919
  383.630   88.629    0.218    0.495    5.392
  383.880   89.639    0.201    0.458    5.812
  384.130   93.826    0.202    0.419    6.088
  384.380   97.282    0.225    0.420    6.070
  384.630   96.806    0.251    0.469    5.812
  384.880   95.870    0.267    0.486    5.093
  385.130   95.896    0.295    0.501    4.509
  385.380   94.887    0.335    0.522    4.086
  385.630   93.957    0.339    0.535    3.852
  385.880   95.894    0.351    0.525    3.698
  386.130   97.927    0.376    0.524    3.542
  386.380   97.005    0.378    0.532    3.495
  386.630   96.024    0.388    0.544    3.381
  386.880   95.122    0.389    0.535    3.383
  387.130   93.528    0.363    0.544    3.392
  387.380   94.679    0.316    0.547    3.498
  387.630   95.697    0.298    0.536    3.706
  387.880   95.951    0.301    0.524    4.027
  388.130   94.996    0.277    0.515    4.282
  388.380   93.240    0.300    0.517    4.407
  388.630   92.979    0.282    0.518    4.406
  388.880   93.772    0.290    0.503    4.379
  389.130   94.909    0.271    0.494    4.565
  389.380   93.688    0.267    0.498    4.931
  389.630   91.919    0.260    0.493    5.235
  389.880   92.613    0.247    0.480    5.711
  390.130   92.530    0.226    0.469    6.153
  390.380   89.718    0.242    0.477    6.764
  390.630   85.239    0.269    0.496    7.095
  390.880   78.642    0.236    0.424    7.818
  391.130   73.289    0.242    0.343    8.785
  391.380   74.992    0.227    0.338    9.734
  391.630   79.630    0.266    0.349   10.760
  391.880   80.099    0.268    0.361   11.431
  392.130   79.125    0.267    0.368   11.925
  392.380   77.425    0.267    0.363   11.807
  392.630   75.383    0.263    0.367   11.444
  392.880   76.046    0.269    0.377   11.304
  393.130   77.153    0.266    0.385   11.280
  393.380   76.592    0.268    0.385   11.850
  393.630   75.599    0.270    0.377   13.478
  393.880   75.801    0.269    0.388   16.218
  394.130   76.891    0.279    0.404   24.286
  394.380   80.276    0.303    0.409   28.362
  394.630   85.825    0.314    0.417   26.802
  394.880   92.077    0.314    0.433   19.346
  395.130   96.629    0.286    0.450   13.909
  395.380   93.580    0.247    0.456   11.690
  395.630   89.079    0.253    0.398   10.998
  395.880   85.811    0.253    0.384   10.881
  396.130   83.269    0.268    0.377   11.234
  396.380   81.802    0.288    0.376   12.030
  396.630   80.415    0.264    0.384   12.078
  396.880   79.878    0.254    0.402   12.098
  397.130   77.367    0.264    0.398   12.292
  397.380   73.081    0.266    0.378   12.736
  397.630   69.458    0.252    0.366   12.320
  397.880   67.732    0.254    0.366   11.592
  398.130   67.742    0.262    0.380   11.197
  398.380   61.084    0.268    0.387   11.291
  398.630   63.222    0.280    0.385   12.470
  398.880   68.983    0.286    0.394   14.790
  399.130   69.064    0.293    0.399   17.243
  399.380   68.210    0.294    0.411   18.809
  399.630   70.598    0.287    0.389   19.019
  399.880   73.728    0.268    0.388   18.170
  400.130   71.126    0.266    0.409   16.351
