~VERSION INFORMATION
 VERS.                 2.0:   CWLS LOG ASCII STANDARD -VERSION 2.0
 WRAP.                  NO:   ONE LINE PER DEPTH STEP
~WELL INFORMATION BLOCK
#MNEM.UNIT           DATA                    DESCRIPTION OF MNEMONIC
#---------    -------------------            -------------------------------
# Generated from Intellog Unique Number	CW_70_72/WELL/901
NULL.         -999.25                        : NULL_VALUE
WELL.         HOME ALMX MITSUE 07-15         : Well_name    - WELL              
LOC .         07-15-071-04W5                 : Location     - LOCATION          
UWI .         00/07-15-071-04W5/0            : Uwi          - UNIQUE WELL ID    
ENTR.         JAYE                           : Entered      - ENTERED BY        
SRVC.         SCHLUMBERGER                   : Scn          - SERVICE COMPANY   
DATE.         4 MAR 74                       : Date         - LOG DATE          
STRT.M        502.92                         : top_depth    - START DEPTH       
STOP.M        716.17                         : bot_depth    - STOP DEPTH        
STEP.M        0.25                           : increment    - STEP LENGTH       
~CURVE INFORMATION BLOCK
#MNEM UNIT       ERCB CURVE CODE    CURVE DESCRIPTION
#-----------   ------------------   ----------------------------------
DEPT.M        00 001 00 00         : DEPTH        - DEPTH                       
DPHI.V/V      00 890 00 00         : PHID         - DENSITY POROSITY (SANDSTONE)
NPHI.V/V      00 330 00 00         : PHIN         - NEUTRON POROSITY (SANDSTONE)
GR  .API      00 310 00 00         : GR           - GAMMA RAY                   
CALI.MM       00 280 01 00         : CAL          - CALIPER                     
ILD .OHMM     00 120 00 00         : RESD         - DEEP RESISTIVITY (DIL)      
~PARAMETER INFORMATION       
#MNEM.UNIT           DATA             DESCRIPTION OF MNEMONIC
#---------         -----------     ------------------------------
GL  .M        667.36               : gl           - GROUND LEVEL ELEVATION      
EREF.M        671.474              : kb           - ELEVATION OF DEPTH REFERENCE
DATM.M        667.36               : datum        - DATUM ELEVATION             
TDD .M        759.866              : tdd          - TOTAL DEPTH DRILLER         
RUN .         ONE                  : Run          - RUN NUMBER                  
ENG .         SIROIS               : Engineer     - RECORDING ENGINEER          
WIT .         HOLAN                : Witness      - WITNESSED BY                
BASE.         EDM                  : Branch       - HOME BASE OF LOGGING UNIT   
MUD .         GEL CHEM             : Mud_type     - MUD TYPE                    
MATR.         SANDSTONE            : Logunit      - NEUTRON MATRIX              
TMAX.C        28.3333              : BHT          - MAXIMUM RECORDED TEMPERATURE
BHTD.M        758.952              : BHTDEP       - MAXIMUM RECORDED TEMPERATURE
RMT .C        13.8889              : MDTP         - TEMPERATURE OF MUD          
MUDD.KG/M     1080                 : MWT          - MUD DENSITY                 
NEUT.         1                    : NEUTRON      - NEUTRON TYPE                
RESI.         0                    : RESIST       - RESISTIVITY TYPE            
RM  .OHMM     6.28                 : RM           - RESISTIVITY OF MUD          
RMC .OHMM     3.8                  : RMC          - RESISTIVITY OF MUD CAKE     
RMF .OHMM     7.5                  : RMF          - RESISTIVITY OF MUD FILTRATE 
SUFT.C        -17.7778             : SUFT         - SURFACE TEMPERATURE         
~A  DEPTH     PHID     PHIN       GR      CAL     RESD
# ...
  648.920    0.277    0.427   59.905  164.137    1.651
  649.170    0.291    0.411   55.627  164.245    1.602
  649.420    0.278    0.412   57.526  164.042    1.575
  649.670    0.275    0.420   59.179  163.633    1.545
  649.920    0.280    0.432   59.548  163.429    1.544
  650.170    0.274    0.437   58.145  163.433    1.560
  650.420    0.286    0.418   56.313  163.335    1.579
  650.670    0.273    0.419   54.786  163.339    1.606
  650.920    0.273    0.423   57.296  162.826    1.647
  651.170    0.269    0.393   59.867  162.312    1.679
  651.420    0.273    0.388   58.769  162.316    1.709
  651.670    0.267    0.381   57.916  160.871    1.701
  651.920    0.277    0.377   58.163  160.462    1.621
  652.170    0.279    0.390   58.593  160.673    1.465
  652.420    0.266    0.402   59.146  160.470    1.365
  652.670    0.266    0.415   59.149  160.371    1.282
  652.920    0.284    0.409   58.846  160.272    1.230
  653.170    0.259    0.412   58.482  160.380    1.245
  653.420    0.261    0.426   58.178  160.592    1.286
  653.670    0.268    0.415   57.692  160.803    1.333
  653.920    0.271    0.397   58.000  160.808    1.404
  654.170    0.260    0.383   58.614  160.812    1.480
  654.420    0.273    0.395   59.595  160.712    1.537
  654.670    0.288    0.412   61.065  160.821    1.599
  654.920    0.274    0.425   62.597  161.032    1.641
  655.170    0.268    0.438   62.232  161.243    1.658
  655.420    0.262    0.449   61.562  161.248    1.633
  655.670    0.252    0.457   60.892  161.046    1.605
  655.920    0.269    0.468   60.100  161.049    1.561
  656.170    0.247    0.448   60.102  161.158    1.501
  656.420    0.254    0.413   61.633  160.954    1.467
  656.670    0.256    0.394   62.126  160.959    1.429
  656.920    0.248    0.393   61.639  160.861    1.399
  657.170    0.248    0.412   61.274  160.864    1.383
  657.420    0.261    0.415   61.277  160.765    1.377
  657.670    0.272    0.398   60.729  160.666    1.384
  657.920    0.268    0.394   59.876  160.669    1.385
  658.170    0.281    0.400   58.900  160.467    1.389
  658.420    0.264    0.414   57.924  160.369    1.398
  658.670    0.253    0.419   57.132  160.475    1.418
  658.920    0.257    0.415   56.156  160.480    1.437
  659.170    0.255    0.399   55.608  160.588    1.452
  659.420    0.243    0.393   55.611  160.282    1.456
  659.670    0.247    0.399   55.858  160.183    1.460
  659.920    0.260    0.390   56.105  160.188    1.457
  660.170    0.256    0.396   56.658  160.295    1.463
  660.420    0.260    0.420   57.700  160.404    1.500
  660.670    0.264    0.441   59.598  160.200    1.561
  660.920    0.270    0.458   61.802  160.413    1.618
  661.170    0.275    0.445   61.744  160.728    1.658
  661.420    0.272    0.429   61.685  160.835    1.681
  661.670    0.262    0.412   61.565  160.942    1.689
  661.920    0.238    0.423   61.140  161.051    1.661
  662.170    0.219    0.446   61.081  161.158    1.614
  662.420    0.227    0.448   61.329  161.370    1.555
  662.670    0.243    0.424   61.698  161.375    1.506
  662.920    0.254    0.409   62.557  161.586    1.451
  663.170    0.272    0.394   63.293  161.591    1.493
  663.420    0.280    0.400   64.152  161.699    1.573
  663.670    0.260    0.403   63.971  161.911    1.639
  663.920    0.238    0.392   63.790  161.913    1.731
  664.170    0.234    0.397   63.426  161.919    1.774
  664.420    0.247    0.435   63.795  162.026    1.802
  664.670    0.265    0.457   65.326  162.134    1.821
  664.920    0.258    0.458   65.084  162.346    1.826
  665.170    0.242    0.449   63.314  162.454    1.815
  665.420    0.230    0.433   63.133  162.354    1.794
  665.670    0.247    0.417   64.664  162.463    1.747
  665.920    0.254    0.386   64.911  162.570    1.698
  666.170    0.247    0.368   63.569  162.576    1.612
  666.420    0.239    0.390   61.981  162.684    1.545
  666.670    0.273    0.409   61.189  162.791    1.458
  666.920    0.269    0.410   61.436  162.898    1.395
  667.170    0.250    0.456   62.234  163.109    1.351
  667.420    0.248    0.415   61.992  163.115    1.403
  667.670    0.251    0.397   61.260  163.015    1.503
  667.920    0.257    0.385   61.141  162.915    1.673
  668.170    0.261    0.399   62.122  162.921    1.831
  668.420    0.266    0.404   64.937  162.925    2.068
  668.670    0.247    0.400   66.897  163.033    2.397
  668.920    0.207    0.390   66.960  162.933    2.620
  669.170    0.160    0.376   63.599  162.731    2.337
  669.420    0.128    0.342   56.876  162.734    2.028
  669.670    0.148    0.364   57.979  162.947    1.803
  669.920    0.208    0.440   62.079  163.054    1.638
  670.170    0.248    0.433   63.793  163.162    1.598
  670.420    0.291    0.411   63.919  163.270    1.600
  670.670    0.284    0.396   63.921  163.378    1.625
  670.920    0.273    0.379   64.046  158.930    1.688
  671.170    0.272    0.387   64.599  157.277    1.746
  671.420    0.258    0.404   65.274  156.660    1.810
  671.670    0.222    0.401   65.705  159.979    1.873
  671.920    0.239    0.414   65.890  163.710    1.927
  672.170    0.246    0.426   66.260  166.199    1.993
  672.420    0.239    0.437   67.364  166.515    2.051
  672.670    0.221    0.444   68.589  166.208    2.106
  672.920    0.224    0.443   71.771  165.696    2.160
  673.170    0.234    0.452   73.914  165.596    2.181
  673.420    0.229    0.447   74.712  165.496    2.216
  673.670    0.237    0.432   74.347  165.501    2.268
  673.920    0.259    0.447   70.375  165.610    2.325
  674.170    0.265    0.472   67.014  165.717    2.379
  674.420    0.248    0.466   67.078  166.033    2.443
  674.670    0.228    0.460   68.915  166.244    2.527
  674.920    0.211    0.427   72.036  166.351    2.605
  675.170    0.192    0.405   74.302  166.356    2.676
  675.420    0.184    0.421   74.121  166.153    2.793
  675.670    0.201    0.425   70.638  166.055    2.970
  675.920    0.195    0.384   70.396  166.059    3.194
  676.170    0.173    0.378   70.643  166.063    3.396
  676.420    0.148    0.385   70.034  165.964    3.565
  676.670    0.146    0.368   68.936  166.071    3.750
  676.920    0.138    0.353   67.471  166.283    3.865
  677.170    0.131    0.356   66.801  166.183    3.976
  677.420    0.127    0.362   68.088  166.292    4.077
  677.670    0.126    0.370   69.313  166.297    4.171
  677.920    0.136    0.353   70.111  166.197    4.316
  678.170    0.146    0.345   71.703  166.201    4.441
  678.420    0.124    0.348   74.641  166.516    4.478
  678.670    0.117    0.339   79.658  168.073    4.409
  678.920    0.131    0.340   84.858  169.631    4.044
  679.170    0.130    0.357   90.670  170.568    3.852
  679.420    0.113    0.385   96.665  170.365    3.711
  679.670    0.142    0.368   96.240  170.783    3.702
  679.920    0.149    0.393   96.915  179.485    3.788
  680.170    0.106    0.401   99.058  190.362    3.969
  680.420    0.155    0.368  100.100  181.461    4.338
  680.670    0.102    0.340  100.408  173.803    4.811
  680.920    0.074    0.322  101.267  169.977    5.307
  681.170    0.070    0.329   97.356  167.911    5.789
  681.420    0.083    0.338   92.772  166.674    6.100
  681.670    0.059    0.336   88.861  166.055    6.029
  681.920    0.045    0.322   87.335  165.129    5.702
  682.170    0.047    0.335   90.395  164.925    5.171
  682.420    0.071    0.359   92.966  164.826    4.759
  682.670    0.089    0.367   91.012  164.831    4.396
  682.920    0.104    0.344   87.345  165.145    4.265
  683.170    0.109    0.341   85.208  165.356    4.224
  683.420    0.120    0.364   83.621  165.776    4.306
  683.670    0.148    0.382   79.098  165.884    4.488
  683.920    0.148    0.366   79.712  166.095    4.643
  684.170    0.139    0.355   83.200  166.203    4.856
  684.420    0.128    0.344   86.443  166.207    5.145
  684.670    0.106    0.339   89.931  166.419    5.295
  684.920    0.101    0.340   93.053  166.733    5.349
  685.170    0.095    0.349   93.912  166.945    5.394
