~VERSION INFORMATION
 VERS.                 2.0:   CWLS LOG ASCII STANDARD -VERSION 2.0
 WRAP.                  NO:   ONE LINE PER DEPTH STEP
~WELL INFORMATION BLOCK
#MNEM.UNIT           DATA                    DESCRIPTION OF MNEMONIC
#---------    -------------------            -------------------------------
# Generated from Intellog Unique Number	CS_77_79/WELL/914
WELL.         PCI PCEJ CHARD                 : Well_name    - WELL
LOC .         00/07-32-079-06W4/0            : Location     - LOCATION
UWI .         00/07-32-079-06W4/0            : Uwi          - UNIQUE WELL ID
ENTR.         JHS                            : Entered      - ENTERED BY
SRVC.         SCHLUMBERGER                   : Scn          - SERVICE COMPANY
STRT.M        120                            : top_depth    - START DEPTH
STOP.M        360                            : bot_depth    - STOP DEPTH
STEP.M        0.25                           : increment    - STEP LENGTH
 NULL. -999.2500:NULL Value
~CURVE INFORMATION BLOCK
#MNEM UNIT       ERCB CURVE CODE    CURVE DESCRIPTION
#-----------   ------------------   ----------------------------------
DEPT.M        00 001 00 00         : DEPTH        - DEPTH
DPHI.V/V      00 890 00 00         : PHID         - DENSITY POROSITY (LIMESTONE)
NPHI.V/V      00 330 00 00         : PHIN         - NEUTRON POROSITY (LIMESTONE)
GR  .API      00 310 00 00         : GR           - GAMMA RAY
ILD .OHMM     00 120 00 00         : RESD         - DEEP RESISTIVITY (DIL)
RHOB.KG/M3    00 350 00 00         : DENS         - BULK DENSITY
~PARAMETER INFORMATION
#MNEM.UNIT           DATA             DESCRIPTION OF MNEMONIC
#---------         -----------     ------------------------------
GL  .M        547.4                : gl           - GROUND LEVEL ELEVATION
EREF.M        550.5                : kb           - ELEVATION OF DEPTH REFERENCE
DATM.M        550.5                : datum        - DATUM ELEVATION
TDD .M        365                  : tdd          - TOTAL DEPTH DRILLER
RUN .         ONE                  : Run          - RUN NUMBER
ENG .         BILL                 : Engineer     - RECORDING ENGINEER
WIT .         JIM                  : Witness      - WITNESSED BY
MUD .         GEL                  : Mud_type     - MUD TYPE
MATR.         LIMESTONE            : Logunit      - NEUTRON MATRIX
TMAX.C        20                   : BHT          - MAXIMUM RECORDED TEMPERATURE
BHTD.M        365                  : BHTDEP       - MAXIMUM RECORDED TEMPERATURE
MATR.         1                    : LOGUNIT      - NEUTRON MATRIX
RMT .C        25                   : MDTP         - TEMPERATURE OF MUD
NEUT.         1                    : NEUTRON      - NEUTRON TYPE
RESI.         0                    : RESIST       - RESISTIVITY TYPE
RMC .OHMM     0.25                 : RMC          - RESISTIVITY OF MUD CAKE
RMF .OHMM     0.25                 : RMF          - RESISTIVITY OF MUD FILTRATE
SUFT.C        15                   : SUFT         - SURFACE TEMPERATURE
~A  DEPTH     PHID     PHIN       GR     RESD     DENS
# ...
  229.500    0.296    0.469   64.663   10.072    0.000
  229.750    0.287    0.469   61.055   10.084    0.000
  230.000    0.284    0.455   64.730   10.093    0.000
  230.250    0.278    0.442   69.007   10.099    0.000
  230.500    0.278    0.442   72.075   10.107    0.000
  230.750    0.275    0.460   72.113    9.927    0.000
  231.000    0.268    0.457   72.136    9.752    0.000
  231.250    0.268    0.454   72.169    9.580    0.000
  231.500    0.267    0.485   72.198    9.410    0.000
  231.750    0.259    0.467   70.407    9.071    0.000
  232.000    0.260    0.446   70.441    8.745    0.000
  232.250    0.272    0.429   74.113    8.751    0.000
  232.500    0.265    0.465   77.793    8.596    0.000
  232.750    0.266    0.456   78.428    8.605    0.000
  233.000    0.272    0.442   77.252    8.452    0.000
  233.250    0.269    0.446   76.060    8.457    0.000
  233.500    0.277    0.453   77.306    8.002    0.000
  233.750    0.288    0.450   83.416    7.570    0.000
  234.000    0.287    0.452   84.664    6.770    0.000
  234.250    0.271    0.471   82.258    6.168    0.000
  234.500    0.263    0.504   82.903    5.620    0.000
  234.750    0.264    0.521   86.577    4.841    0.000
  235.000    0.273    0.577   90.248    4.249    0.000
  235.250    0.283    0.614   93.927    3.799    0.000
  235.500    0.290    0.588   92.134    3.462    0.000
  235.750    0.287    0.575   89.126    3.214    0.000
  236.000    0.278    0.554   92.801    3.217    0.000
  236.250    0.273    0.527   98.300    3.343    0.000
  236.500    0.274    0.534   97.118    3.539    0.000
  236.750    0.282    0.582   90.465    4.195    0.000
  237.000    0.308    0.568   86.254    4.971    0.000
  237.250    0.326    0.508   84.460    6.002    0.000
  237.500    0.333    0.467   75.377    6.724    0.000
  237.750    0.322    0.457   69.945    6.857    0.000
  238.000    0.309    0.471   74.834    6.133    0.000
  238.250    0.295    0.543   79.115    5.801    0.000
  238.500    0.279    0.524   80.359    5.386    0.000
  238.750    0.266    0.508   82.224    5.096    0.000
  239.000    0.265    0.516   82.857    5.295    0.000
  239.250    0.277    0.499   82.887    6.516    0.000
  239.500    0.282    0.489   79.879    7.028    0.000
  239.750    0.256    0.483   84.768    7.443    0.000
  240.000    0.245    0.488   87.835    7.311    0.000
  240.250    0.258    0.505   86.651    7.049    0.000
  240.500    0.245    0.512   84.865    6.922    0.000
  240.750    0.235    0.495   85.498    6.550    0.000
  241.000    0.251    0.485   88.567    6.434    0.000
  241.250    0.259    0.488   91.636    6.318    0.000
  241.500    0.246    0.512   90.456    5.868    0.000
  241.750    0.253    0.521   89.883    5.655    0.000
  242.000    0.270    0.519   89.911    5.251    0.000
  242.250    0.286    0.512   89.328    4.608    0.000
  242.500    0.297    0.529   94.220    4.044    0.000
  242.750    0.313    0.572   99.724    3.483    0.000
  243.000    0.319    0.602  100.361    2.783    0.000
  243.250    0.317    0.595   98.564    2.536    0.000
  243.500    0.311    0.584   96.165    2.355    0.000
  243.750    0.309    0.608   89.516    2.357    0.000
  244.000    0.306    0.595   82.868    2.404    0.000
  244.250    0.293    0.574   82.294    2.498    0.000
  244.500    0.283    0.566   85.974    2.695    0.000
  244.750    0.288    0.559   88.425    2.907    0.000
  245.000    0.294    0.550   90.279    3.196    0.000
  245.250    0.278    0.514   86.667    3.513    0.000
  245.500    0.263    0.507   82.445    4.086    0.000
  245.750    0.276    0.500   81.870    4.577    0.000
  246.000    0.292    0.480   80.092    4.939    0.000
  246.250    0.288    0.473   78.294    5.132    0.000
  246.500    0.293    0.447   75.891    5.136    0.000
  246.750    0.309    0.413   71.673    5.337    0.000
  247.000    0.340    0.387   66.238    5.758    0.000
  247.250    0.346    0.390   68.697    6.330    0.000
  247.500    0.286    0.352   67.514    7.363    0.000
  247.750    0.226    0.313   55.397    8.247    0.000
  248.000    0.082    0.253   47.532    9.772    0.000
  248.250    0.075    0.259   59.710   11.581    0.000
  248.500    0.254    0.438   72.498   11.379    0.000
  248.750    0.299    0.458   78.000   10.368    0.000
  249.000    0.279    0.485   79.243    9.623    0.000
  249.250    0.277    0.499   76.850    8.289    0.000
  249.500    0.294    0.480   72.018    7.553    0.000
  249.750    0.292    0.455   70.222    7.145    0.000
  250.000    0.289    0.445   73.292    7.151    0.000
  250.250    0.294    0.485   73.331    7.158    0.000
  250.500    0.303    0.477   72.746    7.300    0.000
  250.750    0.307    0.471   75.208    7.444    0.000
  251.000    0.309    0.473   75.846    7.452    0.000
  251.250    0.308    0.485   74.665    7.458    0.000
  251.500    0.301    0.464   78.334    7.465    0.000
  251.750    0.291    0.442   81.403    7.470    0.000
  252.000    0.287    0.435   81.438    7.478    0.000
  252.250    0.294    0.442   80.861    7.483    0.000
  252.500    0.276    0.464   82.110    7.351    0.000
  252.750    0.270    0.468   84.563    7.357    0.000
  253.000    0.286    0.469   88.853    7.227    0.000
  253.250    0.295    0.483   89.490    7.234    0.000
  253.500    0.296    0.492   86.496    7.106    0.000
  253.750    0.294    0.493   85.905    7.110    0.000
  254.000    0.284    0.488   85.332    6.984    0.000
  254.250    0.273    0.473   86.582    6.734    0.000
  254.500    0.266    0.472   89.641    6.491    0.000
  254.750    0.256    0.481   92.108    6.257    0.000
  255.000    0.258    0.489   91.533    6.145    0.000
  255.250    0.264    0.481   89.737    6.267    0.000
  255.500    0.269    0.445   85.516    6.391    0.000
  255.750    0.267    0.449   76.439    6.642    0.000
  256.000    0.269    0.463   77.080    6.772    0.000
  256.250    0.297    0.488   78.325    6.909    0.000
  256.500    0.315    0.485   74.099    6.915    0.000
  256.750    0.314    0.459   74.135    6.792    0.000
  257.000    0.280    0.450   80.235    6.548    0.000
  257.250    0.275    0.468   82.699    6.312    0.000
  257.500    0.275    0.479   76.656    5.971    0.000
  257.750    0.267    0.495   85.191    5.648    0.000
  258.000    0.270    0.518   90.076    5.343    0.000
  258.250    0.282    0.546   90.722    4.961    0.000
  258.500    0.284    0.530   85.898    4.873    0.000
  258.750    0.272    0.509   85.311    4.697    0.000
  259.000    0.260    0.522   88.388    4.615    0.000
  259.250    0.256    0.535   88.417    4.617    0.000
  259.500    0.268    0.528   87.841    4.622    0.000
  259.750    0.279    0.534   89.082    4.541    0.000
  260.000    0.278    0.565   88.504    4.376    0.000
  260.250    0.287    0.534   85.505    4.380    0.000
  260.500    0.311    0.490   78.851    4.552 2178.930
  260.750    0.317    0.478   70.377    5.004 2168.580
  261.000    0.301    0.460   64.335    5.712 2195.850
  261.250    0.298    0.451   66.189    6.161 2200.130
  261.500    0.294    0.468   69.870    6.647 2206.520
  261.750    0.280    0.450   71.719    6.655 2231.720
  262.000    0.267    0.445   77.218    6.295 2252.690
  262.250    0.270    0.513   82.106    5.125 2248.620
  262.500    0.291    0.537   85.781    4.497 2213.220
  262.750    0.297    0.495   83.995    4.255 2202.890
  263.000    0.284    0.472   79.772    4.179 2223.890
  263.250    0.259    0.469   83.448    4.343 2267.860
  263.500    0.248    0.482   84.695    5.051 2286.770
  263.750    0.244    0.492   79.863    5.874 2293.150
  264.000    0.170    0.334   65.924    7.094 2418.630
  264.250    0.136    0.250   55.025    7.945 2477.240
  264.500    0.146    0.269   58.702    8.573 2460.630
  264.750    0.258    0.417   67.234    8.581 2268.500
  265.000    0.316    0.451   69.097    8.119 2170.410
  265.250    0.318    0.455   68.512    7.682 2166.330
  265.500    0.301    0.452   67.326    7.131 2195.700
  265.750    0.273    0.455   67.963    6.621 2243.870
