~VERSION INFORMATION
 VERS.                 2.0:   CWLS LOG ASCII STANDARD -VERSION 2.0
 WRAP.                  NO:   ONE LINE PER DEPTH STEP
~WELL INFORMATION BLOCK
#MNEM.UNIT           DATA                    DESCRIPTION OF MNEMONIC
#---------    -------------------            -------------------------------
# Generated from Intellog Unique Number	CS_77_79/WELL/898
WELL.         TRANS-PRAIRIE PIPELINES        : Well_name    - WELL
LOC .         00/07-15-077-12W4/0            : Location     - LOCATION
UWI .         00/07-15-077-12W4/0            : Uwi          - UNIQUE WELL ID
ENTR.         SP                             : Entered      - ENTERED BY
SRVC.         SCHLUMBERGER                   : Scn          - SERVICE COMPANY
STRT.M        242.621                        : top_depth    - START DEPTH
STOP.M        467.871                        : bot_depth    - STOP DEPTH
STEP.M        0.25                           : increment    - STEP LENGTH
 NULL. -999.2500:NULL Value
~CURVE INFORMATION BLOCK
#MNEM UNIT       ERCB CURVE CODE    CURVE DESCRIPTION
#-----------   ------------------   ----------------------------------
DEPT.M        00 001 00 00         : DEPTH        - DEPTH
GR  .API      00 310 00 00         : GR           - GAMMA RAY
DPHI.V/V      00 890 00 00         : PHID         - DENSITY POROSITY (SANDSTONE)
NPHI.V/V      00 330 00 00         : PHIN         - NEUTRON POROSITY (SANDSTONE)
ILD .OHMM     00 120 00 00         : RESD         - DEEP RESISTIVITY (DIL)
~PARAMETER INFORMATION
#MNEM.UNIT           DATA             DESCRIPTION OF MNEMONIC
#---------         -----------     ------------------------------
GL  .M        635.66               : gl           - GROUND LEVEL ELEVATION
EREF.M        639.166              : kb           - ELEVATION OF DEPTH REFERENCE
DATM.M        635.66               : datum        - DATUM ELEVATION
TDD .M        472.44               : tdd          - TOTAL DEPTH DRILLER
RUN .         ONE                  : Run          - RUN NUMBER
ENG .         BILL                 : Engineer     - RECORDING ENGINEER
WIT .         JIM                  : Witness      - WITNESSED BY
MUD .         GEL                  : Mud_type     - MUD TYPE
MATR.         SANDSTONE            : Logunit      - NEUTRON MATRIX
TMAX.C        21.1111              : BHT          - MAXIMUM RECORDED TEMPERATURE
BHTD.M        472.44               : BHTDEP       - MAXIMUM RECORDED TEMPERATURE
MATR.         1                    : LOGUNIT      - NEUTRON MATRIX
RMT .C        25                   : MDTP         - TEMPERATURE OF MUD
NEUT.         1                    : NEUTRON      - NEUTRON TYPE
RESI.         0                    : RESIST       - RESISTIVITY TYPE
RMC .OHMM     0.25                 : RMC          - RESISTIVITY OF MUD CAKE
RMF .OHMM     0.25                 : RMF          - RESISTIVITY OF MUD FILTRATE
SUFT.C        15                   : SUFT         - SURFACE TEMPERATURE
~A  DEPTH       GR     PHID     PHIN     RESD
# ...
  373.121   56.727    0.159    0.472    9.023
  373.371   53.204    0.017    0.316   10.185
  373.621   50.213    0.001    0.180   11.112
  373.871   47.418    0.018    0.157   10.762
  374.121   44.891    0.075    0.208    9.781
  374.371   43.208    0.149    0.257    8.970
  374.621   46.151    0.217    0.312    8.175
  374.871   48.975    0.298    0.388    7.191
  375.121   52.958    0.325    0.468    6.595
  375.371   57.896    0.325    0.515    5.906
  375.621   60.401    0.316    0.531    5.646
  375.871   60.965    0.314    0.526    5.381
  376.121   58.401    0.325    0.507    5.399
  376.371   57.420    0.334    0.491    5.391
  376.621   56.486    0.332    0.505    5.529
  376.871   57.079    0.325    0.509    5.588
  377.121   58.411    0.331    0.505    5.875
  377.371   58.960    0.337    0.471    6.048
  377.621   59.622    0.331    0.474    6.517
  377.871   57.956    0.312    0.464    7.369
  378.121   57.031    0.234    0.423    8.750
  378.371   56.620    0.119    0.376   10.236
  378.621   54.248    0.039    0.278   12.662
  378.871   51.084    0.044    0.162   13.226
  379.121   49.109    0.069    0.211   12.149
  379.371   48.145    0.102    0.295   10.397
  379.621   49.741    0.169    0.377    9.064
  379.871   52.689    0.331    0.445    7.802
  380.121   54.744    0.328    0.547    6.738
  380.371   56.238    0.337    0.524    6.174
  380.621   55.753    0.332    0.523    5.624
  380.871   55.086    0.327    0.524    5.369
  381.121   53.975    0.343    0.517    5.278
  381.371   53.348    0.330    0.504    5.281
  381.621   52.746    0.326    0.522    5.281
  381.871   53.007    0.338    0.525    5.277
  382.121   56.718    0.341    0.513    5.250
  382.371   60.493    0.332    0.507    5.182
  382.621   58.483    0.346    0.525    5.241
  382.871   57.453    0.340    0.539    5.273
  383.121   57.484    0.339    0.550    5.277
  383.371   57.535    0.341    0.555    5.330
  383.621   56.812    0.326    0.521    5.384
  383.871   56.858    0.330    0.505    5.465
  384.121   56.842    0.324    0.490    5.581
  384.371   56.830    0.322    0.475    5.567
  384.621   56.827    0.327    0.473    5.647
  384.871   56.940    0.314    0.490    5.669
  385.121   58.609    0.313    0.503    5.670
  385.371   60.535    0.323    0.500    5.780
  385.621   62.325    0.333    0.484    5.773
  385.871   61.022    0.322    0.471    5.771
  386.121   60.014    0.310    0.466    5.770
  386.371   58.993    0.295    0.484    5.769
  386.621   58.514    0.300    0.475    5.768
  386.871   58.526    0.317    0.513    5.778
  387.121   58.550    0.314    0.502    5.657
  387.371   59.662    0.312    0.481    5.576
  387.621   60.543    0.321    0.475    5.519
  387.871   63.309    0.289    0.513    5.455
  388.121   67.627    0.278    0.562    5.515
  388.371   71.142    0.268    0.581    5.658
  388.621   74.542    0.269    0.583    5.756
  388.871   75.618    0.274    0.567    5.933
  389.121   72.985    0.237    0.556    6.119
  389.371   71.135    0.193    0.518    6.110
  389.621   66.873    0.191    0.468    5.680
  389.871   63.469    0.241    0.447    5.530
  390.121   61.231    0.261    0.521    5.361
  390.371   62.894    0.278    0.557    5.377
  390.621   65.198    0.287    0.516    5.665
  390.871   69.131    0.255    0.494    6.181
  391.121   64.711    0.206    0.504    6.768
  391.371   60.072    0.111    0.477    7.036
  391.621   55.692    0.085    0.351    7.099
  391.871   50.807    0.105    0.279    6.667
  392.121   49.972    0.245    0.326    6.199
  392.371   52.858    0.285    0.446    5.691
  392.621   59.577    0.283    0.511    5.772
  392.871   65.837    0.302    0.527    6.016
  393.121   66.931    0.290    0.534    6.605
  393.371   63.394    0.281    0.539    6.915
  393.621   60.451    0.285    0.535    6.812
  393.871   58.087    0.289    0.542    6.199
  394.121   58.239    0.290    0.552    5.725
  394.371   59.344    0.276    0.566    5.464
  394.621   65.225    0.262    0.573    5.184
  394.871   68.908    0.248    0.572    5.139
  395.121   72.082    0.237    0.547    5.176
  395.371   74.728    0.226    0.537    5.433
  395.621   75.985    0.211    0.557    5.610
  395.871   78.825    0.215    0.571    5.789
  396.121   81.529    0.222    0.578    5.983
  396.371   79.331    0.200    0.563    6.255
  396.621   77.488    0.187    0.549    6.584
  396.871   77.268    0.202    0.531    6.779
  397.121   78.261    0.210    0.507    7.122
  397.371   79.190    0.184    0.497    7.180
  397.621   80.823    0.201    0.495    7.264
  397.871   82.520    0.186    0.475    7.274
  398.121   82.013    0.198    0.449    7.078
  398.371   83.122    0.216    0.447    7.002
  398.621   84.784    0.225    0.475    6.873
  398.871   87.129    0.211    0.507    6.732
  399.121   91.262    0.200    0.492    6.751
  399.371   92.322    0.200    0.483    6.544
  399.621   93.282    0.209    0.461    6.490
  399.871   93.173    0.227    0.446    6.284
  400.121   93.775    0.235    0.459    6.049
  400.371   91.313    0.227    0.500    5.802
  400.621   88.989    0.235    0.520    5.452
  400.871   86.112    0.217    0.542    4.953
  401.121   84.821    0.211    0.560    4.421
  401.371   84.156    0.216    0.546    3.916
  401.621   84.076    0.239    0.543    3.351
  401.871   83.047    0.247    0.541    2.919
  402.121   82.311    0.275    0.596    2.572
  402.371   82.198    0.295    0.619    2.430
  402.621   80.644    0.266    0.623    2.214
  402.871   79.642    0.275    0.614    2.061
  403.121   79.413    0.270    0.612    1.967
  403.371   80.026    0.265    0.630    1.944
  403.621   79.235    0.280    0.640    1.948
  403.871   79.944    0.266    0.641    2.009
  404.121   80.857    0.245    0.630    2.100
  404.371   82.638    0.236    0.620    2.253
  404.621   85.745    0.242    0.634    2.445
  404.871   89.645    0.243    0.640    2.766
  405.121   91.218    0.223    0.633    2.968
  405.371   90.115    0.211    0.618    3.480
  405.621   88.428    0.199    0.635    4.090
  405.871   87.449    0.187    0.527    4.944
  406.121   85.388    0.166    0.538    5.752
  406.371   84.185    0.147    0.500    6.077
  406.621   81.460    0.124    0.467    6.119
  406.871   80.281    0.124    0.451    5.784
  407.121   80.971    0.169    0.459    5.259
  407.371   82.177    0.178    0.506    4.562
  407.621   85.208    0.184    0.543    4.074
  407.871   86.470    0.189    0.564    3.886
  408.121   87.472    0.199    0.574    3.725
  408.371   88.442    0.196    0.566    3.869
  408.621   89.424    0.197    0.590    4.098
  408.871   89.899    0.204    0.595    4.367
  409.121   90.183    0.186    0.572    4.816
  409.371   89.697    0.174    0.546    5.312
  409.621   88.231    0.178    0.501    5.995
  409.871   86.779    0.207    0.494    6.838
  410.121   86.223    0.183    0.470    7.931
  410.371   85.500    0.133    0.436    8.699
  410.621   82.388    0.071    0.401    9.382
  410.871   76.202    0.055    0.381    9.658
  411.121   69.281    0.074    0.431    8.955
  411.371   67.808    0.113    0.438    7.906
  411.621   73.373    0.188    0.447    6.897
  411.871   77.961    0.200    0.474    5.872
  412.121   85.650    0.197    0.508    5.015
  412.371   90.075    0.211    0.503    4.369
  412.621   89.599    0.217    0.513    4.099
  412.871   89.709    0.217    0.547    4.244
  413.121   89.225    0.192    0.534    4.470
  413.371   88.921    0.175    0.487    5.256
  413.621   87.869    0.160    0.451    6.687
  413.871   84.003    0.156    0.464    8.049
  414.121   78.884    0.150    0.445    9.172
  414.371   68.970    0.144    0.406   11.092
  414.621   63.057    0.180    0.390   12.323
  414.871   58.133    0.212    0.433   12.970
  415.121   57.672    0.202    0.452   13.845
  415.371   61.963    0.200    0.447   13.983
  415.621   64.816    0.231    0.455   14.456
  415.871   67.905    0.236    0.440   15.342
  416.121   67.561    0.240    0.419   16.728
  416.371   66.874    0.230    0.443   18.685
