~VERSION INFORMATION
 VERS.                 2.0:   CWLS LOG ASCII STANDARD -VERSION 2.0
 WRAP.                  NO:   ONE LINE PER DEPTH STEP
~WELL INFORMATION BLOCK
#MNEM.UNIT           DATA                    DESCRIPTION OF MNEMONIC
#---------    -------------------            -------------------------------
# Generated from Intellog Unique Number	CW_73_75/WELL/3516
WELL.         1CGR MAXUS KELLY               : Well_name    - WELL
LOC .         00/02-01-073-19W4/0            : Location     - LOCATION
UWI .         00/02-01-073-19W4/0            : Uwi          - UNIQUE WELL ID
ENTR.         TIM                            : Entered      - ENTERED BY
SRVC.         SCHLUMBERGER                   : Scn          - SERVICE COMPANY
STRT.M        325                            : top_depth    - START DEPTH
STOP.M        555                            : bot_depth    - STOP DEPTH
STEP.M        0.25                           : increment    - STEP LENGTH
 NULL. -999.2500:NULL Value
~CURVE INFORMATION BLOCK
#MNEM UNIT       ERCB CURVE CODE    CURVE DESCRIPTION
#-----------   ------------------   ----------------------------------
DEPT.M        00 001 00 00         : DEPTH        - DEPTH
ILD .OHMM     00 120 00 00         : RESD         - DEEP RESISTIVITY (DIL)
DPHI.V/V      00 890 00 00         : PHID         - DENSITY POROSITY (SANDSTONE)
NPHI.V/V      00 330 00 00         : PHIN         - NEUTRON POROSITY (SANDSTONE)
CALI.MM       00 280 01 00         : CAL          - CALIPER
GR  .API      00 310 00 00         : GR           - GAMMA RAY
~PARAMETER INFORMATION
#MNEM.UNIT           DATA             DESCRIPTION OF MNEMONIC
#---------         -----------     ------------------------------
GL  .M        631.8                : gl           - GROUND LEVEL ELEVATION
EREF.M        635.6                : kb           - ELEVATION OF DEPTH REFERENCE
DATM.M        635.6                : datum        - DATUM ELEVATION
TDD .M        509                  : tdd          - TOTAL DEPTH DRILLER
RUN .         ONE                  : Run          - RUN NUMBER
ENG .         BILL                 : Engineer     - RECORDING ENGINEER
WIT .         JIM                  : Witness      - WITNESSED BY
MUD .         GEL                  : Mud_type     - MUD TYPE
MATR.         SANDSTONE            : Logunit      - NEUTRON MATRIX
TMAX.C        22                   : BHT          - MAXIMUM RECORDED TEMPERATURE
BHTD.M        509                  : BHTDEP       - MAXIMUM RECORDED TEMPERATURE
RMT .C        15                   : MDTP         - TEMPERATURE OF MUD
MUDD.KG/M     1090                 : MWT          - MUD DENSITY
NEUT.         1                    : NEUTRON      - NEUTRON TYPE
RESI.         0                    : RESIST       - RESISTIVITY TYPE
RM  .OHMM     3.11                 : RM           - RESISTIVITY OF MUD
RMC .OHMM     3.5                  : RMC          - RESISTIVITY OF MUD CAKE
RMF .OHMM     3.2                  : RMF          - RESISTIVITY OF MUD FILTRATE
SUFT.C        4                    : SUFT         - SURFACE TEMPERATURE
~A  DEPTH     RESD     PHID     PHIN      CAL       GR
# ...
  361.500    5.624    0.324    0.449  155.913   84.958
  361.750    5.857    0.322    0.457  155.950   84.986
  362.000    6.100    0.331    0.461  154.963   83.790
  362.250    6.111    0.345    0.465  155.000   81.369
  362.500    6.123    0.356    0.469  155.037   78.345
  362.750    6.142    0.347    0.467  155.075   86.897
  363.000    5.714    0.341    0.456  156.127   92.409
  363.250    5.214    0.340    0.450  157.189   88.770
  363.500    4.672    0.324    0.448  158.242   84.533
  363.750    4.428    0.281    0.455  158.279   90.033
  364.000    4.439    0.265    0.460  159.350   93.102
  364.250    4.451    0.272    0.465  160.394   98.607
  364.500    4.546    0.296    0.471  160.422  104.728
  364.750    4.561    0.306    0.474  161.474  110.234
  365.000    4.661    0.320    0.468  162.527  116.958
  365.250    4.670    0.334    0.452  161.549   95.047
  365.500    4.864    0.345    0.424  160.571   62.772
  365.750    4.971    0.348    0.381  159.592   34.159
  366.000    5.072    0.342    0.378  158.623   28.089
  366.250    5.184    0.337    0.382  157.645   27.508
  366.500    5.292    0.335    0.384  157.692   28.145
  366.750    5.308    0.338    0.385  156.695   29.374
  367.000    5.322    0.340    0.383  156.741   33.662
  367.250    5.332    0.339    0.373  156.769   39.167
  367.500    5.450    0.338    0.375  156.807   44.069
  367.750    5.467    0.335    0.381  155.838   47.742
  368.000    5.478    0.332    0.389  155.884   44.108
  368.250    5.495    0.331    0.394  155.903   41.084
  368.500    5.616    0.331    0.394  154.934   39.285
  368.750    5.627    0.331    0.392  154.962   39.307
  369.000    5.641    0.333    0.392  155.008   39.938
  369.250    5.759    0.333    0.389  154.021   39.961
  369.500    5.883    0.332    0.384  154.067   39.380
  369.750    6.009    0.332    0.379  154.095   40.011
  370.000    6.024    0.331    0.374  153.145   41.252
  370.250    6.274    0.331    0.370  153.173   42.487
  370.500    6.285    0.330    0.370  153.201   44.952
  370.750    6.309    0.327    0.372  153.257   46.802
  371.000    6.321    0.327    0.378  153.284   49.267
  371.250    6.345    0.327    0.385  153.331   50.497
  371.500    6.358    0.327    0.388  153.350   53.571
  371.750    6.370    0.328    0.391  152.381   48.714
  372.000    6.386    0.331    0.391  152.427   49.346
  372.250    6.410    0.334    0.389  152.446   49.977
  372.500    6.303    0.334    0.386  152.483   45.734
  372.750    6.202    0.337    0.383  152.530   42.711
  373.000    6.214    0.337    0.381  152.576   47.613
  373.250    6.114    0.338    0.379  152.604   52.509
  373.500    6.134    0.338    0.378  151.635   56.187
  373.750    6.031    0.339    0.377  151.654   58.646
  374.000    6.047    0.342    0.376  150.685   63.548
  374.250    5.957    0.344    0.376  149.706   70.267
  374.500    5.965    0.344    0.376  149.753   66.639
  374.750    5.873    0.344    0.379  149.790   69.703
  375.000    5.891    0.343    0.386  149.837   74.599
  375.250    5.793    0.343    0.397  149.855   70.356
  375.500    5.808    0.341    0.405  148.877   71.603
  375.750    5.718    0.345    0.411  148.914   67.964
  376.000    5.627    0.352    0.412  148.952   57.025
  376.250    5.641    0.351    0.412  148.989   66.796
  376.500    5.652    0.346    0.412  149.035   77.176
  376.750    5.670    0.350    0.413  149.073   82.072
  377.000    5.684    0.352    0.414  149.110   74.783
  377.250    5.489    0.357    0.420  149.147   65.057
  377.500    5.401    0.357    0.421  149.194   63.257
  377.750    5.411    0.352    0.425  149.212   63.883
  378.000    5.324    0.343    0.430  149.249   66.348
  378.250    5.341    0.343    0.435  149.305   65.761
  378.500    5.453    0.343    0.437  149.333   60.295
  378.750    5.678    0.348    0.431  149.361   53.615
  379.000    5.800    0.353    0.423  149.417   49.987
  379.250    5.925    0.353    0.414  148.429   55.488
  379.500    6.056    0.352    0.409  148.467   59.775
  379.750    6.186    0.350    0.415  148.522   65.281
  380.000    6.202    0.349    0.423  148.550   60.429
  380.250    6.217    0.349    0.434  148.578   52.531
  380.500    6.229    0.349    0.434  148.615   46.460
  380.750    6.249    0.350    0.427  148.662   41.005
  381.000    6.149    0.350    0.418  148.699   40.423
  381.250    5.938    0.350    0.406  148.736   41.044
  381.500    5.734    0.350    0.400  148.774   41.681
  381.750    5.538    0.350    0.407  148.820   42.313
  382.000    5.552    0.349    0.416  148.839   44.168
  382.250    5.678    0.348    0.424  148.885   47.846
  382.500    5.796    0.347    0.428  148.913   47.869
  382.750    5.811    0.346    0.429  148.969   41.189
  383.000    5.826    0.346    0.429  149.006   39.384
  383.250    5.837    0.347    0.429  149.034   39.400
  383.500    5.852    0.347    0.429  149.062   40.038
  383.750    5.765    0.348    0.431  149.109   40.669
  384.000    5.669    0.351    0.437  149.137   41.910
  384.250    5.578    0.353    0.445  149.192   43.157
  384.500    5.592    0.358    0.453  149.230   43.168
  384.750    5.610    0.362    0.469  149.267   43.190
  385.000    5.727    0.362    0.489  149.304   41.385
  385.250    5.846    0.348    0.396  149.341   36.533
  385.500    6.811    0.239    0.347  149.378   31.686
  385.750    8.389    0.096    0.268  149.416   30.490
  386.000   11.142   -0.005    0.202  150.478   31.726
  386.250   13.218   -0.001    0.147  151.521   37.841
  386.500   12.528    0.016    0.211  151.549   45.783
  386.750    9.849    0.173    0.324  151.595   59.215
  387.000    8.037    0.262    0.361  151.633   59.847
  387.250    6.937    0.324    0.395  151.661   47.086
  387.500    6.449    0.343    0.432  151.707   50.143
  387.750    6.000    0.348    0.432  151.744   55.649
  388.000    5.581    0.348    0.432  151.772   61.155
  388.250    5.390    0.347    0.429  150.794   63.614
  388.500    5.307    0.344    0.427  150.841   65.464
  388.750    5.317    0.344    0.424  150.887   59.394
  389.000    5.330    0.346    0.422  150.915   63.077
  389.250    5.344    0.349    0.421  150.952   67.968
  389.500    5.465    0.351    0.423  150.952   75.916
  389.750    5.479    0.352    0.427  150.030   83.256
  390.000    5.493    0.354    0.433  150.030   79.617
  390.250    5.504    0.352    0.439  149.098   69.891
  390.500    5.521    0.351    0.442  149.126   67.476
  390.750    5.539    0.349    0.441  148.129   61.411
  391.000    5.443    0.347    0.435  148.176   56.554
  391.250    5.460    0.347    0.432  148.204   51.093
  391.500    5.471    0.348    0.426  148.241   51.730
  391.750    5.488    0.348    0.425  148.287   54.184
  392.000    5.498    0.348    0.426  149.331   61.517
  392.250    5.414    0.350    0.430  149.368   66.414
  392.500    5.431    0.350    0.436  150.430   56.688
  392.750    5.441    0.351    0.438  150.458   51.227
  393.000    5.357    0.351    0.441  151.510   51.858
  393.250    5.367    0.351    0.441  152.582   58.583
  393.500    5.281    0.351    0.439  152.619   57.996
  393.750    5.298    0.351    0.439  151.641   56.805
  394.000    5.216    0.350    0.439  151.678   61.087
  394.250    5.226    0.350    0.439  150.690   62.333
  394.500    5.146    0.350    0.442  150.737   47.118
  394.750    5.155    0.350    0.444  149.749   46.532
  395.000    5.168    0.348    0.448  149.796   48.991
  395.250    5.178    0.342    0.449  149.842   53.278
  395.500    5.195    0.334    0.450  149.861   61.836
  395.750    5.205    0.330    0.450  149.898   73.434
  396.000    5.224    0.337    0.449  149.936   80.158
  396.250    5.231    0.342    0.446  149.973   90.538
  396.500    5.248    0.342    0.443  151.035   92.998
  396.750    5.264    0.340    0.440  151.072   65.603
  397.000    5.278    0.335    0.433  152.125   61.975
  397.250    5.291    0.333    0.425  152.153   82.098
  397.500    5.405    0.333    0.424  152.199   92.483
  397.750    5.521    0.334    0.430  152.227   91.287
