~VERSION INFORMATION
 VERS.                 2.0:   CWLS LOG ASCII STANDARD -VERSION 2.0
 WRAP.                  NO:   ONE LINE PER DEPTH STEP
~WELL INFORMATION BLOCK
#MNEM.UNIT           DATA                    DESCRIPTION OF MNEMONIC
#---------    -------------------            -------------------------------
# Generated from Intellog Unique Number	CW_82_90/WELL/416
NULL.         -999.25                        : NULL_VALUE
WELL.         GULF WABASCA                   : Well_name    - WELL              
LOC .         00/05-06-083-22W4/0            : Location     - LOCATION          
UWI .         00/05-06-083-22W4/0            : Uwi          - UNIQUE WELL ID    
ENTR.         JAYE                           : Entered      - ENTERED BY        
SRVC.         SCHLUMBERGER                   : Scn          - SERVICE COMPANY   
DATE.         31 DEC 73                      : Date         - LOG DATE          
STRT.M        252.984                        : top_depth    - START DEPTH       
STOP.M        432.734                        : bot_depth    - STOP DEPTH        
STEP.M        0.25                           : increment    - STEP LENGTH       
~CURVE INFORMATION BLOCK
#MNEM UNIT       ERCB CURVE CODE    CURVE DESCRIPTION
#-----------   ------------------   ----------------------------------
DEPT.M        00 001 00 00         : DEPTH        - DEPTH                       
ILD .OHMM     00 120 00 00         : RESD         - DEEP RESISTIVITY (DIL)      
CALI.MM       00 280 01 00         : CAL          - CALIPER                     
GR  .API      00 310 00 00         : GR           - GAMMA RAY                   
DPHI.V/V      00 890 00 00         : PHID         - DENSITY POROSITY (SANDSTONE)
NPHI.V/V      00 330 00 00         : PHIN         - NEUTRON POROSITY (SANDSTONE)
~PARAMETER INFORMATION       
#MNEM.UNIT           DATA             DESCRIPTION OF MNEMONIC
#---------         -----------     ------------------------------
GL  .M        620.573              : gl           - GROUND LEVEL ELEVATION      
EREF.M        623.926              : kb           - ELEVATION OF DEPTH REFERENCE
DATM.M        620.573              : datum        - DATUM ELEVATION             
TDD .M        441.046              : tdd          - TOTAL DEPTH DRILLER         
RUN .         TWO                  : Run          - RUN NUMBER                  
ENG .         WARKIW               : Engineer     - RECORDING ENGINEER          
WIT .         CAMPBELL             : Witness      - WITNESSED BY                
BASE.         EDMONTON             : Branch       - HOME BASE OF LOGGING UNIT   
MUD .         GEL CHEM             : Mud_type     - MUD TYPE                    
MATR.         SANDSTONE            : Logunit      - NEUTRON MATRIX              
TMAX.C        29.4                 : BHT          - MAXIMUM RECORDED TEMPERATURE
BHTD.M        441.046              : BHTDEP       - MAXIMUM RECORDED TEMPERATURE
RMT .C        15.5556              : MDTP         - TEMPERATURE OF MUD          
MUDD.KG/M     9200                 : MWT          - MUD DENSITY                 
NEUT.         1                    : NEUTRON      - NEUTRON TYPE                
RESI.         0                    : RESIST       - RESISTIVITY TYPE            
RM  .OHMM     2.1                  : RM           - RESISTIVITY OF MUD          
RMC .OHMM     0                    : RMC          - RESISTIVITY OF MUD CAKE     
RMF .OHMM     0                    : RMF          - RESISTIVITY OF MUD FILTRATE 
SUFT.C        -17.7778             : SUFT         - SURFACE TEMPERATURE         
~A  DEPTH     RESD      CAL       GR     PHID     PHIN
  252.984    3.019  260.652   99.912    0.281    0.721
  253.234    3.176  255.632   99.380    0.287    0.735
  253.484    3.340  252.160   97.996    0.298    0.724
  253.734    3.540  250.025   95.209    0.295    0.718
  253.984    3.899  248.819   91.082    0.276    0.727
  254.234    4.350  248.534   85.798    0.278    0.719
  254.484    4.844  249.389   79.419    0.289    0.668
  254.734    6.473  250.447   74.194    0.292    0.586
  254.984    7.846  250.784   73.480    0.288    0.595
  255.234   10.086  250.506   75.689    0.286    0.617
  255.484   12.407  250.531   73.633    0.312    0.637
  255.734   12.629  250.255   68.106    0.320    0.612
  255.984   12.363  250.588   64.770    0.308    0.568
  256.234   11.906  250.930   66.742    0.291    0.553
  256.484   11.174  250.954   69.554    0.293    0.563
  256.734   10.429  252.215   70.363    0.302    0.605
  256.984    9.644  253.377   71.050    0.324    0.555
  257.234    9.051  255.776   76.061    0.307    0.549
  257.484    8.799  266.823   80.526    0.283    0.572
  257.734    8.987  282.300   80.114    0.282    0.584
  257.984    9.452  268.630   77.875    0.292    0.595
  258.234   10.335  251.150   75.453    0.293    0.535
  258.484   11.853  250.561   72.059    0.301    0.537
  258.734   13.200  251.002   69.273    0.302    0.540
  258.984   14.865  251.440   66.549    0.287    0.535
  259.234   16.989  252.911   64.736    0.275    0.569
  259.484   18.606  254.897   63.229    0.297    0.564
  259.734   21.862  256.676   62.453    0.309    0.546
  259.984   24.616  257.734   61.739    0.337    0.534
  260.234   27.365  255.189   60.476    0.343    0.591
  260.484   31.042  253.464   59.092    0.350    0.605
  260.734   34.568  249.600   58.132    0.342    0.604
  260.984   39.576  252.800   57.843    0.335    0.576
  261.234   45.308  250.154   57.796    0.335    0.568
  261.484   51.112  249.153   58.119    0.340    0.573
  261.734   57.342  250.216   58.498    0.341    0.603
  261.984   64.692  250.650   58.880    0.339    0.591
  262.234   68.172  250.265   58.835    0.337    0.557
  262.484   70.027  249.470   58.244    0.340    0.565
  262.734   69.316  247.745   57.162    0.341    0.615
  262.984   68.117  245.197   55.716    0.339    0.638
  263.234   65.482  243.063   54.878    0.342    0.619
  263.484   61.450  242.989   55.016    0.346    0.568
  263.734   57.671  244.871   55.885    0.351    0.564
  263.984   56.572  247.062   56.875    0.355    0.587
  264.234   54.788  249.359   58.538    0.360    0.599
  264.484   53.046  249.799   59.283    0.367    0.599
  264.734   49.060  249.722   59.667    0.366    0.621
  264.984   45.871  249.132   61.509    0.370    0.624
  265.234   42.739  249.471   62.989    0.372    0.610
  265.484   40.706  249.808   63.613    0.368    0.551
  265.734   39.346  249.939   63.994    0.364    0.567
  265.984   38.313  249.861   64.743    0.359    0.585
  266.234   36.962  249.379   65.794    0.356    0.579
  266.484   35.722  248.687   64.529    0.356    0.585
  266.734   32.794  248.815   62.474    0.361    0.650
  266.984   30.444  248.535   61.271    0.367    0.621
  267.234   28.100  249.491   60.008    0.366    0.584
  267.484   26.518  250.339   58.930    0.358    0.564
  267.734   23.725  250.887   58.762    0.355    0.575
  267.984   21.228  250.916   59.144    0.356    0.581
  268.234   20.031  250.942   58.977    0.362    0.602
  268.484   19.650  251.381   58.870    0.364    0.605
  268.734   19.666  252.235   60.046    0.358    0.578
  268.984   19.722  253.298   61.218    0.350    0.574
  269.234   19.965  254.043   63.003    0.351    0.575
  269.484   20.056  254.585   63.869    0.354    0.613
  269.734   20.072  255.232   62.119    0.353    0.601
  269.984   20.129  256.287   60.551    0.348    0.588
  270.234   20.149  255.905   62.763    0.346    0.616
  270.484   20.096  253.871   64.239    0.350    0.646
  270.734   19.965  252.775   63.343    0.351    0.621
  270.984   19.836  251.869   61.040    0.345    0.597
  271.234   19.457  250.662   55.149    0.336    0.577
  271.484   19.475  249.557   53.762    0.322    0.566
  271.734   19.677  251.133   55.971    0.302    0.587
  271.984   19.911  252.603   58.180    0.273    0.568
  272.234   20.190  253.660   60.330    0.323    0.529
  272.484   20.508  254.407   56.934    0.353    0.521
  272.734   20.683  255.056   57.071    0.360    0.567
  272.984   20.815  254.877   59.160    0.355    0.540
  273.234   20.952  254.184   59.544    0.349    0.538
  273.484   20.968  253.593   59.196    0.344    0.543
  273.734   20.873  252.076   57.379    0.340    0.524
  273.984   20.777  250.975   53.558    0.334    0.567
  274.234   20.912  250.589   53.513    0.327    0.569
  274.484   21.282  250.102   55.175    0.319    0.554
  274.734   21.228  249.923   58.053    0.319    0.541
  274.984   21.091  249.955   57.825    0.326    0.549
  275.234   20.958  249.983   55.527    0.331    0.572
  275.484   20.781  250.525   54.566    0.336    0.595
  275.734   20.503  250.964   53.852    0.340    0.609
  275.984   20.294  251.198   56.672    0.338    0.594
  276.234   20.125  251.124   57.906    0.332    0.592
  276.484   19.776  251.359   55.972    0.338    0.548
  276.734   19.507  252.625   58.181    0.330    0.563
  276.984   18.819  253.474   61.611    0.326    0.570
  277.234   18.191  253.192   63.274    0.331    0.562
  277.484   17.712  253.224   62.677    0.333    0.561
  277.734   17.342  253.047   62.388    0.342    0.572
  277.984   16.978  252.762   63.440    0.342    0.629
  278.234   16.654  251.967   63.151    0.342    0.655
  278.484   16.039  251.273   62.011    0.347    0.644
  278.734   15.616  250.175   62.394    0.347    0.637
  278.984   15.207  249.887   63.202    0.342    0.637
  279.234   15.304  249.921   63.398    0.344    0.634
  279.484   16.190  250.051   61.526    0.346    0.635
  279.734   16.843  249.766   62.945    0.347    0.611
  279.984   17.783  249.488   61.435    0.347    0.552
  280.234   19.053  249.316   58.283    0.350    0.510
  280.484   20.528  249.027   55.133    0.349    0.510
  280.734   21.596  248.132   53.930    0.334    0.514
  280.984   21.455  247.436   54.494    0.300    0.477
  281.234   20.291  247.569   55.546    0.230    0.360
  281.484   19.680  248.217   56.843    0.180    0.321
  281.734   18.743  248.965   58.502    0.200    0.331
  281.984   17.081  249.609   60.712    0.249    0.355
  282.234   15.424  250.773   61.398    0.215    0.366
  282.484   13.875  252.139   62.694    0.211    0.365
  282.734   12.505  252.990   62.342    0.305    0.415
  282.984   11.738  253.946   63.703    0.341    0.461
  283.234   11.470  254.487   64.935    0.339    0.563
  283.484   11.272  255.243   64.767    0.333    0.681
  283.734   11.242  255.574   63.747    0.340    0.686
  283.984   11.336  255.712   63.947    0.346    0.676
  284.234   11.429  256.150   65.973    0.346    0.609
  284.484   11.546  255.662   65.320    0.340    0.630
  284.734   11.580  255.173   64.362    0.339    0.623
  284.984   11.569  254.590   65.595    0.349    0.632
  285.234   11.495  254.404   66.161    0.351    0.624
  285.484   11.379  253.921   64.895    0.347    0.609
  285.734   11.327  252.920   62.353    0.340    0.582
  285.984   11.338  257.065   63.527    0.330    0.554
  286.234   11.308  259.256   64.273    0.321    0.543
  286.484   11.234  262.991   66.057    0.312    0.579
  286.734   11.246  264.153   66.377    0.302    0.661
  286.984   11.236  263.568   65.845    0.305    0.637
  287.234   11.185  262.668   66.408    0.307    0.650
  287.484   11.134  260.942   68.255    0.316    0.634
  287.734   11.043  257.676   69.306    0.327    0.616
  287.984   10.912  254.414   68.650    0.337    0.627
  288.234   10.841  252.790   68.792    0.333    0.637
  288.484   10.773  251.372   69.596    0.334    0.639
  288.734   10.702  250.167   71.499    0.331    0.642
  288.984   10.518  249.371   72.552    0.328    0.649
  289.234   10.278  248.986   71.228    0.333    0.660
