~VERSION INFORMATION
 VERS.                 2.0:   CWLS LOG ASCII STANDARD -VERSION 2.0
 WRAP.                  NO:   ONE LINE PER DEPTH STEP
~WELL INFORMATION BLOCK
#MNEM.UNIT           DATA                    DESCRIPTION OF MNEMONIC
#---------    -------------------            -------------------------------
# Generated from Intellog Unique Number	CW_79_81/WELL/2449
WELL.         06-01-080-24W4                 : Well_name    - WELL
LOC .         00/06-01-080-24W4/0            : Location     - LOCATION
UWI .         00/06-01-080-24W4/0            : Uwi          - UNIQUE WELL ID
ENTR.         MAX                            : Entered      - ENTERED BY
SRVC.         COMPUTALOG                     : Scn          - SERVICE COMPANY
STRT.M        225                            : top_depth    - START DEPTH
STOP.M        454.75                         : bot_depth    - STOP DEPTH
STEP.M        0.25                           : increment    - STEP LENGTH
 NULL. -999.2500:NULL Value
~CURVE INFORMATION BLOCK
#MNEM UNIT       ERCB CURVE CODE    CURVE DESCRIPTION
#-----------   ------------------   ----------------------------------
DEPT.M        00 001 00 00         : DEPTH        - DEPTH
ILD .OHMM     00 120 00 00         : RESD         - DEEP RESISTIVITY (DIL)
NPHI.V/V      00 330 00 00         : PHIN         - NEUTRON POROSITY (SANDSTONE)
DPHI.V/V      00 890 00 00         : PHID         - DENSITY POROSITY (SANDSTONE)
GR  .API      00 310 00 00         : GR           - GAMMA RAY
CALI.MM       00 280 01 00         : CAL          - CALIPER
~PARAMETER INFORMATION
#MNEM.UNIT           DATA             DESCRIPTION OF MNEMONIC
#---------         -----------     ------------------------------
GL  .M        547.6                : gl           - GROUND LEVEL ELEVATION
EREF.M        552.6                : kb           - ELEVATION OF DEPTH REFERENCE
DATM.M        547.6                : datum        - DATUM ELEVATION
TDD .M        580.4                : tdd          - TOTAL DEPTH DRILLER
RUN .         ONE                  : Run          - RUN NUMBER
ENG .         BILL                 : Engineer     - RECORDING ENGINEER
WIT .         JIM                  : Witness      - WITNESSED BY
MUD .         GEL                  : Mud_type     - MUD TYPE
MATR.         SANDSTONE            : Logunit      - NEUTRON MATRIX
TMAX.C        22                   : BHT          - MAXIMUM RECORDED TEMPERATURE
BHTD.M        580.4                : BHTDEP       - MAXIMUM RECORDED TEMPERATURE
MATR.         1                    : LOGUNIT      - NEUTRON MATRIX
RMT .C        15.6                 : MDTP         - TEMPERATURE OF MUD
NEUT.         1                    : NEUTRON      - NEUTRON TYPE
RESI.         0                    : RESIST       - RESISTIVITY TYPE
RMC .OHMM     6                    : RMC          - RESISTIVITY OF MUD CAKE
RMF .OHMM     6                    : RMF          - RESISTIVITY OF MUD FILTRATE
SUFT.C        -20                  : SUFT         - SURFACE TEMPERATURE
~A  DEPTH     RESD     PHIN     PHID       GR      CAL
# ...
  371.000   13.527    0.420    0.209   82.293  229.162
  371.250   13.583    0.419    0.212   83.148  229.193
  371.500   13.588    0.405    0.213   83.345  229.125
  371.750   13.554    0.390    0.212   81.989  228.847
  372.000   13.356    0.395    0.208   82.255  229.298
  372.250   12.975    0.398    0.207   82.990  229.728
  372.500   12.746    0.393    0.205   82.294  229.560
  372.750   12.566    0.393    0.204   81.955  229.191
  373.000   12.389    0.398    0.203   82.510  228.824
  373.250   12.178    0.401    0.203   83.349  228.466
  373.500   12.000    0.399    0.199   83.870  228.503
  373.750   11.918    0.397    0.203   85.080  228.532
  374.000   11.837    0.402    0.206   86.113  228.566
  374.250   11.842    0.410    0.206   86.132  228.400
  374.500   11.998    0.417    0.205   85.495  228.230
  374.750   12.402    0.417    0.199   85.457  228.912
  375.000   12.601    0.419    0.185   83.984  230.188
  375.250   12.606    0.424    0.165   82.813  231.022
  375.500   12.542    0.415    0.170   84.501  231.548
  375.750   12.410    0.402    0.183   87.501  231.779
  376.000   12.235    0.394    0.192   89.668  231.814
  376.250   12.027    0.400    0.186   88.012  231.845
  376.500   11.851    0.406    0.183   86.792  231.885
  376.750   11.856    0.408    0.183   86.092  231.914
  377.000   11.927    0.414    0.175   85.038  231.946
  377.250   12.152    0.416    0.167   83.985  231.778
  377.500   12.519    0.412    0.169   83.289  231.610
  377.750   12.902    0.411    0.186   83.014  232.132
  378.000   12.908    0.416    0.182   81.544  232.577
  378.250   12.632    0.406    0.173   82.036  233.404
  378.500   12.156    0.405    0.174   84.678  233.931
  378.750   11.726    0.406    0.177   87.203  234.757
  379.000   11.393    0.406    0.179   88.117  235.784
  379.250   11.071    0.401    0.181   86.809  236.305
  379.500   11.077    0.399    0.183   87.328  236.746
  379.750   11.245    0.400    0.179   87.347  237.574
  380.000   11.667    0.404    0.167   86.295  238.401
  380.250   12.025    0.406    0.157   85.241  238.238
  380.500   12.096    0.405    0.154   84.900  237.182
  380.750   11.729    0.403    0.163   86.331  236.590
  381.000   11.211    0.409    0.172   89.830  237.446
  381.250   10.418    0.412    0.177   93.427  237.475
  381.500   10.127    0.402    0.166   91.479  237.511
  381.750   10.058    0.393    0.159   88.159  237.545
  382.000   10.099    0.391    0.161   86.153  237.574
  382.250   10.316    0.397    0.159   87.197  237.445
  382.500   10.643    0.407    0.161   89.949  236.650
  382.750   11.124    0.397    0.165   88.300  235.891
  383.000   12.005    0.384    0.163   85.041  234.828
  383.250   13.604    0.368    0.152   82.793  234.062
  383.500   16.288    0.349    0.131   81.976  233.595
  383.750   21.456    0.325    0.095   79.562  232.508
  384.000   30.360    0.292    0.068   73.371  230.885
  384.250   34.582    0.266    0.049   66.712  230.123
  384.500   38.432    0.246    0.043   62.556  229.062
  384.750   40.547    0.245    0.044   61.502  228.297
  385.000   40.255    0.262    0.053   62.953  228.229
  385.250   37.610    0.281    0.074   65.522  229.150
  385.500   34.620    0.298    0.075   67.526  229.601
  385.750   27.639    0.314    0.072   69.456  229.630
  386.000   22.523    0.325    0.087   71.921  229.957
  386.250   18.713    0.335    0.113   73.134  230.785
  386.500   16.224    0.341    0.133   72.259  231.813
  386.750   15.296    0.336    0.113   69.613  232.247
  387.000   15.780    0.340    0.109   70.627  232.284
  387.250   16.256    0.344    0.115   75.416  234.698
  387.500   16.928    0.350    0.129   86.469  236.218
  387.750   17.510    0.364    0.144   92.453  236.052
  388.000   17.941    0.381    0.153   89.847  234.795
  388.250   18.600    0.386    0.153   81.065  234.353
  388.500   19.186    0.379    0.140   71.643  233.969
  388.750   19.910    0.373    0.132   66.892  233.601
  389.000   20.106    0.371    0.151   68.581  232.939
  389.250   20.263    0.371    0.170   72.774  232.971
  389.500   20.720    0.373    0.175   75.714  233.796
  389.750   21.832    0.372    0.156   73.779  234.631
  390.000   22.697    0.366    0.144   73.551  234.668
  390.250   22.377    0.361    0.161   77.148  235.095
  390.500   21.573    0.361    0.172   77.527  235.825
  390.750   19.865    0.359    0.180   78.978  236.256
  391.000   17.724    0.358    0.181   82.156  236.287
  391.250   15.687    0.363    0.163   83.290  236.238
  391.500   14.659    0.356    0.140   79.335  235.861
  391.750   14.665    0.344    0.117   72.438  235.095
  392.000   14.834    0.336    0.100   66.075  233.136
  392.250   14.951    0.335    0.106   62.873  232.372
  392.500   14.902    0.337    0.133   64.502  233.597
  392.750   14.533    0.347    0.157   72.678  236.354
  393.000   13.786    0.375    0.141   77.667  238.051
  393.250   13.393    0.372    0.118   77.210  237.682
  393.500   12.722    0.361    0.128   77.468  239.105
  393.750   11.864    0.355    0.142   78.440  240.528
  394.000   10.888    0.358    0.151   80.367  241.452
  394.250    9.705    0.367    0.159   83.980  242.766
  394.500    9.068    0.376    0.157   85.240  243.210
  394.750    8.809    0.382    0.153   86.454  243.246
  395.000    8.654    0.391    0.151   87.664  243.279
  395.250    8.658    0.401    0.156   89.590  242.916
  395.500    8.899    0.408    0.161   91.935  242.254
  395.750    9.658    0.400    0.153   91.949  241.808
  396.000   10.437    0.389    0.134   84.763  241.421
  396.250   10.595    0.398    0.125   80.730  241.056
  396.500   10.815    0.402    0.137   80.448  242.484
  396.750   10.982    0.404    0.154   82.138  243.511
  397.000   11.048    0.405    0.164   84.008  243.441
  397.250   11.053    0.402    0.167   84.119  243.088
  397.500   11.059    0.404    0.163   83.394  243.118
  397.750   10.984    0.400    0.161   81.742  242.747
  398.000   10.969    0.394    0.163   81.883  242.382
  398.250   11.014    0.391    0.162   82.261  241.820
  398.500   11.079    0.394    0.159   82.040  241.156
  398.750   11.103    0.402    0.159   81.056  240.794
  399.000   11.193    0.406    0.157   80.832  240.828
  399.250   11.198    0.412    0.149   80.370  240.860
  399.500   11.265    0.410    0.143   80.987  240.895
  399.750   11.436    0.401    0.140   82.676  240.927
  400.000   11.738    0.387    0.143   84.722  240.957
  400.250   12.223    0.373    0.155   85.651  240.910
  400.500   12.417    0.361    0.157   85.421  240.533
  400.750   12.886    0.356    0.160   84.961  240.569
  401.000   13.372    0.349    0.160   82.716  240.597
  401.250   13.928    0.343    0.155   79.993  240.429
  401.500   14.589    0.338    0.142   77.209  239.866
  401.750   15.464    0.323    0.112   72.895  238.541
  402.000   15.954    0.305    0.073   67.946  237.746
  402.250   15.612    0.311    0.054   68.204  237.778
  402.500   14.354    0.323    0.074   74.903  241.985
  402.750   12.650    0.340    0.112   81.483  246.990
  403.000   11.125    0.365    0.147   85.734  250.505
  403.250    9.959    0.402    0.146   90.013  251.418
  403.500    8.897    0.407    0.145   91.031  251.863
  403.750    8.515    0.400    0.137   90.569  251.898
  404.000    8.381    0.385    0.108   87.784  251.629
  404.250    8.386    0.367    0.082   85.178  251.461
  404.500    8.482    0.353    0.072   83.767  251.596
  404.750    8.767    0.343    0.087   83.425  252.200
  405.000    9.257    0.345    0.112   85.186  253.059
  405.250    9.535    0.360    0.119   86.635  254.284
  405.500    9.348    0.371    0.128   89.159  255.206
  405.750    9.083    0.382    0.127   91.086  255.633
  406.000    9.067    0.392    0.122   91.105  255.666
  406.250    9.888    0.386    0.135   87.318  255.626
  406.500   11.462    0.373    0.143   82.620  255.245
  406.750   12.964    0.361    0.145   80.968  255.274
  407.000   13.928    0.360    0.148   78.424  255.008
  407.250   14.304    0.364    0.149   78.085  254.841
