~VERSION INFORMATION
 VERS.                 2.0:   CWLS LOG ASCII STANDARD -VERSION 2.0
 WRAP.                  NO:   ONE LINE PER DEPTH STEP
~WELL INFORMATION BLOCK
#MNEM.UNIT           DATA                    DESCRIPTION OF MNEMONIC
#---------    -------------------            -------------------------------
# Generated from Intellog Unique Number	CX_WELLS/WELL/2729
WELL.         05-14-080-12W4                 : Well_name    - WELL
LOC .         00/05-14-080-12W4/0            : Location     - LOCATION
UWI .         00/05-14-080-12W4/0            : Uwi          - UNIQUE WELL ID
ENTR.         T                              : Entered      - ENTERED BY
SRVC.         SCHLUMBERGER                   : Scn          - SERVICE COMPANY
STRT.M        260                            : top_depth    - START DEPTH
STOP.M        485                            : bot_depth    - STOP DEPTH
STEP.M        0.25                           : increment    - STEP LENGTH
 NULL. -999.2500:NULL Value
~CURVE INFORMATION BLOCK
#MNEM UNIT       ERCB CURVE CODE    CURVE DESCRIPTION
#-----------   ------------------   ----------------------------------
DEPT.M        00 001 00 00         : DEPTH        - DEPTH
GR  .API      00 310 00 00         : GR           - GAMMA RAY
NPHI.V/V      00 330 00 00         : PHIN         - NEUTRON POROSITY (SANDSTONE)
DPHI.V/V      00 890 00 00         : PHID         - DENSITY POROSITY (SANDSTONE)
ILD .OHMM     00 120 00 00         : RESD         - DEEP RESISTIVITY (DLL)
~PARAMETER INFORMATION
#MNEM.UNIT           DATA             DESCRIPTION OF MNEMONIC
#---------         -----------     ------------------------------
GL  .M        686                  : gl           - GROUND LEVEL ELEVATION
EREF.M        689.7                : kb           - ELEVATION OF DEPTH REFERENCE
DATM.M        689.7                : datum        - DATUM ELEVATION
TDD .M        495                  : tdd          - TOTAL DEPTH DRILLER
RUN .         ONE                  : Run          - RUN NUMBER
ENG .         BILL                 : Engineer     - RECORDING ENGINEER
WIT .         JIM                  : Witness      - WITNESSED BY
MUD .         GEL                  : Mud_type     - MUD TYPE
MATR.         SANDSTONE            : Logunit      - NEUTRON MATRIX
TMAX.C        0                    : BHT          - MAXIMUM RECORDED TEMPERATURE
BHTD.M        22                   : BHTDEP       - MAXIMUM RECORDED TEMPERATURE
MATR.         495                  : LOGUNIT      - NEUTRON MATRIX
RMT .C        1                    : MDTP         - TEMPERATURE OF MUD
NEUT.         17                   : NEUTRON      - NEUTRON TYPE
RESI.         1                    : RESIST       - RESISTIVITY TYPE
RMC .OHMM     4                    : RMC          - RESISTIVITY OF MUD CAKE
RMF .OHMM     3.9                  : RMF          - RESISTIVITY OF MUD FILTRATE
SUFT.C        3.8                  : SUFT         - SURFACE TEMPERATURE
SUFT.C        4                    : SUFT         - SURFACE TEMPERATURE
~A  DEPTH       GR     PHIN     PHID     RESD
# ...
  434.000   99.981    0.401    0.220   18.796
  434.250   95.846    0.388    0.228   21.021
  434.500   89.937    0.367    0.227   22.241
  434.750   85.812    0.350    0.196   23.105
  435.000   82.283    0.357    0.175   23.137
  435.250   79.943    0.360    0.157   22.349
  435.500   79.409    0.357    0.162   22.365
  435.750   79.430    0.343    0.174   21.996
  436.000   76.495    0.331    0.183   21.618
  436.250   71.786    0.318    0.176   21.648
  436.500   69.447    0.323    0.158   21.291
  436.750   69.487    0.326    0.125   20.552
  437.000   72.514    0.334    0.099   20.214
  437.250   73.724    0.345    0.121   19.860
  437.500   75.550    0.358    0.156   19.526
  437.750   77.376    0.370    0.198   19.197
  438.000   80.402    0.372    0.198   18.881
  438.250   82.823    0.364    0.186   18.900
  438.500   85.839    0.351    0.181   18.927
  438.750   87.655    0.337    0.180   18.615
  439.000   90.076    0.329    0.177   18.634
  439.250   91.902    0.330    0.176   18.660
  439.500   90.763    0.337    0.175   18.686
  439.750   89.603    0.339    0.173   18.718
  440.000   87.859    0.339    0.172   18.737
  440.250   84.925    0.334    0.171   18.763
  440.500   81.406    0.328    0.173   19.137
  440.750   79.066    0.330    0.176   19.170
  441.000   77.332    0.347    0.182   19.197
  441.250   76.767    0.362    0.197   19.217
  441.500   76.203    0.375    0.218   19.244
  441.750   76.254    0.377    0.224   19.270
  442.000   77.485    0.368    0.236   18.953
  442.250   79.301    0.362    0.230   18.627
  442.500   84.112    0.365    0.232   18.666
  442.750   84.153    0.367    0.251   18.685
  443.000   81.208    0.372    0.292   18.705
  443.250   77.084    0.375    0.274   20.157
  443.500   72.969    0.376    0.258   22.543
  443.750   72.405    0.356    0.237   25.201
  444.000   73.636    0.317    0.232   28.695
  444.250   73.677    0.287    0.262   32.685
  444.500   70.157    0.269    0.278   35.864
  444.750   67.818    0.253    0.301   38.649
  445.000   65.468    0.233    0.311   44.008
  445.250   63.129    0.216    0.317   51.073
  445.500   59.620    0.195    0.324   56.059
  445.750   58.450    0.184    0.331   60.412
  446.000   56.121    0.168    0.339   65.103
  446.250   54.962    0.162    0.351   65.194
  446.500   53.227    0.168    0.352   61.787
  446.750   52.663    0.176    0.340   57.493
  447.000   52.119    0.190    0.327   53.498
  447.250   52.150    0.227    0.305   49.780
  447.500   52.190    0.253    0.287   46.305
  447.750   54.026    0.274    0.280   43.885
  448.000   56.447    0.266    0.284   42.362
  448.250   56.478    0.253    0.309   40.906
  448.500   55.934    0.247    0.314   40.218
  448.750   55.370    0.250    0.316   41.006
  449.000   54.220    0.266    0.310   44.205
  449.250   53.081    0.292    0.291   46.772
  449.500   52.527    0.329    0.278   50.387
  449.750   51.388    0.350    0.280   54.300
  450.000   51.419    0.380    0.286   58.517
  450.250   50.854    0.388    0.289   65.418
  450.500   49.715    0.383    0.293   81.675
  450.750   49.151    0.371    0.295  103.861
  451.000   48.596    0.375    0.304   98.400
  451.250   47.447    0.389    0.312   94.985
  451.500   47.488    0.387    0.308   90.021
  451.750   48.134    0.386    0.304   83.824
  452.000   49.365    0.383    0.298   80.859
  452.250   49.990    0.379    0.292   76.660
  452.500   50.636    0.381    0.288   71.357
  452.750   50.082    0.389    0.285   67.605
  453.000   50.133    0.387    0.281   64.050
  453.250   49.559    0.384    0.279   58.536
  453.500   49.599    0.381    0.277   54.449
  453.750   49.055    0.379    0.274   50.648
  454.000   49.096    0.381    0.270   47.129
  454.250   50.932    0.388    0.270   45.509
  454.500   51.548    0.397    0.282   45.556
  454.750   51.589    0.396    0.291   45.635
  455.000   49.270    0.391    0.293   44.867
  455.250   48.705    0.388    0.289   43.295
  455.500   48.141    0.383    0.287   41.033
  455.750   48.787    0.382    0.287   38.194
  456.000   50.613    0.380    0.276   35.528
  456.250   54.829    0.375    0.258   33.071
  456.500   59.630    0.371    0.240   30.223
  456.750   62.636    0.376    0.234   29.164
  457.000   66.257    0.382    0.233   28.664
  457.250   67.478    0.382    0.253   27.688
  457.500   67.539    0.379    0.258   27.204
  457.750   66.380    0.378    0.257   26.746
  458.000   63.435    0.380    0.265   26.305
  458.250   58.121    0.388    0.268   26.341
  458.500   54.591    0.397    0.290   26.857
  458.750   51.667    0.405    0.293   28.426
  459.000   48.733    0.405    0.300   31.768
  459.250   46.403    0.399    0.309   47.652
  459.500   45.234    0.394    0.307   56.288
  459.750   43.499    0.385    0.308   70.252
  460.000   42.945    0.381    0.314   67.837
  460.250   42.976    0.386    0.320   61.954
  460.500   45.407    0.390    0.319   47.111
  460.750   47.223    0.390    0.309   42.272
  461.000   50.844    0.390    0.298   37.904
  461.250   53.850    0.388    0.290   27.279
  461.500   58.066    0.391    0.258   25.853
  461.750   62.272    0.397    0.253   23.619
  462.000   65.873    0.400    0.243   21.970
  462.250   73.065    0.398    0.221   19.348
  462.500   79.056    0.392    0.203   19.023
  462.750   86.238    0.395    0.191   18.035
  463.000   92.824    0.397    0.182   17.403
  463.250  100.016    0.397    0.182   16.799
  463.500  103.637    0.398    0.190   16.216
  463.750  100.087    0.399    0.194   15.653
  464.000   95.983    0.398    0.184   15.110
  464.250   96.609    0.396    0.180   14.591
  464.500   97.850    0.396    0.180   14.340
  464.750   98.465    0.395    0.180   14.099
  465.000   98.516    0.395    0.181   14.657
  465.250   97.962    0.398    0.181   14.938
  465.500   98.003    0.400    0.183   15.518
  465.750   98.659    0.403    0.187   16.425
  466.000   99.274    0.408    0.193   16.753
  466.250  100.505    0.409    0.237   16.782
  466.500   96.976    0.410    0.252   17.433
  466.750   83.946    0.409    0.280   19.850
  467.000   82.181    0.404    0.297   21.788
  467.250   72.106    0.406    0.307   23.472
  467.500   70.957    0.406    0.303   22.657
  467.750   69.797    0.398    0.293   19.960
  468.000   59.722    0.391    0.281   17.898
  468.250   63.333    0.387    0.252   15.762
  468.500   66.945    0.392    0.218   14.405
  468.750   71.151    0.395    0.170   13.399
  469.000   77.142    0.401    0.159   12.695
  469.250   84.323    0.405    0.172   11.395
  469.500   96.870    0.396    0.211   10.992
  469.750   99.886    0.389    0.236   10.610
  470.000   74.330    0.385    0.245   10.625
  470.250   66.635    0.385    0.249   10.256
  470.500   61.916    0.385    0.251    9.550
  470.750   57.791    0.386    0.256    9.215
  471.000   53.666    0.387    0.255    8.734
  471.250   47.162    0.382    0.262    8.590
  471.500   43.037    0.377    0.281    8.440
  471.750   41.898    0.373    0.288    8.300
  472.000   41.929    0.370    0.305    8.012
  472.250   42.565    0.373    0.297    7.878
  472.500   46.186    0.378    0.249    7.607
  472.750   56.927    0.387    0.197    7.476
  473.000   69.464    0.397    0.189    7.217
  473.250   87.367    0.407    0.178    7.093
  473.500   98.118    0.415    0.169    6.727
  473.750   99.954    0.415    0.175    6.609
  474.000   95.820    0.417    0.202    6.380
  474.250   70.868    0.413    0.218    6.275
  474.500   66.139    0.411    0.239    6.283
  474.750   56.064    0.410    0.266    6.292
  475.000   49.569    0.403    0.283    6.184
  475.250   48.420    0.395    0.303    6.080
  475.500   50.831    0.388    0.294    5.982
  475.750   53.252    0.378    0.291    5.877
  476.000   50.922    0.372    0.295    5.887
  476.250   50.368    0.378    0.298    5.786
  476.500   52.789    0.386    0.279    5.691
  476.750   55.795    0.397    0.262    5.699
  477.000   59.406    0.400    0.251    5.705
  477.250   58.277    0.399    0.252    5.715
