~VERSION INFORMATION
 VERS.                 2.0:   CWLS LOG ASCII STANDARD -VERSION 2.0
 WRAP.                  NO:   ONE LINE PER DEPTH STEP
~WELL INFORMATION BLOCK
#MNEM.UNIT           DATA                    DESCRIPTION OF MNEMONIC
#---------    -------------------            -------------------------------
# Generated from Intellog Unique Number	CS_73_76/WELL/2105
WELL.         PEX KIRBY                      : Well_name    - WELL
LOC .         00/07-09-075-06W4/0            : Location     - LOCATION
UWI .         00/07-09-075-06W4/0            : Uwi          - UNIQUE WELL ID
ENTR.         SP                             : Entered      - ENTERED BY
SRVC.         SCHLUMBERGER                   : Scn          - SERVICE COMPANY
STRT.M        250                            : top_depth    - START DEPTH
STOP.M        490                            : bot_depth    - STOP DEPTH
STEP.M        0.25                           : increment    - STEP LENGTH
 NULL. -999.2500:NULL Value
~CURVE INFORMATION BLOCK
#MNEM UNIT       ERCB CURVE CODE    CURVE DESCRIPTION
#-----------   ------------------   ----------------------------------
DEPT.M        00 001 00 00         : DEPTH        - DEPTH
ILD .OHMM     00 120 00 00         : RESD         - DEEP RESISTIVITY (DIL)
DPHI.V/V      00 890 00 00         : PHID         - DENSITY POROSITY (LIMESTONE)
NPHI.V/V      00 330 00 00         : PHIN         - NEUTRON POROSITY (LIMESTONE)
GR  .API      00 310 00 00         : GR           - GAMMA RAY
~PARAMETER INFORMATION
#MNEM.UNIT           DATA             DESCRIPTION OF MNEMONIC
#---------         -----------     ------------------------------
GL  .M        648.36               : gl           - GROUND LEVEL ELEVATION
EREF.M        651.64               : kb           - ELEVATION OF DEPTH REFERENCE
DATM.M        648.36               : datum        - DATUM ELEVATION
TDD .M        497                  : tdd          - TOTAL DEPTH DRILLER
RUN .         ONE                  : Run          - RUN NUMBER
ENG .         BILL                 : Engineer     - RECORDING ENGINEER
WIT .         JIM                  : Witness      - WITNESSED BY
MUD .         GEL                  : Mud_type     - MUD TYPE
MATR.         LIMESTONE            : Logunit      - NEUTRON MATRIX
TMAX.C        21                   : BHT          - MAXIMUM RECORDED TEMPERATURE
BHTD.M        497                  : BHTDEP       - MAXIMUM RECORDED TEMPERATURE
MATR.         1                    : LOGUNIT      - NEUTRON MATRIX
RMT .C        25                   : MDTP         - TEMPERATURE OF MUD
NEUT.         1                    : NEUTRON      - NEUTRON TYPE
RESI.         0                    : RESIST       - RESISTIVITY TYPE
RMC .OHMM     0.25                 : RMC          - RESISTIVITY OF MUD CAKE
RMF .OHMM     0.25                 : RMF          - RESISTIVITY OF MUD FILTRATE
SUFT.C        15                   : SUFT         - SURFACE TEMPERATURE
~A  DEPTH     RESD     PHID     PHIN       GR
# ...
  293.500   13.384    0.021    0.350   73.524
  293.750   13.143    0.236    0.357   77.794
  294.000   12.902    0.270    0.341   80.236
  294.250   12.432    0.277    0.341   78.408
  294.500   12.204    0.285    0.360   75.362
  294.750   11.540    0.256    0.372   75.973
  295.000   10.711    0.252    0.373   79.634
  295.250   10.126    0.249    0.377   84.515
  295.500    9.224    0.258    0.389   86.346
  295.750    8.887    0.258    0.405   91.226
  296.000    8.561    0.216    0.417   97.325
  296.250    8.249    0.189    0.427  104.035
  296.500    7.949    0.198    0.420  107.085
  296.750    7.952    0.210    0.415  105.868
  297.000    7.956    0.209    0.426  110.138
  297.250    7.959    0.223    0.418  108.921
  297.500    8.269    0.227    0.407  102.215
  297.750    8.751    0.216    0.400   95.510
  298.000    9.090    0.226    0.404  100.390
  298.250   10.182    0.220    0.413   98.563
  298.500   10.575    0.218    0.420   99.784
  298.750   11.194    0.234    0.426   99.177
  299.000   11.627    0.251    0.379  100.398
  299.250   11.852    0.264    0.367   97.961
  299.500   12.082    0.277    0.358   92.475
  299.750   12.088    0.284    0.356   91.258
  300.000   12.092    0.275    0.363   99.796
  300.250   12.328    0.269    0.357  105.896
  300.500   12.808    0.254    0.366   94.922
  300.750   12.811    0.240    0.376   96.144
  301.000   12.817    0.222    0.380   91.268
  301.250   12.584    0.221    0.387   89.441
  301.500   11.900    0.226    0.380   89.442
  301.750   11.044    0.210    0.387   88.835
  302.000   10.841    0.196    0.393   96.765
  302.250    9.874    0.205    0.410   97.985
  302.500    9.694    0.218    0.399   96.159
  302.750    9.884    0.196    0.391   94.940
  303.000   10.266    0.182    0.382   90.674
  303.250   10.866    0.233    0.369   82.140
  303.500   11.941    0.281    0.352   72.996
  303.750   13.374    0.359    0.346   61.412
  304.000   13.890    0.309    0.336   55.926
  304.250   14.703    0.266    0.332   62.026
  304.500   15.567    0.227    0.318   60.199
  304.750   15.868    0.115    0.324   55.323
  305.000   16.174    0.111    0.368   54.105
  305.250   16.181    0.239    0.371   62.034
  305.500   15.888    0.254    0.368   67.524
  305.750   15.893    0.254    0.377   74.234
  306.000   15.607    0.257    0.382   71.187
  306.250   15.037    0.270    0.384   76.066
  306.500   14.487    0.275    0.380   83.386
  306.750   13.700    0.272    0.377   85.217
  307.000   13.198    0.242    0.378   87.048
  307.250   12.959    0.223    0.388   84.612
  307.500   13.209    0.218    0.389   84.004
  307.750   13.214    0.230    0.389   82.177
  308.000   13.727    0.218    0.383   79.739
  308.250   14.533    0.227    0.378   69.375
  308.500   15.383    0.244    0.371   65.719
  308.750   15.680    0.256    0.367   71.209
  309.000   15.685    0.273    0.379   71.211
  309.250   15.696    0.287    0.378   71.213
  309.500   15.702    0.287    0.380   73.654
  309.750   15.415    0.279    0.383   70.607
  310.000   15.134    0.273    0.380   76.097
  310.250   14.858    0.271    0.367   77.928
  310.500   14.587    0.292    0.368   77.930
  310.750   14.058    0.316    0.370   75.494
  311.000   13.544    0.309    0.364   76.105
  311.250   12.104    0.295    0.372   79.766
  311.500   10.617    0.266    0.384   85.255
  311.750    9.313    0.235    0.364   91.355
  312.000    8.804    0.214    0.362   89.528
  312.250    7.870    0.205    0.363   86.481
  312.500    7.167    0.202    0.385   89.532
  312.750    7.036    0.212    0.379   94.412
  313.000    7.040    0.238    0.379   90.756
  313.250    7.178    0.234    0.372   88.928
  313.500    6.914    0.219    0.366   87.101
  313.750    7.459    0.230    0.377   85.274
  314.000    7.746    0.241    0.388   86.495
  314.250    8.356    0.248    0.380   76.741
  314.500    8.680    0.243    0.378   70.646
  314.750    9.016    0.234    0.370   73.088
  315.000    9.193    0.228    0.367   73.698
  315.250    9.370    0.245    0.374   72.481
  315.500    9.373    0.250    0.389   70.654
  315.750    9.377    0.238    0.380   71.266
  316.000    8.869    0.241    0.377   73.097
  316.250    8.707    0.244    0.378   71.880
  316.500    8.709    0.260    0.383   71.272
  316.750    8.716    0.259    0.391   70.054
  317.000    8.557    0.263    0.397   71.886
  317.250    8.561    0.266    0.379   70.668
  317.500    8.563    0.267    0.370   63.353
  317.750    8.567    0.255    0.384   62.135
  318.000    8.733    0.258    0.381   64.576
  318.250    8.736    0.281    0.389   62.139
  318.500    8.742    0.299    0.380   61.532
  318.750    8.745    0.316    0.373   58.485
  319.000    8.586    0.320    0.384   60.927
  319.250    8.591    0.300    0.394   62.148
  319.500    8.435    0.284    0.384   60.321
  319.750    8.438    0.283    0.375   59.713
  320.000    8.285    0.299    0.358   61.545
  320.250    8.287    0.311    0.352   60.327
  320.500    8.290    0.312    0.365   55.450
  320.750    8.294    0.293    0.363   53.014
  321.000    8.144    0.278    0.365   57.894
  321.250    8.147    0.285    0.365   61.554
  321.500    7.998    0.311    0.381   62.166
  321.750    7.422    0.306    0.395   56.071
  322.000    6.634    0.312    0.383   51.804
  322.250    6.273    0.327    0.375   51.806
  322.500    5.821    0.336    0.376   56.686
  322.750    5.609    0.339    0.370   59.127
  323.000    5.303    0.342    0.362   57.910
  323.250    5.110    0.360    0.363   55.473
  323.500    5.017    0.364    0.372   55.476
  323.750    5.412    0.336    0.378   56.087
  324.000    5.728    0.350    0.359   56.088
  324.250    5.839    0.362    0.367   53.042
  324.500    5.521    0.096    0.334   49.385
  324.750    5.221    0.287    0.336   45.119
  325.000    4.936    0.329    0.358   48.780
  325.250    4.668    0.344    0.370   53.050
  325.500    4.413    0.355    0.370   56.101
  325.750    4.173    0.351    0.362   59.151
  326.000    4.097    0.337    0.349   61.593
  326.250    3.948    0.331    0.371   62.814
  326.500    3.876    0.332    0.376   59.158
  326.750    3.878    0.344    0.379   59.770
  327.000    3.738    0.327    0.382   62.821
  327.250    3.810    0.318    0.379   63.432
  327.500    3.811    0.332    0.396   63.434
  327.750    3.742    0.348    0.401   64.657
  328.000    3.674    0.358    0.402   64.657
  328.250    3.675    0.356    0.412   60.391
  328.500    3.608    0.354    0.408   59.174
  328.750    3.543    0.359    0.385   61.005
  329.000    3.544    0.355    0.397   65.886
  329.250    3.546    0.349    0.407   62.229
  329.500    3.482    0.355    0.398   58.572
  329.750    3.483    0.348    0.395   57.965
  330.000    3.419    0.365    0.396   58.576
  330.250    3.420    0.370    0.404   62.237
  330.500    3.359    0.326    0.411   65.897
  330.750    3.360    0.282    0.415   75.656
  331.000    3.425    0.268    0.415   78.097
  331.250    3.492    0.288    0.415   70.172
  331.500    3.628    0.319    0.412   68.954
  331.750    3.629    0.366    0.408   66.518
  332.000    3.770    0.373    0.397   64.080
  332.250    3.771    0.346    0.395   59.205
  332.500    3.773    0.333    0.390   58.597
  332.750    3.704    0.319    0.398   62.867
  333.000    3.570    0.330    0.420   63.479
  333.250    3.505    0.335    0.415   60.432
  333.500    3.506    0.318    0.396   59.215
  333.750    3.574    0.304    0.386   55.558
  334.000    3.644    0.311    0.380   48.853
  334.250    3.714    0.316    0.380   43.977
  334.500    3.786    0.318    0.377   45.808
  334.750    3.648    0.317    0.384   53.737
  335.000    3.385    0.306    0.388   66.544
  335.250    3.083    0.268    0.410   84.229
  335.500    2.861    0.241    0.417   94.597
  335.750    2.756    0.246    0.429   99.477
  336.000    2.706    0.262    0.420   98.869
  336.250    2.865    0.288    0.424   93.993
  336.500    3.269    0.266    0.415   92.775
  336.750    3.592    0.256    0.402   92.168
