~VERSION INFORMATION
 VERS.                 2.0:   CWLS LOG ASCII STANDARD -VERSION 2.0
 WRAP.                  NO:   ONE LINE PER DEPTH STEP
~WELL INFORMATION BLOCK
#MNEM.UNIT           DATA                    DESCRIPTION OF MNEMONIC
#---------    -------------------            -------------------------------
# Generated from Intellog Unique Number	CS_67_68/WELL/644
WELL.         FISHER CREEK                   : Well_name    - WELL
LOC .         00/06-09-068-04W4/0            : Location     - LOCATION
UWI .         00/06-09-068-04W4/0            : Uwi          - UNIQUE WELL ID
ENTR.         SP                             : Entered      - ENTERED BY
SRVC.         SCHLUMBERGER                   : Scn          - SERVICE COMPANY
STRT.M        335                            : top_depth    - START DEPTH
STOP.M        565                            : bot_depth    - STOP DEPTH
STEP.M        0.25                           : increment    - STEP LENGTH
 NULL. -999.2500:NULL Value
~CURVE INFORMATION BLOCK
#MNEM UNIT       ERCB CURVE CODE    CURVE DESCRIPTION
#-----------   ------------------   ----------------------------------
DEPT.M        00 001 00 00         : DEPTH        - DEPTH
ILD .OHMM     00 120 00 00         : RESD         - DEEP RESISTIVITY (DIL)
DPHI.V/V      00 890 00 00         : PHID         - DENSITY POROSITY (LIMESTONE)
NPHI.V/V      00 330 00 00         : PHIN         - NEUTRON POROSITY (LIMESTONE)
GR  .API      00 310 00 00         : GR           - GAMMA RAY
~PARAMETER INFORMATION
#MNEM.UNIT           DATA             DESCRIPTION OF MNEMONIC
#---------         -----------     ------------------------------
GL  .M        692.65               : gl           - GROUND LEVEL ELEVATION
EREF.M        696.5                : kb           - ELEVATION OF DEPTH REFERENCE
DATM.M        692.65               : datum        - DATUM ELEVATION
TDD .M        568                  : tdd          - TOTAL DEPTH DRILLER
RUN .         ONE                  : Run          - RUN NUMBER
ENG .         BILL                 : Engineer     - RECORDING ENGINEER
WIT .         JIM                  : Witness      - WITNESSED BY
MUD .         GEL                  : Mud_type     - MUD TYPE
MATR.         LIMESTONE            : Logunit      - NEUTRON MATRIX
TMAX.C        20.5                 : BHT          - MAXIMUM RECORDED TEMPERATURE
BHTD.M        568                  : BHTDEP       - MAXIMUM RECORDED TEMPERATURE
MATR.         1                    : LOGUNIT      - NEUTRON MATRIX
RMT .C        25                   : MDTP         - TEMPERATURE OF MUD
NEUT.         1                    : NEUTRON      - NEUTRON TYPE
RESI.         0                    : RESIST       - RESISTIVITY TYPE
RMC .OHMM     0.25                 : RMC          - RESISTIVITY OF MUD CAKE
RMF .OHMM     0.25                 : RMF          - RESISTIVITY OF MUD FILTRATE
SUFT.C        15                   : SUFT         - SURFACE TEMPERATURE
~A  DEPTH     RESD     PHID     PHIN       GR
# ...
  422.000    7.116    0.291    0.450   60.838
  422.250    7.026    0.303    0.434   60.300
  422.500    6.977    0.316    0.424   63.509
  422.750    6.903    0.296    0.416   66.783
  423.000    6.879    0.282    0.428   68.703
  423.250    6.767    0.263    0.444   69.882
  423.500    6.571    0.255    0.428   71.063
  423.750    6.285    0.244    0.416   72.001
  424.000    5.988    0.237    0.434   72.508
  424.250    5.924    0.251    0.450   71.543
  424.500    6.085    0.254    0.455   68.735
  424.750    6.179    0.248    0.457   66.726
  425.000    6.275    0.254    0.460   67.540
  425.250    6.325    0.254    0.439   69.338
  425.500    6.316    0.252    0.426   71.076
  425.750    6.272    0.250    0.432   72.009
  426.000    6.147    0.255    0.438   72.761
  426.250    5.948    0.264    0.440   72.042
  426.500    5.871    0.270    0.446   69.726
  426.750    5.808    0.277    0.446   68.085
  427.000    5.865    0.283    0.440   67.856
  427.250    5.802    0.277    0.435   71.187
  427.500    5.805    0.270    0.453   68.872
  427.750    5.840    0.284    0.471   64.163
  428.000    5.909    0.300    0.479   63.012
  428.250    5.967    0.287    0.479   67.017
  428.500    6.014    0.273    0.480   71.392
  428.750    6.073    0.267    0.493   73.373
  429.000    6.088    0.276    0.495   73.266
  429.250    6.056    0.282    0.480   71.871
  429.500    6.025    0.287    0.469   70.291
  429.750    5.983    0.280    0.458   69.325
  430.000    5.930    0.269    0.449   70.140
  430.250    5.910    0.254    0.431   74.577
  430.500    5.924    0.241    0.467   78.826
  430.750    5.971    0.238    0.488   79.580
  431.000    6.075    0.238    0.467   79.413
  431.250    6.216    0.242    0.444   79.676
  431.500    6.396    0.246    0.458   80.119
  431.750    6.593    0.257    0.474   78.850
  432.000    6.861    0.265    0.465   77.820
  432.250    7.086    0.249    0.455   79.496
  432.500    7.063    0.230    0.444   81.659
  432.750    6.896    0.224    0.445   83.517
  433.000    6.608    0.225    0.454   85.375
  433.250    6.417    0.224    0.474   86.925
  433.500    6.336    0.219    0.481   85.039
  433.750    6.279    0.212    0.475   80.944
  434.000    6.188    0.228    0.476   80.226
  434.250    6.054    0.233    0.494   81.346
  434.500    5.866    0.253    0.519   80.378
  434.750    5.653    0.281    0.537   79.597
  435.000    5.438    0.273    0.468   83.912
  435.250    5.270    0.259    0.478   86.934
  435.500    5.136    0.256    0.503   85.968
  435.750    4.977    0.259    0.526   82.611
  436.000    4.878    0.247    0.517   82.626
  436.250    4.762    0.230    0.465   84.976
  436.500    4.642    0.219    0.459   88.796
  436.750    4.617    0.215    0.458   92.311
  437.000    4.593    0.216    0.458   94.416
  437.250    4.596    0.214    0.469   94.372
  437.500    4.641    0.212    0.444   93.344
  437.750    4.713    0.217    0.453   92.806
  438.000    4.742    0.233    0.471   85.519
  438.250    4.770    0.232    0.480   80.686
  438.500    4.799    0.230    0.463   77.756
  438.750    4.802    0.224    0.456   83.359
  439.000    4.813    0.215    0.457   87.425
  439.250    4.726    0.216    0.473   90.697
  439.500    4.511    0.214    0.505   89.489
  439.750    4.196    0.211    0.533   88.154
  440.000    4.006    0.225    0.524   87.004
  440.250    3.940    0.240    0.524   86.036
  440.500    4.047    0.253    0.532   81.142
  440.750    4.380    0.271    0.505   76.125
  441.000    4.750    0.293    0.509   70.864
  441.250    4.998    0.298    0.521   65.724
  441.500    5.269    0.312    0.492   62.242
  441.750    5.587    0.322    0.465   59.560
  442.000    5.770    0.325    0.466   56.076
  442.250    5.915    0.322    0.480   53.332
  442.500    6.029    0.317    0.475   51.997
  442.750    6.135    0.316    0.467   54.407
  443.000    6.183    0.323    0.464   56.757
  443.250    6.244    0.326    0.471   57.323
  443.500    6.270    0.323    0.477   54.516
  443.750    6.297    0.323    0.474   55.519
  444.000    6.359    0.329    0.479   56.761
  444.250    6.434    0.330    0.462   56.959
  444.500    6.510    0.328    0.448   54.096
  444.750    6.611    0.329    0.448   53.372
  445.000    6.702    0.326    0.457   53.879
  445.250    6.742    0.321    0.471   55.001
  445.500    6.795    0.316    0.487   55.016
  445.750    6.824    0.310    0.491   54.357
  446.000    6.814    0.306    0.470   55.112
  446.250    6.766    0.306    0.451   56.907
  446.500    6.769    0.304    0.442   56.681
  446.750    6.823    0.301    0.445   56.387
  447.000    6.890    0.306    0.453   56.894
  447.250    6.971    0.311    0.446   58.877
  447.500    7.027    0.304    0.445   60.796
  447.750    7.043    0.307    0.454   61.486
  448.000    6.994    0.315    0.449   60.889
  448.250    6.867    0.309    0.433   58.515
  448.500    6.680    0.305    0.446   56.933
  448.750    6.534    0.295    0.459   57.440
  449.000    6.477    0.286    0.436   64.637
  449.250    6.324    0.280    0.423   72.204
  449.500    6.186    0.279    0.441   75.472
  449.750    6.039    0.287    0.464   74.077
  450.000    6.042    0.293    0.484   64.887
  450.250    6.170    0.291    0.471   62.634
  450.500    6.385    0.294    0.466   64.186
  450.750    6.533    0.300    0.461   65.244
  451.000    6.698    0.312    0.458   65.874
  451.250    6.738    0.320    0.452   65.215
  451.500    6.691    0.327    0.449   66.459
  451.750    6.484    0.316    0.469   68.746
  452.000    6.179    0.308    0.497   68.579
  452.250    6.010    0.317    0.483   66.754
  452.500    5.824    0.323    0.487   66.340
  452.750    5.645    0.279    0.499   69.492
  453.000    5.490    0.257    0.498   72.086
  453.250    5.232    0.251    0.498   73.879
  453.500    4.958    0.257    0.507   76.226
  453.750    4.715    0.261    0.493   78.762
  454.000    4.510    0.264    0.483   80.497
  454.250    4.330    0.264    0.483   81.063
  454.500    4.324    0.266    0.496   81.023
  454.750    4.507    0.272    0.507   80.668
  455.000    4.682    0.280    0.511   79.950
  455.250    4.826    0.275    0.491   79.287
  455.500    4.975    0.260    0.471   78.997
  455.750    5.100    0.249    0.467   81.715
  456.000    5.238    0.238    0.479   85.047
  456.250    5.057    0.245    0.499   87.336
  456.500    4.372    0.250    0.529   88.392
  456.750    3.674    0.250    0.544   89.022
  457.000    3.009    0.256    0.558   88.181
  457.250    2.529    0.269    0.576   86.417
  457.500    2.347    0.272    0.567   86.681
  457.750    2.353    0.259    0.541   88.412
  458.000    2.467    0.245    0.516   90.456
  458.250    2.660    0.236    0.523   91.883
  458.500    2.874    0.237    0.540   93.066
  458.750    3.070    0.239    0.531   93.082
  459.000    3.254    0.235    0.539   89.846
  459.250    3.623    0.237    0.511   80.105
  459.500    4.226    0.248    0.488   75.945
  459.750    5.383    0.259    0.488   73.138
  460.000    6.446    0.268    0.489   73.156
  460.250    7.283    0.275    0.470   73.364
  460.500    7.722    0.271    0.463   73.750
  460.750    7.975    0.262    0.474   73.890
  461.000    8.024    0.258    0.478   73.959
  461.250    7.732    0.250    0.489   73.673
  461.500    7.354    0.219    0.514   73.316
  461.750    6.865    0.144    0.539   69.157
  462.000    6.566    0.031    0.264   56.654
  462.250    6.375    0.148    0.421   55.749
  462.500    6.426    0.198    0.466   64.299
  462.750    6.228    0.228    0.495   69.715
  463.000    5.857    0.247    0.483   74.580
  463.250    5.508    0.252    0.469   74.168
  463.500    5.429    0.259    0.459   72.894
  463.750    5.431    0.250    0.450   71.255
  464.000    5.444    0.242    0.456   71.271
  464.250    5.508    0.239    0.471   73.130
  464.500    5.605    0.248    0.457   74.310
  464.750    5.670    0.239    0.451   74.879
  465.000    5.758    0.247    0.460   73.487
  465.250    5.848    0.255    0.450   72.703
