~VERSION INFORMATION
 VERS.                 2.0:   CWLS LOG ASCII STANDARD -VERSION 2.0
 WRAP.                  NO:   ONE LINE PER DEPTH STEP
~WELL INFORMATION BLOCK
#MNEM.UNIT           DATA                    DESCRIPTION OF MNEMONIC
#---------    -------------------            -------------------------------
# Generated from Intellog Unique Number	CS_73_76/WELL/2158
WELL.         PEX KIRBY                      : Well_name    - WELL
LOC .         00/07-13-075-07W4/0            : Location     - LOCATION
UWI .         00/07-13-075-07W4/0            : Uwi          - UNIQUE WELL ID
ENTR.         SP                             : Entered      - ENTERED BY
SRVC.         SCHLUMBERGER                   : Scn          - SERVICE COMPANY
STRT.M        245                            : top_depth    - START DEPTH
STOP.M        475                            : bot_depth    - STOP DEPTH
STEP.M        0.25                           : increment    - STEP LENGTH
 NULL. -999.2500:NULL Value
~CURVE INFORMATION BLOCK
#MNEM UNIT       ERCB CURVE CODE    CURVE DESCRIPTION
#-----------   ------------------   ----------------------------------
DEPT.M        00 001 00 00         : DEPTH        - DEPTH
ILD .OHMM     00 120 00 00         : RESD         - DEEP RESISTIVITY (DIL)
DPHI.V/V      00 890 00 00         : PHID         - DENSITY POROSITY (LIMESTONE)
NPHI.V/V      00 330 00 00         : PHIN         - NEUTRON POROSITY (LIMESTONE)
GR  .API      00 310 00 00         : GR           - GAMMA RAY
~PARAMETER INFORMATION
#MNEM.UNIT           DATA             DESCRIPTION OF MNEMONIC
#---------         -----------     ------------------------------
GL  .M        642.12               : gl           - GROUND LEVEL ELEVATION
EREF.M        645.4                : kb           - ELEVATION OF DEPTH REFERENCE
DATM.M        642.12               : datum        - DATUM ELEVATION
TDD .M        480                  : tdd          - TOTAL DEPTH DRILLER
RUN .         ONE                  : Run          - RUN NUMBER
ENG .         BILL                 : Engineer     - RECORDING ENGINEER
WIT .         JIM                  : Witness      - WITNESSED BY
MUD .         GEL                  : Mud_type     - MUD TYPE
MATR.         LIMESTONE            : Logunit      - NEUTRON MATRIX
TMAX.C        21                   : BHT          - MAXIMUM RECORDED TEMPERATURE
BHTD.M        480                  : BHTDEP       - MAXIMUM RECORDED TEMPERATURE
MATR.         1                    : LOGUNIT      - NEUTRON MATRIX
RMT .C        25                   : MDTP         - TEMPERATURE OF MUD
NEUT.         1                    : NEUTRON      - NEUTRON TYPE
RESI.         0                    : RESIST       - RESISTIVITY TYPE
RMC .OHMM     0.25                 : RMC          - RESISTIVITY OF MUD CAKE
RMF .OHMM     0.25                 : RMF          - RESISTIVITY OF MUD FILTRATE
SUFT.C        15                   : SUFT         - SURFACE TEMPERATURE
~A  DEPTH     RESD     PHID     PHIN       GR
# ...
  288.500    9.087    0.170    0.375   94.229
  288.750   10.562    0.184    0.387   88.115
  289.000   12.048    0.201    0.373   83.835
  289.250   13.743    0.214    0.355   81.393
  289.500   14.540    0.211    0.342   88.134
  289.750   14.265    0.201    0.343   93.038
  290.000   12.500    0.187    0.352   93.659
  290.250   11.375    0.187    0.374   96.114
  290.500   10.748    0.176    0.373  110.203
  290.750    9.596    0.165    0.360  115.720
  291.000    8.898    0.167    0.363  116.339
  291.250    8.731    0.165    0.382  115.120
  291.500    8.567    0.191    0.379  112.065
  291.750    8.565    0.207    0.360  111.459
  292.000    8.891    0.188    0.348  110.244
  292.250    9.407    0.200    0.361  107.800
  292.500    9.951    0.182    0.377  105.969
  292.750   10.728    0.180    0.385  102.916
  293.000   12.236    0.191    0.365  100.474
  293.250   12.945    0.188    0.347  100.479
  293.500   13.955    0.201    0.334  102.323
  293.750   14.763    0.208    0.349   99.882
  294.000   15.042    0.214    0.358   95.606
  294.250   15.616    0.225    0.365   95.609
  294.500   15.321    0.220    0.360   98.064
  294.750   15.318    0.219    0.349   99.909
  295.000   15.030    0.213    0.359  100.527
  295.250   15.311    0.199    0.364  103.595
  295.500   15.600    0.182    0.358  106.051
  295.750   15.596    0.171    0.356  102.384
  296.000   15.018    0.155    0.365   98.718
  296.250   13.925    0.138    0.354   95.662
  296.500   12.671    0.154    0.348   92.607
  296.750   11.972    0.193    0.353   98.124
  297.000   11.101    0.229    0.338  100.581
  297.250   10.293    0.203    0.332  101.199
  297.500   10.889    0.231    0.359   96.309
  297.750   14.441    0.247    0.370   92.029
  298.000   16.473    0.251    0.372   83.464
  298.250   18.791    0.278    0.367   71.227
  298.500   20.642    0.301    0.357   62.049
  298.750   19.140    0.291    0.355   54.096
  299.000   17.414    0.284    0.367   62.675
  299.250   16.768    0.287    0.373   65.744
  299.500   16.145    0.282    0.377   70.649
  299.750   15.841    0.295    0.371   74.330
  300.000   16.446    0.268    0.359   74.947
  300.250   18.067    0.259    0.357   73.728
  300.500   19.846    0.271    0.365   73.123
  300.750   19.842    0.282    0.376   74.354
  301.000   18.055    0.296    0.365   76.810
  301.250   15.524    0.291    0.367   81.104
  301.500   14.396    0.264    0.374   86.009
  301.750   13.099    0.205    0.377   89.075
  302.000   12.147    0.181    0.370   87.247
  302.250   11.263    0.192    0.385   91.539
  302.500   10.443    0.198    0.393   93.994
  302.750   10.246    0.209    0.395   92.163
  303.000   10.839    0.216    0.400   93.397
  303.250   11.907    0.228    0.392   92.178
  303.500   12.836    0.254    0.399   89.734
  303.750   13.580    0.232    0.383   87.292
  304.000   13.835    0.231    0.366   85.462
  304.250   14.096    0.234    0.356   84.856
  304.500   14.360    0.238    0.349   79.966
  304.750   14.090    0.253    0.351   78.137
  305.000   14.086    0.253    0.360   78.142
  305.250   13.822    0.239    0.353   79.986
  305.500   13.819    0.223    0.361   82.441
  305.750   14.078    0.236    0.351   79.390
  306.000   14.076    0.271    0.357   76.945
  306.250   14.339    0.284    0.372   73.279
  306.500   14.886    0.276    0.383   71.448
  306.750   15.455    0.256    0.377   70.842
  307.000   15.746    0.273    0.373   68.400
  307.250   16.043    0.292    0.362   69.022
  307.500   16.652    0.294    0.352   69.640
  307.750   16.650    0.291    0.359   69.644
  308.000   16.964    0.281    0.358   67.203
  308.250   16.960    0.270    0.375   65.372
  308.500   16.958    0.253    0.381   62.930
  308.750   16.636    0.271    0.362   59.877
  309.000   16.633    0.279    0.362   58.045
  309.250   16.630    0.288    0.354   62.950
  309.500   16.626    0.292    0.352   63.569
  309.750   16.622    0.292    0.357   62.351
  310.000   16.618    0.298    0.361   64.807
  310.250   16.615    0.293    0.375   69.711
  310.500   16.612    0.289    0.383   64.820
  310.750   16.609    0.288    0.389   64.214
  311.000   16.605    0.306    0.365   62.384
  311.250   16.601    0.314    0.354   64.230
  311.500   16.598    0.321    0.348   66.684
  311.750   16.594    0.323    0.351   66.078
  312.000   16.591    0.315    0.352   63.637
  312.250   16.588    0.300    0.367   64.256
  312.500   16.585    0.285    0.367   59.977
  312.750   16.582    0.289    0.371   62.434
  313.000   16.579    0.299    0.380   61.215
  313.250   16.891    0.294    0.370   58.161
  313.500   16.888    0.283    0.360   56.941
  313.750   16.884    0.275    0.371   57.563
  314.000   16.881    0.269    0.379   56.344
  314.250   16.878    0.268    0.368   55.127
  314.500   17.195    0.277    0.354   53.908
  314.750   17.191    0.275    0.344   51.465
  315.000   17.188    0.279    0.349   52.084
  315.250   17.512    0.285    0.348   52.091
  315.500   17.508    0.289    0.357   50.263
  315.750   17.502    0.290    0.353   52.105
  316.000   17.498    0.289    0.357   55.785
  316.250   17.495    0.299    0.370   58.242
  316.500   17.166    0.312    0.384   60.698
  316.750   17.162    0.313    0.396   61.926
  317.000   16.839    0.318    0.407   63.770
  317.250   16.836    0.321    0.393   63.778
  317.500   16.516    0.314    0.385   65.623
  317.750   16.514    0.306    0.371   64.403
  318.000   16.512    0.299    0.347   61.961
  318.250   16.198    0.290    0.338   63.804
  318.500   16.196    0.307    0.338   62.587
  318.750   16.193    0.305    0.358   61.981
  319.000   16.191    0.308    0.375   62.600
  319.250   16.185    0.316    0.376   64.444
  319.500   16.183    0.318    0.383   66.286
  319.750   15.878    0.324    0.361   66.294
  320.000   15.875    0.316    0.344   63.851
  320.250   15.870    0.307    0.344   62.021
  320.500   15.868    0.308    0.345   63.252
  320.750   15.569    0.307    0.348   65.708
  321.000   15.565    0.319    0.350   64.491
  321.250   15.562    0.323    0.351   62.049
  321.500   15.856    0.314    0.344   60.830
  321.750   18.429    0.319    0.322   58.388
  322.000   20.629    0.293    0.273   55.946
  322.250   22.240    0.036    0.236   52.280
  322.500   23.089    0.083    0.305   55.348
  322.750   22.231    0.297    0.333   59.027
  323.000   20.228    0.324    0.348   60.870
  323.250   19.113    0.301    0.371   60.879
  323.500   17.392    0.306    0.380   60.884
  323.750   16.434    0.299    0.373   62.115
  324.000   15.528    0.292    0.368   64.571
  324.250   14.671    0.298    0.377   67.026
  324.500   14.394    0.308    0.388   68.869
  324.750   14.123    0.320    0.399   68.876
  325.000   13.598    0.334    0.390   67.659
  325.250   13.091    0.345    0.375   63.993
  325.500   12.845    0.326    0.362   63.386
  325.750   12.843    0.285    0.355   63.393
  326.000   13.085    0.303    0.346   58.502
  326.250   13.329    0.307    0.341   59.120
  326.500   13.327    0.302    0.344   64.026
  326.750   13.325    0.301    0.354   66.481
  327.000   13.074    0.291    0.352   64.651
  327.250   13.072    0.282    0.346   63.433
  327.500   13.066    0.278    0.328   64.052
  327.750   14.356    0.292    0.352   62.835
  328.000   14.624    0.285    0.358   64.677
  328.250   14.622    0.285    0.350   66.522
  328.500   14.898    0.283    0.351   64.692
  328.750   14.894    0.281    0.361   63.473
  329.000   14.892    0.282    0.380   67.768
  329.250   14.887    0.287    0.389   67.163
  329.500   14.607    0.304    0.379   64.720
  329.750   14.605    0.303    0.396   67.175
  330.000   14.329    0.295    0.413   70.243
  330.250   14.326    0.294    0.406   70.861
  330.500   14.324    0.294    0.373   70.867
  330.750   14.053    0.293    0.371   67.814
  331.000   14.051    0.297    0.361   65.372
  331.250   13.784    0.288    0.357   63.544
  331.500   13.781    0.282    0.363   62.936
  331.750   14.041    0.271    0.366   65.392
