~VERSION INFORMATION
 VERS.                 2.0:   CWLS LOG ASCII STANDARD -VERSION 2.0
 WRAP.                  NO:   ONE LINE PER DEPTH STEP
~WELL INFORMATION BLOCK
#MNEM.UNIT           DATA                    DESCRIPTION OF MNEMONIC
#---------    -------------------            -------------------------------
# Generated from Intellog Unique Number	CX_WELLS/WELL/2849
WELL.         CMME THORNBURY                 : Well_name    - WELL
LOC .         00/09-14-081-14W4/0            : Location     - LOCATION
UWI .         00/09-14-081-14W400            : Uwi          - UNIQUE WELL ID
ENTR.         T                              : Entered      - ENTERED BY
SRVC.         SCHLUMBERGER                   : Scn          - SERVICE COMPANY
STRT.M        215                            : top_depth    - START DEPTH
STOP.M        425                            : bot_depth    - STOP DEPTH
STEP.M        0.25                           : increment    - STEP LENGTH
 NULL. -999.2500:NULL Value
~CURVE INFORMATION BLOCK
#MNEM UNIT       ERCB CURVE CODE    CURVE DESCRIPTION
#-----------   ------------------   ----------------------------------
DEPT.M        00 001 00 00         : DEPTH        - DEPTH
GR  .API      00 310 00 00         : GR           - GAMMA RAY
NPHI.V/V      00 330 00 00         : PHIN         - NEUTRON POROSITY (SANDSTONE)
DPHI.V/V      00 890 00 00         : PHID         - DENSITY POROSITY (SANDSTONE)
ILD .OHMM     00 120 00 00         : RESD         - DEEP RESISTIVITY (OTHER)
~PARAMETER INFORMATION
#MNEM.UNIT           DATA             DESCRIPTION OF MNEMONIC
#---------         -----------     ------------------------------
GL  .M        643.4                : gl           - GROUND LEVEL ELEVATION
EREF.M        647.8                : kb           - ELEVATION OF DEPTH REFERENCE
DATM.M        647.8                : datum        - DATUM ELEVATION
TDD .M        432                  : tdd          - TOTAL DEPTH DRILLER
RUN .         ONE                  : Run          - RUN NUMBER
ENG .         BILL                 : Engineer     - RECORDING ENGINEER
WIT .         JIM                  : Witness      - WITNESSED BY
MUD .         GEL                  : Mud_type     - MUD TYPE
MATR.         SANDSTONE            : Logunit      - NEUTRON MATRIX
TMAX.C        20                   : BHT          - MAXIMUM RECORDED TEMPERATURE
BHTD.M        432                  : BHTDEP       - MAXIMUM RECORDED TEMPERATURE
MATR.         1                    : LOGUNIT      - NEUTRON MATRIX
RMT .C        17                   : MDTP         - TEMPERATURE OF MUD
NEUT.         1                    : NEUTRON      - NEUTRON TYPE
RESI.         8.6                  : RESIST       - RESISTIVITY TYPE
RMC .OHMM     7.8                  : RMC          - RESISTIVITY OF MUD CAKE
RMF .OHMM     7.8                  : RMF          - RESISTIVITY OF MUD FILTRATE
SUFT.C        4                    : SUFT         - SURFACE TEMPERATURE
~A  DEPTH       GR     PHIN     PHID     RESD
  215.000  101.847    0.520    0.257    4.203
  215.250   99.425    0.521    0.259    4.045
  215.500   97.004    0.520    0.257    3.967
  215.750   95.791    0.517    0.247    3.967
  216.000   95.195    0.510    0.236    4.121
  216.250   97.043    0.526    0.231    4.282
  216.500   98.276    0.536    0.233    4.802
  216.750   99.510    0.539    0.231    5.284
  217.000   99.524    0.530    0.226    5.489
  217.250   98.319    0.509    0.215    6.040
  217.500   94.671    0.507    0.197    6.774
  217.750   85.537    0.506    0.183    7.313
  218.000   74.575    0.504    0.222    8.202
  218.250   66.661    0.472    0.245    9.025
  218.500   63.017    0.436    0.291   10.317
  218.750   64.864    0.431    0.293   11.137
  219.000   64.272    0.433    0.301   11.351
  219.250   63.676    0.433    0.327   11.569
  219.500   63.080    0.436    0.333   11.349
  219.750   63.704    0.440    0.335   11.132
  220.000   67.377    0.452    0.331   11.346
  220.250   68.608    0.461    0.310   11.564
  220.500   71.064    0.461    0.300   11.343
  220.750   72.298    0.458    0.291   11.127
  221.000   76.581    0.456    0.286   10.915
  221.250   82.084    0.455    0.277   10.913
  221.500   81.488    0.450    0.269   10.912
  221.750   74.184    0.443    0.263   11.779
  222.000   66.271    0.446    0.261   12.714
  222.250   60.797    0.446    0.267   12.959
  222.500   55.932    0.436    0.279   13.463
  222.750   54.117    0.412    0.287   13.722
  223.000   54.741    0.394    0.253   14.255
  223.250   57.804    0.394    0.237   13.983
  223.500   61.481    0.411    0.263   13.457
  223.750   64.544    0.416    0.284   11.768
  224.000   68.827    0.416    0.282   10.899
  224.250   74.329    0.416    0.263    9.903
  224.500   79.222    0.418    0.252    8.177
  224.750   83.505    0.423    0.249    6.498
  225.000   88.401    0.444    0.249    5.365
  225.250   90.855    0.466    0.253    4.515
  225.500   91.479    0.499    0.258    3.949
  225.750   91.493    0.527    0.264    3.728
  226.000   89.681    0.528    0.268    3.799
  226.250   88.472    0.507    0.255    3.947
  226.500   86.660    0.511    0.249    4.261
  226.750   86.065    0.512    0.257    4.599
  227.000   94.003    0.497    0.272    5.159
  227.250   98.896    0.477    0.278    5.786
  227.500  101.959    0.473    0.273    5.675
  227.750   84.288    0.485    0.264    5.567
  228.000   74.545    0.500    0.268    6.244
  228.250   68.461    0.459    0.282    6.740
  228.500   63.597    0.422    0.293    7.560
  228.750   59.952    0.384    0.307    8.318
  229.000   59.356    0.389    0.310    9.330
  229.250   65.472    0.394    0.309   10.666
  229.500   71.585    0.398    0.305   11.295
  229.750   76.477    0.368    0.298   11.512
  230.000   71.613    0.347    0.263   11.511
  230.250   65.529    0.300    0.093   11.509
  230.500   58.835    0.311    0.129   10.866
  230.750   71.046    0.358    0.173    9.322
  231.000   89.964    0.409    0.215    7.697
  231.250   97.913    0.429    0.215    6.994
  231.500   99.757    0.438    0.215    6.993
  231.750   98.548    0.458    0.228    7.127
  232.000   94.300    0.465    0.246    7.404
  232.250   92.478    0.456    0.273    7.692
  232.500   90.662    0.449    0.279    8.146
  232.750   90.067    0.434    0.283    9.136
  233.000   89.471    0.424    0.285    9.492
  233.250   85.826    0.421    0.288   10.246
  233.500   79.746    0.410    0.294   11.491
  233.750   76.707    0.400    0.313   11.939
  234.000   72.460    0.390    0.321   12.404
  234.250   71.254    0.388    0.326   13.135
  234.500   72.488    0.389    0.335   13.646
  234.750   75.555    0.395    0.336   14.177
  235.000   76.782    0.402    0.330   14.728
  235.250   78.629    0.410    0.320   15.012
  235.500   79.863    0.416    0.311   15.300
  235.750   82.316    0.419    0.306   15.594
  236.000   83.546    0.421    0.307   15.592
  236.250   84.780    0.420    0.312   15.294
  236.500   82.362    0.421    0.317   15.003
  236.750   80.543    0.427    0.324   15.290
  237.000   81.167    0.429    0.326   15.289
  237.250   87.280    0.425    0.322   15.288
  237.500   94.612    0.420    0.317   15.285
  237.750   97.675    0.415    0.307   15.284
  238.000   97.079    0.409    0.292   14.708
  238.250   92.215    0.405    0.266   14.154
  238.500   90.407    0.405    0.232   13.620
  238.750   90.417    0.407    0.225   11.911
  239.000   86.166    0.417    0.232   10.823
  239.250   81.908    0.426    0.242   11.682
  239.500   77.044    0.433    0.265   12.137
  239.750   72.789    0.428    0.303   12.136
  240.000   70.974    0.421    0.322   11.903
  240.250   70.992    0.413    0.327   11.903
  240.500   74.058    0.410    0.328   11.901
  240.750   77.114    0.412    0.302   11.453
  241.000   85.056    0.438    0.272   11.234
  241.250   95.437    0.445    0.139   10.405
  241.500  102.167    0.457    0.144    9.275
  241.750  104.620    0.467    0.154    8.111
  242.000  107.073    0.480    0.164    6.697
  242.250  108.304    0.496    0.161    5.856
  242.500  111.367    0.500    0.167    5.745
  242.750  112.601    0.502    0.186    5.744
  243.000  112.618    0.508    0.201    5.743
  243.250  112.023    0.515    0.211    5.742
  243.500  110.817    0.498    0.211    5.853
  243.750  106.566    0.485    0.181    5.852
  244.000  102.921    0.485    0.149    5.965
  244.250  105.371    0.491    0.146    5.740
  244.500  109.048    0.498    0.153    5.215
  244.750  110.282    0.506    0.167    4.649
  245.000  111.516    0.512    0.201    4.144
  245.250  113.363    0.501    0.218    3.838
  245.500  113.980    0.476    0.229    4.064
  245.750  115.217    0.452    0.237    4.647
  246.000  112.178    0.431    0.247    5.626
  246.250  105.492    0.422    0.259    6.432
  246.500  101.843    0.418    0.273    7.078
  246.750   96.983    0.424    0.282    8.092
  247.000   94.557    0.428    0.275    9.251
  247.250   96.401    0.434    0.264    9.986
  247.500   98.854    0.434    0.252   10.575
  247.750  100.088    0.431    0.233   10.778
  248.000  100.102    0.423    0.240   10.777
  248.250   98.897    0.422    0.258   10.775
  248.500   98.301    0.433    0.235    9.980
  248.750   99.531    0.449    0.223    8.896
  249.000  106.257    0.460    0.223    8.083
  249.250  109.930    0.459    0.248    7.068
  249.500  109.944    0.414    0.257    7.344
  249.750  106.909    0.408    0.264    8.558
  250.000  103.268    0.409    0.267    9.784
  250.250  102.059    0.414    0.268   10.165
  250.500  100.244    0.424    0.268   10.360
  250.750   97.209    0.435    0.268   10.559
  251.000   92.345    0.433    0.269   10.761
  251.250   90.529    0.427    0.268   10.760
  251.500   94.812    0.418    0.264   10.759
  251.750   91.174    0.413    0.263   10.758
  252.000   86.920    0.412    0.266   10.756
  252.250   83.882    0.414    0.269   10.963
  252.500   77.797    0.418    0.275   10.962
  252.750   72.937    0.420    0.279   10.961
  253.000   68.678    0.428    0.284   10.960
  253.250   64.424    0.438    0.281   11.170
  253.500   63.832    0.450    0.266   11.168
  253.750   66.895    0.451    0.259   11.383
  254.000   68.739    0.445    0.254   11.381
  254.250   68.753    0.438    0.254   11.380
  254.500   68.763    0.435    0.261   11.599
  254.750   70.611    0.431    0.276   11.598
  255.000   73.064    0.430    0.283   11.596
  255.250   74.911    0.438    0.285   11.595
  255.500   77.365    0.445    0.286   11.158
  255.750   79.814    0.428    0.287   10.738
  256.000   87.146    0.409    0.289   10.137
  256.250   92.649    0.396    0.284    9.389
  256.500   97.542    0.395    0.274    8.696
  256.750  106.707    0.410    0.242    7.901
  257.000  112.819    0.442    0.229    7.179
  257.250  115.276    0.470    0.225    6.523
  257.500  114.070    0.481    0.229    6.158
  257.750  111.036    0.492    0.229    6.276
  258.000  106.781    0.500    0.229    6.906
  258.250  101.913    0.505    0.230    7.175
