~VERSION INFORMATION
 VERS.                 2.0:   CWLS LOG ASCII STANDARD -VERSION 2.0
 WRAP.                  NO:   ONE LINE PER DEPTH STEP
~WELL INFORMATION BLOCK
#MNEM.UNIT           DATA                    DESCRIPTION OF MNEMONIC
#---------    -------------------            -------------------------------
# Generated from Intellog Unique Number	CW_79_81/WELL/2446
WELL.         AMOCO PELICAN                  : Well_name    - WELL
LOC .         00/05-01-081-23W4/0            : Location     - LOCATION
UWI .         00/05-01-081-23W4/0            : Uwi          - UNIQUE WELL ID
ENTR.         MAX                            : Entered      - ENTERED BY
SRVC.         COMPUTALOG                     : Scn          - SERVICE COMPANY
STRT.M        200                            : top_depth    - START DEPTH
STOP.M        459.75                         : bot_depth    - STOP DEPTH
STEP.M        0.25                           : increment    - STEP LENGTH
 NULL. -999.2500:NULL Value
~CURVE INFORMATION BLOCK
#MNEM UNIT       ERCB CURVE CODE    CURVE DESCRIPTION
#-----------   ------------------   ----------------------------------
DEPT.M        00 001 00 00         : DEPTH        - DEPTH
ILD .OHMM     00 120 00 00         : RESD         - DEEP RESISTIVITY (DIL)
NPHI.V/V      00 330 00 00         : PHIN         - NEUTRON POROSITY (SANDSTONE)
DPHI.V/V      00 890 00 00         : PHID         - DENSITY POROSITY (SANDSTONE)
GR  .API      00 310 00 00         : GR           - GAMMA RAY
CALI.MM       00 280 01 00         : CAL          - CALIPER
~PARAMETER INFORMATION
#MNEM.UNIT           DATA             DESCRIPTION OF MNEMONIC
#---------         -----------     ------------------------------
GL  .M        593.34               : gl           - GROUND LEVEL ELEVATION
EREF.M        597.04               : kb           - ELEVATION OF DEPTH REFERENCE
DATM.M        593.34               : datum        - DATUM ELEVATION
TDD .M        456                  : tdd          - TOTAL DEPTH DRILLER
RUN .         ONE                  : Run          - RUN NUMBER
ENG .         BILL                 : Engineer     - RECORDING ENGINEER
WIT .         JIM                  : Witness      - WITNESSED BY
MUD .         GEL                  : Mud_type     - MUD TYPE
MATR.         SANDSTONE            : Logunit      - NEUTRON MATRIX
TMAX.C        31                   : BHT          - MAXIMUM RECORDED TEMPERATURE
BHTD.M        456                  : BHTDEP       - MAXIMUM RECORDED TEMPERATURE
MATR.         1                    : LOGUNIT      - NEUTRON MATRIX
RMT .C        21                   : MDTP         - TEMPERATURE OF MUD
NEUT.         1                    : NEUTRON      - NEUTRON TYPE
RESI.         0                    : RESIST       - RESISTIVITY TYPE
RMC .OHMM     4.9                  : RMC          - RESISTIVITY OF MUD CAKE
RMF .OHMM     5.6                  : RMF          - RESISTIVITY OF MUD FILTRATE
SUFT.C        -10                  : SUFT         - SURFACE TEMPERATURE
~A  DEPTH     RESD     PHIN     PHID       GR      CAL
# ...
  419.000   24.803    0.375    0.289   63.284  210.485
  419.250   23.901    0.386    0.274   67.393  211.738
  419.500   22.641    0.372    0.211   71.142  212.992
  419.750   21.337    0.349    0.157   74.411  214.243
  420.000   19.870    0.335    0.140   77.498  215.492
  420.250   17.400    0.350    0.163   81.985  217.007
  420.500   15.162    0.357    0.174   86.273  218.313
  420.750   13.541    0.357    0.171   83.182  217.979
  421.000   12.172    0.350    0.173   80.995  217.033
  421.250   10.968    0.342    0.179   81.266  215.880
  421.500    9.971    0.346    0.188   84.713  215.028
  421.750    9.162    0.381    0.197   91.531  215.094
  422.000    8.683    0.423    0.200   93.063  215.151
  422.250    8.687    0.404    0.191   82.067  214.406
  422.500    9.380    0.389    0.201   72.143  213.362
  422.750   11.453    0.374    0.211   63.180  212.814
  423.000   15.904    0.359    0.203   58.357  212.963
  423.250   21.755    0.340    0.152   66.047  213.759
  423.500   24.110    0.321    0.139   75.580  215.492
  423.750   22.883    0.356    0.155   80.641  215.536
  424.000   20.488    0.376    0.175   87.507  215.592
  424.250   16.258    0.385    0.187   95.456  215.647
  424.500   12.613    0.384    0.193  101.307  215.696
  424.750   10.822    0.368    0.204   97.123  215.758
  425.000   10.827    0.352    0.220   85.664  215.820
  425.250   12.185    0.329    0.260   69.150  214.676
  425.500   15.040    0.330    0.273   58.213  214.127
  425.750   18.748    0.339    0.273   53.328  212.777
  426.000   22.247    0.348    0.270   53.417  210.932
  426.250   26.438    0.357    0.269   56.406  210.524
  426.500   28.161    0.364    0.264   59.185  210.154
  426.750   29.243    0.369    0.255   61.615  210.203
  427.000   29.703    0.362    0.232   64.406  210.560
  427.250   30.051    0.350    0.196   64.557  211.017
  427.500   30.685    0.325    0.137   61.530  211.571
  427.750   32.123    0.257    0.030   56.655  212.768
  428.000   33.419    0.223    0.002   53.695  214.485
  428.250   36.268    0.238    0.040   54.447  215.344
  428.500   38.325    0.282    0.115   56.633  215.600
  428.750   38.046    0.318    0.170   61.219  216.052
  429.000   34.205    0.337    0.192   68.686  216.904
  429.250   26.276    0.368    0.215   79.092  217.776
  429.500   21.405    0.385    0.231   79.369  217.810
  429.750   21.256    0.389    0.252   75.565  217.865
  430.000   21.465    0.376    0.258   76.799  217.620
  430.250   20.492    0.365    0.248   80.548  217.275
  430.500   17.630    0.369    0.231   84.896  217.028
  430.750   12.237    0.395    0.218   88.885  217.089
  431.000    7.975    0.413    0.207   90.668  217.146
  431.250    6.643    0.406    0.210   92.619  216.806
  431.500    6.025    0.420    0.212   94.750  216.159
  431.750    5.726    0.439    0.212   96.937  215.611
  432.000    5.581    0.452    0.210   99.244  215.265
  432.250    5.519    0.453    0.204  102.174  214.926
  432.500    5.608    0.434    0.203  103.453  214.983
  432.750    5.867    0.423    0.201  100.852  216.636
  433.000    6.104    0.434    0.206   98.603  217.386
  433.250    6.363    0.454    0.244   95.755  217.638
  433.500    6.659    0.476    0.302   92.732  217.694
  433.750    7.023    0.503    0.334   91.538  217.766
  434.000    7.307    0.517    0.349   92.564  217.829
  434.250    7.587    0.526    0.371   90.436  217.867
  434.500    7.836    0.537    0.385   87.410  217.918
  434.750    8.019    0.537    0.377   85.285  217.576
  435.000    8.098    0.521    0.349   85.139  216.935
  435.250    8.005    0.486    0.321   87.839  216.516
  435.500    7.824    0.461    0.314   90.371  216.145
  435.750    7.597    0.460    0.313   92.798  216.200
  436.000    7.460    0.482    0.303   96.665  216.263
  436.250    7.324    0.511    0.293  100.417  216.317
  436.500    7.179    0.532    0.286  103.153  216.462
  436.750    7.077    0.531    0.271  104.721  216.924
  437.000    7.081    0.513    0.258  105.255  216.986
  437.250    7.084    0.453    0.223   96.413  217.041
  437.500    7.207    0.421    0.176   93.330  216.792
  437.750    7.428    0.412    0.184   95.518  216.641
  438.000    7.688    0.419    0.229  100.762  216.893
  438.250    7.927    0.429    0.197  102.924  217.764
  438.500    8.247    0.433    0.162   91.968  217.821
  438.750    8.755    0.428    0.144   87.682  217.071
  439.000    9.247    0.413    0.191   86.811  216.025
  439.250    9.818    0.401    0.241   88.403  215.480
  439.500   10.472    0.397    0.267   90.476  215.533
  439.750   11.274    0.405    0.278   90.087  215.677
  440.000   12.593    0.404    0.274   90.374  216.150
  440.250   13.174    0.397    0.262   91.360  216.205
  440.500   13.035    0.393    0.247   91.988  216.260
  440.750   12.898    0.395    0.243   91.779  216.514
  441.000   13.024    0.396    0.253   90.792  216.770
  441.250   13.290    0.383    0.265   89.929  216.440
  441.500   13.612    0.379    0.252   91.462  216.485
  441.750   14.238    0.400    0.257   93.173  216.545
  442.000   14.571    0.396    0.266   89.128  216.597
  442.250   14.468    0.379    0.256   85.322  216.646
  442.500   14.022    0.357    0.229   84.815  216.496
  442.750   13.210    0.327    0.208   87.783  215.425
  443.000   11.866    0.300    0.194   88.070  213.823
  443.250   10.761    0.279    0.212   87.381  214.676
  443.500    9.936    0.270    0.218   88.669  215.227
  443.750    9.334    0.284    0.220   93.015  215.678
  444.000    8.932    0.327    0.220   97.846  216.034
  444.250    8.699    0.404    0.216   97.078  216.103
  444.500    8.503    0.392    0.201   97.859  216.149
  444.750    8.194    0.376    0.191   93.819  216.209
  445.000    7.762    0.363    0.184   91.389  216.261
  445.250    7.371    0.384    0.199   94.415  216.110
  445.500    7.093    0.442    0.241  100.623  215.864
  445.750    6.940    0.507    0.306   97.875  215.940
  446.000    6.943    0.508    0.305   79.172  215.991
  446.250    7.263    0.463    0.287   75.612  216.045
  446.500    7.892    0.415    0.278   74.561  216.100
  446.750    8.911    0.384    0.281   72.793  216.152
  447.000   10.544    0.375    0.288   71.266  216.203
  447.250   13.588    0.366    0.269   76.991  216.268
  447.500   14.705    0.356    0.247   86.267  216.319
  447.750   13.643    0.342    0.232   95.894  216.368
  448.000   11.437    0.380    0.235  100.127  216.725
  448.250    9.989    0.405    0.231  102.915  216.982
  448.500    9.319    0.388    0.217  103.003  216.936
  448.750    8.985    0.331    0.215   92.279  216.430
  449.000    8.989    0.308    0.218   84.074  215.654
  449.250    9.060    0.298    0.212   84.823  214.904
  449.500    9.031    0.320    0.207   86.833  214.163
  449.750    8.968    0.336    0.219   89.022  213.820
  450.000    8.922    0.335    0.248   90.552  213.872
  450.250    8.969    0.334    0.278   90.585  213.846
  450.500    9.186    0.338    0.282   89.366  213.498
  450.750    9.752    0.341    0.267   88.920  213.148
  451.000   10.411    0.341    0.267   89.729  213.401
  451.250   11.531    0.336    0.273   91.798  213.855
  451.500   13.047    0.326    0.273   94.050  214.108
  451.750   13.761    0.309    0.246   94.184  213.602
  452.000   13.768    0.309    0.234   93.472  212.820
  452.250   13.166    0.322    0.225   93.498  212.475
  452.500   12.092    0.333    0.213   93.886  212.130
  452.750   10.757    0.340    0.203   94.277  211.783
  453.000    9.233    0.342    0.203   94.252  211.336
  453.250    7.431    0.337    0.237   93.188  210.611
  453.500    6.725    0.328    0.274   92.466  210.651
  453.750    6.432    0.332    0.281   93.221  210.311
  454.000    6.437    0.344    0.272   94.154  210.271
  454.250    6.415    0.350    0.255   94.904  210.323
  454.500    6.252    0.346    0.239   95.174  210.468
  454.750    6.008    0.341    0.233   94.431  210.930
  455.000    5.918    0.340    0.240   92.966  210.992
  455.250    5.922    0.352    0.246   91.797  211.047
