~VERSION INFORMATION
 VERS.                 2.0:   CWLS LOG ASCII STANDARD -VERSION 2.0
 WRAP.                  NO:   ONE LINE PER DEPTH STEP
~WELL INFORMATION BLOCK
#MNEM.UNIT           DATA                    DESCRIPTION OF MNEMONIC
#---------    -------------------            -------------------------------
# Generated from Intellog Unique Number	CW_82_90/WELL/3052
WELL.         I.O.E. BUFFALO RIVER 04-32     : Well_name    - WELL
LOC .         00/04-32-085-23W4/0            : Location     - LOCATION
UWI .         00/04-32-085-23W4/0            : Uwi          - UNIQUE WELL ID
ENTR.         JJ                             : Entered      - ENTERED BY
SRVC.         SCHLUMBERGER                   : Scn          - SERVICE COMPANY
DATE.         24 JAN 66                      : Date         - LOG DATE
STRT.M        213.36                         : top_depth    - START DEPTH
STOP.M        341.36                         : bot_depth    - STOP DEPTH
STEP.M        0.25                           : increment    - STEP LENGTH
 NULL. -999.2500:NULL Value
~CURVE INFORMATION BLOCK
#MNEM UNIT       ERCB CURVE CODE    CURVE DESCRIPTION
#-----------   ------------------   ----------------------------------
DEPT.M        00 001 00 00         : DEPTH        - DEPTH
CALI.MM       00 280 01 00         : CAL          - CALIPER
GR  .API      00 310 00 00         : GR           - GAMMA RAY
DELT.US/F     00 520 00 00         : DELT         - SONIC TRAVEL TIME
ILD .OHMM     00 120 00 00         : RESD         - DEEP RESISTIVITY (DIL)
~PARAMETER INFORMATION
#MNEM.UNIT           DATA             DESCRIPTION OF MNEMONIC
#---------         -----------     ------------------------------
GL  .M        550                  : gl           - GROUND LEVEL ELEVATION
EREF.M        554.736              : kb           - ELEVATION OF DEPTH REFERENCE
DATM.M        554.736              : datum        - DATUM ELEVATION
TDD .M        983.285              : tdd          - TOTAL DEPTH DRILLER
RUN .         ONE                  : Run          - RUN NUMBER
ENG .         BERRY/WOLFRAM        : Engineer     - RECORDING ENGINEER
WIT .         RYAN                 : Witness      - WITNESSED BY
BASE.         EDMONTON             : Branch       - HOME BASE OF LOGGING UNIT
MUD .         GEL                  : Mud_type     - MUD TYPE
MATR.         SANDSTONE            : Logunit      - NEUTRON MATRIX
TMAX.C        32.2222              : BHT          - MAXIMUM RECORDED TEMPERATURE
BHTD.M        982.675              : BHTDEP       - MAXIMUM RECORDED TEMPERATURE
RMT .C        17.7778              : MDTP         - TEMPERATURE OF MUD
MUDD.KG/M     1140                 : MWT          - MUD DENSITY
NEUT.         1                    : NEUTRON      - NEUTRON TYPE
RESI.         0                    : RESIST       - RESISTIVITY TYPE
RM  .OHMM     0.8                  : RM           - RESISTIVITY OF MUD
RMC .OHMM     0.83                 : RMC          - RESISTIVITY OF MUD CAKE
RMF .OHMM     0.54                 : RMF          - RESISTIVITY OF MUD FILTRATE
SUFT.C        5                    : SUFT         - SURFACE TEMPERATURE
~A  DEPTH      CAL       GR     DELT     RESD
# ...
  256.860  242.059   85.748  424.092   12.943
  257.110  250.515   94.270  404.703   13.501
  257.360  237.678   86.093  393.790   13.267
  257.610  241.457   81.788  379.110   12.712
  257.860  245.333   92.775  400.256   12.732
  258.110  229.834   88.926  404.059   12.914
  258.360  227.966   82.659  390.723   13.264
  258.610  227.060   83.991  394.193   13.442
  258.860  227.420   84.715  408.819   13.565
  259.110  228.630   84.887  413.831   13.669
  259.360  226.441   82.492  409.974   13.688
  259.610  222.868   77.031  396.773   13.376
  259.860  222.703   71.872  405.951   13.045
  260.110  225.828   82.609  400.749   12.855
  260.360  232.597   89.272  402.807   12.526
  260.610  235.077   92.007  399.553   12.008
  260.860  241.204   88.055  398.116   11.182
  261.110  246.567   79.878  396.207   10.896
  261.360  258.320   79.447  380.453   11.096
  261.610  276.998   84.297  390.774   11.588
  261.860  285.032   75.567  431.478   11.831
  262.110  264.952   70.606  437.635   12.223
  262.360  248.601   87.732  442.786   12.877
  262.610  237.361   86.697  410.093   13.595
  262.860  233.362   79.980  414.300   11.288
  263.110  233.512   75.726  373.206    9.597
  263.360  243.142   72.978  371.230    9.274
  263.610  276.298   77.729  395.735    9.184
  263.860  316.597   73.222  428.575    8.606
  264.110  299.495   70.327  466.390    7.984
  264.360  304.865   76.687  514.016    7.553
  264.610  262.960   81.286  411.557    7.594
  264.860  240.858   81.208  439.222    7.733
  265.110  259.325   71.570  461.642    8.269
  265.360  281.517   70.436  490.317    9.765
  265.610  248.130   72.872  527.190   14.004
  265.860  237.848   76.265  372.236   17.583
  266.110  236.189   73.316  362.262   22.293
  266.360  239.535   75.953  245.889   26.512
  266.610  245.123   72.002  271.335   23.957
  266.860  248.998   70.212  291.202   21.486
  267.110  250.109   66.462  306.432   18.519
  267.360  247.178   72.672  315.884   15.347
  267.610  244.242   73.898  329.768   11.867
  267.860  244.706   74.372  361.601    9.560
  268.110  250.825   66.848  376.966    8.487
  268.360  262.899   65.414  389.912    7.190
  268.610  282.428   75.746  412.132    6.345
  268.860  300.578   78.080  440.200    6.053
  269.110  290.613   70.757  435.532    6.301
  269.360  284.910   82.852  411.374    6.997
  269.610  287.722   79.907  395.419    8.373
  269.860  296.184   78.117  397.008    9.133
  270.110  298.462   81.258  415.530    9.235
  270.360  298.830   76.601  426.191    8.864
  270.610  289.290   78.835  411.979    8.591
  270.860  265.805   77.097  388.498    8.260
  271.110  349.754   72.594  385.850    8.258
  271.360  364.705   74.827  443.155    8.502
  271.610  372.310   78.823  453.479    9.180
  271.860  354.894   84.477  424.281   10.248
  272.110  309.049   92.898  419.615   11.459
  272.360  241.589   95.185  396.668   12.634
  272.610  237.801   86.404  385.419   12.937
  272.860  237.530   83.909  392.312   13.041
  273.110  241.513   88.056  399.678   12.830
  273.360  245.714   81.489  407.717   12.499
  273.610  241.391   81.609  414.614   12.646
  273.860  234.415   79.820  419.427   13.242
  274.110  235.099   74.308  409.654   14.142
  274.360  238.231   85.398  419.037   15.269
  274.610  234.865   80.540  417.394   15.535
  274.860  230.872   75.533  364.942   15.120
  275.110  231.980   72.937  358.125   15.490
  275.360  232.347   75.930  377.929   15.121
  275.610  232.708   80.776  435.705   13.781
  275.860  233.283   71.341  443.407   12.422
  276.110  235.885   78.806  430.406   11.737
  276.360  241.681   73.899  433.875   11.324
  276.610  248.008   76.838  417.716   11.611
  276.860  257.105   69.822  433.819   12.307
  277.110  261.624   66.568  424.720   14.816
  277.360  262.523   68.452  411.785   20.143
  277.610  261.073   70.589  365.851   25.863
  277.860  252.922   64.019  346.538   33.188
  278.110  251.583   61.323  324.732   41.131
  278.360  249.823   65.522  293.117   45.781
  278.610  244.541   57.897  249.401   48.290
  278.860  244.060   49.718  221.750   49.194
  279.110  245.174   55.071  246.725   48.966
  279.360  246.806   52.128  256.041   47.297
  279.610  247.492   49.481  237.464   42.868
  279.860  247.540   53.878  231.587   33.831
  280.110  246.731   52.591  223.494   27.901
  280.360  246.779   50.249  214.530   22.342
  280.610  247.355   56.408  223.570   17.730
  280.860  249.103   66.088  237.395   16.083
  281.110  257.350   70.686  293.422   15.132
  281.360  259.847   72.569  334.330   14.905
  281.610  259.682   78.627  383.032   15.582
  281.860  258.342   75.934  359.681   16.854
  282.110  255.722   73.742  341.440   17.636
  282.360  255.021   83.070  340.402   17.450
  282.610  256.986   78.915  370.624   17.261
  282.860  254.691   76.672  367.705   17.962
  283.110  253.035   72.118  317.808   18.387
  283.360  253.181   78.178  303.395   17.502
  283.610  254.726   71.506  353.106   15.814
  283.860  256.789   74.397  380.972   15.274
  284.110  257.154   84.528  384.441   15.916
  284.360  255.394   71.370  382.262   16.611
  284.610  253.306   75.566  396.820   17.512
  284.860  256.329   75.388  401.229   18.930
  285.110  260.210   69.120  382.382   20.265
  285.360  258.977   76.541  373.213   20.573
  285.610  257.530   79.778  307.589   18.947
  285.860  259.285   69.437  302.183   17.628
  286.110  261.138   76.653  315.932   16.883
  286.360  261.297   80.700  327.804   16.324
  286.610  262.613   83.636  342.093   15.789
  286.860  266.285   81.293  353.359   15.250
  287.110  268.025   85.893  376.051   14.755
  287.360  268.397   86.418  385.365   14.633
  287.610  266.946   78.693  373.307   14.753
  287.860  269.337   85.656  354.594   14.995
  288.110  272.153   92.620  365.255   15.138
  288.360  272.520   76.747  380.149   15.136
  288.610  271.603   81.998  401.026   15.009
  288.860  269.843   82.023  367.929   14.968
  289.110  269.568   82.444  352.711   15.273
  289.360  269.716   85.083  349.524   14.926
  289.610  273.707   86.413  382.636   14.552
  289.860  275.027   84.824  397.593   14.526
  290.110  271.235   87.311  386.344   15.140
  290.360  267.028   84.161  374.422   14.688
  290.610  265.367   84.990  363.840   13.369
  290.860  271.692   86.014  367.242   12.524
  291.110  281.858   85.533  376.958   12.501
  291.360  288.606   80.626  383.724   13.175
  291.610  302.815   78.535  401.707   14.102
  291.860  293.383   83.989  412.634   14.469
  292.110  263.721   77.421  365.560   14.898
  292.360  254.291   69.395  327.827   15.659
  292.610  260.200   75.553  323.230   15.389
  292.860  268.865   80.960  340.275   14.254
  293.110  271.473   84.201  393.010   13.140
  293.360  270.657   87.141  382.092   12.378
  293.610  270.385   90.028  379.312   12.005
  293.860  269.798   93.216  378.342   11.966
  294.110  269.838   90.171  378.450   12.189
  294.360  272.974   85.713  380.839   12.492
  294.610  274.935   89.610  385.724   13.257
  294.860  271.783   97.730  391.002   14.158
  295.110  262.570   98.153  380.359   15.368
  295.360  255.803   86.153  324.950   16.520
  295.610  254.892   76.314  339.708   16.786
  295.860  255.040   81.167  381.489   15.549
  296.110  255.937   86.872  379.311   15.258
  296.360  256.941   91.016  367.384   16.390
  296.610  258.586   84.352  366.953   18.010
  296.860  258.424   86.936  366.925   21.219
  297.110  257.191   88.013  312.460   19.984
  297.360  255.203   84.262  282.389   17.369
  297.610  249.821   77.594  246.739   16.729
  297.860  274.675   70.120  275.478   16.375
  298.110  332.752   77.688  373.044   14.914
  298.360  289.245   74.088  393.045   13.550
  298.610  267.997   80.597  384.753   14.392
  298.860  271.023   84.140  366.712   19.145
  299.110  269.689   88.638  374.616   22.561
  299.360  266.545   83.781  376.471   22.742
  299.610  260.727   88.279  345.527   18.316
  299.860  255.129   77.939  291.258   15.042
  300.110  270.722   82.289  319.058   12.529
