~VERSION INFORMATION
 VERS.                 2.0:   CWLS LOG ASCII STANDARD -VERSION 2.0
 WRAP.                  NO:   ONE LINE PER DEPTH STEP
~WELL INFORMATION BLOCK
#MNEM.UNIT           DATA                    DESCRIPTION OF MNEMONIC
#---------    -------------------            -------------------------------
# Generated from Intellog Unique Number	CC_80_83/WELL/1183
NULL.         -999.25                        : NULL_VALUE
WELL.         PARA ET AL GRANOR              : Well_name    - WELL
LOC .         07-14-083-18W4                 : Location     - LOCATION          
UWI .         00/07-14-083-18W400            : Uwi          - UNIQUE WELL ID    
ENTR.         DW                             : Entered      - ENTERED BY        
SRVC.         COMPUTALOG                     : Scn          - SERVICE COMPANY   
DATE.         19 JAN 83                      : Date         - LOG DATE
STRT.M        105                            : top_depth    - START DEPTH       
STOP.M        294.9                          : bot_depth    - STOP DEPTH        
STEP.M        0.3                            : increment    - STEP LENGTH       
~CURVE INFORMATION BLOCK
#MNEM UNIT       ERCB CURVE CODE    CURVE DESCRIPTION
#-----------   ------------------   ----------------------------------
DEPT.M        00 001 00 00         : DEPTH        - DEPTH                       
DPHI.V/V      00 890 00 00         : PHID         - DENSITY POROSITY (LIMESTONE)
NPHI.V/V      00 330 00 00         : PHIN         - NEUTRON POROSITY (LIMESTONE)
GR  .API      00 310 00 00         : GR           - GAMMA RAY                   
ILD .OHMM     00 120 00 00         : RESD         - DEEP RESISTIVITY (DIL)      
~PARAMETER INFORMATION       
#MNEM.UNIT           DATA             DESCRIPTION OF MNEMONIC
#---------         -----------     ------------------------------
GL  .M        552.71               : gl           - GROUND LEVEL ELEVATION      
EREF.M        555.71               : kb           - ELEVATION OF DEPTH REFERENCE
DATM.M        555.71               : datum        - DATUM ELEVATION             
TDD .M        298                  : tdd          - TOTAL DEPTH DRILLER         
RUN .         ONE                  : Run          - RUN NUMBER                  
ENG .         BILL                 : Engineer     - RECORDING ENGINEER          
WIT .         JIM                  : Witness      - WITNESSED BY                
MUD .         GEL                  : Mud_type     - MUD TYPE                    
MATR.         LIMESTONE            : Logunit      - NEUTRON MATRIX              
TMAX.C        23                   : BHT          - MAXIMUM RECORDED TEMPERATURE
BHTD.M        298                  : BHTDEP       - MAXIMUM RECORDED TEMPERATURE
MATR.         1                    : LOGUNIT      - NEUTRON MATRIX              
RMT .C        25                   : MDTP         - TEMPERATURE OF MUD          
NEUT.         1                    : NEUTRON      - NEUTRON TYPE                
RESI.         0                    : RESIST       - RESISTIVITY TYPE            
RMC .OHMM     0.25                 : RMC          - RESISTIVITY OF MUD CAKE     
RMF .OHMM     0.25                 : RMF          - RESISTIVITY OF MUD FILTRATE 
SUFT.C        15                   : SUFT         - SURFACE TEMPERATURE         
~A  DEPTH     PHID     PHIN       GR     RESD
  105.000    0.288    0.393  102.543    5.308
  105.300    0.299    0.413  105.716    4.916
  105.600    0.309    0.435  108.889    4.640
  105.900    0.307    0.456  109.529    4.465
  106.200    0.321    0.453  107.638    4.914
  106.500    0.333    0.435   94.986    5.305
  106.800    0.349    0.377   51.952    5.008
  107.100    0.352    0.366   52.593    4.295
  107.400    0.347    0.446  100.073    3.613
  107.700    0.337    0.522  118.438    3.040
  108.000    0.319    0.508  122.244    2.709
  108.300    0.317    0.480  119.720    2.557
  108.600    0.330    0.502  113.397    2.657
  108.900    0.315    0.474  105.810    2.708
  109.200    0.320    0.461  101.389    2.760
  109.500    0.320    0.503  110.889    2.760
  109.800    0.309    0.494  118.494    2.759
  110.100    0.318    0.474  115.971    2.706
  110.400    0.325    0.476  112.181    2.655
  110.700    0.317    0.499  110.923    2.706
  111.000    0.322    0.502  112.197    2.758
  111.300    0.324    0.496  114.736    2.865
  111.600    0.324    0.499  115.376    2.921
  111.900    0.311    0.504  112.854    2.977
  112.200    0.296    0.484  109.697    3.034
  112.500    0.313    0.467  109.071    3.092
  112.800    0.324    0.483  112.244    3.152
  113.100    0.293    0.459  111.620    3.275
  113.400    0.284    0.444  109.728    3.338
  113.700    0.284    0.464  109.735    3.402
  114.000    0.289    0.494  111.644    3.468
  114.300    0.296    0.499  113.551    3.535
  114.600    0.285    0.469  114.191    3.602
  114.900    0.280    0.439  112.933    3.534
  115.200    0.277    0.435  111.042    3.533
  115.500    0.275    0.452  113.583    3.400
  115.800    0.284    0.510  117.389    3.400
  116.100    0.292    0.525  118.661    3.399
  116.400    0.290    0.499  114.239    3.399
  116.700    0.285    0.489  112.980    3.600
  117.000    0.291    0.487  113.621    3.812
  117.300    0.302    0.450  117.427    4.038
  117.600    0.307    0.444  116.170    4.195
  117.900    0.314    0.416  114.911    4.359
  118.200    0.294    0.416  115.553    4.617
  118.500    0.273    0.480  116.825    4.984
  118.800    0.287    0.517  109.870    5.923
  119.100    0.305    0.444   94.688    8.207
  119.400    0.320    0.344   76.340   10.734
  119.700    0.334    0.351   70.650   12.513
  120.000    0.345    0.365   74.456   13.001
  120.300    0.328    0.365   73.199   13.251
  120.600    0.338    0.371   69.410   13.506
  120.900    0.361    0.396   70.682   12.750
  121.200    0.366    0.374   81.451   10.522
  121.500    0.357    0.363   92.220    9.744
  121.800    0.352    0.407   98.556   10.124
  122.100    0.356    0.422   98.565   14.026
  122.400    0.370    0.386   85.914   18.702
  122.700    0.377    0.376   70.098   22.655
  123.000    0.367    0.356   63.777   21.800
  123.300    0.362    0.386   61.251   19.803
  123.600    0.376    0.449   72.020   19.055
  123.900    0.382    0.455   75.192   19.421
  124.200    0.375    0.406   70.137   19.796
  124.500    0.307    0.431   68.246   22.637
  124.800    0.312    0.441   73.951   23.977
  125.100    0.378    0.406   75.226   25.887
  125.400    0.386    0.385   72.068   28.490
  125.700    0.386    0.367   65.746   29.039
  126.000    0.377    0.361   65.121   29.598
  126.300    0.363    0.377   61.966   29.031
  126.600    0.366    0.378   59.441   28.476
  126.900    0.359    0.377   59.448   28.472
  127.200    0.361    0.399   60.725   28.470
  127.500    0.383    0.398   59.466   28.465
  127.800    0.389    0.374   57.573   28.463
  128.100    0.381    0.366   56.949   27.388
  128.400    0.379    0.358   58.857   26.863
  128.700    0.386    0.353   58.864   26.351
  129.000    0.391    0.359   58.240   24.400
  129.300    0.392    0.413   57.616   21.744
  129.600    0.392    0.409   57.623   18.648
  129.900    0.391    0.399   60.795   14.530
  130.200    0.376    0.409   62.703   11.105
  130.500    0.332    0.436   65.241    9.897
  130.800    0.335    0.404   71.579    8.990
  131.100    0.349    0.385   74.119    8.651
  131.400    0.353    0.380   73.494    8.817
  131.700    0.340    0.399   71.602    9.519
  132.000    0.329    0.429   81.104   11.097
  132.300    0.328    0.447   83.646   12.937
  132.600    0.347    0.448   79.222   14.238
  132.900    0.372    0.388   51.378   14.793
  133.200    0.384    0.377   47.592   14.235
  133.500    0.387    0.382   48.863   13.181
  133.800    0.387    0.384   52.036   12.684
  134.100    0.384    0.377   62.171   14.229
  134.400    0.380    0.378   79.903   16.588
  134.700    0.379    0.363   78.644   19.338
  135.000    0.380    0.356   65.992   21.282
  135.300    0.379    0.353   62.204   20.089
  135.600    0.368    0.358   63.478   17.903
  135.900    0.353    0.394   67.283   15.651
  136.200    0.340    0.414   72.988   14.217
  136.500    0.333    0.430   77.426   14.216
  136.800    0.331    0.413   75.539   14.770
  137.100    0.335    0.379   73.646   15.946
  137.400    0.344    0.358   73.653   16.889
  137.700    0.345    0.368   74.927   17.887
  138.000    0.358    0.399   71.770   18.232
  138.300    0.364    0.413   71.145   17.210
  138.600    0.365    0.416   73.684   15.337
  138.900    0.364    0.418   81.921   12.181
  139.200    0.349    0.425   92.056    8.960
  139.500    0.285    0.433  101.559    7.395
  139.800    0.263    0.431  111.062    7.984
  140.100    0.272    0.426  114.235    9.307
  140.400    0.297    0.418  108.547   10.243
  140.700    0.292    0.407  107.922   11.273
  141.000    0.283    0.399  109.197   12.170
  141.300    0.310    0.384  107.303   12.170
  141.600    0.322    0.357  102.249   12.168
  141.900    0.288    0.372  101.624   12.402
  142.200    0.277    0.379  105.430   12.401
  142.500    0.286    0.366  107.335   12.639
  142.800    0.285    0.365  104.178   12.397
  143.100    0.286    0.367   93.425   11.262
  143.400    0.292    0.394   92.168   10.631
  143.700    0.302    0.407  113.063    9.657
  144.000    0.284    0.411  118.769    9.843
  144.300    0.272    0.382  109.283   10.226
  144.600    0.279    0.353  105.492   10.424
  144.900    0.261    0.320  104.236   10.225
  145.200    0.256    0.331  104.243    9.112
  145.500    0.259    0.360  108.047    7.520
  145.800    0.281    0.397  121.348    6.206
  146.100    0.307    0.436  120.090    5.972
  146.400    0.338    0.410  116.302    6.087
  146.700    0.356    0.417  123.271    6.324
  147.000    0.342    0.446  132.774    6.323
  147.300    0.274    0.453  120.755    5.856
  147.600    0.245    0.447  118.231    4.651
  147.900    0.254    0.442  126.467    4.225
  148.200    0.262    0.471  134.072    4.144
  148.500    0.267    0.505  135.347    4.306
  148.800    0.292    0.488  134.088    5.741
  149.100    0.316    0.455  131.563    9.636
  149.400    0.309    0.394  117.646   10.811
  149.700    0.292    0.368  108.159   10.402
  150.000    0.294    0.372  105.635    9.449
  150.300    0.323    0.382  105.011    8.920
  150.600    0.342    0.401  108.818    7.949
  150.900    0.329    0.386  113.256    7.361
  151.200    0.295    0.369  118.960    7.220
  151.500    0.303    0.389  124.032    7.946
  151.800    0.325    0.422  124.672    9.264
  152.100    0.349    0.439  114.553   15.549
  152.400    0.382    0.384   94.939   16.469
  152.700    0.406    0.342   80.388   16.785
  153.000    0.409    0.365   63.307   16.465
  153.300    0.399    0.379   67.114   14.956
  153.600    0.394    0.375   70.286   14.391
  153.900    0.405    0.394   71.559   14.117
  154.201    0.404    0.390   73.466   14.115
  154.501    0.395    0.388   71.577   14.113
  154.801    0.388    0.410   69.050   14.111
  155.101    0.387    0.424   69.693   14.109
  155.401    0.383    0.402   70.333   14.108
  155.701    0.377    0.392   69.076   13.575
  156.001    0.388    0.409   68.451   13.316
  156.301    0.393    0.420   69.094   13.061
  156.601    0.392    0.400   69.731   13.059
  156.901    0.388    0.393   71.006   12.093
