~VERSION INFORMATION
 VERS.                 2.0:   CWLS LOG ASCII STANDARD -VERSION 2.0
 WRAP.                  NO:   ONE LINE PER DEPTH STEP
~WELL INFORMATION BLOCK
#MNEM.UNIT           DATA                    DESCRIPTION OF MNEMONIC
#---------    -------------------            -------------------------------
# Generated from Intellog Unique Number	CS_71_72/WELL/781
WELL.         SULPETRO BRENDA IPIATIK        : Well_name    - WELL
LOC .         00/06-28-072-10W4/0            : Location     - LOCATION
UWI .         00/06-28-072-10W4/0            : Uwi          - UNIQUE WELL ID
ENTR.         SP                             : Entered      - ENTERED BY
SRVC.         SCHLUMBERGER                   : Scn          - SERVICE COMPANY
STRT.M        300                            : top_depth    - START DEPTH
STOP.M        520                            : bot_depth    - STOP DEPTH
STEP.M        0.25                           : increment    - STEP LENGTH
 NULL. -999.2500:NULL Value
~CURVE INFORMATION BLOCK
#MNEM UNIT       ERCB CURVE CODE    CURVE DESCRIPTION
#-----------   ------------------   ----------------------------------
DEPT.M        00 001 00 00         : DEPTH        - DEPTH
ILD .OHMM     00 120 00 00         : RESD         - DEEP RESISTIVITY (DIL)
DPHI.V/V      00 890 00 00         : PHID         - DENSITY POROSITY (LIMESTONE)
NPHI.V/V      00 330 00 00         : PHIN         - NEUTRON POROSITY (LIMESTONE)
GR  .API      00 310 00 00         : GR           - GAMMA RAY
~PARAMETER INFORMATION
#MNEM.UNIT           DATA             DESCRIPTION OF MNEMONIC
#---------         -----------     ------------------------------
GL  .M        659.79               : gl           - GROUND LEVEL ELEVATION
EREF.M        662.39               : kb           - ELEVATION OF DEPTH REFERENCE
DATM.M        659.79               : datum        - DATUM ELEVATION
TDD .M        53.2                 : tdd          - TOTAL DEPTH DRILLER
RUN .         ONE                  : Run          - RUN NUMBER
ENG .         BILL                 : Engineer     - RECORDING ENGINEER
WIT .         JIM                  : Witness      - WITNESSED BY
MUD .         GEL                  : Mud_type     - MUD TYPE
MATR.         LIMESTONE            : Logunit      - NEUTRON MATRIX
TMAX.C        0.26                 : BHT          - MAXIMUM RECORDED TEMPERATURE
BHTD.M        532                  : BHTDEP       - MAXIMUM RECORDED TEMPERATURE
MATR.         1                    : LOGUNIT      - NEUTRON MATRIX
RMT .C        25                   : MDTP         - TEMPERATURE OF MUD
NEUT.         1                    : NEUTRON      - NEUTRON TYPE
RESI.         0                    : RESIST       - RESISTIVITY TYPE
RMC .OHMM     0.25                 : RMC          - RESISTIVITY OF MUD CAKE
RMF .OHMM     0.25                 : RMF          - RESISTIVITY OF MUD FILTRATE
SUFT.C        15                   : SUFT         - SURFACE TEMPERATURE
~A  DEPTH     RESD     PHID     PHIN       GR
# ...
  387.000   18.094    0.317    0.392   61.604
  387.250   18.093    0.318    0.400   60.988
  387.500   18.091    0.318    0.405   59.142
  387.750   18.088    0.319    0.402   58.526
  388.000   18.087    0.319    0.404   57.910
  388.250   17.748    0.320    0.404   58.524
  388.500   17.746    0.320    0.394   60.366
  388.750   17.745    0.317    0.408   60.980
  389.000   17.744    0.308    0.420   60.978
  389.250   17.742    0.307    0.433   60.977
  389.500   17.740    0.312    0.408   60.360
  389.750   17.739    0.312    0.382   59.745
  390.000   17.737    0.308    0.362   60.357
  390.250   17.736    0.310    0.362   61.586
  390.500   17.402    0.301    0.383   64.043
  390.750   17.401    0.297    0.393   65.271
  391.000   17.074    0.292    0.398   66.499
  391.250   17.073    0.296    0.386   67.728
  391.500   17.071    0.298    0.387   68.956
  391.750   16.750    0.294    0.381   70.184
  392.000   16.749    0.292    0.384   71.412
  392.250   16.434    0.289    0.394   72.026
  392.500   16.433    0.286    0.413   72.024
  392.750   16.124    0.284    0.404   72.638
  393.000   16.123    0.286    0.394   73.251
  393.250   15.820    0.288    0.381   74.479
  393.500   15.819    0.289    0.376   75.093
  393.750   15.817    0.287    0.382   75.705
  394.000   15.521    0.283    0.396   75.704
  394.250   15.520    0.291    0.409   75.703
  394.500   15.518    0.293    0.404   75.701
  394.750   15.517    0.291    0.377   76.315
  395.000   14.941    0.291    0.371   77.543
  395.250   14.386    0.294    0.397   78.156
  395.500   14.116    0.297    0.428   78.770
  395.750   13.592    0.298    0.420   78.769
  396.000   12.602    0.298    0.422   78.153
  396.250   11.467    0.297    0.423   78.151
  396.500    9.859    0.297    0.399   79.378
  396.750    8.638    0.292    0.378   80.607
  397.000    7.427    0.284    0.367   81.835
  397.250    6.266    0.278    0.354   84.293
  397.500    5.490    0.270    0.341   89.210
  397.750    5.286    0.264    0.349   93.511
  398.000    6.264    0.264    0.392   97.198
  398.250    7.149    0.275    0.434   97.197
  398.500    8.633    0.276    0.418   90.434
  398.750    9.135    0.280    0.402   83.055
  399.000    9.850    0.292    0.387   83.054
  399.250   10.423    0.283    0.371   86.740
  399.500   10.422    0.256    0.381   89.198
  399.750   10.036    0.245    0.401   91.041
  400.000    9.847    0.233    0.396   92.883
  400.250    9.662    0.231    0.373   92.882
  400.500    9.481    0.236    0.381   92.882
  400.750    9.129    0.245    0.386   90.421
  401.000    8.790    0.260    0.389   84.886
  401.250    8.305    0.271    0.351   84.885
  401.500    8.149    0.249    0.372   88.572
  401.750    7.996    0.239    0.403   90.415
  402.000    8.303    0.243    0.394   91.643
  402.250    8.622    0.252    0.366   90.413
  402.500    9.123    0.267    0.383   86.108
  402.750    9.838    0.278    0.429   82.418
  403.000   10.410    0.289    0.481   81.802
  403.250   11.225    0.291    0.506   82.415
  403.500   11.438    0.156    0.439   81.799
  403.750   10.807    0.124    0.260   81.183
  404.000    9.833    0.118    0.220   86.099
  404.250    9.117    0.151    0.188   89.787
  404.500    8.779    0.215    0.376   89.785
  404.750    8.295    0.240    0.386   86.710
  405.000    8.294    0.260    0.388   88.553
  405.250    8.452    0.257    0.418   91.011
  405.500    8.612    0.241    0.381   92.853
  405.750    8.775    0.219    0.356   92.852
  406.000    8.942    0.203    0.341   91.621
  406.250    8.941    0.194    0.352   90.390
  406.500    8.940    0.197    0.354   89.774
  406.750    8.772    0.207    0.356   89.773
  407.000    8.608    0.214    0.338   89.157
  407.250    8.288    0.214    0.323   90.999
  407.500    7.980    0.212    0.333   92.842
  407.750    7.684    0.213    0.355   94.070
  408.000    7.540    0.218    0.361   96.527
  408.250    7.398    0.227    0.362   96.526
  408.500    7.397    0.234    0.375   96.525
  408.750    7.397    0.238    0.376   96.524
  409.000    7.258    0.229    0.385   96.522
  409.250    7.257    0.223    0.390   96.521
  409.500    7.257    0.217    0.415   97.134
  409.750    7.256    0.214    0.409   97.748
  410.000    7.255    0.215    0.418   99.590
  410.250    7.255    0.220    0.406  100.204
  410.500    7.254    0.220    0.404  100.817
  410.750    7.254    0.215    0.399   98.972
  411.000    7.253    0.213    0.397   97.126
  411.250    7.252    0.214    0.422   95.895
  411.500    7.252    0.215    0.435   94.664
  411.750    7.251    0.215    0.422   95.892
  412.000    7.250    0.218    0.409   97.120
  412.250    7.250    0.215    0.393   97.734
  412.500    7.249    0.209    0.387   98.962
  412.750    7.248    0.202    0.399  100.190
  413.000    7.248    0.201    0.417  100.803
  413.250    7.247    0.201    0.392  100.187
  413.500    7.247    0.203    0.378   98.956
  413.750    7.111    0.207    0.361   98.340
  414.000    6.977    0.208    0.352  101.412
  414.250    6.846    0.202    0.371  103.870
  414.500    6.717    0.197    0.433  103.869
  414.750    6.591    0.194    0.422  102.023
  415.000    6.467    0.197    0.412  101.406
  415.250    6.346    0.198    0.394  102.020
  415.500    6.345    0.193    0.387  102.018
  415.750    6.345    0.190    0.385  102.018
  416.000    6.344    0.190    0.378  101.401
  416.250    6.225    0.193    0.382   99.555
  416.500    5.772    0.190    0.399   98.940
  416.750    4.963    0.188    0.408   96.478
  417.000    3.883    0.196    0.386   95.863
  417.250    3.276    0.199    0.357   97.091
  417.500    2.925    0.215    0.346  101.393
  417.750    2.515    0.232    0.380  107.539
  418.000    2.245    0.250    0.407  110.611
  418.250    2.122    0.249    0.459  111.839
  418.500    2.121    0.240    0.490  111.224
  418.750    2.421    0.233    0.491  106.918
  419.000    2.869    0.229    0.497  105.072
  419.250    3.807    0.236    0.445  103.842
  419.500    4.598    0.228    0.411  102.612
  419.750    5.148    0.223    0.386  100.151
  420.000    5.552    0.217    0.375  100.150
  420.250    5.447    0.215    0.381  100.148
  420.500    5.245    0.215    0.385  100.762
  420.750    5.245    0.213    0.376  100.760
  421.000    5.550    0.212    0.387   99.529
  421.250    5.763    0.212    0.402   97.684
  421.500    5.984    0.218    0.418   93.379
  421.750    6.213    0.233    0.422   88.459
  422.000    6.331    0.251    0.433   85.384
  422.250    6.331    0.272    0.413   81.694
  422.500    6.451    0.267    0.397   81.693
  422.750    6.450    0.264    0.433   84.765
  423.000    6.095    0.253    0.445   87.223
  423.250    5.980    0.240    0.365   91.525
  423.500    5.758    0.241    0.354   93.368
  423.750    5.867    0.260    0.365   93.366
  424.000    5.979    0.281    0.386   88.447
  424.250    6.208    0.293    0.364   87.831
  424.500    6.447    0.303    0.398   90.288
  424.750    6.694    0.290    0.417   90.902
  425.000    6.821    0.272    0.409   92.130
  425.250    6.950    0.241    0.375   89.669
  425.500    6.950    0.240    0.382   85.979
  425.750    6.819    0.254    0.399   84.748
  426.000    6.819    0.267    0.420   83.518
  426.250    6.565    0.281    0.435   81.057
  426.500    6.321    0.288    0.428   79.826
  426.750    6.203    0.288    0.425   78.595
  427.000    6.086    0.278    0.430   78.594
  427.250    5.972    0.275    0.437   78.592
  427.500    5.860    0.276    0.419   79.820
  427.750    5.859    0.280    0.416   81.048
  428.000    5.859    0.271    0.423   82.891
  428.250    5.858    0.266    0.428   83.505
  428.500    5.858    0.265    0.424   83.504
  428.750    5.748    0.258    0.409   85.961
  429.000    5.431    0.245    0.392   89.034
  429.250    5.229    0.233    0.372   91.492
  429.500    5.035    0.228    0.344   95.178
  429.750    4.848    0.230    0.355   94.562
  430.000    4.848    0.234    0.376   93.331
  430.250    4.940    0.235    0.401   93.945
