~VERSION INFORMATION
 VERS.                 2.0:   CWLS LOG ASCII STANDARD -VERSION 2.0
 WRAP.                  NO:   ONE LINE PER DEPTH STEP
~WELL INFORMATION BLOCK
#MNEM.UNIT           DATA                    DESCRIPTION OF MNEMONIC
#---------    -------------------            -------------------------------
# Generated from Intellog Unique Number	CS_67_68/WELL/784
WELL.         BOW VALLEY EXPLORATION         : Well_name    - WELL
LOC .         00/07-34-068-14W4/0            : Location     - LOCATION
UWI .         00/07-34-068-14W4/0            : Uwi          - UNIQUE WELL ID
ENTR.         SP                             : Entered      - ENTERED BY
SRVC.         SCHLUMBERGER                   : Scn          - SERVICE COMPANY
STRT.M        268.224                        : top_depth    - START DEPTH
STOP.M        472.224                        : bot_depth    - STOP DEPTH
STEP.M        0.25                           : increment    - STEP LENGTH
 NULL. -999.2500:NULL Value
~CURVE INFORMATION BLOCK
#MNEM UNIT       ERCB CURVE CODE    CURVE DESCRIPTION
#-----------   ------------------   ----------------------------------
DEPT.M        00 001 00 00         : DEPTH        - DEPTH
GR  .API      00 310 00 00         : GR           - GAMMA RAY
DPHI.V/V      00 890 00 00         : PHID         - DENSITY POROSITY (SANDSTONE)
NPHI.V/V      00 330 00 00         : PHIN         - NEUTRON POROSITY (SANDSTONE)
ILD .OHMM     00 120 00 00         : RESD         - DEEP RESISTIVITY (DIL)
~PARAMETER INFORMATION
#MNEM.UNIT           DATA             DESCRIPTION OF MNEMONIC
#---------         -----------     ------------------------------
GL  .M        561.289              : gl           - GROUND LEVEL ELEVATION
EREF.M        564.49               : kb           - ELEVATION OF DEPTH REFERENCE
DATM.M        561.289              : datum        - DATUM ELEVATION
TDD .M        472.44               : tdd          - TOTAL DEPTH DRILLER
RUN .         ONE                  : Run          - RUN NUMBER
ENG .         BILL                 : Engineer     - RECORDING ENGINEER
WIT .         JIM                  : Witness      - WITNESSED BY
MUD .         GEL                  : Mud_type     - MUD TYPE
MATR.         SANDSTONE            : Logunit      - NEUTRON MATRIX
TMAX.C        23.3333              : BHT          - MAXIMUM RECORDED TEMPERATURE
BHTD.M        472.44               : BHTDEP       - MAXIMUM RECORDED TEMPERATURE
MATR.         1                    : LOGUNIT      - NEUTRON MATRIX
RMT .C        25                   : MDTP         - TEMPERATURE OF MUD
NEUT.         1                    : NEUTRON      - NEUTRON TYPE
RESI.         0                    : RESIST       - RESISTIVITY TYPE
RMC .OHMM     0.25                 : RMC          - RESISTIVITY OF MUD CAKE
RMF .OHMM     0.25                 : RMF          - RESISTIVITY OF MUD FILTRATE
SUFT.C        15                   : SUFT         - SURFACE TEMPERATURE
~A  DEPTH       GR     PHID     PHIN     RESD
# ...
  442.224   69.564    0.202    0.434    4.491
  442.474   71.401    0.223    0.465    4.627
  442.724   73.481    0.237    0.491    4.940
  442.974   75.948    0.221    0.460    5.235
  443.224   78.660    0.210    0.432    5.643
  443.474   80.343    0.198    0.416    6.293
  443.724   81.570    0.193    0.399    6.969
  443.974   79.794    0.200    0.383    7.648
  444.224   73.839    0.198    0.361    8.154
  444.474   66.401    0.201    0.352    8.494
  444.724   58.228    0.190    0.359    8.431
  444.974   57.963    0.166    0.366    8.127
  445.224   62.291    0.146    0.377    7.669
  445.474   67.070    0.182    0.384    6.902
  445.724   69.955    0.219    0.379    6.236
  445.974   73.033    0.222    0.371    5.906
  446.224   74.733    0.200    0.364    5.841
  446.474   74.339    0.199    0.357    5.900
  446.724   69.849    0.221    0.358    5.950
  446.974   67.159    0.237    0.373    6.051
  447.224   68.501    0.239    0.376    6.134
  447.474   70.375    0.226    0.363    6.188
  447.724   72.849    0.215    0.355    6.258
  447.974   72.939    0.202    0.350    6.273
  448.224   68.711    0.194    0.350    6.319
  448.474   62.695    0.187    0.350    6.337
  448.724   60.160    0.183    0.349    6.349
  448.974   63.084    0.179    0.354    6.341
  449.224   69.636    0.161    0.370    6.315
  449.474   72.397    0.141    0.368    6.313
  449.724   72.420    0.122    0.354    6.337
  449.974   71.651    0.163    0.347    6.401
  450.224   72.077    0.169    0.343    6.571
  450.474   73.272    0.162    0.360    6.831
  450.724   74.369    0.168    0.362    7.232
  450.974   68.115    0.188    0.354    7.485
  451.224   57.903    0.213    0.353    7.740
  451.474   51.881    0.232    0.343    7.701
  451.724   52.970    0.217    0.333    7.535
  451.974   56.629    0.177    0.344    7.329
  452.224   59.818    0.157    0.367    6.801
  452.474   60.522    0.180    0.375    6.280
  452.724   58.228    0.216    0.380    5.875
  452.974   55.684    0.241    0.374    5.642
  453.224   54.995    0.220    0.361    5.779
  453.474   56.877    0.201    0.344    5.834
  453.724   60.399    0.179    0.334    5.863
  453.974   65.186    0.156    0.337    5.887
  454.224   69.874    0.137    0.353    5.874
  454.474   74.225    0.115    0.382    5.719
  454.724   78.859    0.097    0.439    5.373
  454.974   83.826    0.071    0.469    5.075
  455.224   86.612    0.122    0.488    4.980
  455.474   87.662    0.167    0.474    5.162
  455.724   82.493    0.199    0.461    5.385
  455.974   73.686    0.223    0.440    5.612
  456.224   67.545    0.236    0.400    5.909
  456.474   60.302    0.233    0.355    6.118
  456.724   62.365    0.222    0.336    6.287
  456.974   65.844    0.198    0.330    6.115
  457.224   69.020    0.170    0.328    5.935
  457.474   71.399    0.177    0.338    5.593
  457.724   73.786    0.188    0.347    5.162
  457.974   75.592    0.199    0.355    4.773
  458.224   76.428    0.195    0.363    4.494
  458.474   76.700    0.188    0.368    4.593
  458.724   74.904    0.197    0.372    4.851
  458.974   74.698    0.193    0.369    5.277
  459.224   77.524    0.172    0.363    5.516
  459.474   80.637    0.160    0.355    5.619
  459.724   83.980    0.152    0.344    5.689
  459.974   86.334    0.152    0.370    5.720
  460.224   87.903    0.154    0.381    5.698
  460.474   88.332    0.164    0.394    5.511
  460.724   77.994    0.183    0.387    5.229
  460.974   67.596    0.162    0.355    4.833
  461.224   58.639    0.145    0.330    4.412
  461.474   52.554    0.186    0.315    4.114
  461.724   48.105    0.255    0.330    3.650
  461.974   46.310    0.273    0.352    3.313
  462.224   46.386    0.283    0.366    3.122
  462.474   47.210    0.271    0.363    3.170
  462.724   48.191    0.265    0.356    3.359
  462.974   49.435    0.247    0.348    3.594
  463.224   52.864    0.226    0.341    3.836
  463.474   56.521    0.209    0.338    3.961
  463.724   60.719    0.201    0.345    3.668
  463.974   63.014    0.209    0.353    3.380
  464.224   65.168    0.232    0.367    3.208
  464.474   64.745    0.257    0.375    3.325
  464.724   68.504    0.235    0.378    3.613
  464.974   72.294    0.192    0.367    3.952
  465.224   75.734    0.174    0.360    4.306
  465.474   77.919    0.160    0.384    4.592
  465.724   79.356    0.184    0.399    3.737
  465.974   53.492    0.216    0.409    3.053
  466.224   36.079    0.249    0.417    2.655
  466.474   19.610    0.275    0.410    2.364
  466.724   17.349    0.300    0.402    2.174
  466.974   16.867    0.319    0.402    2.030
  467.224   16.827    0.316    0.401    1.923
  467.474   16.955    0.316    0.393    1.857
  467.724   17.334    0.318    0.382    1.868
  467.974   17.704    0.320    0.375    1.966
  468.224   18.128    0.311    0.369    2.095
  468.474   18.549    0.304    0.367    2.283
  468.724   19.035    0.293    0.377    2.487
  468.974   19.140    0.283    0.380    2.691
  469.224   19.081    0.270    0.380    2.908
  469.474   19.297    0.257    0.379    3.061
  469.724   19.595    0.242    0.377    3.226
  469.974   19.794    0.228    0.376    3.387
  470.224   19.866    0.267    0.375    3.597
  470.474   20.109    0.255    0.375    3.779
  470.724   20.545    0.223    0.376    3.974
  470.974   20.914    0.197    0.376    4.096
  471.224   21.268    0.198    0.378    4.178
  471.474   21.534    0.235    0.379    4.223
  471.724   21.807    0.276    0.379    4.183
  471.974   22.075    0.247    0.378    4.116
  472.224   22.296    0.222    0.378    4.000
