~VERSION INFORMATION
 VERS.                 2.0:   CWLS LOG ASCII STANDARD -VERSION 2.0
 WRAP.                  NO:   ONE LINE PER DEPTH STEP
~WELL INFORMATION BLOCK
#MNEM.UNIT           DATA                    DESCRIPTION OF MNEMONIC
#---------    -------------------            -------------------------------
# Generated from Intellog Unique Number	CS_71_72/WELL/829
WELL.         BRENDA ET AL NIXON             : Well_name    - WELL
LOC .         00/07-31-072-15W4/0            : Location     - LOCATION
UWI .         00/07-31-072-15W4/0            : Uwi          - UNIQUE WELL ID
ENTR.         SP                             : Entered      - ENTERED BY
SRVC.         SCHLUMBERGER                   : Scn          - SERVICE COMPANY
STRT.M        240                            : top_depth    - START DEPTH
STOP.M        445                            : bot_depth    - STOP DEPTH
STEP.M        0.25                           : increment    - STEP LENGTH
 NULL. -999.2500:NULL Value
~CURVE INFORMATION BLOCK
#MNEM UNIT       ERCB CURVE CODE    CURVE DESCRIPTION
#-----------   ------------------   ----------------------------------
DEPT.M        00 001 00 00         : DEPTH        - DEPTH
GR  .API      00 310 00 00         : GR           - GAMMA RAY
NPHI.V/V      00 330 00 00         : PHIN         - NEUTRON POROSITY (LIMESTONE)
DPHI.V/V      00 890 00 00         : PHID         - DENSITY POROSITY (LIMESTONE)
ILD .OHMM     00 120 00 00         : RESD         - DEEP RESISTIVITY (DIL)
~PARAMETER INFORMATION
#MNEM.UNIT           DATA             DESCRIPTION OF MNEMONIC
#---------         -----------     ------------------------------
GL  .M        575                  : gl           - GROUND LEVEL ELEVATION
EREF.M        577.75               : kb           - ELEVATION OF DEPTH REFERENCE
DATM.M        575                  : datum        - DATUM ELEVATION
TDD .M        470                  : tdd          - TOTAL DEPTH DRILLER
RUN .         ONE                  : Run          - RUN NUMBER
ENG .         BILL                 : Engineer     - RECORDING ENGINEER
WIT .         JIM                  : Witness      - WITNESSED BY
MUD .         GEL                  : Mud_type     - MUD TYPE
MATR.         LIMESTONE            : Logunit      - NEUTRON MATRIX
TMAX.C        23                   : BHT          - MAXIMUM RECORDED TEMPERATURE
BHTD.M        470                  : BHTDEP       - MAXIMUM RECORDED TEMPERATURE
MATR.         1                    : LOGUNIT      - NEUTRON MATRIX
RMT .C        25                   : MDTP         - TEMPERATURE OF MUD
NEUT.         1                    : NEUTRON      - NEUTRON TYPE
RESI.         0                    : RESIST       - RESISTIVITY TYPE
RMC .OHMM     0.25                 : RMC          - RESISTIVITY OF MUD CAKE
RMF .OHMM     0.25                 : RMF          - RESISTIVITY OF MUD FILTRATE
SUFT.C        15                   : SUFT         - SURFACE TEMPERATURE
~A  DEPTH       GR     PHIN     PHID     RESD
# ...
  370.500   67.676    0.315    0.165    6.635
  370.750   68.912    0.348    0.263    6.044
  371.000   78.139    0.402    0.322    5.405
  371.250   83.064    0.413    0.344    5.208
  371.500   77.537    0.407    0.344    4.926
  371.750   81.848    0.426    0.344    4.662
  372.000   83.696    0.437    0.349    4.578
  372.250   81.243    0.435    0.346    4.580
  372.500   81.252    0.435    0.342    4.251
  372.750   81.872    0.437    0.346    4.254
  373.000   81.876    0.430    0.350    4.256
  373.250   81.268    0.427    0.346    4.180
  373.500   77.586    0.418    0.342    4.183
  373.750   76.362    0.410    0.339    4.107
  374.000   78.213    0.418    0.338    4.111
  374.250   78.832    0.404    0.341    4.114
  374.500   75.149    0.398    0.347    4.116
  374.750   73.926    0.401    0.348    4.118
  375.000   75.162    0.418    0.347    4.199
  375.250   75.168    0.422    0.344    4.201
  375.500   73.331    0.414    0.345    4.285
  375.750   70.263    0.410    0.342    4.287
  376.000   69.038    0.418    0.338    4.370
  376.250   68.429    0.429    0.341    4.375
  376.500   75.200    0.435    0.350    4.460
  376.750   76.434    0.432    0.339    4.462
  377.000   75.209    0.425    0.333    4.550
  377.250   78.289    0.422    0.337    4.552
  377.500   81.371    0.435    0.348    4.642
  377.750   81.989    0.425    0.355    4.732
  378.000   78.308    0.355    0.344    4.916
  378.250   76.469    0.331    0.290    5.205
  378.500   75.861    0.347    0.233    5.307
  378.750   75.868    0.369    0.268    5.310
  379.000   75.257    0.394    0.310    5.118
  379.250   78.339    0.415    0.344    4.932
  379.500   80.187    0.405    0.358    4.665
  379.750   82.653    0.417    0.357    4.331
  380.000   79.586    0.425    0.360    4.253
  380.250   74.672    0.431    0.364    4.176
  380.500   74.679    0.423    0.361    4.179
  380.750   75.300    0.428    0.353    4.183
  381.000   71.617    0.428    0.348    4.185
  381.250   67.934    0.422    0.345    4.188
  381.500   69.171    0.426    0.346    4.190
  381.750   71.020    0.434    0.348    4.193
  382.000   69.797    0.431    0.355    4.195
  382.250   75.336    0.427    0.351    4.199
  382.500   80.261    0.422    0.359    4.201
  382.750   81.495    0.417    0.363    4.125
  383.000   80.885    0.410    0.352    4.128
  383.250   93.802    0.400    0.294    4.130
  383.500  106.718    0.385    0.271    4.056
  383.750  112.872    0.394    0.266    4.059
  384.000  114.723    0.407    0.269    4.063
  384.250  114.115    0.416    0.272    4.065
  384.500  112.275    0.420    0.271    4.066
  384.750  110.436    0.415    0.268    4.069
  385.000  110.444    0.413    0.266    3.996
  385.250  111.064    0.422    0.264    3.924
  385.500  111.683    0.434    0.263    3.783
  385.750  113.535    0.420    0.263    3.714
  386.000  113.541    0.410    0.269    3.787
  386.250  108.014    0.402    0.275    3.790
  386.500  103.101    0.411    0.257    3.864
  386.750  108.027    0.419    0.257    4.246
  387.000  106.187    0.427    0.284    4.846
  387.250   97.586    0.416    0.313    5.227
  387.500   92.059    0.406    0.322    5.431
  387.750   90.221    0.405    0.316    5.643
  388.000   87.153    0.408    0.308    5.752
  388.250   86.544    0.404    0.294    6.322
  388.500   86.552    0.363    0.262    7.214
  388.750   83.485    0.331    0.215    7.929
  389.000   81.031    0.303    0.185    8.715
  389.250   81.037    0.289    0.162    9.225
  389.500   84.733    0.298    0.162    9.584
  389.750   85.966    0.324    0.159    8.733
  390.000   89.047    0.344    0.176    7.520
  390.250   91.512    0.369    0.227    6.477
  390.500   92.748    0.386    0.267    6.124
  390.750   92.137    0.411    0.274    5.686
  391.000   91.529    0.419    0.274    5.583
  391.250   95.225    0.422    0.293    5.485
  391.500   97.073    0.409    0.287    5.487
  391.750  100.770    0.407    0.251    5.593
  392.000  101.388    0.385    0.176    6.265
  392.250   81.723    0.308    0.116    7.150
  392.500   70.049    0.253    0.044    7.857
  392.750   79.276    0.274    0.089    8.636
  393.000   90.347    0.303    0.133    8.805
  393.250  103.263    0.348    0.177    8.328
  393.500  108.187    0.384    0.202    8.026
  393.750  109.423    0.368    0.203    7.592
  394.000  103.283    0.363    0.192    8.503
  394.250   98.368    0.351    0.155    9.346
  394.500   90.999    0.308    0.108   10.271
  394.750   84.242    0.247    0.064   10.672
  395.000   75.026    0.228    0.041   10.094
  395.250   78.720    0.269    0.098    9.195
  395.500  108.235    0.326    0.133    8.376
  395.750  116.847    0.374    0.182    7.631
  396.000  116.854    0.384    0.206    7.084
  396.250  115.015    0.380    0.191    6.957
  396.500  114.408    0.373    0.181    6.960
  396.750  111.955    0.373    0.172    7.099
  397.000  110.729    0.376    0.203    7.101
  397.250  119.959    0.380    0.221    7.106
  397.500  123.651    0.379    0.228    6.978
  397.750  127.960    0.370    0.236    6.854
  398.000  119.363    0.364    0.237    6.732
  398.250  120.595    0.360    0.232    6.611
  398.500  124.906    0.383    0.227    6.613
  398.750  121.837    0.392    0.228    6.496
  399.000  118.769    0.381    0.240    6.499
  399.250  113.243    0.372    0.236    6.382
  399.500  105.871    0.368    0.188    6.268
  399.750   97.271    0.360    0.148    6.155
  400.000   96.049    0.353    0.162    6.160
  400.250  103.431    0.374    0.192    6.048
  400.500  107.739    0.388    0.238    5.721
  400.750  113.895    0.394    0.261    4.834
  401.000  116.974    0.400    0.272    3.935
  401.250  116.980    0.408    0.275    3.389
  401.500  114.527    0.419    0.286    3.087
  401.750  112.687    0.418    0.301    2.813
  402.000  115.769    0.409    0.306    2.710
  402.250  121.925    0.398    0.293    2.662
  402.500  123.773    0.425    0.287    2.663
  402.750  121.934    0.450    0.284    2.716
  403.000  121.325    0.455    0.283    2.874
  403.250  123.791    0.430    0.278    3.219
  403.500  120.108    0.397    0.262    3.744
  403.750  112.737    0.378    0.244    4.354
  404.000  107.825    0.376    0.219    4.608
  404.250  104.755    0.381    0.217    5.161
  404.500  107.836    0.378    0.234    5.568
  404.750  106.613    0.372    0.215    5.783
  405.000  103.546    0.362    0.180    5.897
  405.250  102.320    0.354    0.167    6.013
  405.500  109.090    0.350    0.197    6.131
  405.750  115.245    0.367    0.219    6.369
  406.000  116.478    0.375    0.217    6.741
  406.250  113.412    0.345    0.189    7.694
  406.500  106.039    0.313    0.140    8.298
  406.750   95.595    0.300    0.049    8.951
  407.000   91.913    0.294    0.045    8.628
  407.250   98.067    0.321    0.169    7.858
  407.500  102.992    0.332    0.203    6.519
  407.750  107.915    0.351    0.229    6.050
  408.000  112.223    0.357    0.236    5.211
  408.250  117.147    0.367    0.231    4.838
  408.500  114.081    0.378    0.225    4.662
  408.750  115.317    0.390    0.229    4.494
  409.000  118.396    0.390    0.230    4.413
  409.250  120.859    0.389    0.227    4.332
  409.500  123.940    0.399    0.225    4.177
  409.750  122.716    0.412    0.228    4.101
  410.000  120.264    0.416    0.235    3.952
  410.250  119.656    0.412    0.239    3.809
  410.500  120.890    0.407    0.234    3.672
  410.750  123.971    0.406    0.231    3.605
  411.000  127.050    0.406    0.231    3.607
  411.250  128.285    0.413    0.233    3.543
  411.500  124.603    0.423    0.240    3.479
  411.750  126.452    0.432    0.246    3.547
  412.000  124.615    0.435    0.240    3.686
  412.250  119.703    0.432    0.229    3.901
  412.500  114.175    0.415    0.223    4.370
  412.750  116.640    0.405    0.219    4.539
  413.000  117.875    0.397    0.220    4.897
  413.250  114.807    0.385    0.229    5.183
  413.500  111.126    0.379    0.228    5.384
  413.750  111.133    0.373    0.223    5.388
