~VERSION INFORMATION
 VERS.                 2.0:   CWLS LOG ASCII STANDARD -VERSION 2.0
 WRAP.                  NO:   ONE LINE PER DEPTH STEP
~WELL INFORMATION BLOCK
#MNEM.UNIT           DATA                    DESCRIPTION OF MNEMONIC
#---------    -------------------            -------------------------------
# Generated from Intellog Unique Number	CW_76_78/WELL/2571
WELL.         07-07-078-23W4                 : Well_name    - WELL
LOC .         00/07-07-078-23W4/0            : Location     - LOCATION
UWI .         00/07-07-078-23W4/0            : Uwi          - UNIQUE WELL ID
ENTR.         MAX                            : Entered      - ENTERED BY
SRVC.         WESTERN ATLAS                  : Scn          - SERVICE COMPANY
STRT.M        290                            : top_depth    - START DEPTH
STOP.M        562                            : bot_depth    - STOP DEPTH
STEP.M        0.25                           : increment    - STEP LENGTH
 NULL. -999.2500:NULL Value
~CURVE INFORMATION BLOCK
#MNEM UNIT       ERCB CURVE CODE    CURVE DESCRIPTION
#-----------   ------------------   ----------------------------------
DEPT.M        00 001 00 00         : DEPTH        - DEPTH
ILD .OHMM     00 120 00 00         : RESD         - DEEP RESISTIVITY (DIL)
NPHI.V/V      00 330 00 00         : PHIN         - NEUTRON POROSITY (SANDSTONE)
DPHI.V/V      00 890 00 00         : PHID         - DENSITY POROSITY (SANDSTONE)
CALI.MM       00 280 01 00         : CAL          - CALIPER
GR  .API      00 310 00 00         : GR           - GAMMA RAY
~PARAMETER INFORMATION
#MNEM.UNIT           DATA             DESCRIPTION OF MNEMONIC
#---------         -----------     ------------------------------
GL  .M        601.9                : gl           - GROUND LEVEL ELEVATION
EREF.M        606                  : kb           - ELEVATION OF DEPTH REFERENCE
DATM.M        601.9                : datum        - DATUM ELEVATION
TDD .M        566                  : tdd          - TOTAL DEPTH DRILLER
RUN .         ONE                  : Run          - RUN NUMBER
ENG .         BILL                 : Engineer     - RECORDING ENGINEER
WIT .         JIM                  : Witness      - WITNESSED BY
MUD .         GEL                  : Mud_type     - MUD TYPE
MATR.         SANDSTONE            : Logunit      - NEUTRON MATRIX
TMAX.C        27                   : BHT          - MAXIMUM RECORDED TEMPERATURE
BHTD.M        566                  : BHTDEP       - MAXIMUM RECORDED TEMPERATURE
RMT .C        20                   : MDTP         - TEMPERATURE OF MUD
MUDD.KG/M     1110                 : MWT          - MUD DENSITY
NEUT.         1                    : NEUTRON      - NEUTRON TYPE
RESI.         0                    : RESIST       - RESISTIVITY TYPE
RM  .OHMM     5                    : RM           - RESISTIVITY OF MUD
RMC .OHMM     5.5                  : RMC          - RESISTIVITY OF MUD CAKE
RMF .OHMM     4.8                  : RMF          - RESISTIVITY OF MUD FILTRATE
SUFT.C        -20                  : SUFT         - SURFACE TEMPERATURE
~A  DEPTH     RESD     PHIN     PHID      CAL       GR
# ...
  399.500    8.172    0.332    0.291  202.664   95.405
  399.750    8.396    0.332    0.275  202.144   97.178
  400.000    8.947    0.332    0.106  202.620   96.271
  400.250   10.067    0.333    0.066  204.581   83.735
  400.500   10.343    0.333    0.027  206.051   79.247
  400.750    9.881    0.332    0.112  207.519   88.477
  401.000    9.103    0.331    0.143  208.486  102.772
  401.250    8.161    0.328    0.167  208.959  101.563
  401.500    7.518    0.327    0.178  208.439  102.149
  401.750    7.248    0.320    0.183  206.919  104.520
  402.000    7.116    0.318    0.190  206.404  108.084
  402.250    7.311    0.317    0.175  206.378  103.595
  402.500    7.649    0.307    0.140  206.354   99.404
  402.750    7.788    0.303    0.177  206.330   98.795
  403.000    7.508    0.331    0.211  206.310  100.868
  403.250    7.173    0.347    0.217  205.789  101.448
  403.500    7.043    0.338    0.198  205.760  102.332
  403.750    6.978    0.344    0.188  205.239  103.511
  404.000    6.913    0.351    0.185  204.719  103.198
  404.250    6.913    0.350    0.191  204.695  105.569
  404.500    6.910    0.354    0.195  204.675  104.063
  404.750    6.972    0.365    0.195  204.151  103.452
  405.000    6.970    0.351    0.182  204.131  111.190
  405.250    6.906    0.336    0.166  204.107  115.052
  405.500    6.780    0.336    0.165  203.584  108.180
  405.750    6.656    0.333    0.175  204.057  104.885
  406.000    6.535    0.340    0.175  203.534  101.295
  406.250    6.416    0.351    0.162  203.510  101.277
  406.500    6.356    0.345    0.171  203.987  103.652
  406.750    6.240    0.351    0.174  204.954  108.408
  407.000    6.183    0.354    0.172  205.427  107.199
  407.250    6.126    0.357    0.165  206.400  108.078
  407.500    6.069    0.350    0.152  206.874  109.853
  407.750    6.069    0.357    0.164  206.350  107.455
  408.000    6.067    0.353    0.187  206.327  103.861
  408.250    6.347    0.350    0.215  205.809  101.762
  408.500    6.581    0.351    0.221  205.286   98.468
  408.750    6.886    0.353    0.209  204.766   96.962
  409.000    7.075    0.349    0.205  203.748   97.546
  409.250    7.009    0.359    0.201  203.228   96.039
  409.500    6.819    0.362    0.187  204.198  100.495
  409.750    6.634    0.363    0.177  205.665  100.779
  410.000    6.513    0.352    0.186  207.626  101.361
  410.250    6.453    0.353    0.187  207.103  102.836
  410.500    6.393    0.355    0.189  206.582  103.124
  410.750    6.392    0.351    0.193  206.065  103.706
  411.000    6.391    0.348    0.201  206.044  104.286
  411.250    6.389    0.343    0.215  205.515  104.570
  411.500    6.388    0.346    0.228  205.000  102.767
  411.750    6.387    0.348    0.236  203.486   96.494
  412.000    6.562    0.344    0.241  202.960   95.882
  412.250    7.120    0.338    0.193  203.439   93.183
  412.500    7.796    0.329    0.141  204.403   94.065
  412.750    8.232    0.316    0.144  204.883   93.153
  413.000    8.535    0.323    0.141  205.850   93.142
  413.250    8.690    0.313    0.128  206.323   94.917
  413.500    8.767    0.309    0.139  206.303   98.479
  413.750    8.530    0.332    0.161  206.279  100.851
  414.000    8.223    0.337    0.175  205.756  107.695
  414.250    7.856    0.334    0.175  205.729  100.521
  414.500    7.505    0.333    0.174  206.206  100.809
  414.750    7.236    0.334    0.180  207.176  104.074
  415.000    6.913    0.339    0.192  207.149  103.462
  415.250    6.913    0.365    0.187  207.623  100.763
  415.500    6.662    0.365    0.217  207.599  100.749
  415.750    6.542    0.349    0.224  207.576  100.437
  416.000    6.423    0.333    0.183  207.058  103.108
  416.250    6.720    0.305    0.108  206.535   96.832
  416.500    7.095    0.302    0.088  206.490   93.241
  416.750    7.629    0.340    0.110  205.985   83.386
  417.000    7.767    0.330    0.131  205.967   90.825
  417.250    7.767    0.324    0.156  205.943  100.054
  417.500    7.693    0.327    0.181  205.917  106.302
  417.750    7.554    0.324    0.191  205.888  103.305
  418.000    7.282    0.322    0.193  205.870  101.798
  418.250    7.085    0.324    0.188  205.849  105.362
  418.500    7.019    0.336    0.181  205.329  107.733
  418.750    7.082    0.348    0.171  205.305   99.969
  419.000    7.210    0.357    0.165  205.773   95.483
  419.250    7.144    0.356    0.160  205.746   97.854
  419.500    7.078    0.355    0.175  205.729  103.206
  419.750    7.078    0.358    0.174  205.705  104.681
  420.000    7.010    0.357    0.174  205.679  102.282
  420.250    6.821    0.353    0.175  206.155  102.268
  420.500    6.758    0.349    0.174  207.122  104.042
  420.750    6.634    0.347    0.144  207.099  104.923
  421.000    6.396    0.346    0.137  207.572   98.051
  421.250    6.110    0.348    0.167  208.048  100.719
  421.500    5.785    0.357    0.177  209.016  106.071
  421.750    5.577    0.356    0.180  209.983  105.162
  422.000    5.627    0.350    0.203  209.956  106.641
  422.250    5.941    0.350    0.234  208.445  106.921
  422.500    6.447    0.349    0.230  207.428  105.718
  422.750    6.504    0.354    0.227  207.407  107.193
  423.000    6.682    0.361    0.225  207.378  107.771
  423.250    6.929    0.355    0.234  207.360  100.605
  423.500    7.382    0.349    0.238  207.336   99.995
  423.750    8.232    0.338    0.204  207.807  101.172
  424.000    9.347    0.327    0.176  208.283   99.371
  424.250   10.050    0.307    0.049  208.754   93.692
  424.500   10.709    0.280    0.077  208.727   84.133
  424.750   10.418    0.306    0.182  208.701   90.978
  425.000    8.066    0.334    0.171  204.225  102.940
  425.250    7.629    0.330    0.168  204.683  105.880
  425.500    7.351    0.319    0.166  205.634  106.155
  425.750    7.214    0.328    0.172  206.597  105.838
  426.000    7.279    0.337    0.160  207.059  106.416
  426.250    7.548    0.340    0.162  207.028  106.986
  426.500    7.757    0.328    0.158  206.508  108.151
  426.750    8.270    0.318    0.154  205.984  106.653
  427.000    9.403    0.314    0.145  205.456  103.085
  427.250   10.496    0.299    0.103  204.928   98.332
  427.500   10.687    0.281    0.049  204.901   94.174
  427.750   10.392    0.311    0.071  204.373   92.379
  428.000    9.475    0.333    0.127  203.849   97.687
  428.250    8.639    0.338    0.185  203.329  101.513
  428.500    8.172    0.345    0.198  202.805  104.448
  428.750    8.092    0.350    0.202  200.305  105.026
  429.000    8.017    0.334    0.204  198.795  104.707
  429.250    8.163    0.326    0.191  198.268  101.437
  429.500    8.389    0.324    0.168  197.740   96.979
  429.750    8.944    0.321    0.145  197.220   94.298
  430.000   10.169    0.296    0.172  197.189   93.981
  430.250   12.218    0.280    0.188  198.140   96.923
  430.500   14.020    0.266    0.163  200.581   89.214
  430.750   16.235    0.232    0.097  203.015   79.138
  431.000   15.358    0.213    0.001  204.460   67.880
  431.250   12.199    0.242    0.079  204.922   73.481
  431.500   10.527    0.306    0.169  204.394   85.588
  431.750    9.776    0.327    0.200  201.898   93.558
  432.000    9.333    0.330    0.183  198.909  100.047
  432.250    9.160    0.335    0.178  197.892  103.873
  432.500    8.908    0.336    0.177  197.861  105.627
  432.750    8.742    0.338    0.168  197.822  107.386
  433.000    8.580    0.355    0.168  197.803  101.449
  433.250    8.576    0.353    0.166  198.754  105.276
  433.500    8.652    0.344    0.170  201.188  107.328
  433.750    8.729    0.337    0.187  203.622  111.154
  434.000    8.807    0.349    0.172  204.084  103.149
  434.250    8.803    0.358    0.173  204.084  102.835
  434.500    8.800    0.353    0.173  204.007  106.066
  434.750    8.797    0.359    0.166  203.494  103.091
  435.000    8.794    0.347    0.156  203.960  105.737
  435.250    8.794    0.340    0.156  204.414  108.083
  435.500    8.787    0.332    0.172  204.880  103.036
  435.750    8.947    0.335    0.178  205.342   98.282
