~VERSION INFORMATION
 VERS.                 2.0:   CWLS LOG ASCII STANDARD -VERSION 2.0
 WRAP.                  NO:   ONE LINE PER DEPTH STEP
~WELL INFORMATION BLOCK
#MNEM.UNIT           DATA                    DESCRIPTION OF MNEMONIC
#---------    -------------------            -------------------------------
# Generated from Intellog Unique Number	CS_69_70/WELL/699
NULL.         -999.25                        : NULL_VALUE
WELL.         HUSKY AEC FISHER               : Well_name    - WELL              
LOC .         00/05-09-070-05W4/0            : Location     - LOCATION          
UWI .         00/05-09-070-05W4/0            : Uwi          - UNIQUE WELL ID    
ENTR.         SP                             : Entered      - ENTERED BY        
SRVC.         SCHLUMBERGER                   : Scn          - SERVICE COMPANY   
STRT.M        315                            : top_depth    - START DEPTH       
STOP.M        545                            : bot_depth    - STOP DEPTH        
STEP.M        0.25                           : increment    - STEP LENGTH       
~CURVE INFORMATION BLOCK
#MNEM UNIT       ERCB CURVE CODE    CURVE DESCRIPTION
#-----------   ------------------   ----------------------------------
DEPT.M        00 001 00 00         : DEPTH        - DEPTH                       
ILD .OHMM     00 120 00 00         : RESD         - DEEP RESISTIVITY (DIL)      
DPHI.V/V      00 890 00 00         : PHID         - DENSITY POROSITY (SANDSTONE)
NPHI.V/V      00 330 00 00         : PHIN         - NEUTRON POROSITY (SANDSTONE)
GR  .API      00 310 00 00         : GR           - GAMMA RAY                   
~PARAMETER INFORMATION       
#MNEM.UNIT           DATA             DESCRIPTION OF MNEMONIC
#---------         -----------     ------------------------------
GL  .M        678.3                : gl           - GROUND LEVEL ELEVATION      
EREF.M        682                  : kb           - ELEVATION OF DEPTH REFERENCE
DATM.M        678.3                : datum        - DATUM ELEVATION             
TDD .M        551.5                : tdd          - TOTAL DEPTH DRILLER         
RUN .         ONE                  : Run          - RUN NUMBER                  
ENG .         BILL                 : Engineer     - RECORDING ENGINEER          
WIT .         JIM                  : Witness      - WITNESSED BY                
MUD .         GEL                  : Mud_type     - MUD TYPE                    
MATR.         SANDSTONE            : Logunit      - NEUTRON MATRIX              
TMAX.C        25                   : BHT          - MAXIMUM RECORDED TEMPERATURE
BHTD.M        551.5                : BHTDEP       - MAXIMUM RECORDED TEMPERATURE
MATR.         1                    : LOGUNIT      - NEUTRON MATRIX              
RMT .C        25                   : MDTP         - TEMPERATURE OF MUD          
NEUT.         1                    : NEUTRON      - NEUTRON TYPE                
RESI.         0                    : RESIST       - RESISTIVITY TYPE            
RMC .OHMM     0.25                 : RMC          - RESISTIVITY OF MUD CAKE     
RMF .OHMM     0.25                 : RMF          - RESISTIVITY OF MUD FILTRATE 
SUFT.C        15                   : SUFT         - SURFACE TEMPERATURE         
~A  DEPTH     RESD     PHID     PHIN       GR
# ...
  445.500   15.925    0.322    0.458   57.647
  445.750   15.922    0.322    0.451   55.851
  446.000   15.626    0.322    0.447   55.256
  446.250   15.335    0.323    0.461   55.266
  446.500   15.049    0.328    0.457   54.674
  446.750   14.769    0.335    0.438   57.094
  447.000   15.044    0.332    0.425   58.910
  447.250   15.043    0.318    0.438   59.526
  447.500   16.203    0.307    0.443   60.137
  447.750   16.816    0.301    0.442   56.535
  448.000   18.112    0.295    0.438   54.736
  448.250   18.798    0.298    0.433   58.362
  448.500   22.223    0.322    0.434   60.779
  448.750   24.846    0.327    0.438   61.391
  449.000   27.779    0.142    0.400   52.970
  449.250   28.828   -0.017    0.322   47.557
  449.500   25.777   -0.035    0.096   43.350
  449.750   21.395    0.151    0.114   41.552
  450.000   18.430    0.189    0.176   45.180
  450.250   17.105    0.222    0.281   49.406
  450.500   15.874    0.274    0.361   51.220
  450.750   15.293    0.316    0.401   53.037
  451.000   14.732    0.327    0.415   55.461
  451.250   13.928    0.316    0.428   56.070
  451.500   13.670    0.302    0.442   57.891
  451.750   13.668    0.310    0.446   58.500
  452.000   13.922    0.319    0.432   60.319
  452.250   14.182    0.327    0.422   60.929
  452.500   14.447    0.317    0.414   59.135
  452.750   14.443    0.305    0.423   57.335
  453.000   14.441    0.295    0.431   56.140
  453.250   13.912    0.324    0.436   54.949
  453.500   12.673    0.329    0.432   54.353
  453.750   11.332    0.330    0.428   55.569
  454.000   10.133    0.321    0.419   56.783
  454.250    9.404    0.319    0.414   56.794
  454.500    9.758    0.328    0.427   55.597
  454.750   10.127    0.336    0.441   56.813
  455.000   10.708    0.341    0.470   57.424
  455.250   11.321    0.334    0.480   58.640
  455.500   12.424    0.315    0.464   59.855
  455.750   13.382    0.303    0.444   62.275
  456.000   14.149    0.303    0.445   62.284
  456.250   15.240    0.292    0.435   60.486
  456.500   15.524    0.246    0.408   58.088
  456.750   15.523    0.170    0.347   56.893
  457.000   15.233    0.158    0.264   56.906
  457.250   13.877    0.226    0.355   57.515
  457.500   11.955    0.273    0.394   61.140
  457.750    8.874    0.296    0.416   61.149
  458.000    4.373    0.313    0.413   61.159
  458.250    2.596    0.325    0.399   69.605
  458.500    2.278    0.300    0.440   73.227
  458.750    2.037    0.285    0.485   76.252
  459.000    2.037    0.277    0.530   77.468
  459.250    2.075    0.273    0.519   76.871
  459.500    2.113    0.271    0.536   75.681
  459.750    2.193    0.275    0.538   76.894
  460.000    2.234    0.269    0.534   81.722
  460.250    2.452    0.269    0.535   90.165
  460.500    3.008    0.260    0.545   90.177
  460.750    3.181    0.270    0.526   85.967
  461.000    3.761    0.277    0.512   84.173
  461.250    4.284    0.280    0.485   84.184
  461.500    4.614    0.273    0.454   82.385
  461.750    4.970    0.266    0.438   76.974
  462.000    5.062    0.207    0.424   72.766
  462.250    5.157    0.095    0.384   69.764
  462.500    5.061    0.110    0.346   77.607
  462.750    4.611    0.155    0.397   81.832
  463.000    4.200    0.204    0.425   86.059
  463.250    3.971    0.211    0.424   87.875
  463.500    3.618    0.215    0.412   88.489
  463.750    3.175    0.217    0.429   89.100
  464.000    3.002    0.220    0.458   90.314
  464.250    2.946    0.220    0.484   90.930
  464.500    3.001    0.219    0.499   89.734
  464.750    3.057    0.217    0.515   87.936
  465.000    3.173    0.217    0.451   83.130
  465.250    3.614    0.225    0.430   77.117
  465.500    4.116    0.252    0.386   72.906
  465.750    4.352    0.262    0.376   72.918
  466.000    4.516    0.237    0.400   79.553
  466.250    4.114    0.228    0.415   88.600
  466.500    3.679    0.217    0.425   95.237
  466.750    3.289    0.221    0.438   95.850
  467.000    2.997    0.224    0.455   92.845
  467.250    2.833    0.228    0.462   88.638
  467.500    2.581    0.226    0.467   92.867
  467.750    2.486    0.225    0.489   97.695
  468.000    2.440    0.224    0.525  100.717
  468.250    2.395    0.226    0.566  102.534
  468.500    2.485    0.226    0.524  103.146
  468.750    3.225    0.214    0.521   93.519
  469.000    4.857    0.181    0.509   77.264
  469.250    6.541    0.147    0.348   67.033
  469.500    7.313    0.109    0.325   67.648
  469.750    7.732    0.102    0.366   70.667
  470.000    7.876    0.165    0.382   75.499
  470.250    7.587    0.206    0.386   76.710
  470.500    9.138    0.205    0.398   68.891
  470.750   11.639    0.197    0.406   61.672
  471.000   14.282   -0.043    0.206   54.454
  471.250   15.967   -0.059    0.139   53.259
  471.500   16.882   -0.058    0.127   53.870
  471.750   17.196   -0.014    0.147   56.291
  472.000   15.960    0.069    0.221   62.929
  472.250   13.748    0.123    0.280   62.935
  472.500   13.000    0.116    0.307   61.141
  472.750   11.842    0.132    0.332   62.358
  473.000   11.197    0.173    0.359   64.173
  473.250   10.786    0.225    0.361   65.386
  473.500   10.390    0.238    0.363   65.999
  473.750   10.198    0.238    0.367   64.802
  474.000   10.008    0.235    0.371   65.417
  474.250   10.006    0.227    0.373   67.836
  474.500   10.192    0.225    0.367   70.857
  474.750   10.191    0.223    0.363   73.277
  475.000   10.381    0.219    0.367   72.685
  475.250   10.773    0.222    0.366   71.491
  475.500   12.501    0.248    0.365   69.090
  475.750   14.507    0.269    0.378   65.486
  476.000   16.835    0.283    0.384   63.088
  476.250   18.822    0.298    0.399   62.496
  476.500   21.042    0.306    0.404   61.902
  476.750   21.435    0.304    0.412   63.117
  477.000   20.648    0.298    0.403   65.537
  477.250   18.122    0.290    0.403   68.560
  477.500   16.509    0.277    0.413   72.788
  477.750   14.489    0.275    0.408   75.204
  478.000   12.482    0.269    0.401   82.447
  478.250   11.371    0.276    0.392   87.878
  478.500   10.166    0.272    0.385   90.296
  478.750    9.794    0.255    0.375   92.112
  479.000    9.261    0.231    0.368   91.522
  479.250    8.756    0.216    0.358   90.928
  479.500    8.280    0.225    0.350   88.530
  479.750    8.126    0.218    0.334   88.537
  480.000    7.974    0.210    0.326   90.957
  480.250    8.123    0.198    0.342   95.184
  480.500    9.081    0.192    0.375   91.580
  480.750   10.938    0.217    0.402   79.543
  481.000   12.693    0.228    0.344   66.301
  481.250   13.673    0.243    0.322   59.080
  481.500   15.286    0.256    0.330   53.668
  481.750   16.162    0.266    0.323   47.053
  482.000   16.463    0.270    0.310   43.448
  482.250   16.157    0.275    0.306   53.097
  482.500   15.856    0.264    0.319   64.555
  482.750   15.275    0.232    0.326   72.393
  483.000   13.914    0.219    0.323   78.429
  483.250   13.655    0.221    0.344   73.016
  483.500   13.401    0.240    0.364   64.593
  483.750   14.169    0.246    0.377   62.800
  484.000   15.549    0.224    0.364   63.407
  484.250   15.839    0.123    0.307   67.634
  484.500   13.645    0.102    0.279   75.475
  484.750   11.116    0.139    0.308   83.921
  485.000    9.756    0.171    0.329   88.146
  485.250   10.707    0.167    0.343   89.963
  485.500   13.385    0.207    0.345   80.936
  485.750   19.421    0.262    0.347   66.489
  486.000   25.201    0.292    0.352   62.282
  486.250   26.644    0.311    0.370   64.102
  486.500   26.641    0.316    0.381   65.916
  486.750   19.774    0.313    0.381   70.750
  487.000   15.812    0.296    0.368   73.166
  487.250   13.622    0.288    0.362   77.394
  487.500   11.735    0.280    0.378   81.017
  487.750   10.492    0.288    0.390   84.641
  488.000    9.739    0.268    0.358   88.270
  488.250    8.871    0.246    0.346   91.291
  488.500    8.082    0.238    0.354   93.709
  488.750    7.931    0.223    0.362   95.524
