~VERSION INFORMATION
 VERS.                 2.0:   CWLS LOG ASCII STANDARD -VERSION 2.0
 WRAP.                  NO:   ONE LINE PER DEPTH STEP
~WELL INFORMATION BLOCK
#MNEM.UNIT           DATA                    DESCRIPTION OF MNEMONIC
#---------    -------------------            -------------------------------
# Generated from Intellog Unique Number	CW_70_72/WELL/529
NULL.         -999.25                        : NULL_VALUE
WELL.         CHIEFCO SCEPTRE SPURFIELD 06-0 : Well_name    - WELL              
LOC .         06-02-072-02W5                 : Location     - LOCATION          
UWI .         00/06-02-072-02W5/0            : Uwi          - UNIQUE WELL ID    
ENTR.         JAYE                           : Entered      - ENTERED BY        
SRVC.         SCHLUMBERGER                   : Scn          - SERVICE COMPANY   
DATE.         21 JAN 78                      : Date         - LOG DATE          
STRT.M        387.096                        : top_depth    - START DEPTH       
STOP.M        640.096                        : bot_depth    - STOP DEPTH        
STEP.M        0.25                           : increment    - STEP LENGTH       
~CURVE INFORMATION BLOCK
#MNEM UNIT       ERCB CURVE CODE    CURVE DESCRIPTION
#-----------   ------------------   ----------------------------------
DEPT.M        00 001 00 00         : DEPTH        - DEPTH                       
DPHI.V/V      00 890 00 00         : PHID         - DENSITY POROSITY (SANDSTONE)
NPHI.V/V      00 330 00 00         : PHIN         - NEUTRON POROSITY (SANDSTONE)
GR  .API      00 310 00 00         : GR           - GAMMA RAY                   
CALI.MM       00 280 01 00         : CAL          - CALIPER                     
ILD .OHMM     00 120 00 00         : RESD         - DEEP RESISTIVITY (DIL)      
~PARAMETER INFORMATION       
#MNEM.UNIT           DATA             DESCRIPTION OF MNEMONIC
#---------         -----------     ------------------------------
GL  .M        588.416              : gl           - GROUND LEVEL ELEVATION      
EREF.M        591.312              : kb           - ELEVATION OF DEPTH REFERENCE
DATM.M        588.416              : datum        - DATUM ELEVATION             
TDD .M        659.892              : tdd          - TOTAL DEPTH DRILLER         
RUN .         ONE                  : Run          - RUN NUMBER                  
ENG .         CONQUIST/DALY        : Engineer     - RECORDING ENGINEER          
WIT .         SIFERD               : Witness      - WITNESSED BY                
BASE.         EDM                  : Branch       - HOME BASE OF LOGGING UNIT   
MUD .         GEL CHEM             : Mud_type     - MUD TYPE                    
MATR.         SANDSTONE            : Logunit      - NEUTRON MATRIX              
TMAX.C        25.5556              : BHT          - MAXIMUM RECORDED TEMPERATURE
BHTD.M        660.197              : BHTDEP       - MAXIMUM RECORDED TEMPERATURE
RMT .C        18.8889              : MDTP         - TEMPERATURE OF MUD          
MUDD.KG/M     1128                 : MWT          - MUD DENSITY                 
NEUT.         1                    : NEUTRON      - NEUTRON TYPE                
RESI.         0                    : RESIST       - RESISTIVITY TYPE            
RM  .OHMM     6.55                 : RM           - RESISTIVITY OF MUD          
RMC .OHMM     0                    : RMC          - RESISTIVITY OF MUD CAKE     
RMF .OHMM     5.8                  : RMF          - RESISTIVITY OF MUD FILTRATE 
SUFT.C        0                    : SUFT         - SURFACE TEMPERATURE         
~A  DEPTH     PHID     PHIN       GR      CAL     RESD
# ...
  569.596    0.074    0.406   88.842  185.698    7.188
  569.846    0.065    0.370   87.100  185.917    7.242
  570.096    0.095    0.348   86.355  185.922    7.174
  570.346    0.113    0.350   86.608  185.928    7.120
  570.596    0.096    0.347   87.672  185.618    7.080
  570.846    0.115    0.371   89.608  185.518    7.161
  571.096    0.105    0.395   90.173  185.102    7.380
  571.346    0.064    0.368   91.424  184.476    7.824
  571.596    0.077    0.350   92.114  183.954    8.217
  571.846    0.092    0.337   92.492  182.904    8.548
  572.096    0.080    0.339   92.620  181.961    8.711
  572.346    0.070    0.344   90.691  181.123    8.760
  572.596    0.079    0.343   89.448  180.918    8.743
  572.846    0.088    0.329   89.950  180.923    8.678
  573.096    0.097    0.328   92.510  180.930    8.580
  573.346    0.083    0.334   95.881  181.359    8.500
  573.596    0.067    0.342   98.752  181.577    8.388
  573.846    0.068    0.343  100.314  182.110    8.388
  574.096    0.086    0.307   97.700  182.962    8.436
  574.346    0.069    0.305   96.519  183.601    8.500
  574.596    0.071    0.327   95.338  184.136    8.564
  574.846    0.082    0.308   92.599  184.247    8.612
  575.096    0.084    0.290   90.732  184.465    8.564
  575.346    0.068    0.298   89.053  184.577    8.420
  575.596    0.081    0.316   88.121  185.217    8.216
  575.846    0.094    0.300   89.871  186.490    7.927
  576.096    0.089    0.303   95.610  188.397    7.338
  576.346    0.109    0.316  103.469  190.725    6.443
  576.596    0.130    0.330  109.084  192.948    5.438
  576.846    0.150    0.347  108.091  196.017    4.395
  577.096    0.171    0.364  101.922  200.140    3.370
  577.346    0.191    0.374   98.310  205.002    2.817
  577.596    0.238    0.496   95.446  210.710    2.290
  577.846    0.270    0.546   93.891  220.851    1.951
  578.096    0.288    0.574   93.271  234.054    1.889
  578.346    0.296    0.524   93.026  243.561    1.922
  578.596    0.235    0.488   93.279  249.374    1.984
  578.846    0.171    0.477   93.968  237.451    2.136
  579.096    0.179    0.472   95.219  233.657    2.373
  579.346    0.189    0.482   96.158  234.930    2.652
  579.596    0.172    0.492   98.032  225.752    2.981
  579.846    0.155    0.495  102.898  219.107    3.472
  580.096    0.156    0.491  100.284  214.892    3.866
  580.346    0.065    0.473   97.295  212.574    4.436
  580.596    0.092    0.408   97.797  209.098    5.217
  580.846    0.078    0.361   96.679  205.831    6.286
  581.096    0.061    0.357   96.745  202.458    7.337
  581.346    0.089    0.356   98.557  198.981    7.561
  581.596    0.049    0.358  100.431  195.293    6.804
  581.846    0.112    0.360  103.552  191.816    6.740
  582.096    0.129    0.377  106.237  188.866    7.052
  582.346    0.111    0.397  106.739  186.443    7.504
  582.596    0.092    0.389  104.623  183.178    7.971
  582.846    0.033    0.370   98.517  179.489    8.611
  583.096    0.014    0.336   92.535  175.061    9.009
  583.346    0.042    0.313   96.841  173.484    9.180
  583.596    0.085    0.339  103.017  177.396    9.180
  583.846    0.041    0.392   97.347  181.520    8.627
  584.096    0.045    0.304   92.738  176.142    7.986
  584.346    0.072    0.302   92.430  172.453    7.240
  584.596    0.060    0.376  102.034  174.994    6.491
  584.846    0.120    0.433  108.273  177.956    6.286
  585.096    0.136    0.374  105.970  180.285    6.778
  585.346    0.104    0.347  101.734  175.752    7.504
  585.596    0.099    0.355   96.875  173.646    8.015
  585.846    0.086    0.351   94.323  171.964    8.466
  586.096    0.065    0.339   94.825  170.599    8.675
  586.346    0.063    0.347   96.699  170.076    8.874
  586.596    0.089    0.356   96.516  169.872    8.975
  586.846    0.090    0.343   94.337  170.617    8.958
  587.096    0.062    0.322   92.284  170.940    8.741
  587.346    0.050    0.336   84.931  170.947    8.339
  587.596    0.147    0.343   75.022  168.630    7.294
  587.846    0.163    0.335   66.110  159.240    6.689
  588.096    0.201    0.279   54.331  152.596    5.929
  588.346    0.234    0.281   46.105  151.230    4.966
  588.596    0.246    0.315   40.373  151.026    4.436
  588.846    0.249    0.337   34.952  150.820    3.946
  589.096    0.235    0.346   30.842  150.404    3.558
  589.346    0.244    0.341   31.282  150.095    3.312
  589.596    0.232    0.347   33.280  150.101    3.202
  589.846    0.244    0.345   36.027  150.108    3.154
  590.096    0.235    0.344   36.343  149.902    3.142
  590.346    0.243    0.347   36.222  150.015    3.142
  590.596    0.241    0.345   38.096  149.810    3.130
  590.846    0.221    0.345   39.596  149.606    3.124
  591.096    0.229    0.350   40.036  149.718    3.118
  591.346    0.217    0.353   39.292  149.830    3.112
  591.596    0.234    0.352   39.545  150.259    3.101
  591.846    0.223    0.348   40.297  150.582    3.077
  592.096    0.211    0.342   40.301  150.799    3.060
  592.346    0.215    0.332   40.055  151.121    3.054
  592.596    0.222    0.324   38.937  151.232    3.077
  592.846    0.221    0.350   38.691  151.449    3.106
  593.096    0.233    0.359   40.191  151.772    3.136
  593.346    0.220    0.347   42.564  152.202    3.183
  593.596    0.211    0.343   45.311  152.209    3.219
  593.846    0.228    0.344   42.696  152.214    3.299
  594.096    0.211    0.345   45.194  152.220    3.394
  594.346    0.189    0.344   48.751  152.438    3.491
  594.596    0.179    0.342   50.251  152.655    3.564
  594.846    0.190    0.341   52.375  152.767    3.639
  595.096    0.203    0.339   53.626  152.879    3.715
  595.346    0.206    0.334   54.252  153.097    3.836
  595.596    0.214    0.327   54.381  153.421    3.953
  595.846    0.229    0.324   55.819  153.533    4.051
  596.096    0.202    0.336   57.194  153.751    4.160
  596.346    0.190    0.340   57.260  153.546    4.319
  596.596    0.195    0.341   58.012  153.553    4.460
  596.846    0.182    0.339   59.699  153.454    4.588
  597.096    0.170    0.330   61.012  153.458    4.701
  597.346    0.144    0.336   57.462  153.675    4.764
  597.596    0.122    0.348   54.598  153.789    4.827
  597.846    0.137    0.342   56.223  154.006    4.891
  598.096    0.182    0.337   60.154  154.328    4.937
  598.346    0.183    0.329   62.402  154.757    4.975
  598.596    0.183    0.324   63.092  155.292    4.994
  598.846    0.177    0.334   65.278  156.142    5.022
  599.096    0.167    0.351   68.336  157.837    5.079
  599.346    0.167    0.362   65.846  159.532    5.166
  599.596    0.163    0.359   64.853  161.756    5.304
  599.846    0.155    0.346   67.537  163.874    5.446
  600.096    0.133    0.338   69.786  165.675    5.581
  600.346    0.132    0.328   70.225  167.476    5.719
  600.596    0.136    0.318   72.162  169.911    5.872
  600.846    0.142    0.314   71.791  171.712    5.983
  601.096    0.149    0.318   69.613  173.195    6.086
  601.346    0.134    0.324   69.742  174.997    6.260
  601.596    0.142    0.332   72.052  176.586    6.452
  601.846    0.156    0.338   73.552  178.494    6.587
  602.096    0.165    0.334   75.800  180.295    6.814
  602.346    0.155    0.325   77.799  181.990    7.156
  602.596    0.137    0.302   73.626  183.474    7.544
  602.846    0.113    0.325   76.061  185.170    7.848
  603.096    0.128    0.349   83.609  186.549    7.952
  603.346    0.121    0.366   91.281  188.034    7.687
  603.596    0.121    0.387  100.761  188.673    7.009
  603.846    0.144    0.414  107.248  188.573    6.512
  604.096    0.178    0.438  107.003  187.313    5.960
  604.346    0.201    0.480  101.645  184.891    5.559
  604.596    0.186    0.512   90.115  180.886    5.905
  604.846    0.183    0.359   81.827  176.247    6.562
  605.096    0.101    0.265   65.371  171.397    7.473
  605.346    0.071    0.234   52.033  166.442    8.494
  605.596    0.117    0.210   45.179  163.175    9.728
  605.846    0.151    0.258   49.547  159.699   10.549
