~VERSION INFORMATION
 VERS.                 2.0:   CWLS LOG ASCII STANDARD -VERSION 2.0
 WRAP.                  NO:   ONE LINE PER DEPTH STEP
~WELL INFORMATION BLOCK
#MNEM.UNIT           DATA                    DESCRIPTION OF MNEMONIC
#---------    -------------------            -------------------------------
# Generated from Intellog Unique Number	CC_80_83/WELL/1045
LOC .         00/02-29-080-13W4/0            : Location     - LOCATION
UWI .         00/02-29-080-13W4/0            : Uwi          - UNIQUE WELL ID
ENTR.         DW                             : Entered      - ENTERED BY
SRVC.         SCHLUMBERGER                   : Scn          - SERVICE COMPANY
STRT.M        275                            : top_depth    - START DEPTH
STOP.M        504.75                         : bot_depth    - STOP DEPTH
STEP.M        0.25                           : increment    - STEP LENGTH
 NULL. -999.2500:NULL Value
~CURVE INFORMATION BLOCK
#MNEM UNIT       ERCB CURVE CODE    CURVE DESCRIPTION
#-----------   ------------------   ----------------------------------
DEPT.M        00 001 00 00         : DEPTH        - DEPTH
GR  .API      00 310 00 00         : GR           - GAMMA RAY
DPHI.V/V      00 890 00 00         : PHID         - DENSITY POROSITY (SANDSTONE)
NPHI.V/V      00 330 00 00         : PHIN         - NEUTRON POROSITY (SANDSTONE)
ILD .OHMM     00 120 00 00         : RESD         - DEEP RESISTIVITY (DIL)
~PARAMETER INFORMATION
#MNEM.UNIT           DATA             DESCRIPTION OF MNEMONIC
#---------         -----------     ------------------------------
GL  .M        698.4                : gl           - GROUND LEVEL ELEVATION
EREF.M        701.6                : kb           - ELEVATION OF DEPTH REFERENCE
DATM.M        701.6                : datum        - DATUM ELEVATION
TDD .M        509.5                : tdd          - TOTAL DEPTH DRILLER
RUN .         ONE                  : Run          - RUN NUMBER
ENG .         BILL                 : Engineer     - RECORDING ENGINEER
WIT .         JIM                  : Witness      - WITNESSED BY
MUD .         GEL                  : Mud_type     - MUD TYPE
MATR.         SANDSTONE            : Logunit      - NEUTRON MATRIX
TMAX.C        21.2                 : BHT          - MAXIMUM RECORDED TEMPERATURE
BHTD.M        509                  : BHTDEP       - MAXIMUM RECORDED TEMPERATURE
MATR.         1                    : LOGUNIT      - NEUTRON MATRIX
RMT .C        25                   : MDTP         - TEMPERATURE OF MUD
NEUT.         1                    : NEUTRON      - NEUTRON TYPE
RESI.         0                    : RESIST       - RESISTIVITY TYPE
RMC .OHMM     0.25                 : RMC          - RESISTIVITY OF MUD CAKE
RMF .OHMM     0.25                 : RMF          - RESISTIVITY OF MUD FILTRATE
SUFT.C        15                   : SUFT         - SURFACE TEMPERATURE
~A  DEPTH       GR     PHID     PHIN     RESD
# ...
  449.000   78.597    0.214    0.357    8.437
  449.250   85.480    0.233    0.369   10.106
  449.500   86.760    0.243    0.371   11.435
  449.750   83.247    0.259    0.366   12.399
  450.000   80.558    0.265    0.374   13.029
  450.250   75.781    0.236    0.369   13.751
  450.500   66.558    0.186    0.330   14.636
  450.750   59.821    0.157    0.290   14.697
  451.000   68.347    0.176    0.261   14.032
  451.250   83.512    0.209    0.302   13.585
  451.500   84.970    0.223    0.364   13.499
  451.750   74.897    0.224    0.367   13.559
  452.000   70.352    0.237    0.333   13.785
  452.250   67.126    0.253    0.326   13.805
  452.500   80.492    0.232    0.351   13.563
  452.750   97.857    0.215    0.375   13.582
  453.000  104.312    0.217    0.388   13.961
  453.250  104.967    0.220    0.386   15.367
  453.500  109.427    0.223    0.360   18.078
  453.750  108.386    0.238    0.338   20.430
  454.000   93.655    0.287    0.330   24.747
  454.250   75.842    0.351    0.260   28.556
  454.500   68.492    0.354    0.223   30.078
  454.750   72.371    0.295    0.272   30.212
  455.000   77.910    0.254    0.298   29.619
  455.250   79.583    0.235    0.325   28.176
  455.500   79.598    0.254    0.346   27.360
  455.750   77.219    0.277    0.360   25.586
  456.000   77.719    0.276    0.366   24.049
  456.250   82.382    0.254    0.369   23.945
  456.500   84.583    0.224    0.368   23.969
  456.750   83.634    0.205    0.357   25.362
  457.000   74.796    0.185    0.342   29.840
  457.250   66.039    0.219    0.327   38.348
  457.500   59.324    0.285    0.357   46.326
  457.750   54.228    0.315    0.410   50.413
  458.000   56.297    0.305    0.405   50.561
  458.250   66.296    0.293    0.389   43.986
  458.500   78.135    0.267    0.383   36.339
  458.750   81.482    0.251    0.389   29.962
  459.000   79.342    0.250    0.392   26.123
  459.250   76.840    0.250    0.375   24.479
  459.500   71.961    0.242    0.339   22.938
  459.750   70.518    0.223    0.318   21.571
  460.000   81.987    0.204    0.312   19.530
  460.250   94.844    0.198    0.319   18.715
  460.500   97.743    0.193    0.342   20.195
  460.750   86.630    0.218    0.370   22.599
  461.000   68.576    0.285    0.381   23.363
  461.250   65.804    0.287    0.368   20.970
  461.500   79.509    0.256    0.349   17.721
  461.750   99.814    0.230    0.336   13.025
  462.000  114.808    0.219    0.336    8.629
  462.250  116.858    0.207    0.382    7.159
  462.500  101.419    0.214    0.469    7.507
  462.750   68.676    0.317    0.480   10.765
  463.000   44.229    0.420    0.332   37.639
  463.250   34.986    0.457    0.157  114.780
  463.500   33.340    0.451    0.111  186.587
  463.750   34.227    0.443    0.152  206.982
  464.000   36.863    0.430    0.140  200.498
  464.250   38.227    0.412    0.126  169.906
  464.500   42.303    0.432    0.123  122.729
  464.750   47.081    0.446    0.161   86.159
  465.000   51.981    0.427    0.223   71.053
  465.250   53.601    0.399    0.303   72.850
  465.500   48.309    0.397    0.372   84.875
  465.750   44.915    0.431    0.301   95.210
  466.000   45.900    0.442    0.242  102.488
  466.250   50.695    0.448    0.225  106.165
  466.500   61.162    0.479    0.264  105.384
  466.750   65.145    0.507    0.358   97.721
  467.000   52.398    0.495    0.393   85.702
  467.250   46.468    0.471    0.282   81.377
  467.500   43.518    0.444    0.267   80.665
  467.750   43.848    0.425    0.372   83.193
  468.000   59.903    0.392    0.445   87.988
  468.250   75.860    0.386    0.477   88.534
  468.500   65.217    0.450    0.512   87.757
  468.750   53.974    0.465    0.389  105.791
  469.000   48.754    0.465    0.261  135.825
  469.250   46.250    0.470    0.223  175.370
  469.500   43.061    0.470    0.204  180.862
  469.750   37.619    0.455    0.169  300.969
  470.000   34.219    0.432    0.174  684.031
  470.250   40.911    0.409    0.204 1032.220
  470.500   45.201    0.409    0.222 1250.990
  470.750   41.296    0.456    0.175  758.826
  471.000   38.036    0.482    0.119  395.411
  471.250   42.429    0.462    0.142  702.497
  471.500   49.741    0.440    0.213  761.543
  471.750   51.745    0.406    0.223  463.952
  472.000   41.656    0.479    0.190  363.118
  472.250   41.074    0.519    0.119  394.620
  472.500   50.013    0.467    0.169  413.226
  472.750   53.144    0.423    0.306  368.908
  473.000   47.321    0.454    0.285  442.225
  473.250   36.924    0.509    0.209 1174.550
  473.500   36.014    0.499    0.121 2061.190
  473.750   38.021    0.481    0.074 2043.930
  474.000   37.040    0.498    0.069 1247.280
  474.250   34.700    0.490    0.072  640.802
  474.500   34.749    0.411    0.136  435.330
  474.750   38.635    0.343    0.322  244.283
  475.000   31.037    0.330    0.354 1525.280
  475.250   26.168    0.337    0.358 2202.570
  475.500   26.262    0.343    0.393 2020.990
  475.750   24.292    0.348    0.400 2037.810
  476.000   23.516    0.348    0.397 2034.170
  476.250   24.543    0.344    0.369 2065.850
  476.500   25.578    0.343    0.366 2105.280
  476.750   26.968    0.340    0.375 2116.250
  477.000   28.379    0.339    0.378 2112.670
  477.250   29.337    0.342    0.376 2113.650
  477.500   30.389    0.346    0.376 2113.490
  477.750   31.043    0.346    0.387 2113.530
  478.000   30.048    0.332    0.400 2113.170
  478.250   30.183    0.325    0.395 2114.690
  478.500   33.297    0.329    0.392 2108.230
  478.750   36.309    0.334    0.393 2053.000
  479.000   34.596    0.338    0.384 1955.010
  479.250   29.301    0.344    0.389 1921.490
  479.500   26.876    0.346    0.374 1917.850
  479.750   26.688    0.336    0.360 1932.030
  480.000   26.800    0.327    0.367 1987.610
  480.250   26.674    0.327    0.376 2038.480
  480.500   26.800    0.326    0.368 2034.120
  480.750   28.477    0.329    0.364 2065.510
  481.000   28.280    0.332    0.361 2106.960
  481.250   28.231    0.334    0.373 2110.170
  481.500   30.553    0.340    0.401 2131.620
  481.750   32.444    0.349    0.410 2147.430
  482.000   31.100    0.350    0.383 2070.870
  482.250   30.067    0.348    0.376 2007.210
  482.500   30.113    0.353    0.372 1919.690
  482.750   37.794    0.372    0.386 1831.740
  483.000   46.038    0.380    0.409 1824.590
  483.250   43.916    0.358    0.429 1905.470
  483.500   35.970    0.330    0.440 1997.970
  483.750   33.822    0.330    0.422 2065.740
  484.000   32.368    0.340    0.410 2099.780
  484.250   31.500    0.343    0.401 2145.340
  484.500   30.766    0.341    0.387 2133.220
  484.750   31.128    0.344    0.374 2059.650
  485.000   35.128    0.353    0.370 1991.050
  485.250   38.865    0.359    0.382 1835.680
  485.500   40.777    0.336    0.405 1759.880
  485.750   41.787    0.313    0.415 1873.800
  486.000   42.936    0.320    0.420 2089.150
  486.250   41.532    0.341    0.430 2203.270
  486.500   34.737    0.347    0.427 2152.230
  486.750   27.291    0.344    0.412 2116.480
  487.000   23.838    0.341    0.372 2107.110
  487.250   22.689    0.338    0.357 2139.020
  487.500   23.295    0.337    0.358 2147.970
  487.750   24.793    0.337    0.348 2102.460
  488.000   23.880    0.340    0.346 2072.900
  488.250   20.684    0.344    0.363 2073.320
  488.500   19.602    0.346    0.399 2069.600
  488.750   19.763    0.348    0.409 2094.640
  489.000   19.561    0.344    0.395 2117.880
  489.250   21.065    0.342    0.376 2112.530
  489.500   26.082    0.320    0.349 2113.560
  489.750   30.463    0.232    0.334 2113.750
  490.000   30.859    0.247    0.329 2112.410
  490.250   28.761    0.302    0.367 2117.330
  490.500   25.805    0.326    0.408 2100.790
  490.750   23.919    0.335    0.406 2067.370
  491.000   24.765    0.339    0.387 1989.140
  491.250   26.321    0.335    0.377 1648.390
  491.500   28.045    0.333    0.368  966.178
  491.750   31.401    0.333    0.364  524.841
  492.000   32.639    0.329    0.367  967.419
  492.250   32.591    0.317    0.373 1900.250
