~VERSION INFORMATION
 VERS.                 2.0:   CWLS LOG ASCII STANDARD -VERSION 2.0
 WRAP.                  NO:   ONE LINE PER DEPTH STEP
~WELL INFORMATION BLOCK
#MNEM.UNIT           DATA                    DESCRIPTION OF MNEMONIC
#---------    -------------------            -------------------------------
# Generated from Intellog Unique Number	CS_77_79/WELL/840
WELL.         DOME COWPAR                    : Well_name    - WELL
LOC .         00/02-17-079-03W4/0            : Location     - LOCATION
UWI .         00/02-17-079-03W4/0            : Uwi          - UNIQUE WELL ID
ENTR.         JHS                            : Entered      - ENTERED BY
SRVC.         SCHLUMBERGER                   : Scn          - SERVICE COMPANY
STRT.M        140                            : top_depth    - START DEPTH
STOP.M        400                            : bot_depth    - STOP DEPTH
STEP.M        0.25                           : increment    - STEP LENGTH
 NULL. -999.2500:NULL Value
~CURVE INFORMATION BLOCK
#MNEM UNIT       ERCB CURVE CODE    CURVE DESCRIPTION
#-----------   ------------------   ----------------------------------
DEPT.M        00 001 00 00         : DEPTH        - DEPTH
DPHI.V/V      00 890 00 00         : PHID         - DENSITY POROSITY (LIMESTONE)
NPHI.V/V      00 330 00 00         : PHIN         - NEUTRON POROSITY (LIMESTONE)
GR  .API      00 310 00 00         : GR           - GAMMA RAY
ILD .OHMM     00 120 00 00         : RESD         - DEEP RESISTIVITY (DIL)
RHOB.KG/M3    00 350 00 00         : DENS         - BULK DENSITY
~PARAMETER INFORMATION
#MNEM.UNIT           DATA             DESCRIPTION OF MNEMONIC
#---------         -----------     ------------------------------
GL  .M        549.2                : gl           - GROUND LEVEL ELEVATION
EREF.M        553.1                : kb           - ELEVATION OF DEPTH REFERENCE
DATM.M        553.1                : datum        - DATUM ELEVATION
TDD .M        402                  : tdd          - TOTAL DEPTH DRILLER
RUN .         ONE                  : Run          - RUN NUMBER
ENG .         BILL                 : Engineer     - RECORDING ENGINEER
WIT .         JIM                  : Witness      - WITNESSED BY
MUD .         GEL                  : Mud_type     - MUD TYPE
MATR.         LIMESTONE            : Logunit      - NEUTRON MATRIX
TMAX.C        24.4                 : BHT          - MAXIMUM RECORDED TEMPERATURE
BHTD.M        402                  : BHTDEP       - MAXIMUM RECORDED TEMPERATURE
MATR.         1                    : LOGUNIT      - NEUTRON MATRIX
RMT .C        25                   : MDTP         - TEMPERATURE OF MUD
NEUT.         1                    : NEUTRON      - NEUTRON TYPE
RESI.         0                    : RESIST       - RESISTIVITY TYPE
RMC .OHMM     0.25                 : RMC          - RESISTIVITY OF MUD CAKE
RMF .OHMM     0.25                 : RMF          - RESISTIVITY OF MUD FILTRATE
SUFT.C        15                   : SUFT         - SURFACE TEMPERATURE
~A  DEPTH     PHID     PHIN       GR     RESD     DENS
# ...
  176.500    0.297    0.446   73.811   16.043    0.000
  176.750    0.302    0.431   74.417   16.044    0.000
  177.000    0.292    0.420   74.415   16.346    0.000
  177.250    0.291    0.429   74.413   16.347    0.000
  177.500    0.304    0.420   81.091   16.047    0.000
  177.750    0.308    0.423   86.555   15.753    0.000
  178.000    0.303    0.441   88.374   14.900    0.000
  178.250    0.296    0.453   86.552   14.901    0.000
  178.500    0.315    0.466   79.869   14.902    0.000
  178.750    0.361    0.498   74.402   14.903    0.000
  179.000    0.406    0.546   67.113   15.467    0.000
  179.250    0.454    0.591   56.787   15.758    0.000
  179.500    0.439    0.614   51.927   16.355    0.000
  179.750    0.331    0.524   50.103   16.975    0.000
  180.000    0.336    0.434   46.458   17.619    0.000
  180.250    0.325    0.432   41.597   18.287    0.000
  180.500    0.320    0.437   40.381   18.287    0.000
  180.750    0.314    0.435   40.986   18.288    0.000
  181.000    0.314    0.426   39.770   18.289    0.000
  181.250    0.314    0.414   39.160   18.291    0.000
  181.500    0.318    0.423   40.373   17.955    0.000
  181.750    0.310    0.437   42.193   17.626    0.000
  182.000    0.328    0.448   44.621   17.303    0.000
  182.250    0.333    0.453   47.048   16.985    0.000
  182.500    0.326    0.455   49.475   16.674    0.000
  182.750    0.320    0.452   50.080   16.067    0.000
  183.000    0.324    0.443   50.079   15.197    0.000
  183.250    0.319    0.442   54.935   14.374    0.000
  183.500    0.321    0.449   60.399   13.596    0.000
  183.750    0.330    0.445   67.077   12.860    0.000
  184.000    0.370    0.468   70.111   12.861    0.000
  184.250    0.430    0.533   64.644   12.862    0.000
  184.500    0.498    0.587   57.355   13.104    0.000
  184.750    0.541    0.624   51.887   13.600    0.000
  185.000    0.318    0.628   57.958   14.116    0.000
  185.250    0.283    0.598   61.600   14.925    0.000
  185.500    0.287    0.454   60.384   15.491    0.000
  185.750    0.304    0.447   56.737   16.379    0.000
  186.000    0.329    0.446   56.736   17.000    0.000
  186.250    0.326    0.437   60.985   16.381    0.000
  186.500    0.320    0.437   65.234   14.929    0.000
  186.750    0.292    0.428   70.091   13.606    0.000
  187.000    0.237    0.418   76.769   12.633    0.000
  187.250    0.209    0.419   78.589   12.402    0.000
  187.500    0.203    0.442   72.514   12.635    0.000
  187.750    0.243    0.456   65.832   13.114    0.000
  188.000    0.293    0.454   65.222   14.126    0.000
  188.250    0.285    0.435   68.257   14.661    0.000
  188.500    0.260    0.414   72.506   14.936    0.000
  188.750    0.252    0.408   74.326   14.662    0.000
  189.000    0.239    0.412   74.325   14.129    0.000
  189.250    0.254    0.424   69.464   14.130    0.000
  189.500    0.278    0.450   65.211   14.395    0.000
  189.750    0.286    0.460   57.922   14.941    0.000
  190.000    0.307    0.450   45.775   15.797    0.000
  190.250    0.319    0.429   43.344   16.397    0.000
  190.500    0.320    0.413   43.342   16.095    0.000
  190.750    0.309    0.410   45.162   15.800    0.000
  191.000    0.296    0.396   52.447   15.225    0.000
  191.250    0.289    0.399   55.482   14.946    0.000
  191.500    0.306    0.411   56.087   14.672    0.000
  191.750    0.291    0.434   57.907   14.138    0.000
  192.000    0.277    0.437   60.941   14.138    0.000
  192.250    0.263    0.439   60.940   13.879    0.000
  192.500    0.271    0.447   59.723   13.880    0.000
  192.750    0.284    0.433   61.543   14.141    0.000
  193.000    0.275    0.424   60.327   14.407    0.000
  193.250    0.296    0.436   55.467   14.408    0.000
  193.500    0.323    0.430   52.428   14.954    0.000
  193.750    0.313    0.430   49.390   15.521    0.000
  194.000    0.329    0.439   47.566   15.522    0.000
  194.250    0.335    0.452   48.779   15.522    0.000
  194.500    0.325    0.461   53.635   15.237    0.000
  194.750    0.308    0.454   56.062   15.238    0.000
  195.000    0.298    0.438   54.846   14.684    0.000
  195.250    0.319    0.440   50.593   14.684    0.000
  195.500    0.338    0.439   46.340   14.685    0.000
  195.750    0.335    0.433   42.695   14.962    0.000
  196.000    0.318    0.429   45.729   15.243    0.000
  196.250    0.302    0.427   47.549   15.529    0.000
  196.500    0.315    0.442   45.725   15.821    0.000
  196.750    0.319    0.434   43.902   16.119    0.000
  197.000    0.344    0.428   43.900   16.120    0.000
  197.250    0.352    0.429   50.578   15.824    0.000
  197.500    0.343    0.450   51.790   15.825    0.000
  197.750    0.324    0.455   49.967   15.535    0.000
  198.000    0.324    0.440   46.321   15.827    0.000
  198.250    0.334    0.433   45.105   16.125    0.000
  198.500    0.335    0.430   44.495   16.125    0.000
  198.750    0.329    0.425   46.316   16.429    0.000
  199.000    0.317    0.413   49.350   16.430    0.000
  199.250    0.311    0.413   47.526   16.430    0.000
  199.500    0.312    0.422   45.703   16.129    0.000
  199.750    0.323    0.415   45.093   16.130    0.000
  200.000    0.307    0.415   46.306   16.131    0.000
  200.250    0.300    0.422   50.555   15.835    0.000
  200.500    0.298    0.422   51.161   15.545    0.000
  200.750    0.315    0.424   51.159   15.259    0.000
  201.000    0.325    0.429   51.157   14.979    0.000
  201.250    0.317    0.433   54.191   14.980    0.000
  201.500    0.319    0.446   56.011   14.706    0.000
  201.750    0.312    0.463   55.402   14.707    0.000
  202.000    0.326    0.469   51.757   14.707    0.000
  202.250    0.319    0.446   47.504   14.984    0.000
  202.500    0.320    0.426   47.502   15.265    0.000
  202.750    0.307    0.421   45.071   16.141    0.000
  203.000    0.318    0.426   45.069   16.445    0.000
  203.250    0.322    0.438   51.747   16.446    0.000
  203.500    0.318    0.428   63.283   15.847    0.000
  203.750    0.292    0.407   71.784   14.177    0.000
  204.000    0.263    0.405   91.822   13.409    0.000
  204.250    0.248    0.429  105.180   11.559    0.000
  204.500    0.236    0.457  111.859   10.732    0.000
  204.750    0.227    0.467  113.071   10.151    0.000
  205.000    0.227    0.464  111.854    9.782    0.000
  205.250    0.227    0.462  110.638    9.602    0.000
  205.500    0.242    0.468  107.600    9.603    0.000
  205.750    0.244    0.490  105.169    9.784    0.000
  206.000    0.250    0.455  102.131   10.345    0.000
  206.250    0.268    0.455  100.914   10.938    0.000
  206.500    0.288    0.469   94.840   12.003    0.000
  206.750    0.293    0.453   96.659   12.691    0.000
  207.000    0.291    0.453   94.836   13.172    0.000
  207.250    0.294    0.453   94.227   12.931    0.000
  207.500    0.283    0.451   96.653   12.693    0.000
  207.750    0.266    0.456   99.688   12.231    0.000
  208.000    0.248    0.464  100.901   12.007    0.000
  208.250    0.238    0.467  103.935   11.787    0.000
  208.500    0.233    0.475  106.363   11.787    0.000
  208.750    0.224    0.493  104.539   11.788    0.000
  209.000    0.226    0.484  102.715   11.789    0.000
  209.250    0.239    0.478   99.070   12.010    0.000
  209.500    0.251    0.467   94.817   12.236    0.000
  209.750    0.274    0.468   86.313   12.466    0.000
  210.000    0.282    0.474   81.453   13.181    0.000
  210.250    0.308    0.466   81.451   13.681    0.000
  210.500    0.302    0.451   79.020   14.199    0.000
  210.750    0.301    0.443   77.803   14.466    0.000
  211.000    0.288    0.423   80.231   14.467    0.000
  211.250    0.281    0.416   83.873   14.468    0.000
  211.500    0.277    0.416   85.085   14.202    0.000
  211.750    0.270    0.421   83.869   13.434    0.000
  212.000    0.253    0.420   85.688   13.187    0.000
  212.250    0.250    0.417   89.938   12.945    0.000
  212.500    0.264    0.422   93.580   12.946    0.000
  212.750    0.277    0.428  103.294   13.190    0.000
