~VERSION INFORMATION
 VERS.                 2.0:   CWLS LOG ASCII STANDARD -VERSION 2.0
 WRAP.                  NO:   ONE LINE PER DEPTH STEP
~WELL INFORMATION BLOCK
#MNEM.UNIT           DATA                    DESCRIPTION OF MNEMONIC
#---------    -------------------            -------------------------------
# Generated from Intellog Unique Number	CW_79_81/WELL/2450
WELL.         06-08-081-22W4                 : Well_name    - WELL
LOC .         00/06-08-081-22W4/0            : Location     - LOCATION
UWI .         00/06-08-081-22W4/0            : Uwi          - UNIQUE WELL ID
ENTR.         MAX                            : Entered      - ENTERED BY
SRVC.         SCHLUMBERGER                   : Scn          - SERVICE COMPANY
STRT.M        225                            : top_depth    - START DEPTH
STOP.M        444.75                         : bot_depth    - STOP DEPTH
STEP.M        0.25                           : increment    - STEP LENGTH
 NULL. -999.2500:NULL Value
~CURVE INFORMATION BLOCK
#MNEM UNIT       ERCB CURVE CODE    CURVE DESCRIPTION
#-----------   ------------------   ----------------------------------
DEPT.M        00 001 00 00         : DEPTH        - DEPTH
ILD .OHMM     00 120 00 00         : RESD         - DEEP RESISTIVITY (DIL)
NPHI.V/V      00 330 00 00         : PHIN         - NEUTRON POROSITY (SANDSTONE)
DPHI.V/V      00 890 00 00         : PHID         - DENSITY POROSITY (SANDSTONE)
GR  .API      00 310 00 00         : GR           - GAMMA RAY
CALI.MM       00 280 01 00         : CAL          - CALIPER
~PARAMETER INFORMATION
#MNEM.UNIT           DATA             DESCRIPTION OF MNEMONIC
#---------         -----------     ------------------------------
GL  .M        597.6                : gl           - GROUND LEVEL ELEVATION
EREF.M        600.9                : kb           - ELEVATION OF DEPTH REFERENCE
DATM.M        597.6                : datum        - DATUM ELEVATION
TDD .M        450                  : tdd          - TOTAL DEPTH DRILLER
RUN .         ONE                  : Run          - RUN NUMBER
ENG .         BILL                 : Engineer     - RECORDING ENGINEER
WIT .         JIM                  : Witness      - WITNESSED BY
MUD .         GEL                  : Mud_type     - MUD TYPE
MATR.         SANDSTONE            : Logunit      - NEUTRON MATRIX
TMAX.C        24                   : BHT          - MAXIMUM RECORDED TEMPERATURE
BHTD.M        450                  : BHTDEP       - MAXIMUM RECORDED TEMPERATURE
MATR.         1                    : LOGUNIT      - NEUTRON MATRIX
RMT .C        16.1                 : MDTP         - TEMPERATURE OF MUD
NEUT.         1                    : NEUTRON      - NEUTRON TYPE
RESI.         0                    : RESIST       - RESISTIVITY TYPE
RMC .OHMM     3.66                 : RMC          - RESISTIVITY OF MUD CAKE
RMF .OHMM     5.1                  : RMF          - RESISTIVITY OF MUD FILTRATE
SUFT.C        -10                  : SUFT         - SURFACE TEMPERATURE
~A  DEPTH     RESD     PHIN     PHID       GR      CAL
# ...
  407.500   85.888    0.389    0.273   37.984  218.586
  407.750  104.163    0.377    0.287   37.916  217.225
  408.000  103.465    0.377    0.297   37.447  218.091
  408.250   90.648    0.383    0.300   37.706  218.910
  408.500   80.424    0.386    0.300   39.571  218.258
  408.750   69.932    0.388    0.297   41.969  216.517
  409.000   60.965    0.393    0.293   44.009  215.169
  409.250   54.926    0.398    0.293   45.338  217.049
  409.500   50.232    0.383    0.301   47.092  218.332
  409.750   45.684    0.386    0.299   49.253  218.364
  410.000   42.767    0.391    0.300   52.483  218.699
  410.250   40.992    0.395    0.301   54.167  218.943
  410.500   39.922    0.399    0.298   53.953  218.890
  410.750   38.858    0.402    0.290   54.044  218.284
  411.000   37.733    0.403    0.279   55.553  217.094
  411.250   35.878    0.398    0.279   57.234  217.130
  411.500   33.736    0.389    0.274   59.633  218.056
  411.750   30.163    0.381    0.262   62.744  219.284
  412.000   23.549    0.373    0.241   66.921  220.513
  412.250   14.907    0.362    0.206   74.569  221.744
  412.500   12.391    0.353    0.150   83.006  221.781
  412.750   11.020    0.368    0.162   87.064  222.625
  413.000   10.094    0.370    0.178   90.768  223.157
  413.250    9.180    0.376    0.189   92.930  222.995
  413.500    8.192    0.390    0.188   93.906  222.045
  413.750    7.188    0.402    0.174   95.943  220.423
  414.000    7.086    0.408    0.187   97.697  220.049
  414.250    7.622    0.414    0.185   96.771  220.488
  414.500    8.721    0.398    0.170   92.638  221.225
  414.750   10.664    0.381    0.154   83.755  222.450
  415.000   13.749    0.370    0.154   74.162  224.858
  415.250   17.242    0.365    0.184   75.556  230.806
  415.500   16.742    0.370    0.177   85.969  236.623
  415.750   13.394    0.399    0.161   91.691  236.660
  416.000   11.534    0.412    0.149   96.882  235.218
  416.250   10.489    0.417    0.148  100.469  233.679
  416.500    9.984    0.419    0.165  101.562  232.928
  416.750   10.009    0.423    0.205   98.760  233.529
  417.000   10.485    0.428    0.228   95.318  234.391
  417.250   12.103    0.430    0.244   80.857  234.827
  417.500   15.487    0.420    0.254   70.669  234.972
  417.750   20.480    0.403    0.268   63.451  235.210
  418.000   26.242    0.392    0.282   59.260  235.342
  418.250   33.600    0.404    0.279   59.673  234.266
  418.500   36.300    0.399    0.256   60.443  232.663
  418.750   34.773    0.384    0.244   60.704  233.491
  419.000   34.242    0.376    0.234   60.964  234.321
  419.250   34.762    0.374    0.223   61.582  234.563
  419.500   35.954    0.373    0.212   62.556  234.311
  419.750   36.890    0.373    0.196   63.876  234.433
  420.000   37.486    0.374    0.181   65.633  234.883
  420.250   36.174    0.375    0.174   67.319  234.923
  420.500   34.519    0.377    0.182   69.365  234.963
  420.750   31.959    0.383    0.203   71.171  234.605
  421.000   27.876    0.396    0.231   72.676  233.851
  421.250   22.068    0.418    0.251   75.104  232.780
  421.500   20.483    0.417    0.262   78.839  231.181
  421.750   13.178    0.424    0.261   84.089  228.843
  422.000    9.289    0.443    0.243   89.158  225.314
  422.250    7.513    0.460    0.222   92.149  222.184
  422.500    6.684    0.469    0.207   92.648  220.346
  422.750    6.041    0.473    0.211   92.173  220.002
  423.000    5.608    0.488    0.211   94.427  220.039
  423.250    5.411    0.498    0.211   93.978  221.267
  423.500    5.396    0.491    0.211   92.632  223.381
  423.750    5.577    0.479    0.207   92.415  225.794
  424.000    6.072    0.468    0.204   93.983  227.813
  424.250    7.391    0.455    0.208   97.069  228.654
  424.500    8.108    0.449    0.209   99.320  228.700
  424.750    8.536    0.462    0.213   95.068  228.340
  425.000    8.561    0.489    0.239   86.365  226.793
  425.250    8.194    0.525    0.294   79.977  225.448
  425.500    7.731    0.555    0.353   80.474  224.799
  425.750    7.571    0.553    0.348   91.429  224.450
  426.000    7.577    0.538    0.330   97.393  224.483
  426.250    7.528    0.536    0.313  100.031  224.919
  426.500    7.397    0.532    0.306  101.953  225.058
  426.750    7.163    0.522    0.297  103.636  225.101
  427.000    6.850    0.507    0.283  105.437  225.243
  427.250    6.468    0.493    0.266  107.406  225.687
  427.500    6.233    0.480    0.260  106.441  225.729
  427.750    6.422    0.465    0.251  102.907  225.369
  428.000    7.084    0.444    0.243  102.929  225.306
  428.250    7.864    0.431    0.237  103.547  225.344
  428.500    8.306    0.434    0.232  102.622  225.286
  428.750    7.936    0.454    0.222   97.363  224.855
  429.000    7.313    0.441    0.219   89.965  224.480
  429.250    7.865    0.426    0.232   82.867  224.125
  429.500    9.045    0.417    0.250   79.684  223.772
  429.750   11.399    0.416    0.270   78.876  223.613
  430.000   15.921    0.420    0.285   78.900  223.649
  430.250   23.627    0.429    0.284   77.627  223.622
  430.500   26.734    0.430    0.295   74.682  223.247
  430.750   29.587    0.434    0.311   73.989  223.687
  431.000   34.810    0.431    0.311   72.945  225.899
  431.250   40.081    0.418    0.308   72.258  229.896
  431.500   42.570    0.399    0.308   72.816  234.096
  431.750   41.646    0.389    0.312   76.535  235.323
  432.000   38.658    0.399    0.311   80.762  235.365
  432.250   34.644    0.421    0.292   83.638  235.809
  432.500   30.703    0.427    0.279   85.796  235.351
  432.750   26.390    0.422    0.274   88.549  234.591
  433.000   21.679    0.407    0.268   92.371  233.537
  433.250   16.245    0.378    0.245   97.555  231.196
  433.500   13.406    0.368    0.228  100.795  229.180
  433.750   12.746    0.380    0.220   99.160  226.854
  434.000   12.392    0.395    0.224   97.343  225.703
  434.250   12.269    0.406    0.235   95.227  224.944
  434.500   12.433    0.411    0.246   93.232  224.385
  434.750   13.329    0.413    0.249   91.918  224.354
  435.000   14.622    0.415    0.238   89.961  223.980
  435.250   16.181    0.411    0.242   82.861  223.620
  435.500   17.548    0.406    0.259   79.144  222.970
  435.750   18.691    0.402    0.263   77.032  222.416
  436.000   19.301    0.397    0.252   75.335  221.960
  436.250   18.740    0.390    0.241   72.520  221.055
  436.500   18.613    0.387    0.241   67.846  220.268
  436.750   19.879    0.386    0.272   65.498  219.117
  437.000   19.906    0.383    0.273   65.996  218.866
  437.250   19.346    0.380    0.261   69.342  219.301
  437.500   18.233    0.379    0.249   74.587  220.820
  437.750   15.749    0.383    0.247   78.950  224.764
  438.000   13.986    0.379    0.259   74.523  226.455
  438.250   13.591    0.376    0.253   73.597  225.300
  438.500   12.992    0.373    0.245   75.879  224.751
  438.750   12.264    0.370    0.235   78.992  225.386
  439.000   11.454    0.366    0.229   80.798  227.005
  439.250   10.357    0.361    0.235   78.903  229.045
  439.500    9.333    0.362    0.227   76.454  231.148
  439.750    8.551    0.367    0.133   75.054  233.566
  440.000    8.018    0.285    0.033   70.622  234.198
  440.250    7.997    0.202   -0.007   61.382  232.258
  440.500    8.424    0.164    0.017   52.975  227.844
  440.750    8.979    0.193    0.052   63.016  222.032
  441.000    9.553    0.247    0.089   85.799  222.495
  441.250    9.630    0.296    0.095   96.745  221.735
  441.500    9.603    0.338    0.089  100.747  220.685
  441.750    9.543    0.353    0.079   99.940  219.934
  442.000    9.377    0.343    0.068   97.175  219.677
  442.250    8.837    0.338    0.063   95.425  219.972
  442.500    8.453    0.341    0.077   92.477  221.247
  442.750    8.458    0.341    0.085   70.893  223.265
  443.000    8.930    0.325    0.093   67.116  224.103
  443.250    9.612    0.311    0.102   70.939  224.341
  443.500   10.114    0.308    0.109   74.465  224.374
  443.750    9.735    0.328    0.116   73.059  224.419
