~VERSION INFORMATION
 VERS.                 2.0:   CWLS LOG ASCII STANDARD -VERSION 2.0
 WRAP.                  NO:   ONE LINE PER DEPTH STEP
~WELL INFORMATION BLOCK
#MNEM.UNIT           DATA                    DESCRIPTION OF MNEMONIC
#---------    -------------------            -------------------------------
# Generated from Intellog Unique Number	CW_70_72/WELL/288
NULL.         -999.25                        : NULL_VALUE
WELL.         GULF NORCEN MITSUE 04-31       : Well_name    - WELL              
LOC .         04-31-072-03W5                 : Location     - LOCATION          
UWI .         00/04-31-072-03W5/0            : Uwi          - UNIQUE WELL ID    
ENTR.         JAYE                           : Entered      - ENTERED BY        
SRVC.         COMPUTALOG                     : Scn          - SERVICE COMPANY   
DATE.         18 MAR 83                      : Date         - LOG DATE          
STRT.M        380                            : top_depth    - START DEPTH       
STOP.M        585                            : bot_depth    - STOP DEPTH        
STEP.M        0.25                           : increment    - STEP LENGTH       
~CURVE INFORMATION BLOCK
#MNEM UNIT       ERCB CURVE CODE    CURVE DESCRIPTION
#-----------   ------------------   ----------------------------------
DEPT.M        00 001 00 00         : DEPTH        - DEPTH                       
DPHI.V/V      00 890 00 00         : PHID         - DENSITY POROSITY (SANDSTONE)
NPHI.V/V      00 330 00 00         : PHIN         - NEUTRON POROSITY (SANDSTONE)
GR  .API      00 310 00 00         : GR           - GAMMA RAY                   
CALI.MM       00 280 01 00         : CAL          - CALIPER                     
ILD .OHMM     00 120 00 00         : RESD         - DEEP RESISTIVITY (DIL)      
~PARAMETER INFORMATION       
#MNEM.UNIT           DATA             DESCRIPTION OF MNEMONIC
#---------         -----------     ------------------------------
GL  .M        586.75               : gl           - GROUND LEVEL ELEVATION      
EREF.M        591.4                : kb           - ELEVATION OF DEPTH REFERENCE
DATM.M        586.75               : datum        - DATUM ELEVATION             
TDD .M        1610                 : tdd          - TOTAL DEPTH DRILLER         
RUN .         ONE                  : Run          - RUN NUMBER                  
ENG .         MCEWAN               : Engineer     - RECORDING ENGINEER          
WIT .         BELLMAN              : Witness      - WITNESSED BY                
BASE.         EDM                  : Branch       - HOME BASE OF LOGGING UNIT   
MUD .         GEL                  : Mud_type     - MUD TYPE                    
MATR.         SANDSTONE            : Logunit      - NEUTRON MATRIX              
TMAX.C        48                   : BHT          - MAXIMUM RECORDED TEMPERATURE
BHTD.M        1609                 : BHTDEP       - MAXIMUM RECORDED TEMPERATURE
RMT .C        18.3                 : MDTP         - TEMPERATURE OF MUD          
MUDD.KG/M     1070                 : MWT          - MUD DENSITY                 
NEUT.         1                    : NEUTRON      - NEUTRON TYPE                
RESI.         0                    : RESIST       - RESISTIVITY TYPE            
RM  .OHMM     0.9                  : RM           - RESISTIVITY OF MUD          
RMC .OHMM     1.3                  : RMC          - RESISTIVITY OF MUD CAKE     
RMF .OHMM     0.9                  : RMF          - RESISTIVITY OF MUD FILTRATE 
SUFT.C        0                    : SUFT         - SURFACE TEMPERATURE         
~A  DEPTH     PHID     PHIN       GR      CAL     RESD
# ...
  562.500    0.157    0.325   64.405  253.565    7.610
  562.750    0.176    0.319   59.217  251.682    8.068
  563.000    0.180    0.319   54.404  250.942    8.619
  563.250    0.167    0.331   57.268  252.075    8.813
  563.500    0.125    0.326   62.880  256.433    8.480
  563.750    0.116    0.317   69.053  261.103    7.416
  564.000    0.136    0.345   73.478  263.589    6.220
  564.250    0.144    0.355   77.529  262.745    5.451
  564.500    0.149    0.338   74.401  260.133    5.629
  564.750    0.152    0.330   66.342  252.735    5.887
  565.000    0.151    0.348   64.400  245.650    6.314
  565.250    0.141    0.366   67.639  244.701    6.644
  565.500    0.149    0.378   69.193  244.481    6.833
  565.750    0.158    0.377   67.937  245.512    6.919
  566.000    0.153    0.363   63.125  248.206    6.969
  566.250    0.140    0.350   64.428  252.668    6.938
  566.500    0.125    0.342   67.980  255.882    6.883
  566.750    0.130    0.351   68.784  256.391    6.814
  567.000    0.138    0.360   68.029  256.275    6.734
  567.250    0.147    0.356   68.958  256.680    6.666
  567.500    0.161    0.353   71.448  259.997    6.611
  567.750    0.165    0.352   74.500  263.003    6.518
  568.000    0.156    0.355   75.429  264.344    6.392
  568.250    0.148    0.356   74.861  264.438    6.363
  568.500    0.136    0.355   73.668  263.594    6.384
  568.750    0.113    0.337   72.288  262.542    6.503
  569.000    0.100    0.321   69.160  262.323    6.662
  569.250    0.086    0.308   66.220  262.103    6.750
  569.500    0.079    0.286   69.709  261.780    6.681
  569.750    0.130    0.307   75.257  261.560    6.427
  570.000    0.175    0.319   80.432  261.757    5.612
  570.250    0.222    0.326   85.793  261.747    4.663
  570.500    0.305    0.360   86.472  269.538    3.852
  570.750    0.394    0.408   79.600  279.826    2.948
  571.000    0.423    0.465   70.292  289.907    2.322
  571.250    0.455    0.503   65.292  246.824    1.840
  571.500    0.468    0.497   66.034  255.968    1.523
  571.750    0.467    0.488   68.711  269.273    1.381
  572.000    0.444    0.490   71.763  289.341    1.359
  572.250    0.364    0.508   74.878  297.341    1.417
  572.500    0.320    0.487   78.865  239.277    1.508
  572.750    0.307    0.411   77.361  231.567    1.608
  573.000    0.326    0.430   77.604  233.843    1.741
  573.250    0.311    0.448   79.719  235.602    1.965
  573.500    0.208    0.452   77.028  240.272    2.331
  573.750    0.156    0.400   69.157  244.839    2.708
  574.000    0.130    0.381   68.713  250.341    3.195
  574.250    0.123    0.355   70.579  253.970    3.805
  574.500    0.138    0.371   73.630  256.353    4.329
  574.750    0.148    0.369   74.309  258.212    4.924
  575.000    0.135    0.350   74.304  258.827    5.392
  575.250    0.119    0.336   74.047  259.543    5.641
  575.500    0.097    0.342   73.853  258.804    5.779
  575.750    0.101    0.333   73.404  258.376    5.853
  576.000    0.169    0.312   73.965  258.158    5.589
  576.250    0.306    0.384   76.142  259.186    5.156
  576.500    0.218    0.394   76.635  259.696    4.235
  576.750    0.183    0.399   76.753  258.434    4.233
  577.000    0.106    0.373   76.746  256.032    4.626
  577.250    0.075    0.346   77.050  254.459    5.314
  577.500    0.157    0.300   77.294  253.409    5.908
  577.750    0.188    0.380   77.287  251.523    5.986
  578.000    0.225    0.435   77.031  250.160    5.981
  578.250    0.152    0.385   76.524  249.213    5.487
  578.500    0.115    0.341   76.331  249.410    5.401
  578.750    0.098    0.325   76.386  250.023    5.770
  579.000    0.084    0.320   76.879  250.635    6.188
  579.250    0.091    0.333   77.309  249.064    6.597
  579.500    0.101    0.344   78.676  248.323    6.773
  579.750    0.106    0.353   81.666  247.897    6.641
  580.000    0.114    0.363   86.777  246.221    6.340
  580.250    0.133    0.384   88.456  243.817    6.182
  580.500    0.169    0.354   76.215  240.788    6.321
  580.750    0.206    0.308   65.784  237.136    7.056
  581.000    0.231    0.286   45.802  234.524    8.515
  581.250    0.228    0.267   46.793  233.680   10.140
  581.500    0.213    0.271   47.162  232.940   12.859
  581.750    0.179    0.273   45.969  232.617   15.225
  582.000    0.138    0.270   43.216  232.814   17.588
  582.250    0.094    0.262   37.652  232.802   18.967
  582.500    0.056    0.148   34.151  232.688   19.885
  582.750    0.075    0.092   30.024  232.468   20.681
  583.000    0.110    0.078   26.833  232.248   21.636
  583.250    0.133    0.070   23.268  232.133   22.894
  583.500    0.054    0.064   20.827  230.665   24.834
  583.750    0.033    0.060   19.572  228.573   26.991
  584.000    0.022    0.058   18.380  225.858   29.063
  584.250   -0.006    0.058   16.999  223.245   30.751
  584.500   -0.011    0.061   17.180  220.632   31.985
  584.750   -0.014    0.066   17.485  218.955   31.851
  585.000   -0.017    0.072   17.603  218.004   31.409
