~VERSION INFORMATION
 VERS.                 2.0:   CWLS LOG ASCII STANDARD -VERSION 2.0
 WRAP.                  NO:   ONE LINE PER DEPTH STEP
~WELL INFORMATION BLOCK
#MNEM.UNIT           DATA                    DESCRIPTION OF MNEMONIC
#---------    -------------------            -------------------------------
# Generated from Intellog Unique Number	CC_80_83/WELL/2296
NULL.         -999.25                        : NULL_VALUE
WELL.         AMOCO B-2A SURMONT             : Well_name    - WELL
LOC .         07-16-083-09W4                 : Location     - LOCATION          
UWI .         00/07-16-083-09W400            : Uwi          - UNIQUE WELL ID    
ENTR.         DW                             : Entered      - ENTERED BY        
SRVC.         SCHLUMBERGER                   : Scn          - SERVICE COMPANY   
DATE.         27 MAR 74                      : Date         - LOG DATE
STRT.M        259.08                         : top_depth    - START DEPTH       
STOP.M        466.35                         : bot_depth    - STOP DEPTH        
STEP.M        0.305                          : increment    - STEP LENGTH       
~CURVE INFORMATION BLOCK
#MNEM UNIT       ERCB CURVE CODE    CURVE DESCRIPTION
#-----------   ------------------   ----------------------------------
DEPT.M        00 001 00 00         : DEPTH        - DEPTH                       
DPHI.V/V      00 890 00 00         : PHID         - DENSITY POROSITY (LIMESTONE)
NPHI.V/V      00 330 00 00         : PHIN         - NEUTRON POROSITY (LIMESTONE)
GR  .API      00 310 00 00         : GR           - GAMMA RAY                   
ILD .OHMM     00 120 00 00         : RESD         - DEEP RESISTIVITY (DIL)      
~PARAMETER INFORMATION       
#MNEM.UNIT           DATA             DESCRIPTION OF MNEMONIC
#---------         -----------     ------------------------------
GL  .M        732.739              : gl           - GROUND LEVEL ELEVATION      
EREF.M        736.397              : kb           - ELEVATION OF DEPTH REFERENCE
DATM.M        736.397              : datum        - DATUM ELEVATION             
TDD .M        466.954              : tdd          - TOTAL DEPTH DRILLER         
RUN .         ONE                  : Run          - RUN NUMBER                  
ENG .         BILL                 : Engineer     - RECORDING ENGINEER          
WIT .         JIM                  : Witness      - WITNESSED BY                
MUD .         GEL                  : Mud_type     - MUD TYPE                    
MATR.         LIMESTONE            : Logunit      - NEUTRON MATRIX              
TMAX.C        23.3333              : BHT          - MAXIMUM RECORDED TEMPERATURE
BHTD.M        466.954              : BHTDEP       - MAXIMUM RECORDED TEMPERATURE
MATR.         1                    : LOGUNIT      - NEUTRON MATRIX              
RMT .C        25                   : MDTP         - TEMPERATURE OF MUD          
NEUT.         1                    : NEUTRON      - NEUTRON TYPE                
RESI.         0                    : RESIST       - RESISTIVITY TYPE            
RMC .OHMM     0.25                 : RMC          - RESISTIVITY OF MUD CAKE     
RMF .OHMM     0.25                 : RMF          - RESISTIVITY OF MUD FILTRATE 
SUFT.C        15                   : SUFT         - SURFACE TEMPERATURE         
~A  DEPTH     PHID     PHIN       GR     RESD
# ...
  312.117    0.302    0.462   90.206   25.214
  312.422    0.313    0.479   97.501   24.729
  312.726    0.306    0.474   99.332   22.943
  313.031    0.302    0.452   81.734   18.698
  313.336    0.283    0.446   79.922   16.111
  313.641    0.243    0.473   82.359   13.882
  313.946    0.255    0.479   86.617   12.878
  314.251    0.244    0.467   97.556   11.943
  314.555    0.227    0.443  108.493   11.716
  314.860    0.227    0.443  107.895   11.927
  315.165    0.191    0.459  104.262   13.064
  315.470    0.173    0.435  103.663   13.550
  315.775    0.200    0.417  104.886   13.292
  316.079    0.217    0.446  103.073   12.099
  316.384    0.219    0.437   83.046   11.867
  316.689    0.225    0.425   83.055   11.639
  316.994    0.189    0.430   96.422   11.413
  317.299    0.238    0.457  100.073   11.618
  317.603    0.227    0.441   87.941   11.828
  317.908    0.199    0.440   87.341   11.387
  318.213    0.217    0.455   92.209   10.181
  318.518    0.207    0.503   95.860    8.449
  318.823    0.206    0.514   99.512    7.556
  319.127    0.218    0.498  103.770    7.010
  319.432    0.212    0.494  111.672    6.875
  319.737    0.195    0.500  117.148    7.128
  320.042    0.208    0.483  115.334    7.811
  320.347    0.202    0.493  115.343    8.252
  320.652    0.213    0.494  118.998    9.213
  320.956    0.217    0.486  119.613   10.873
  321.261    0.225    0.467  119.619   11.917
  321.566    0.242    0.467  112.949   11.473
  321.871    0.241    0.476  102.637   10.450
  322.176    0.185    0.476   97.181    9.511
  322.480    0.172    0.468   95.975    8.991
  322.785    0.186    0.462   99.628    8.820
  323.090    0.212    0.473  111.172    9.489
  323.395    0.217    0.482  117.864    9.840
  323.700    0.246    0.483  116.049   11.188
  324.004    0.232    0.492  109.381   12.264
  324.309    0.238    0.465  107.566   13.440
  324.614    0.254    0.432  105.147   14.732
  324.919    0.266    0.444   94.227   16.754
  325.224    0.254    0.426   91.198   19.412
  325.528    0.224    0.410   88.780   25.598
  325.833    0.163    0.386   83.324   37.727
  326.138    0.069    0.351   73.618   41.352
  326.443    0.198    0.407   57.233   39.812
  326.748    0.281    0.444   42.670   32.436
  327.053    0.305    0.460   41.464   30.654
  327.357    0.310    0.456   48.152   31.792
  327.662    0.332    0.434   54.232   38.221
  327.967    0.295    0.419   56.065   41.112
  328.272    0.118    0.385   54.251   41.854
  328.577    0.140    0.379   48.797   41.040
  328.881    0.238    0.458   45.163   34.074
  329.186    0.317    0.469   44.565   29.356
  329.491    0.324    0.467   45.788   27.742
  329.796    0.343    0.458   47.010   27.207
  330.101    0.315    0.445   47.628   27.189
  330.405    0.299    0.445   48.243   28.177
  330.710    0.307    0.450   50.682   28.685
  331.015    0.320    0.462   50.689   29.736
  331.320    0.327    0.483   48.270   30.259
  331.625    0.337    0.479   47.671   30.806
  331.929    0.328    0.461   47.679   30.200
  332.234    0.302    0.444   47.083   30.174
  332.539    0.301    0.439   46.485   29.058
  332.844    0.299    0.437   46.492   26.463
  333.149    0.295    0.470   47.715   24.105
  333.454    0.306    0.479   50.760   22.361
  333.758    0.316    0.473   63.520   21.535
  334.063    0.321    0.475   67.173   21.114
  334.368    0.322    0.486   61.717   21.491
  334.673    0.301    0.509   55.046   22.275
  334.978    0.290    0.525   52.629   23.102
  335.282    0.303    0.504   53.244   23.953
  335.587    0.329    0.476   51.432   24.824
  335.892    0.335    0.470   50.225   25.272
  336.197    0.323    0.469   51.451   25.707
  336.502    0.325    0.471   53.888   25.692
  336.806    0.319    0.457   55.109   25.206
  337.111    0.320    0.486   54.511   24.715
  337.416    0.317    0.489   50.880   24.684
  337.721    0.303    0.477   51.493   24.671
  338.026    0.340    0.471   52.718   25.099
  338.330    0.319    0.470   53.331   25.080
  338.635    0.342    0.481   52.128   25.532
  338.940    0.336    0.502   49.708   25.495
  339.245    0.332    0.517   49.111   25.477
  339.550    0.346    0.494   49.726   25.458
  339.855    0.338    0.482   50.341   25.913
  340.159    0.345    0.477   47.925   25.880
  340.464    0.341    0.493   47.934   25.865
  340.769    0.334    0.478   48.546   25.836
  341.074    0.324    0.459   48.555   25.337
  341.379    0.323    0.489   47.957   25.325
  341.683    0.330    0.483   50.394   25.295
  341.988    0.327    0.464   52.834   25.265
  342.293    0.321    0.465   52.841   25.248
  342.598    0.326    0.492   50.423   25.220
  342.903    0.315    0.504   50.431   25.676
  343.207    0.310    0.493   52.262   25.171
  343.512    0.319    0.482   55.306   25.155
  343.817    0.325    0.466   54.708   24.676
  344.122    0.327    0.455   56.538   24.644
  344.427    0.324    0.459   58.369   24.624
  344.731    0.291    0.446   55.952   24.610
  345.036    0.293    0.443   56.568   24.126
  345.341    0.308    0.471   59.005   24.111
  345.646    0.294    0.472   60.225   23.205
  345.951    0.283    0.485   62.056   23.187
  346.256    0.274    0.502   63.280   22.747
  346.560    0.289    0.484   64.503   22.712
  346.865    0.272    0.482   64.512   22.699
  347.170    0.266    0.476   64.522   21.451
  347.475    0.272    0.466   65.746   20.655
  347.780    0.286    0.478   66.360   19.165
  348.084    0.305    0.499   67.583   17.456
  348.389    0.303    0.490   68.810   15.040
  348.694    0.300    0.490   68.816   12.487
  348.999    0.293    0.497   66.397   11.160
  349.304    0.269    0.483   65.798   10.749
  349.608    0.283    0.507   71.879   10.345
  349.913    0.288    0.483   76.746   10.337
  350.218    0.272    0.496   73.719   10.139
  350.523    0.282    0.490   72.513   10.127
  350.828    0.287    0.520   76.772   10.307
  351.132    0.287    0.526   76.781   10.493
  351.437    0.279    0.526   71.325   11.079
  351.742    0.265    0.545   78.623   11.921
  352.047    0.283    0.543   79.846   12.828
  352.352    0.289    0.447   78.639   14.586
  352.657    0.296    0.444   74.398   14.573
  352.961    0.283    0.474   69.551   13.522
  353.266    0.283    0.487   66.525   12.547
  353.571    0.260    0.470   70.175   11.856
  353.876    0.265    0.487   76.861   12.290
  354.181    0.284    0.497   73.834   13.468
  354.485    0.297    0.471   73.237   14.491
  354.790    0.302    0.485   73.248   15.883
  355.095    0.288    0.473   72.041   16.776
  355.400    0.291    0.469   70.834   16.764
  355.705    0.286    0.481   69.630   14.982
  356.009    0.285    0.490   70.248   13.152
  356.314    0.267    0.482   71.472   10.917
  356.619    0.273    0.483   73.299    9.764
  356.924    0.272    0.487   76.950    7.388
  357.229    0.268    0.490   81.212    6.248
  357.533    0.264    0.563   83.650    5.283
  357.838    0.230    0.563   84.874    4.995
  358.143    0.195    0.545   86.097    4.721
  358.448    0.211    0.527   88.533    5.080
  358.753    0.222    0.524   92.184    5.885
  359.058    0.240    0.528   99.480    6.214
  359.362    0.261    0.531  100.702    5.659
  359.667    0.272    0.520   90.389    4.875
  359.972    0.253    0.485   85.541    4.200
  360.277    0.222    0.537   89.193    3.687
  360.582    0.197    0.564   98.309    3.357
  360.886    0.190    0.570  111.070    3.232
  361.191    0.208    0.543  108.652    3.170
  361.496    0.229    0.536  108.051    3.168
  361.801    0.245    0.539  111.703    3.163
  362.106    0.217    0.553  112.319    3.162
  362.410    0.229    0.574  106.865    3.218
  362.715    0.247    0.578  104.444    3.337
  363.020    0.241    0.570  103.846    3.459
  363.325    0.239    0.577  106.284    3.392
  363.630    0.243    0.574  103.258    3.090
  363.934    0.229    0.568  100.231    2.711
  364.239    0.221    0.586  102.061    2.610
  364.544    0.225    0.602  103.891    2.608
  364.849    0.237    0.597  100.863    2.654
