~VERSION INFORMATION
 VERS.                 2.0:   CWLS LOG ASCII STANDARD -VERSION 2.0
 WRAP.                  NO:   ONE LINE PER DEPTH STEP
~WELL INFORMATION BLOCK
#MNEM.UNIT           DATA                    DESCRIPTION OF MNEMONIC
#---------    -------------------            -------------------------------
# Generated from Intellog Unique Number	CW_79_81/WELL/2461
WELL.         07-23-081-22W4                 : Well_name    - WELL
LOC .         00/07-23-081-22W4/0            : Location     - LOCATION
UWI .         00/07-23-081-22W4/0            : Uwi          - UNIQUE WELL ID
ENTR.         MAX                            : Entered      - ENTERED BY
SRVC.         SCHLUMBERGER                   : Scn          - SERVICE COMPANY
STRT.M        225                            : top_depth    - START DEPTH
STOP.M        439.75                         : bot_depth    - STOP DEPTH
STEP.M        0.25                           : increment    - STEP LENGTH
 NULL. -999.2500:NULL Value
~CURVE INFORMATION BLOCK
#MNEM UNIT       ERCB CURVE CODE    CURVE DESCRIPTION
#-----------   ------------------   ----------------------------------
DEPT.M        00 001 00 00         : DEPTH        - DEPTH
ILD .OHMM     00 120 00 00         : RESD         - DEEP RESISTIVITY (DIL)
NPHI.V/V      00 330 00 00         : PHIN         - NEUTRON POROSITY (SANDSTONE)
DPHI.V/V      00 890 00 00         : PHID         - DENSITY POROSITY (SANDSTONE)
GR  .API      00 310 00 00         : GR           - GAMMA RAY
CALI.MM       00 280 01 00         : CAL          - CALIPER
~PARAMETER INFORMATION
#MNEM.UNIT           DATA             DESCRIPTION OF MNEMONIC
#---------         -----------     ------------------------------
GL  .M        610.7                : gl           - GROUND LEVEL ELEVATION
EREF.M        614                  : kb           - ELEVATION OF DEPTH REFERENCE
DATM.M        610.7                : datum        - DATUM ELEVATION
TDD .M        450                  : tdd          - TOTAL DEPTH DRILLER
RUN .         ONE                  : Run          - RUN NUMBER
ENG .         BILL                 : Engineer     - RECORDING ENGINEER
WIT .         JIM                  : Witness      - WITNESSED BY
MUD .         GEL                  : Mud_type     - MUD TYPE
MATR.         SANDSTONE            : Logunit      - NEUTRON MATRIX
TMAX.C        30                   : BHT          - MAXIMUM RECORDED TEMPERATURE
BHTD.M        450                  : BHTDEP       - MAXIMUM RECORDED TEMPERATURE
MATR.         1                    : LOGUNIT      - NEUTRON MATRIX
RMT .C        21                   : MDTP         - TEMPERATURE OF MUD
NEUT.         1                    : NEUTRON      - NEUTRON TYPE
RESI.         0                    : RESIST       - RESISTIVITY TYPE
RMC .OHMM     4.03                 : RMC          - RESISTIVITY OF MUD CAKE
RMF .OHMM     4.42                 : RMF          - RESISTIVITY OF MUD FILTRATE
SUFT.C        -20                  : SUFT         - SURFACE TEMPERATURE
~A  DEPTH     RESD     PHIN     PHID       GR      CAL
# ...
  261.500   43.678    0.459    0.364   58.129  205.756
  261.750   36.670    0.458    0.365   58.011  205.760
  262.000   30.960    0.455    0.364   57.536  205.863
  262.250   27.299    0.446    0.362   55.329  206.349
  262.500   26.882    0.431    0.358   53.839  206.769
  262.750   26.098    0.435    0.359   53.602  207.171
  263.000   25.339    0.440    0.365   54.441  207.573
  263.250   24.604    0.442    0.372   55.280  207.776
  263.500   23.981    0.440    0.374   55.700  207.681
  263.750   23.628    0.439    0.362   55.992  207.289
  264.000   23.624    0.440    0.359   56.243  207.292
  264.250   23.620    0.443    0.356   56.962  207.296
  264.500   23.616    0.448    0.354   56.965  207.599
  264.750   23.613    0.456    0.356   56.609  208.002
  265.000   23.566    0.466    0.361   56.611  208.503
  265.250   23.354    0.471    0.364   58.197  209.470
  265.500   23.172    0.464    0.367   58.946  210.303
  265.750   22.496    0.465    0.367   59.905  209.910
  266.000   21.843    0.463    0.371   60.504  208.322
  266.250   21.288    0.462    0.370   60.984  207.131
  266.500   20.939    0.460    0.365   61.047  206.837
  266.750   20.966    0.455    0.367   59.607  206.759
  267.000   21.123    0.452    0.361   58.365  206.348
  267.250   21.120    0.454    0.363   59.562  206.352
  267.500   20.770    0.456    0.370   60.579  206.357
  267.750   20.163    0.460    0.373   61.776  206.162
  268.000   19.510    0.467    0.373   63.272  205.768
  268.250   19.054    0.479    0.376   64.499  205.375
  268.500   18.907    0.490    0.377   62.262  205.379
  268.750   18.628    0.503    0.376   62.503  205.383
  269.000   18.660    0.503    0.377   61.849  205.387
  269.250   18.657    0.497    0.377   60.537  205.391
  269.500   18.414    0.491    0.376   59.047  205.395
  269.750   17.798    0.486    0.372   57.895  205.400
  270.000   17.393    0.482    0.364   56.903  205.405
  270.250   17.391    0.492    0.363   56.427  205.409
  270.500   17.388    0.493    0.362   56.310  205.115
  270.750   17.322    0.494    0.363   55.835  204.720
  271.000   17.161    0.496    0.365   54.882  204.425
  271.250   16.882    0.495    0.370   54.228  204.431
  271.500   16.752    0.489    0.373   55.723  204.435
  271.750   16.505    0.484    0.377   56.920  204.439
  272.000   16.443    0.485    0.378   57.580  204.443
  272.250   16.259    0.486    0.377   56.865  204.447
  272.500   15.933    0.484    0.378   55.375  204.451
  272.750   15.698    0.477    0.381   55.040  204.457
  273.000   15.696    0.468    0.379   54.545  204.460
  273.250   15.579    0.461    0.383   54.547  204.465
  273.500   15.634    0.463    0.387   54.729  204.469
  273.750   15.689    0.470    0.383   55.090  204.274
  274.000   15.686    0.478    0.375   56.048  203.980
  274.250   15.611    0.485    0.374   58.489  203.985
  274.500   15.256    0.497    0.377   58.741  203.989
  274.750   15.031    0.509    0.381   57.548  203.595
  275.000   15.056    0.520    0.374   57.074  203.799
  275.250   15.054    0.522    0.367   57.315  204.002
  275.500   14.942    0.516    0.365   58.034  204.105
  275.750   14.853    0.506    0.363   58.754  204.508
  276.000   14.965    0.490    0.363   58.756  204.513
  276.250   15.072    0.478    0.368   58.042  204.516
  276.500   15.098    0.474    0.371   57.149  204.521
  276.750   15.261    0.472    0.373   56.315  204.525
  277.000   15.598    0.469    0.376   56.257  204.629
  277.250   15.942    0.468    0.376   58.371  205.032
  277.500   15.940    0.480    0.369   59.369  205.036
  277.750   16.054    0.480    0.368   60.327  205.041
  278.000   16.081    0.477    0.365   62.718  205.045
  278.250   16.079    0.476    0.363   66.304  204.850
  278.500   16.076    0.479    0.363   68.934  204.555
  278.750   16.074    0.479    0.367   65.802  204.643
  279.000   16.071    0.474    0.371   62.072  205.063
  279.250   15.834    0.485    0.373   61.597  205.066
  279.500   15.687    0.498    0.373   62.376  205.070
  279.750   15.513    0.504    0.371   63.334  205.074
  280.000   15.285    0.500    0.367   63.575  205.078
  280.250   15.084    0.485    0.359   62.333  205.083
  280.500   15.197    0.478    0.349   62.087  205.088
  280.750   15.874    0.480    0.348   61.612  205.092
  281.000   16.761    0.476    0.341   59.345  205.096
  281.250   17.014    0.468    0.323   57.556  205.100
  281.500   16.200    0.457    0.305   57.498  205.104
  281.750   14.431    0.452    0.323   59.861  205.109
  282.000   13.478    0.471    0.368   62.103  205.113
  282.250   13.575    0.490    0.367   60.911  205.117
  282.500   13.747    0.498    0.369   60.436  205.421
  282.750   13.948    0.498    0.374   60.677  205.823
  283.000   14.101    0.495    0.377   61.635  206.225
  283.250   14.076    0.490    0.376   63.161  206.794
  283.500   13.967    0.495    0.373   62.417  207.628
  283.750   13.661    0.501    0.372   61.941  207.632
  284.000   13.435    0.496    0.375   62.004  207.636
  284.250   13.189    0.496    0.376   62.245  207.640
  284.500   12.827    0.503    0.374   62.427  207.644
  284.750   12.162    0.505    0.368   62.331  207.650
  285.000   11.617    0.498    0.364   61.835  207.653
  285.250   11.531    0.482    0.369   61.599  207.658
  285.500   11.382    0.479    0.374   60.646  207.662
  285.750   11.380    0.481    0.374   59.454  208.064
  286.000   11.749    0.482    0.364   58.262  208.765
  286.250   13.374    0.472    0.330   56.921  209.417
  286.500   16.897    0.457    0.286   56.177  210.665
  286.750   20.915    0.430    0.191   54.029  211.466
  287.000   25.346    0.314    0.105   52.957  211.669
  287.250   26.917    0.230    0.073   54.035  211.872
  287.500   22.964    0.217    0.094   56.545  212.175
  287.750   15.721    0.238    0.139   58.628  212.014
  288.000   12.943    0.291    0.207   61.866  211.189
  288.250   11.752    0.346    0.252   61.868  210.397
  288.500   11.486    0.406    0.245   61.154  210.202
  288.750   11.652    0.448    0.242   60.321  210.007
  289.000   12.040    0.459    0.270   59.905  209.613
  289.250   12.713    0.445    0.332   59.988  209.137
  289.500   13.412    0.441    0.330   57.999  208.726
  289.750   14.010    0.447    0.336   55.613  208.332
  290.000   14.400    0.444    0.352   53.944  208.237
  290.250   14.824    0.441    0.365   52.871  208.042
  290.500   15.321    0.440    0.371   52.396  207.748
  290.750   15.731    0.441    0.368   52.687  207.753
  291.000   16.093    0.438    0.372   52.939  207.757
  291.250   15.973    0.437    0.372   52.225  207.761
  291.500   15.246    0.448    0.368   51.869  207.765
  291.750   14.265    0.453    0.362   51.871  207.770
  292.000   13.363    0.449    0.357   52.232  207.773
  292.250   12.770    0.446    0.364   53.200  207.778
  292.500   12.670    0.451    0.373   54.447  207.783
  292.750   12.668    0.470    0.371   54.689  207.787
  293.000   13.016    0.474    0.370   54.751  207.791
  293.250   13.500    0.471    0.367   54.873  207.397
  293.500   13.928    0.467    0.361   55.054  206.903
  293.750   14.132    0.461    0.359   55.057  207.307
  294.000   14.129    0.448    0.362   55.060  207.311
  294.250   13.819    0.449    0.359   55.063  207.315
  294.500   13.366    0.452    0.354   55.065  207.021
  294.750   13.028    0.453    0.353   55.067  206.826
  295.000   12.667    0.456    0.356   55.010  206.830
  295.250   11.789    0.467    0.360   54.526  206.835
  295.500   11.434    0.485    0.362   53.284  206.840
  295.750   11.101    0.486    0.358   52.808  206.844
  296.000   11.019    0.480    0.349   54.125  206.847
  296.250   11.298    0.477    0.335   56.636  206.851
  296.500   11.975    0.479    0.328   59.684  207.054
  296.750   13.008    0.477    0.349   62.305  207.856
  297.000   13.105    0.470    0.352   61.063  207.860
  297.250   12.817    0.452    0.345   59.154  208.660
  297.500   12.467    0.446    0.343   58.679  209.760
  297.750   12.150    0.449    0.341   59.757  210.561
