~VERSION INFORMATION
 VERS.                 2.0:   CWLS LOG ASCII STANDARD -VERSION 2.0
 WRAP.                  NO:   ONE LINE PER DEPTH STEP
~WELL INFORMATION BLOCK
#MNEM.UNIT           DATA                    DESCRIPTION OF MNEMONIC
#---------    -------------------            -------------------------------
# Generated from Intellog Unique Number	CW_76_78/WELL/2568
WELL.         06-25-078-25W4                 : Well_name    - WELL
LOC .         00/06-25-078-25W4/0            : Location     - LOCATION
UWI .         00/06-25-078-25W4/0            : Uwi          - UNIQUE WELL ID
ENTR.         MAX                            : Entered      - ENTERED BY
SRVC.         SCHLUMBERGER                   : Scn          - SERVICE COMPANY
STRT.M        274.32                         : top_depth    - START DEPTH
STOP.M        533.32                         : bot_depth    - STOP DEPTH
STEP.M        0.25                           : increment    - STEP LENGTH
 NULL. -999.2500:NULL Value
~CURVE INFORMATION BLOCK
#MNEM UNIT       ERCB CURVE CODE    CURVE DESCRIPTION
#-----------   ------------------   ----------------------------------
DEPT.M        00 001 00 00         : DEPTH        - DEPTH
ILD .OHMM     00 120 00 00         : RESD         - DEEP RESISTIVITY (DIL)
NPHI.V/V      00 330 00 00         : PHIN         - NEUTRON POROSITY (SANDSTONE)
DPHI.V/V      00 890 00 00         : PHID         - DENSITY POROSITY (SANDSTONE)
CALI.MM       00 280 01 00         : CAL          - CALIPER
GR  .API      00 310 00 00         : GR           - GAMMA RAY
~PARAMETER INFORMATION
#MNEM.UNIT           DATA             DESCRIPTION OF MNEMONIC
#---------         -----------     ------------------------------
GL  .M        589.483              : gl           - GROUND LEVEL ELEVATION
EREF.M        593.019              : kb           - ELEVATION OF DEPTH REFERENCE
DATM.M        589.483              : datum        - DATUM ELEVATION
TDD .M        535.534              : tdd          - TOTAL DEPTH DRILLER
RUN .         ONE                  : Run          - RUN NUMBER
ENG .         BILL                 : Engineer     - RECORDING ENGINEER
WIT .         JIM                  : Witness      - WITNESSED BY
MUD .         GEL                  : Mud_type     - MUD TYPE
MATR.         SANDSTONE            : Logunit      - NEUTRON MATRIX
TMAX.C        22.2222              : BHT          - MAXIMUM RECORDED TEMPERATURE
BHTD.M        535.534              : BHTDEP       - MAXIMUM RECORDED TEMPERATURE
RMT .C        10                   : MDTP         - TEMPERATURE OF MUD
MUDD.KG/M     9000                 : MWT          - MUD DENSITY
NEUT.         1                    : NEUTRON      - NEUTRON TYPE
RESI.         0                    : RESIST       - RESISTIVITY TYPE
RM  .OHMM     5.62                 : RM           - RESISTIVITY OF MUD
RMC .OHMM     0.25                 : RMC          - RESISTIVITY OF MUD CAKE
RMF .OHMM     5.41                 : RMF          - RESISTIVITY OF MUD FILTRATE
SUFT.C        -6.66667             : SUFT         - SURFACE TEMPERATURE
~A  DEPTH     RESD     PHIN     PHID      CAL       GR
# ...
  310.820   16.265    0.454    0.296  201.675   54.404
  311.070   13.127    0.466    0.302  201.195   52.650
  311.320   11.844    0.480    0.312  200.223   51.780
  311.570   11.338    0.477    0.317  199.752   50.910
  311.820   11.322    0.491    0.315  200.766   47.686
  312.070   11.602    0.526    0.312  202.794   44.757
  312.320   12.855    0.529    0.327  203.309   44.770
  312.570   14.986    0.497    0.337  203.309   44.783
  312.820   17.995    0.475    0.336  203.364   44.209
  313.070   19.539    0.464    0.333  202.877   43.928
  313.320   19.134    0.455    0.334  201.907   44.829
  313.570   18.532    0.456    0.333  201.930   45.722
  313.820   18.125    0.462    0.346  201.949   48.385
  314.070   17.918    0.445    0.343  201.974   51.344
  314.320   17.605    0.441    0.337  202.002   51.944
  314.570   17.202    0.450    0.331  202.021   52.251
  314.820   16.798    0.457    0.324  202.046   55.212
  315.070   16.292    0.466    0.327  202.068   54.932
  315.320   16.082    0.478    0.328  201.589   52.883
  315.570   15.971    0.474    0.322  200.623   51.424
  315.820   16.052    0.469    0.316  200.623   49.082
  316.070   16.133    0.475    0.309  200.661   44.976
  316.320   16.217    0.458    0.295  200.689   43.223
  316.570   16.296    0.432    0.287  200.708   43.529
  316.820   16.281    0.442    0.293  200.733   46.489
  317.070   16.268    0.476    0.300  202.251   45.619
  317.320   16.348    0.503    0.313  203.271   43.867
  317.570   16.333    0.493    0.314  202.298   44.175
  317.820   16.414    0.459    0.314  202.819   44.190
  318.070   16.397    0.456    0.316  202.348   43.907
  318.320   16.384    0.455    0.317  202.370   44.212
  318.570   16.369    0.449    0.314  202.888   44.523
  318.820   16.256    0.448    0.313  204.409   44.829
  319.070   16.140    0.465    0.311  204.431   46.314
  319.320   16.026    0.473    0.311  203.459   50.158
  319.570   15.720    0.479    0.316  201.484   51.936
  319.820   15.313    0.476    0.323  201.011   52.245
  320.070   15.105    0.470    0.327  200.537   52.260
  320.320   15.084    0.462    0.332  200.562   52.273
  320.570   15.170    0.466    0.333  201.080   51.992
  320.820   15.446    0.462    0.332  201.601   50.827
  321.070   15.624    0.453    0.332  203.617   48.191
  321.320   15.804    0.455    0.336  204.636   44.967
  321.570   15.986    0.452    0.336  202.670   43.509
  321.820   16.067    0.459    0.331  201.698   43.522
  322.070   16.148    0.467    0.324  201.717   43.535
  322.320   16.133    0.478    0.315  202.238   43.843
  322.570   16.020    0.477    0.322  202.761   44.741
  322.820   15.810    0.471    0.329  202.784   48.581
  323.070   15.598    0.466    0.333  202.809   50.068
  323.320   15.488    0.475    0.332  202.831   51.553
  323.570   15.275    0.488    0.326  202.853   52.155
  323.820   15.163    0.488    0.322  202.875   50.700
  324.070   15.050    0.475    0.322  202.401   48.946
  324.320   14.934    0.463    0.320  202.429   47.195
  324.570   14.822    0.450    0.320  202.449   46.913
  324.820   14.808    0.447    0.324  202.468   46.336
  325.070   14.887    0.448    0.326  202.000   46.643
  325.320   14.968    0.451    0.327  201.524   46.951
  325.570   14.957    0.454    0.323  201.543   45.493
  325.820   14.842    0.466    0.315  201.571   42.564
  326.070   14.827    0.465    0.311  201.590   42.576
  326.320   15.004    0.450    0.305  201.612   42.000
  326.570   15.186    0.454    0.298  202.133   40.837
  326.820   15.270    0.450    0.296  202.657   39.085
  327.070   15.546    0.418    0.293  202.676   38.509
  327.320   15.921    0.398    0.285  202.205   38.819
  327.570   16.296    0.386    0.269  201.230   39.420
  327.820   16.574    0.373    0.258  200.754   39.432
  328.070   17.047    0.369    0.258  200.779   39.741
  328.320   17.127    0.373    0.263  201.300   40.932
  328.570   16.915    0.419    0.272  201.820   41.830
  328.820   16.608    0.445    0.278  201.842   42.137
  329.070   16.201    0.436    0.279  201.366   42.152
  329.320   15.989    0.445    0.291  200.892   41.869
  329.570   15.972    0.448    0.306  200.923   41.591
  329.820   15.959    0.442    0.312  200.937   40.721
  330.070   15.942    0.431    0.317  201.463   40.438
  330.320   15.638    0.428    0.313  201.984   41.042
  330.570   14.743    0.427    0.287  202.505   42.232
  330.820   13.261    0.424    0.270  205.022   44.012
  331.070   11.980    0.428    0.263  208.534   46.088
  331.320   10.790    0.434    0.259  208.554   46.102
  331.570   10.095    0.442    0.253  208.579   45.821
  331.820    9.393    0.447    0.243  209.601   45.541
  332.070    9.280    0.434    0.241  210.119   44.964
  332.320    9.558    0.425    0.247  211.143   43.211
  332.570   10.031    0.426    0.253  211.163   41.459
  332.820   10.894    0.439    0.248  209.692   40.296
  333.070   12.244    0.429    0.238  209.714   40.014
  333.320   13.987    0.418    0.204  210.235   39.144
  333.570   15.728    0.396    0.186  208.764   38.278
  333.820   17.274    0.361    0.160  207.294   38.287
  334.070   17.452    0.310    0.136  208.313   40.657
  334.320   16.266    0.269    0.126  210.327   42.439
  334.570   14.102    0.259    0.136  214.343   44.807
  334.820   12.524    0.304    0.185  216.362   47.177
  335.070   11.729    0.361    0.230  215.883   47.189
  335.320   11.325    0.427    0.257  214.911   45.731
  335.570   10.916    0.439    0.267  215.431   45.450
  335.820   10.806    0.444    0.293  219.445   47.527
  336.070   10.592    0.445    0.289  224.948   49.897
  336.320   10.481    0.433    0.291  228.961   51.674
  336.570   10.271    0.427    0.279  222.998   53.162
  336.820   10.159    0.424    0.286  217.539   50.229
  337.070   10.044    0.427    0.302  214.576   47.298
  337.320   10.027    0.447    0.301  215.096   46.723
  337.570   10.112    0.456    0.305  216.113   48.211
  337.820   10.290    0.457    0.309  217.132   48.226
  338.070   10.568    0.455    0.309  218.653   47.647
  338.320   10.843    0.447    0.307  218.678   47.661
  338.570   10.828    0.432    0.306  216.706   47.969
  338.820   11.008    0.434    0.304  215.728   48.867
  339.070   11.284    0.449    0.305  214.756   51.532
  339.320   11.462    0.459    0.313  214.285   52.428
  339.570   11.643    0.469    0.316  214.803   53.030
  339.820   11.727    0.471    0.320  216.321   52.750
  340.070   11.614    0.465    0.325  216.348   52.174
  340.320   11.404    0.463    0.326  216.368   51.304
  340.570   11.192    0.462    0.324  216.390   50.730
  340.820   10.978    0.481    0.320  217.412   50.743
  341.070   10.965    0.468    0.316  217.437   49.871
  341.320   10.948    0.462    0.309  216.958   49.005
  341.570   11.027    0.462    0.314  216.484   49.016
  341.820   11.016    0.469    0.314  215.515   49.029
  342.070   11.095    0.479    0.310  214.537   46.986
  342.320   11.181    0.488    0.308  214.064   46.705
  342.570   11.262    0.496    0.304  213.086   47.307
  342.820   11.342    0.500    0.300  212.111   47.613
  343.070   11.523    0.485    0.301  210.640   46.154
  343.320   11.798    0.479    0.306  209.668   45.283
  343.570   12.078    0.473    0.309  209.693   47.068
  343.820   12.941    0.460    0.309  209.713   48.255
  344.070   14.586    0.452    0.303  209.738   47.977
  344.320   15.835    0.453    0.305  209.757   47.107
  344.570   16.406    0.449    0.312  209.779   46.237
  344.820   16.197    0.439    0.319  209.308   44.189
  345.070   15.499    0.442    0.324  209.832   42.732
  345.320   14.605    0.449    0.320  210.352   41.567
  345.570   13.710    0.468    0.314  210.375   40.992
  345.820   13.305    0.472    0.317  210.394   40.418
  346.070   13.188    0.482    0.326  210.416   40.138
  346.320   13.078    0.492    0.329  210.444   40.149
  346.570   13.063    0.505    0.331  210.962   39.282
  346.820   13.143    0.506    0.330  210.987   38.703
  347.070   13.325    0.485    0.316  210.015   36.657
