~VERSION INFORMATION
 VERS.                 2.0:   CWLS LOG ASCII STANDARD -VERSION 2.0
 WRAP.                  NO:   ONE LINE PER DEPTH STEP
~WELL INFORMATION BLOCK
#MNEM.UNIT           DATA                    DESCRIPTION OF MNEMONIC
#---------    -------------------            -------------------------------
# Generated from Intellog Unique Number	CS_67_68/WELL/2180
WELL.         07-33-067-04W4                 : Well_name    - WELL
LOC .         00/07-33-067-04W4/0            : Location     - LOCATION
UWI .         00/07-33-067-04W4/0            : Uwi          - UNIQUE WELL ID
ENTR.         SP                             : Entered      - ENTERED BY
SRVC.         SCHLUMBERGER                   : Scn          - SERVICE COMPANY
STRT.M        345                            : top_depth    - START DEPTH
STOP.M        571                            : bot_depth    - STOP DEPTH
STEP.M        0.25                           : increment    - STEP LENGTH
 NULL. -999.2500:NULL Value
~CURVE INFORMATION BLOCK
#MNEM UNIT       ERCB CURVE CODE    CURVE DESCRIPTION
#-----------   ------------------   ----------------------------------
DEPT.M        00 001 00 00         : DEPTH        - DEPTH
ILD .OHMM     00 120 00 00         : RESD         - DEEP RESISTIVITY (DIL)
DPHI.V/V      00 890 00 00         : PHID         - DENSITY POROSITY (LIMESTONE)
NPHI.V/V      00 330 00 00         : PHIN         - NEUTRON POROSITY (LIMESTONE)
GR  .API      00 310 00 00         : GR           - GAMMA RAY
CALI.MM       00 280 01 00         : CAL          - CALIPER
~PARAMETER INFORMATION
#MNEM.UNIT           DATA             DESCRIPTION OF MNEMONIC
#---------         -----------     ------------------------------
GL  .M        697.8                : gl           - GROUND LEVEL ELEVATION
EREF.M        701.6                : kb           - ELEVATION OF DEPTH REFERENCE
DATM.M        701.6                : datum        - DATUM ELEVATION
TDD .M        577                  : tdd          - TOTAL DEPTH DRILLER
RUN .         ONE                  : Run          - RUN NUMBER
ENG .         BILL                 : Engineer     - RECORDING ENGINEER
WIT .         JIM                  : Witness      - WITNESSED BY
MUD .         GEL                  : Mud_type     - MUD TYPE
MATR.         LIMESTONE            : Logunit      - NEUTRON MATRIX
TMAX.C        22.7                 : BHT          - MAXIMUM RECORDED TEMPERATURE
BHTD.M        577                  : BHTDEP       - MAXIMUM RECORDED TEMPERATURE
MATR.         1                    : LOGUNIT      - NEUTRON MATRIX
RMT .C        25                   : MDTP         - TEMPERATURE OF MUD
NEUT.         1                    : NEUTRON      - NEUTRON TYPE
RESI.         0                    : RESIST       - RESISTIVITY TYPE
RMC .OHMM     0.25                 : RMC          - RESISTIVITY OF MUD CAKE
RMF .OHMM     0.25                 : RMF          - RESISTIVITY OF MUD FILTRATE
SUFT.C        15                   : SUFT         - SURFACE TEMPERATURE
~A  DEPTH     RESD     PHID     PHIN       GR      CAL
# ...
  454.500    6.524    0.328    0.417   66.037  156.810
  454.750    6.497    0.328    0.409   66.710  158.134
  455.000    6.458    0.333    0.418   65.066  159.357
  455.250    6.455    0.330    0.424   63.482  160.174
  455.500    6.500    0.326    0.433   67.326  160.990
  455.750    6.620    0.323    0.441   72.816  161.502
  456.000    6.793    0.321    0.443   76.293  161.912
  456.250    6.880    0.327    0.447   75.930  161.915
  456.500    7.021    0.334    0.456   69.285  161.817
  456.750    7.110    0.348    0.464   63.922  161.618
  457.000    7.174    0.371    0.458   61.484  161.519
  457.250    7.104    0.368    0.450   64.597  161.421
  457.500    7.008    0.358    0.449   72.830  161.323
  457.750    6.733    0.348    0.460   80.576  161.225
  458.000    6.421    0.334    0.441   86.127  161.431
  458.250    6.346    0.317    0.425   87.715  161.130
  458.500    6.343    0.304    0.421   83.266  160.829
  458.750    6.460    0.304    0.418   79.670  160.629
  459.000    6.567    0.312    0.411   77.416  160.328
  459.250    6.651    0.322    0.408   77.479  159.721
  459.500    6.686    0.331    0.431   77.786  158.708
  459.750    6.708    0.344    0.435   77.056  156.985
  460.000    6.767    0.335    0.451   75.900  155.565
  460.250    6.727    0.337    0.463   76.756  154.958
  460.500    6.673    0.340    0.458   76.941  155.978
  460.750    6.582    0.337    0.464   76.150  157.405
  461.000    6.555    0.328    0.475   74.201  158.323
  461.250    6.663    0.313    0.471   70.910  159.139
  461.500    7.100    0.106    0.323   63.961  159.752
  461.750    7.825    0.081    0.264   58.536  160.366
  462.000    7.749    0.058    0.234   67.258  160.573
  462.250    6.816    0.107    0.380   74.455  160.881
  462.500    5.774    0.268    0.431   77.445  160.783
  462.750    5.254    0.282    0.495   80.191  160.684
  463.000    4.862    0.290    0.525   82.084  160.485
  463.250    4.611    0.298    0.521   84.707  160.489
  463.500    4.430    0.295    0.522   87.088  160.390
  463.750    4.338    0.290    0.535   88.370  159.988
  464.000    4.451    0.288    0.520   87.214  159.992
  464.250    4.637    0.312    0.509   87.765  160.096
  464.500    4.821    0.302    0.511   89.352  160.404
  464.750    4.929    0.286    0.510   90.757  160.712
  465.000    5.010    0.279    0.487   91.795  161.020
  465.250    4.491    0.274    0.471   92.041  163.260
  465.500    3.405    0.276    0.478   91.373  165.195
  465.750    2.789    0.275    0.551   93.936  166.316
  466.000    2.490    0.280    0.582   94.547  167.132
  466.250    2.340    0.345    0.591   92.294  169.575
  466.500    2.308    0.356    0.584   92.540  175.066
  466.750    2.355    0.315    0.578   95.591  178.017
  467.000    2.426    0.281    0.559   98.275  179.341
  467.250    2.658    0.261    0.528  101.448  170.605
  467.500    3.002    0.261    0.532  103.219  170.203
  467.750    3.247    0.295    0.527  104.318  170.815
  468.000    3.709    0.299    0.531   99.930  170.717
  468.250    4.293    0.311    0.540   93.408  167.774
  468.500    5.407    0.322    0.515   85.178  165.134
  468.750    6.771    0.330    0.474   77.985  162.191
  469.000    8.337    0.321    0.444   74.024  160.467
  469.250   10.189    0.327    0.460   72.441  159.149
  469.500   11.660    0.330    0.474   72.992  159.152
  469.750   12.659    0.324    0.466   73.725  159.156
  470.000   13.113    0.319    0.457   75.252  158.245
  470.250   13.132    0.314    0.447   76.230  158.452
  470.500   12.665    0.321    0.457   75.622  158.658
  470.750   11.610    0.322    0.472   74.953  158.458
  471.000   10.948    0.325    0.487   75.321  158.259
  471.250   10.540    0.321    0.484   76.543  158.465
  471.500   10.127    0.313    0.477   77.765  157.860
  471.750    9.676    0.308    0.485   78.437  157.456
  472.000    9.158    0.311    0.481   78.623  157.358
  472.250    8.620    0.306    0.464   77.892  157.666
  472.500    7.372    0.297    0.452   78.931  158.381
  472.750    6.269    0.289    0.467   80.702  160.214
  473.000    5.566    0.285    0.486   81.679  164.587
  473.250    5.112    0.312    0.503   82.047  168.859
  473.500    4.713    0.372    0.526   82.354  173.334
  473.750    4.801    0.395    0.537   82.051  178.317
  474.000    4.991    0.412    0.521   81.200  182.589
  474.250    5.131    0.409    0.499   80.226  187.369
  474.500    5.296    0.388    0.500   79.741  191.844
  474.750    5.485    0.369    0.510   79.621  191.136
  475.000    5.671    0.350    0.512   79.501  179.148
  475.250    5.831    0.330    0.525   79.381  167.159
  475.500    5.950    0.301    0.517   80.176  162.488
  475.750    6.071    0.287    0.503   80.544  160.154
  476.000    6.161    0.297    0.488   75.485  159.243
  476.250    6.169    0.301    0.485   74.511  159.247
  476.500    6.224    0.305    0.472   76.282  158.946
  476.750    6.399    0.309    0.458   78.479  159.355
  477.000    6.767    0.284    0.467   80.493  160.273
  477.250    7.036    0.265    0.456   74.154  160.785
  477.500    7.371    0.255    0.442   69.522  161.093
  477.750    7.751    0.262    0.463   68.365  160.995
  478.000    8.479    0.272    0.483   70.258  160.998
  478.250   10.285    0.292    0.466   72.516  159.985
  478.500   11.836    0.307    0.464   71.725  158.160
  478.750   13.646    0.323    0.462   65.813  156.436
  479.000   15.268    0.332    0.460   61.485  155.321
  479.250   16.546    0.327    0.461   59.048  154.715
  479.500   17.662    0.324    0.465   61.733  154.617
  479.750   18.502    0.328    0.460   65.455  154.214
  480.000   18.879    0.337    0.466   65.579  154.217
  480.250   19.013    0.350    0.474   65.032  153.713
  480.500   18.651    0.361    0.468   65.034  153.716
  480.750   17.521    0.350    0.457   65.891  155.346
  481.000   16.275    0.334    0.462   68.880  156.772
  481.250   15.347    0.324    0.471   71.504  157.487
  481.500   16.692    0.332    0.478   72.055  157.084
  481.750   18.396    0.337    0.467   70.228  155.969
  482.000   19.677    0.342    0.455   67.852  154.550
  482.250   20.808    0.348    0.448   62.976  154.147
  482.500   21.353    0.351    0.449   66.393  154.354
  482.750   20.402    0.350    0.463   69.566  154.357
  483.000   18.563    0.335    0.459   70.726  154.463
  483.250   16.084    0.341    0.450   67.314  154.262
  483.500   14.829    0.347    0.464   64.328  154.063
  483.750   13.958    0.350    0.482   62.257  153.761
  484.000   15.125    0.363    0.496   59.881  153.257
  484.250   17.505    0.370    0.470   57.810  153.159
  484.500   20.721    0.368    0.452   57.629  153.874
  484.750   23.666    0.355    0.440   58.667  154.995
  485.000   25.937    0.344    0.438   61.596  156.015
  485.250   28.105    0.341    0.438   63.733  156.933
  485.500   29.665    0.349    0.445   64.650  157.444
  485.750   29.485    0.348    0.449   64.652  157.752
  486.000   27.493    0.336    0.462   64.044  157.858
  486.250   30.299    0.319    0.478   61.973  157.861
  486.500   33.518    0.066    0.239   54.475  158.373
  486.750   36.460    0.029    0.181   49.477  158.783
  487.000   38.775    0.009    0.146   46.735  159.905
  487.250   40.166    0.034    0.129   48.201  161.229
  487.500   35.199    0.089    0.330   54.178  161.232
  487.750   29.374    0.323    0.391   60.705  161.642
  488.000   25.692    0.336    0.424   63.695  160.122
  488.250   23.511    0.327    0.450   62.233  159.109
  488.500   21.674    0.321    0.450   64.065  158.299
  488.750   20.670    0.322    0.449   63.762  158.303
  489.000   20.200    0.329    0.453   60.959  158.611
  489.250   20.152    0.333    0.443   60.657  158.107
  489.500   19.954    0.326    0.436   61.939  157.805
  489.750   19.945    0.321    0.435   62.490  157.098
  490.000   20.048    0.318    0.448   62.187  156.897
  490.250   20.074    0.314    0.459   62.311  157.002
  490.500   20.218    0.311    0.465   62.618  157.107
  490.750   20.478    0.325    0.463   62.864  157.212
