~VERSION INFORMATION
 VERS.                 2.0:   CWLS LOG ASCII STANDARD -VERSION 2.0
 WRAP.                  NO:   ONE LINE PER DEPTH STEP
~WELL INFORMATION BLOCK
#MNEM.UNIT           DATA                    DESCRIPTION OF MNEMONIC
#---------    -------------------            -------------------------------
# Generated from Intellog Unique Number	CS_71_72/WELL/702
WELL.         PROVIDENT RESOURCES  LTD       : Well_name    - WELL
LOC .         00/06-03-071-17W4/0            : Location     - LOCATION
UWI .         00/06-03-071-17W4/0            : Uwi          - UNIQUE WELL ID
ENTR.         SP                             : Entered      - ENTERED BY
SRVC.         SCHLUMBERGER                   : Scn          - SERVICE COMPANY
STRT.M        277.368                        : top_depth    - START DEPTH
STOP.M        479.618                        : bot_depth    - STOP DEPTH
STEP.M        0.25                           : increment    - STEP LENGTH
 NULL. -999.2500:NULL Value
~CURVE INFORMATION BLOCK
#MNEM UNIT       ERCB CURVE CODE    CURVE DESCRIPTION
#-----------   ------------------   ----------------------------------
DEPT.M        00 001 00 00         : DEPTH        - DEPTH
GR  .API      00 310 00 00         : GR           - GAMMA RAY
DPHI.V/V      00 890 00 00         : PHID         - DENSITY POROSITY (SANDSTONE)
NPHI.V/V      00 330 00 00         : PHIN         - NEUTRON POROSITY (SANDSTONE)
ILD .OHMM     00 120 00 00         : RESD         - DEEP RESISTIVITY (DIL)
~PARAMETER INFORMATION
#MNEM.UNIT           DATA             DESCRIPTION OF MNEMONIC
#---------         -----------     ------------------------------
GL  .M        558.851              : gl           - GROUND LEVEL ELEVATION
EREF.M        562.356              : kb           - ELEVATION OF DEPTH REFERENCE
DATM.M        558.851              : datum        - DATUM ELEVATION
TDD .M        481.584              : tdd          - TOTAL DEPTH DRILLER
RUN .         ONE                  : Run          - RUN NUMBER
ENG .         BILL                 : Engineer     - RECORDING ENGINEER
WIT .         JIM                  : Witness      - WITNESSED BY
MUD .         GEL                  : Mud_type     - MUD TYPE
MATR.         SANDSTONE            : Logunit      - NEUTRON MATRIX
TMAX.C        23.3333              : BHT          - MAXIMUM RECORDED TEMPERATURE
BHTD.M        481.584              : BHTDEP       - MAXIMUM RECORDED TEMPERATURE
MATR.         1                    : LOGUNIT      - NEUTRON MATRIX
RMT .C        25                   : MDTP         - TEMPERATURE OF MUD
NEUT.         1                    : NEUTRON      - NEUTRON TYPE
RESI.         0                    : RESIST       - RESISTIVITY TYPE
RMC .OHMM     0.25                 : RMC          - RESISTIVITY OF MUD CAKE
RMF .OHMM     0.25                 : RMF          - RESISTIVITY OF MUD FILTRATE
SUFT.C        15                   : SUFT         - SURFACE TEMPERATURE
~A  DEPTH       GR     PHID     PHIN     RESD
  277.368  104.251    0.221    0.540    2.919
  277.618  107.182    0.206    0.534    3.025
  277.868  107.957    0.222    0.529    3.043
  278.118  107.751    0.229    0.523    3.145
  278.368  106.743    0.230    0.520    3.202
  278.618  106.504    0.222    0.515    3.217
  278.868  107.046    0.212    0.509    3.233
  279.118  105.614    0.218    0.503    3.262
  279.368  103.804    0.234    0.513    3.293
  279.618  103.414    0.222    0.533    3.275
  279.868  104.843    0.215    0.555    3.224
  280.118  106.557    0.208    0.551    3.151
  280.368  108.404    0.201    0.538    3.076
  280.618  109.233    0.214    0.542    2.986
  280.868  110.205    0.217    0.532    2.953
  281.118  110.696    0.207    0.524    3.120
  281.368  110.683    0.213    0.533    3.193
  281.618  109.291    0.234    0.544    3.212
  281.868  107.362    0.235    0.534    3.172
  282.118  105.569    0.230    0.523    3.092
  282.368  102.852    0.237    0.512    3.026
  282.618  100.962    0.241    0.499    3.016
  282.868   99.093    0.235    0.498    2.880
  283.118   96.882    0.224    0.521    2.714
  283.368   94.303    0.215    0.544    2.796
  283.618   88.782    0.197    0.546    3.332
  283.868   83.080    0.127    0.479    4.033
  284.118   83.267    0.107    0.403    4.133
  284.368   95.999    0.167    0.374    4.005
  284.618  102.078    0.207    0.398    4.008
  284.868  105.148    0.217    0.442    4.082
  285.118  103.962    0.233    0.454    4.406
  285.368   92.999    0.259    0.436    4.709
  285.618   85.168    0.339    0.429    5.343
  285.868   78.899    0.411    0.467    6.019
  286.118   70.982    0.464    0.557    6.813
  286.368   61.898    0.511    0.596    7.755
  286.618   60.844    0.599    0.545    6.864
  286.868   68.811    0.567    0.487    6.223
  287.118   73.587    0.415    0.448    5.454
  287.368   76.037    0.293    0.430    4.833
  287.618   80.708    0.289    0.422    4.316
  287.868   83.914    0.295    0.423    3.952
  288.118   82.986    0.287    0.436    3.747
  288.368   78.998    0.284    0.445    3.713
  288.618   78.229    0.281    0.427    3.849
  288.868   81.001    0.274    0.413    3.851
  289.118   84.933    0.277    0.414    3.867
  289.368   86.721    0.278    0.411    3.854
  289.618   90.138    0.274    0.408    3.979
  289.868   91.872    0.265    0.410    3.971
  290.118   94.746    0.256    0.417    3.891
  290.368   96.865    0.249    0.412    4.176
  290.618   98.731    0.240    0.407    4.401
  290.868  100.019    0.233    0.416    4.455
  291.118  101.819    0.239    0.419    4.458
  291.368  100.812    0.255    0.413    4.501
  291.618   97.746    0.268    0.405    4.375
  291.868   92.953    0.281    0.412    4.224
  292.118   87.276    0.287    0.422    4.335
  292.368   83.961    0.275    0.418    4.755
  292.618   79.715    0.252    0.400    5.151
  292.868   84.935    0.215    0.387    5.675
  293.118   90.838    0.185    0.364    6.250
  293.368   93.848    0.160    0.341    6.587
  293.618   85.853    0.148    0.326    6.733
  293.868   79.760    0.140    0.326    6.546
  294.118   73.095    0.149    0.343    5.887
  294.368   67.394    0.176    0.358    5.222
  294.618   65.400    0.202    0.371    4.510
  294.868   69.759    0.228    0.381    3.896
  295.118   74.365    0.246    0.397    3.635
  295.368   80.959    0.250    0.410    3.576
  295.618   87.931    0.228    0.408    3.731
  295.868   93.318    0.206    0.407    3.937
  296.118  101.906    0.193    0.429    4.013
  296.368  109.885    0.194    0.445    3.961
  296.618  113.909    0.178    0.450    3.821
  296.868  115.323    0.150    0.452    3.707
  297.118  116.643    0.143    0.452    3.619
  297.368  118.742    0.158    0.456    3.534
  297.618  121.260    0.158    0.465    3.500
  297.868  121.198    0.179    0.482    3.550
  298.118  121.730    0.212    0.505    3.645
  298.368  124.303    0.201    0.514    3.673
  298.618  125.137    0.207    0.513    3.608
  298.868  120.754    0.179    0.512    3.476
  299.118  121.210    0.218    0.524    3.288
  299.368  125.409    0.228    0.540    3.081
  299.618  125.865    0.219    0.557    2.908
  299.868  121.444    0.212    0.576    2.897
  300.118  119.130    0.195    0.502    3.193
  300.368  118.181    0.212    0.478    3.505
  300.618  114.145    0.247    0.459    3.905
  300.868  112.018    0.239    0.441    4.283
  301.118  112.075    0.246    0.429    4.712
  301.368  111.186    0.236    0.434    5.047
  301.618  108.500    0.225    0.443    5.211
  301.868  105.225    0.217    0.437    5.071
  302.118  101.013    0.209    0.431    4.824
  302.368   99.497    0.219    0.428    4.798
  302.618   99.492    0.215    0.428    4.810
  302.868   96.890    0.188    0.433    4.718
  303.118   95.665    0.167    0.460    4.557
  303.368  105.841    0.153    0.482    4.373
  303.618  112.184    0.166    0.498    4.210
  303.868  115.588    0.181    0.506    4.206
  304.118  115.309    0.176    0.511    4.206
  304.368  106.999    0.214    0.500    4.330
  304.618   99.471    0.234    0.484    4.473
  304.868   93.520    0.255    0.471    4.669
  305.118   88.759    0.250    0.455    4.755
  305.368   87.899    0.273    0.444    4.671
  305.618   87.957    0.275    0.441    4.517
  305.868   87.416    0.267    0.440    4.243
  306.118   85.821    0.275    0.434    4.225
  306.368   85.071    0.252    0.438    4.331
  306.618   86.109    0.244    0.450    4.432
  306.868   89.055    0.240    0.443    4.565
  307.118   92.661    0.237    0.443    4.652
  307.368   99.120    0.238    0.442    4.782
  307.618  102.740    0.234    0.432    4.985
  307.868  105.137    0.219    0.420    5.226
  308.118  103.970    0.203    0.407    5.536
  308.368  103.898    0.212    0.430    5.722
  308.618  104.751    0.200    0.440    5.686
  308.868  104.635    0.209    0.430    5.422
  309.118  102.664    0.217    0.424    5.090
  309.368  101.459    0.223    0.428    4.877
  309.618  103.786    0.218    0.435    4.743
  309.868  104.932    0.214    0.440    4.982
  310.118  106.010    0.231    0.443    5.316
  310.368  109.915    0.238    0.447    5.391
  310.618  113.884    0.222    0.447    5.236
  310.868  115.805    0.227    0.439    5.103
  311.118  117.316    0.229    0.442    5.121
  311.368  120.259    0.240    0.453    5.203
  311.618  119.471    0.241    0.466    5.384
  311.868  116.256    0.205    0.453    5.566
  312.118  113.067    0.192    0.428    5.714
  312.368  109.416    0.205    0.413    5.737
  312.618  107.843    0.217    0.405    5.622
  312.868  108.775    0.203    0.400    5.056
  313.118  112.367    0.176    0.408    4.516
  313.368  115.495    0.181    0.419    4.034
  313.618  118.056    0.203    0.434    3.675
  313.868  119.901    0.207    0.456    3.560
  314.118  121.304    0.226    0.480    3.546
  314.368  121.243    0.238    0.472    3.725
  314.618  117.268    0.246    0.465    3.880
  314.868  108.979    0.243    0.471    4.077
  315.118  100.979    0.225    0.474    4.314
  315.368   94.962    0.207    0.460    4.477
  315.618   90.637    0.206    0.446    4.586
  315.868   86.681    0.245    0.442    4.590
  316.118   83.122    0.274    0.436    4.478
  316.368   83.087    0.278    0.428    4.265
  316.618   84.093    0.283    0.418    4.172
  316.868   85.032    0.297    0.414    4.196
  317.118   86.201    0.281    0.414    3.880
  317.368   87.194    0.280    0.421    4.415
  317.618   88.216    0.279    0.434    4.620
  317.868   89.516    0.280    0.451    4.853
  318.118   88.400    0.268    0.465    4.877
  318.368   85.996    0.267    0.471    4.789
  318.618   83.219    0.263    0.476    4.760
  318.868   80.300    0.262    0.463    5.205
  319.118   76.683    0.229    0.450    6.239
  319.368   72.888    0.184    0.439    8.188
  319.618   70.929    0.066    0.431   10.814
  319.868   65.613    0.046    0.416   13.142
  320.118   60.029    0.112    0.389   14.227
  320.368   54.986    0.172    0.220   13.056
  320.618   53.375    0.246    0.311    7.702
