~VERSION INFORMATION
 VERS.                 2.0:   CWLS LOG ASCII STANDARD -VERSION 2.0
 WRAP.                  NO:   ONE LINE PER DEPTH STEP
~WELL INFORMATION BLOCK
#MNEM.UNIT           DATA                    DESCRIPTION OF MNEMONIC
#---------    -------------------            -------------------------------
# Generated from Intellog Unique Number	CS_69_70/WELL/701
NULL.         -999.25                        : NULL_VALUE
WELL.         HUSKY OIL OPERATION            : Well_name    - WELL              
LOC .         00/05-19-070-05W4/0            : Location     - LOCATION          
UWI .         00/05-19-070-05W4/0            : Uwi          - UNIQUE WELL ID    
ENTR.         SP                             : Entered      - ENTERED BY        
SRVC.         SCHLUMBERGER                   : Scn          - SERVICE COMPANY   
STRT.M        305                            : top_depth    - START DEPTH       
STOP.M        550                            : bot_depth    - STOP DEPTH        
STEP.M        0.25                           : increment    - STEP LENGTH       
~CURVE INFORMATION BLOCK
#MNEM UNIT       ERCB CURVE CODE    CURVE DESCRIPTION
#-----------   ------------------   ----------------------------------
DEPT.M        00 001 00 00         : DEPTH        - DEPTH                       
ILD .OHMM     00 120 00 00         : RESD         - DEEP RESISTIVITY (DIL)      
DPHI.V/V      00 890 00 00         : PHID         - DENSITY POROSITY (LIMESTONE)
NPHI.V/V      00 330 00 00         : PHIN         - NEUTRON POROSITY (LIMESTONE)
GR  .API      00 310 00 00         : GR           - GAMMA RAY                   
~PARAMETER INFORMATION       
#MNEM.UNIT           DATA             DESCRIPTION OF MNEMONIC
#---------         -----------     ------------------------------
GL  .M        667.3                : gl           - GROUND LEVEL ELEVATION      
EREF.M        671                  : kb           - ELEVATION OF DEPTH REFERENCE
DATM.M        667                  : datum        - DATUM ELEVATION             
TDD .M        555                  : tdd          - TOTAL DEPTH DRILLER         
RUN .         ONE                  : Run          - RUN NUMBER                  
ENG .         BILL                 : Engineer     - RECORDING ENGINEER          
WIT .         JIM                  : Witness      - WITNESSED BY                
MUD .         GEL                  : Mud_type     - MUD TYPE                    
MATR.         LIMESTONE            : Logunit      - NEUTRON MATRIX              
TMAX.C        26                   : BHT          - MAXIMUM RECORDED TEMPERATURE
BHTD.M        555                  : BHTDEP       - MAXIMUM RECORDED TEMPERATURE
MATR.         1                    : LOGUNIT      - NEUTRON MATRIX              
RMT .C        25                   : MDTP         - TEMPERATURE OF MUD          
NEUT.         1                    : NEUTRON      - NEUTRON TYPE                
RESI.         0                    : RESIST       - RESISTIVITY TYPE            
RMC .OHMM     0.25                 : RMC          - RESISTIVITY OF MUD CAKE     
RMF .OHMM     0.25                 : RMF          - RESISTIVITY OF MUD FILTRATE 
SUFT.C        15                   : SUFT         - SURFACE TEMPERATURE         
~A  DEPTH     RESD     PHID     PHIN       GR
# ...
  435.500   17.418    0.300    0.429   59.091
  435.750   17.754    0.343    0.445   57.290
  436.000   17.758    0.348    0.453   57.302
  436.250   17.767    0.344    0.491   56.709
  436.500   17.448    0.345    0.460   55.513
  436.750   17.134    0.349    0.457   54.316
  437.000   17.142    0.357    0.467   54.325
  437.250   16.832    0.366    0.448   56.155
  437.500   15.928    0.361    0.443   56.769
  437.750   15.352    0.351    0.450   56.786
  438.000   15.073    0.351    0.434   56.793
  438.250   14.260    0.361    0.446   56.811
  438.500   13.488    0.357    0.460   58.033
  438.750   12.293    0.346    0.495   59.252
  439.000   12.767    0.338    0.504   59.870
  439.250   13.017    0.336    0.495   58.070
  439.500   13.269    0.346    0.481   56.868
  439.750   13.523    0.351    0.469   55.671
  440.000   14.854    0.352    0.439   54.479
  440.250   15.716    0.293    0.393   52.672
  440.500   16.326    0.249    0.345   55.106
  440.750   16.332    0.284    0.384   58.747
  441.000   16.037    0.324    0.435   60.573
  441.250   15.460    0.351    0.456   61.193
  441.500   14.902    0.365    0.459   60.597
  441.750   14.631    0.348    0.459   62.425
  442.000   14.368    0.342    0.459   59.414
  442.250   13.850    0.342    0.458   57.005
  442.500   13.854    0.341    0.447   57.019
  442.750   13.354    0.337    0.441   58.239
  443.000   13.359    0.331    0.439   59.463
  443.250   13.367    0.320    0.435   58.266
  443.500   13.624    0.310    0.445   57.072
  443.750   13.633    0.304    0.465   56.478
  444.000   13.139    0.314    0.461   57.098
  444.250   11.975    0.325    0.467   57.709
  444.500   10.914    0.321    0.465   61.959
  444.750    9.946    0.295    0.432   64.992
  445.000    9.408    0.285    0.446   66.818
  445.250    8.575    0.297    0.466   66.227
  445.500    8.111    0.314    0.488   65.637
  445.750    7.818    0.324    0.502   66.253
  446.000    7.676    0.313    0.512   67.476
  446.250    7.539    0.282    0.494   68.695
  446.500    7.544    0.291    0.485   66.290
  446.750    7.406    0.309    0.479   65.697
  447.000    7.138    0.321    0.474   67.522
  447.250    6.385    0.309    0.466   70.563
  447.500    5.202    0.304    0.476   72.389
  447.750    4.083    0.306    0.461   74.819
  448.000    3.146    0.302    0.440   78.462
  448.250    2.661    0.299    0.507   79.683
  448.500    2.425    0.294    0.541   79.699
  448.750    2.210    0.284    0.543   83.336
  449.000    2.170    0.277    0.523   88.793
  449.250    2.339    0.273    0.514   91.831
  449.500    2.718    0.275    0.535   87.004
  449.750    3.531    0.271    0.568   80.968
  450.000    4.179    0.281    0.524   78.559
  450.250    4.765    0.287    0.492   76.758
  450.500    5.042    0.290    0.461   79.797
  450.750    5.335    0.287    0.446   81.016
  451.000    5.439    0.273    0.449   79.820
  451.250    5.441    0.266    0.457   77.413
  451.500    5.148    0.236    0.467   78.637
  451.750    5.055    0.170    0.422   80.459
  452.000    4.783    0.153    0.402   82.892
  452.250    4.609    0.198    0.416   84.718
  452.500    4.442    0.233    0.424   87.756
  452.750    4.049    0.242    0.427   90.791
  453.000    3.690    0.249    0.447   94.435
  453.250    3.301    0.252    0.471   96.259
  453.500    3.181    0.251    0.477   94.459
  453.750    3.124    0.246    0.462   87.818
  454.000    3.125    0.243    0.441   87.830
  454.250    3.433    0.239    0.430   84.214
  454.500    4.063    0.238    0.464   71.526
  454.750    4.900    0.255    0.487   64.282
  455.000    5.381    0.274    0.507   61.870
  455.250    6.022    0.285    0.470   66.120
  455.500    6.372    0.298    0.433   71.576
  455.750    6.495    0.202    0.404   77.637
  456.000    6.144    0.177    0.400   83.094
  456.250    5.100    0.189    0.407   86.128
  456.500    4.079    0.211    0.442   90.376
  456.750    3.450    0.236    0.493   92.199
  457.000    3.203    0.238    0.528   93.421
  457.250    3.030    0.239    0.525   92.829
  457.500    2.921    0.242    0.493   94.052
  457.750    2.923    0.245    0.473   99.513
  458.000    2.869    0.246    0.489  101.940
  458.250    2.871    0.248    0.498  104.370
  458.500    2.982    0.248    0.494  103.173
  458.750    3.275    0.246    0.471   85.044
  459.000    4.177    0.242    0.443   71.748
  459.250    5.740    0.243    0.397   65.710
  459.500    6.793    0.251    0.380   68.749
  459.750    7.461    0.243    0.380   74.210
  460.000    6.674    0.241    0.388   76.034
  460.250    5.645    0.238    0.395   77.861
  460.500    5.754    0.234    0.398   77.869
  460.750    7.070    0.232    0.404   73.647
  461.000    8.213    0.232    0.381   65.796
  461.250    9.020    0.233    0.364   60.973
  461.500    9.908    0.242    0.358   62.801
  461.750   10.485    0.261    0.375   63.414
  462.000   10.890    0.275    0.390   64.640
  462.250   11.099    0.275    0.416   66.464
  462.500   11.529    0.277    0.441   67.080
  462.750   11.533    0.281    0.446   60.442
  463.000   11.539    0.270    0.428   61.664
  463.250   11.544    0.262    0.404   64.701
  463.500   12.682    0.270    0.396   67.130
  463.750   13.418    0.266    0.403   65.935
  464.000   14.197    0.253    0.405   62.925
  464.250   14.473    0.226    0.389   61.725
  464.500   14.479    0.174    0.379   60.528
  464.750   13.195    0.144    0.361   63.571
  465.000   11.372    0.193    0.378   65.394
  465.250   10.362    0.229    0.378   67.822
  465.500    9.444    0.263    0.378   70.860
  465.750   10.182    0.249    0.374   73.294
  466.000   10.975    0.240    0.372   73.912
  466.250   12.284    0.228    0.383   74.524
  466.500   12.756    0.244    0.408   68.490
  466.750   13.500    0.291    0.410   68.502
  467.000   13.761    0.312    0.406   72.752
  467.250   13.514    0.296    0.403   75.180
  467.500   12.089    0.290    0.401   77.006
  467.750   11.223    0.294    0.405   76.415
  468.000   10.039    0.293    0.418   80.055
  468.250    9.496    0.287    0.415   84.306
  468.500    8.818    0.273    0.398   85.525
  468.750    8.188    0.264    0.390   84.328
  469.000    8.039    0.256    0.367   84.947
  469.250    7.895    0.246    0.351   86.770
  469.500    8.354    0.235    0.344   89.809
  469.750    9.350    0.218    0.336   91.634
  470.000   11.275    0.228    0.364   89.833
  470.250   12.153    0.247    0.370   80.169
  470.500   15.213    0.260    0.371   69.292
  470.750   18.344    0.270    0.372   58.417
  471.000   23.396    0.277    0.370   55.405
  471.250   29.837    0.290    0.383   47.554
  471.500   42.567    0.299    0.409   31.236
  471.750   52.289    0.313    0.400   21.573
  472.000   66.692    0.316    0.387   21.584
  472.250   74.632    0.311    0.367   27.648
  472.500   80.454    0.309    0.359   32.501
  472.750   82.010    0.309    0.353   34.927
  473.000   73.366    0.310    0.360   36.756
  473.250   65.616    0.309    0.352   36.769
  473.500   70.761    0.311    0.343   34.969
  473.750   76.272    0.314    0.352   33.773
  474.000   83.781    0.318    0.356   33.174
  474.250   90.314    0.318    0.342   33.186
  474.500   93.792    0.316    0.331   30.178
  474.750   93.836    0.317    0.355   26.559
  475.000   76.462    0.322    0.362   23.548
  475.250   60.008    0.317    0.366   28.398
  475.500   37.648    0.310    0.348   36.877
  475.750   25.931    0.304    0.340   48.988
  476.000   18.889    0.279    0.339   59.889
  476.250   14.281    0.231    0.346   68.366
  476.500   12.079    0.205    0.340   76.242
  476.750   11.642    0.212    0.332   81.698
  477.000   11.221    0.229    0.320   78.086
  477.250   11.228    0.239    0.337   77.489
  477.500   11.661    0.238    0.350   78.712
  477.750   12.112    0.226    0.360   74.495
  478.000   12.343    0.221    0.370   71.480
  478.250   12.823    0.241    0.365   66.657
  478.500   13.069    0.251    0.364   66.065
  478.750   13.320    0.258    0.359   65.467
