~VERSION INFORMATION
 VERS.                 2.0:   CWLS LOG ASCII STANDARD -VERSION 2.0
 WRAP.                  NO:   ONE LINE PER DEPTH STEP
~WELL INFORMATION BLOCK
#MNEM.UNIT           DATA                    DESCRIPTION OF MNEMONIC
#---------    -------------------            -------------------------------
# Generated from Intellog Unique Number	CS_69_70/WELL/810
WELL.         HUSKY OIL OPERATIONS           : Well_name    - WELL
LOC .         00/06-36-069-06W4/0            : Location     - LOCATION
UWI .         00/06-36-069-06W4/0            : Uwi          - UNIQUE WELL ID
ENTR.         SP                             : Entered      - ENTERED BY
SRVC.         SCHLUMBERGER                   : Scn          - SERVICE COMPANY
STRT.M        340                            : top_depth    - START DEPTH
STOP.M        585                            : bot_depth    - STOP DEPTH
STEP.M        0.25                           : increment    - STEP LENGTH
 NULL. -999.2500:NULL Value
~CURVE INFORMATION BLOCK
#MNEM UNIT       ERCB CURVE CODE    CURVE DESCRIPTION
#-----------   ------------------   ----------------------------------
DEPT.M        00 001 00 00         : DEPTH        - DEPTH
ILD .OHMM     00 120 00 00         : RESD         - DEEP RESISTIVITY (DIL)
DPHI.V/V      00 890 00 00         : PHID         - DENSITY POROSITY (LIMESTONE)
NPHI.V/V      00 330 00 00         : PHIN         - NEUTRON POROSITY (LIMESTONE)
GR  .API      00 310 00 00         : GR           - GAMMA RAY
~PARAMETER INFORMATION
#MNEM.UNIT           DATA             DESCRIPTION OF MNEMONIC
#---------         -----------     ------------------------------
GL  .M        692.4                : gl           - GROUND LEVEL ELEVATION
EREF.M        696                  : kb           - ELEVATION OF DEPTH REFERENCE
DATM.M        692.4                : datum        - DATUM ELEVATION
TDD .M        592                  : tdd          - TOTAL DEPTH DRILLER
RUN .         ONE                  : Run          - RUN NUMBER
ENG .         BILL                 : Engineer     - RECORDING ENGINEER
WIT .         JIM                  : Witness      - WITNESSED BY
MUD .         GEL                  : Mud_type     - MUD TYPE
MATR.         LIMESTONE            : Logunit      - NEUTRON MATRIX
TMAX.C        25                   : BHT          - MAXIMUM RECORDED TEMPERATURE
BHTD.M        592                  : BHTDEP       - MAXIMUM RECORDED TEMPERATURE
MATR.         1                    : LOGUNIT      - NEUTRON MATRIX
RMT .C        25                   : MDTP         - TEMPERATURE OF MUD
NEUT.         1                    : NEUTRON      - NEUTRON TYPE
RESI.         0                    : RESIST       - RESISTIVITY TYPE
RMC .OHMM     0.25                 : RMC          - RESISTIVITY OF MUD CAKE
RMF .OHMM     0.25                 : RMF          - RESISTIVITY OF MUD FILTRATE
SUFT.C        15                   : SUFT         - SURFACE TEMPERATURE
~A  DEPTH     RESD     PHID     PHIN       GR
# ...
  470.500   15.181    0.317    0.463   55.645
  470.750   13.496    0.325    0.474   56.987
  471.000   11.258    0.343    0.456   57.664
  471.250    9.356    0.370    0.457   61.428
  471.500    7.601    0.402    0.496   68.284
  471.750    6.388    0.435    0.522   71.865
  472.000    5.501    0.387    0.503   75.691
  472.250    4.993    0.361    0.487   78.062
  472.500    4.643    0.343    0.483   78.617
  472.750    4.499    0.329    0.472   77.477
  473.000    4.418    0.322    0.454   74.398
  473.250    4.478    0.314    0.446   73.260
  473.500    4.607    0.306    0.451   73.631
  473.750    4.714    0.297    0.452   74.672
  474.000    4.770    0.289    0.446   75.529
  474.250    4.781    0.281    0.433   76.083
  474.500    4.783    0.275    0.425   81.364
  474.750    4.803    0.268    0.422   83.492
  475.000    4.832    0.261    0.420   82.473
  475.250    4.853    0.263    0.419   82.119
  475.500    4.863    0.264    0.431   83.583
  475.750    4.884    0.263    0.437   84.138
  476.000    4.859    0.260    0.434   78.395
  476.250    4.815    0.255    0.431   75.195
  476.500    4.790    0.250    0.431   75.265
  476.750    4.793    0.248    0.434   80.121
  477.000    4.903    0.253    0.428   83.643
  477.250    5.541    0.263    0.430   84.501
  477.500    6.238    0.275    0.438   76.820
  477.750    6.803    0.282    0.437   73.559
  478.000    7.322    0.270    0.435   71.753
  478.250    7.619    0.237    0.441   73.943
  478.500    7.723    0.236    0.447   75.649
  478.750    7.946    0.273    0.451   72.511
  479.000    8.715    0.283    0.457   68.644
  479.250   10.438    0.287    0.467   63.931
  479.500   11.728    0.271    0.481   59.399
  479.750   14.287    0.152    0.504   54.564
  480.000   15.461    0.059    0.454   49.489
  480.250   17.051    0.036    0.219   44.410
  480.500   16.710    0.198    0.285   55.322
  480.750   11.908    0.248    0.329   68.897
  481.000    8.360    0.283    0.381   75.447
  481.250    7.039    0.272    0.425   79.939
  481.500    6.695    0.257    0.425   84.006
  481.750    6.439    0.257    0.414   84.501
  482.000    6.113    0.266    0.412   86.207
  482.250    5.803    0.262    0.428   87.912
  482.500    5.447    0.245    0.440   86.893
  482.750    5.123    0.227    0.431   85.570
  483.000    4.917    0.230    0.439   87.215
  483.250    4.739    0.254    0.457   87.831
  483.500    4.670    0.285    0.476   79.606
  483.750    4.458    0.307    0.488   69.986
  484.000    4.054    0.322    0.461   67.513
  484.250    3.413    0.330    0.445   70.068
  484.500    2.885    0.325    0.444   72.075
  484.750    2.344    0.323    0.481   74.872
  485.000    2.057    0.325    0.509   77.426
  485.250    2.000    0.329    0.543   78.949
  485.500    1.979    0.321    0.544   78.050
  485.750    1.991    0.318    0.531   78.181
  486.000    2.037    0.315    0.530   78.979
  486.250    2.193    0.309    0.518   79.535
  486.500    2.239    0.306    0.496   80.756
  486.750    2.356    0.309    0.494   82.280
  487.000    2.484    0.312    0.516   81.018
  487.250    2.694    0.295    0.530   76.910
  487.500    3.010    0.286    0.515   74.498
  487.750    3.440    0.295    0.487   72.572
  488.000    3.794    0.300    0.479   70.038
  488.250    4.200    0.272    0.462   67.141
  488.500    4.538    0.132    0.422   66.059
  488.750    4.748    0.143    0.378   71.157
  489.000    4.867    0.177    0.382   74.923
  489.250    4.655    0.214    0.403   77.658
  489.500    4.436    0.230    0.423   78.514
  489.750    4.180    0.241    0.444   79.493
  490.000    3.938    0.246    0.429   82.108
  490.250    3.683    0.238    0.417   84.844
  490.500    3.457    0.245    0.438   87.398
  490.750    3.288    0.261    0.458   89.042
  491.000    3.162    0.273    0.465   89.960
  491.250    3.122    0.267    0.471   87.911
  491.500    3.147    0.262    0.522   88.648
  491.750    3.220    0.263    0.498   87.507
  492.000    3.389    0.261    0.473   86.609
  492.250    3.758    0.257    0.452   87.104
  492.500    4.168    0.252    0.435   87.963
  492.750    4.436    0.248    0.414   91.001
  493.000    4.463    0.245    0.406   94.825
  493.250    4.173    0.246    0.428   97.499
  493.500    3.802    0.252    0.449   94.906
  493.750    3.522    0.255    0.470   91.948
  494.000    3.325    0.257    0.502   88.506
  494.250    3.109    0.257    0.454   87.730
  494.500    2.957    0.262    0.452   91.676
  494.750    2.860    0.259    0.476   94.532
  495.000    2.782    0.254    0.495   96.057
  495.250    2.701    0.249    0.491   98.731
  495.500    2.682    0.244    0.500  101.891
  495.750    2.791    0.241    0.515  102.021
  496.000    3.336    0.241    0.530   94.159
  496.250    4.267    0.237    0.453   85.085
  496.500    5.053    0.194    0.398   74.316
  496.750    5.873    0.139    0.356   66.755
  497.000    6.624    0.171    0.353   73.063
  497.250    7.264    0.228    0.383   70.227
  497.500    7.644    0.246    0.411   65.699
  497.750    7.777    0.257    0.437   62.621
  498.000    8.340    0.270    0.455   60.206
  498.250    9.043    0.210    0.409   58.277
  498.500   10.011    0.191    0.386   59.195
  498.750   11.020    0.238    0.402   60.841
  499.000   11.706    0.271    0.398   63.758
  499.250   11.999    0.284    0.395   67.826
  499.500   12.095    0.275    0.394   70.561
  499.750   12.172    0.268    0.386   69.723
  500.000   12.174    0.262    0.382   67.310
  500.250   12.502    0.264    0.400   67.683
  500.500   12.841    0.274    0.405   66.483
  500.750   12.702    0.272    0.406   65.466
  501.000   12.172    0.263    0.402   65.897
  501.250   11.707    0.255    0.386   67.422
  501.500   11.366    0.247    0.368   69.611
  501.750   11.118    0.241    0.358   67.927
  502.000   11.312    0.258    0.362   67.393
  502.250   13.078    0.294    0.384   66.978
  502.500   13.656    0.308    0.404   66.563
  502.750   14.808    0.308    0.407   66.695
  503.000   15.584    0.305    0.400   67.370
  503.250   15.649    0.303    0.396   68.773
  503.500   14.499    0.306    0.396   70.722
  503.750   13.306    0.304    0.399   74.427
  504.000   11.986    0.297    0.405   78.372
  504.250   11.042    0.291    0.414   83.894
  504.500   10.287    0.288    0.420   87.173
  504.750    9.876    0.285    0.406   85.730
  505.000    9.571    0.278    0.389   85.013
  505.250    9.414    0.267    0.375   86.357
  505.500    8.971    0.255    0.366   87.457
  505.750    8.532    0.243    0.371   88.254
  506.000    8.252    0.238    0.374   88.203
  506.250    8.240    0.246    0.377   87.304
  506.500    8.688    0.252    0.392   83.076
  506.750    9.673    0.275    0.408   77.757
  507.000   10.909    0.285    0.423   70.136
  507.250   13.614    0.278    0.432   54.400
  507.500   17.249    0.287    0.360   39.574
  507.750   18.880    0.299    0.344   53.937
  508.000   19.209    0.299    0.329   67.089
  508.250   18.099    0.281    0.338   73.153
  508.500   16.456    0.267    0.345   78.917
  508.750   15.132    0.262    0.351   72.084
  509.000   13.994    0.277    0.355   62.162
  509.250   13.509    0.287    0.353   61.748
  509.500   13.066    0.282    0.348   68.722
  509.750   12.926    0.256    0.342   69.156
  510.000   13.350    0.258    0.354   66.683
  510.250   13.356    0.093    0.363   65.300
  510.500   12.490    0.066    0.326   71.913
  510.750   10.857    0.048    0.294   79.433
  511.000    9.634    0.147    0.296   85.013
  511.250    9.424    0.180    0.342   89.686
  511.500   12.511    0.200    0.379   83.943
  511.750   17.053    0.214    0.396   74.627
  512.000   19.931    0.259    0.387   61.981
  512.250   22.565    0.286    0.382   58.598
  512.500   26.626    0.326    0.396   60.063
  512.750   27.444    0.333    0.399   62.615
  513.000   22.261    0.331    0.404   67.774
  513.250   19.095    0.323    0.413   74.505
  513.500   14.531    0.313    0.417   82.874
  513.750   11.224    0.307    0.403   86.940
