~VERSION INFORMATION
 VERS.                 2.0:   CWLS LOG ASCII STANDARD -VERSION 2.0
 WRAP.                  NO:   ONE LINE PER DEPTH STEP
~WELL INFORMATION BLOCK
#MNEM.UNIT           DATA                    DESCRIPTION OF MNEMONIC
#---------    -------------------            -------------------------------
# Generated from Intellog Unique Number	CS_73_76/WELL/2173
WELL.         DOME PETROLEUM LTD.            : Well_name    - WELL
LOC .         00/07-19-074-04W4/0            : Location     - LOCATION
UWI .         00/07-19-074-04W4/0            : Uwi          - UNIQUE WELL ID
ENTR.         SP                             : Entered      - ENTERED BY
SRVC.         SCHLUMBERGER                   : Scn          - SERVICE COMPANY
STRT.M        250                            : top_depth    - START DEPTH
STOP.M        456                            : bot_depth    - STOP DEPTH
STEP.M        0.25                           : increment    - STEP LENGTH
 NULL. -999.2500:NULL Value
~CURVE INFORMATION BLOCK
#MNEM UNIT       ERCB CURVE CODE    CURVE DESCRIPTION
#-----------   ------------------   ----------------------------------
DEPT.M        00 001 00 00         : DEPTH        - DEPTH
ILD .OHMM     00 120 00 00         : RESD         - DEEP RESISTIVITY (DIL)
DPHI.V/V      00 890 00 00         : PHID         - DENSITY POROSITY (LIMESTONE)
NPHI.V/V      00 330 00 00         : PHIN         - NEUTRON POROSITY (LIMESTONE)
GR  .API      00 310 00 00         : GR           - GAMMA RAY
~PARAMETER INFORMATION
#MNEM.UNIT           DATA             DESCRIPTION OF MNEMONIC
#---------         -----------     ------------------------------
GL  .M        650.2                : gl           - GROUND LEVEL ELEVATION
EREF.M        654.7                : kb           - ELEVATION OF DEPTH REFERENCE
DATM.M        650.2                : datum        - DATUM ELEVATION
TDD .M        456.5                : tdd          - TOTAL DEPTH DRILLER
RUN .         ONE                  : Run          - RUN NUMBER
ENG .         BILL                 : Engineer     - RECORDING ENGINEER
WIT .         JIM                  : Witness      - WITNESSED BY
MUD .         GEL                  : Mud_type     - MUD TYPE
MATR.         LIMESTONE            : Logunit      - NEUTRON MATRIX
TMAX.C        21                   : BHT          - MAXIMUM RECORDED TEMPERATURE
BHTD.M        456.5                : BHTDEP       - MAXIMUM RECORDED TEMPERATURE
MATR.         1                    : LOGUNIT      - NEUTRON MATRIX
RMT .C        25                   : MDTP         - TEMPERATURE OF MUD
NEUT.         1                    : NEUTRON      - NEUTRON TYPE
RESI.         0                    : RESIST       - RESISTIVITY TYPE
RMC .OHMM     0.25                 : RMC          - RESISTIVITY OF MUD CAKE
RMF .OHMM     0.25                 : RMF          - RESISTIVITY OF MUD FILTRATE
SUFT.C        15                   : SUFT         - SURFACE TEMPERATURE
~A  DEPTH     RESD     PHID     PHIN       GR
  250.000    3.601    0.293    0.535   93.531
  250.250    3.406    0.307    0.518   93.538
  250.500    3.535    0.297    0.507   91.121
  250.750    3.879    0.309    0.526   89.920
  251.000    4.101    0.328    0.544   91.144
  251.250    4.101    0.344    0.525   94.804
  251.500    4.025    0.284    0.514   94.205
  251.750    3.807    0.270    0.520   90.575
  252.000    3.600    0.295    0.527   88.763
  252.250    3.668    0.308    0.542   88.168
  252.500    3.878    0.273    0.537   87.576
  252.750    4.100    0.249    0.521   86.977
  253.000    4.100    0.302    0.524   84.559
  253.250    3.878    0.329    0.509   83.355
  253.500    3.667    0.298    0.481   88.835
  253.750    3.534    0.269    0.508   95.526
  254.000    3.405    0.302    0.528   96.145
  254.250    3.342    0.326    0.546   93.122
  254.500    3.600    0.302    0.557   93.131
  254.750    3.667    0.278    0.555   93.149
  255.000    3.877    0.265    0.523   93.158
  255.250    3.950    0.279    0.511   92.561
  255.500    4.024    0.304    0.500   91.358
  255.750    3.877    0.330    0.521   90.762
  256.000    3.667    0.361    0.534   89.558
  256.250    3.599    0.355    0.534   87.750
  256.500    3.877    0.330    0.545   87.153
  256.750    4.415    0.303    0.559   84.129
  257.000    5.516    0.189    0.503   81.710
  257.250    6.400    0.249    0.432   85.366
  257.500    7.705    0.301    0.382   89.023
  257.750    9.277    0.326    0.365   85.391
  258.000   10.370    0.343    0.366   80.543
  258.250   11.170    0.349    0.374   77.519
  258.500   11.169    0.339    0.389   82.388
  258.750   11.169    0.331    0.402   87.260
  259.000   10.762    0.318    0.415   86.056
  259.250   10.564    0.308    0.410   85.462
  259.500   10.369    0.295    0.419   87.906
  259.750   10.761    0.291    0.422   89.127
  260.000   11.168    0.276    0.383   82.460
  260.250   12.029    0.267    0.351   73.970
  260.500   12.718    0.290    0.324   65.478
  260.750   13.199    0.309    0.313   55.166
  261.000   13.198    0.313    0.313   46.067
  261.250   13.198    0.280    0.316   64.302
  261.500   12.483    0.245    0.322   70.383
  261.750   11.589    0.244    0.342   80.719
  262.000   10.561    0.259    0.385   88.018
  262.250   10.176    0.275    0.408   78.313
  262.500    9.988    0.291    0.396   70.431
  262.750    9.988    0.293    0.379   75.300
  263.000    9.988    0.283    0.389   82.601
  263.250   10.175    0.286    0.405   87.470
  263.500   10.175    0.287    0.412   86.875
  263.750   10.174    0.289    0.405   86.281
  264.000    9.987    0.297    0.404   86.293
  264.250    9.623    0.302    0.404   87.518
  264.500    9.101    0.306    0.421   89.353
  264.750    8.449    0.247    0.432   91.793
  265.000    7.844    0.228    0.445   93.626
  265.250    7.700    0.255    0.455   97.889
  265.500    8.449    0.275    0.468   94.257
  265.750    8.768    0.281    0.433   78.479
  266.000    9.100    0.291    0.398   73.025
  266.250    9.985    0.307    0.372   70.000
  266.500   10.557    0.310    0.372   65.764
  266.750   10.956    0.315    0.369   62.131
  267.000   11.370    0.321    0.375   58.498
  267.250   11.161    0.308    0.367   54.866
  267.500   10.556    0.255    0.329   60.342
  267.750    9.800    0.187    0.327   78.573
  268.000    8.931    0.156    0.358   98.020
  268.250    8.605    0.132    0.399  104.711
  268.500    8.447    0.183    0.424   98.650
  268.750    9.098    0.232    0.424   88.946
  269.000    9.619    0.252    0.389   77.417
  269.250   10.360    0.253    0.365   57.995
  269.500   10.953    0.264    0.353   48.897
  269.750   10.953    0.272    0.365   50.730
  270.000   11.158    0.263    0.380   56.208
  270.250   10.953    0.249    0.396   61.081
  270.500   10.359    0.243    0.414   65.341
  270.750    9.617    0.247    0.407   72.641
  271.000    8.603    0.244    0.398   87.836
  271.250    7.987    0.206    0.421   99.386
  271.500    7.145    0.176    0.444  101.223
  271.750    6.884    0.194    0.460  102.446
  272.000    6.391    0.198    0.484  115.820
  272.250    5.934    0.201    0.494  120.689
  272.500    5.509    0.209    0.482  119.486
  272.750    5.020    0.220    0.476  120.105
  273.000    4.575    0.228    0.483  121.332
  273.250    4.169    0.232    0.495  118.309
  273.500    3.943    0.233    0.520  116.497
  273.750    3.729    0.240    0.545  115.901
  274.000    3.462    0.245    0.547  118.949
  274.250    3.336    0.262    0.541  118.964
  274.500    3.214    0.280    0.549  120.189
  274.750    3.214    0.287    0.548  117.770
  275.000    3.462    0.273    0.521  112.317
  275.250    4.016    0.264    0.504  106.864
  275.500    5.406    0.270    0.472  100.801
  275.750    8.133    0.295    0.428   88.667
  276.000   11.574    0.317    0.341   78.961
  276.250   16.167    0.349    0.313   71.686
  276.500   18.411    0.373    0.335   70.483
  276.750   20.966    0.366    0.358   74.138
  277.000   21.759    0.357    0.364   76.582
  277.250   22.581    0.360    0.341   75.985
  277.500   23.004    0.365    0.330   75.392
  277.750   21.757    0.369    0.341   76.615
  278.000   20.963    0.364    0.368   78.449
  278.250   19.827    0.361    0.354   78.462
  278.500   19.462    0.367    0.344   77.259
  278.750   18.752    0.371    0.344   77.270
  279.000   18.068    0.370    0.355   74.854
  279.250   17.089    0.360    0.378   73.649
  279.500   15.865    0.357    0.389   73.661
  279.750   14.458    0.350    0.386   80.961
  280.000   13.176    0.342    0.390   84.008
  280.250   12.007    0.332    0.404   84.630
  280.500   11.357    0.309    0.421   87.069
  280.750   10.543    0.295    0.423   89.508
  281.000   10.159    0.304    0.429   91.345
  281.250    9.788    0.309    0.435   94.999
  281.500    9.971    0.302    0.440   98.654
  281.750   10.348    0.298    0.443   90.168
  282.000   10.941    0.302    0.424   79.245
  282.250   11.355    0.304    0.388   67.717
  282.500   11.567    0.297    0.362   64.691
  282.750   12.230    0.256    0.355   65.310
  283.000   12.459    0.246    0.349   62.895
  283.250   12.692    0.310    0.361   59.871
  283.500   12.692    0.341    0.378   57.452
  283.750   12.691    0.335    0.384   55.641
  284.000   12.691    0.306    0.385   62.333
  284.250   12.457    0.295    0.388   59.919
  284.500   12.003    0.308    0.390   58.109
  284.750   11.782    0.315    0.386   57.511
  285.000   11.143    0.325    0.397   59.953
  285.250   10.938    0.336    0.395   59.356
  285.500   10.539    0.320    0.389   60.584
  285.750   10.345    0.304    0.387   63.027
  286.000   10.344    0.304    0.391   66.071
  286.250   10.154    0.304    0.389   73.374
  286.500   10.154    0.290    0.389   80.068
  286.750   10.153    0.283    0.401   84.937
  287.000    9.783    0.281    0.402   87.376
  287.250    9.783    0.291    0.393   88.600
  287.500    9.783    0.313    0.426   86.792
  287.750    9.966    0.329    0.426   78.302
  288.000    9.966    0.319    0.411   67.380
  288.250   10.152    0.300    0.400   62.533
  288.500   10.152    0.320    0.419   66.799
  288.750   10.152    0.330    0.428   67.415
  289.000    9.965    0.334    0.417   65.605
  289.250    9.964    0.332    0.403   65.617
  289.500    9.964    0.334    0.395   70.487
  289.750    9.781    0.332    0.404   76.571
  290.000    9.780    0.328    0.412   77.195
  290.250    9.780    0.328    0.416   79.637
  290.500    9.600    0.323    0.418   80.859
  290.750    9.600    0.308    0.420   84.517
  291.000    9.600    0.291    0.409   89.385
  291.250    9.599    0.267    0.392  102.152
  291.500    9.249    0.240    0.372  107.023
  291.750    8.912    0.212    0.384  105.213
  292.000    8.587    0.224    0.411  106.436
  292.250    8.429    0.232    0.436  110.093
  292.500    8.273    0.244    0.454  112.533
  292.750    7.972    0.256    0.474  108.905
  293.000    7.825    0.262    0.487  108.912
  293.250    7.539    0.263    0.480  111.961
