~VERSION INFORMATION
 VERS.                 2.0:   CWLS LOG ASCII STANDARD -VERSION 2.0
 WRAP.                  NO:   ONE LINE PER DEPTH STEP
~WELL INFORMATION BLOCK
#MNEM.UNIT           DATA                    DESCRIPTION OF MNEMONIC
#---------    -------------------            -------------------------------
# Generated from Intellog Unique Number	CN_94_101/WELL/2586
WELL.         PARAMOUNT RESOURCES LTD.       : Well_name    - WELL
LOC .         00/09-01-094-19W4/0            : Location     - LOCATION
UWI .         00/09-01-094-19W4/0            : Uwi          - UNIQUE WELL ID
ENTR.         JOETTE                         : Entered      - ENTERED BY
SRVC.         COMPUTALOG                     : Scn          - SERVICE COMPANY
DATE.         06/12/92                       : Date         - LOG DATE
STRT.M        110                            : top_depth    - START DEPTH
STOP.M        245                            : bot_depth    - STOP DEPTH
STEP.M        0.25                           : increment    - STEP LENGTH
 NULL. -999.2500:NULL Value
~CURVE INFORMATION BLOCK
#MNEM UNIT       ERCB CURVE CODE    CURVE DESCRIPTION
#-----------   ------------------   ----------------------------------
DEPT.M        00 001 00 00         : DEPTH        - DEPTH
CALI.MM       00 280 01 00         : CAL          - CALIPER
GR  .API      00 310 00 00         : GR           - GAMMA RAY
NPHI.V/V      00 330 00 00         : PHIN         - NEUTRON POROSITY (SANDSTONE)
DPHI.V/V      00 890 00 00         : PHID         - DENSITY POROSITY (SANDSTONE)
ILD .OHMM     00 120 00 00         : RESD         - DEEP RESISTIVITY (DIL)
~PARAMETER INFORMATION
#MNEM.UNIT           DATA             DESCRIPTION OF MNEMONIC
#---------         -----------     ------------------------------
GL  .M        527.3                : gl           - GROUND LEVEL ELEVATION
EREF.M        530.7                : kb           - ELEVATION OF DEPTH REFERENCE
DATM.M        530.7                : datum        - DATUM ELEVATION
TDD .M        246.5                : tdd          - TOTAL DEPTH DRILLER
RUN .         ONE                  : Run          - RUN NUMBER
ENG .         BILL                 : Engineer     - RECORDING ENGINEER
WIT .         JIM                  : Witness      - WITNESSED BY
MUD .         GEL                  : Mud_type     - MUD TYPE
MATR.         SANDSTONE            : Logunit      - NEUTRON MATRIX
TMAX.C        0                    : BHT          - MAXIMUM RECORDED TEMPERATURE
BHTD.M        246.5                : BHTDEP       - MAXIMUM RECORDED TEMPERATURE
RMT .C        22.2                 : MDTP         - TEMPERATURE OF MUD
MUDD.KG/M     1060                 : MWT          - MUD DENSITY
NEUT.         1                    : NEUTRON      - NEUTRON TYPE
RESI.         0                    : RESIST       - RESISTIVITY TYPE
RM  .OHMM     1.9                  : RM           - RESISTIVITY OF MUD
RMC .OHMM     1.9                  : RMC          - RESISTIVITY OF MUD CAKE
RMF .OHMM     1.9                  : RMF          - RESISTIVITY OF MUD FILTRATE
SUFT.C        -15                  : SUFT         - SURFACE TEMPERATURE
~A  DEPTH      CAL       GR     PHIN     PHID     RESD
# ...
  219.500  173.057  105.339    0.419    0.133    9.188
  219.750  175.224  106.620    0.419    0.153    9.199
  220.000  183.637  110.444    0.431    0.175    9.031
  220.250  188.944  111.764    0.445    0.187    8.707
  220.500  188.068  113.705    0.438    0.186    8.393
  220.750  183.019  116.889    0.430    0.185    8.402
  221.000  182.111  118.208    0.423    0.184    8.411
  221.250  180.136  114.557    0.418    0.185    8.587
  221.500  174.083  112.770    0.418    0.190    8.591
  221.750  173.175  112.866    0.418    0.195    8.765
  222.000  178.450  114.186    0.414    0.197    9.119
  222.250  182.752  114.903    0.408    0.197    9.124
  222.500  183.916  115.602    0.399    0.195    9.137
  222.750  184.044  115.038    0.399    0.193    8.809
  223.000  178.994  113.251    0.400    0.192    8.649
  223.250  171.906  113.366    0.393    0.187    8.026
  223.500  169.930  113.405    0.388    0.172    7.172
  223.750  169.023  112.239    0.383    0.034    6.410
  224.000  168.116  101.131    0.382    0.049    6.176
  224.250  172.386  107.422    0.387    0.174    6.302
  224.500  177.693  117.441    0.407    0.197    6.552
  224.750  181.963  121.906    0.422    0.199    6.947
  225.000  184.163  121.982    0.415    0.198    7.084
  225.250  184.323  123.923    0.405    0.189    6.959
  225.500  183.416  124.000    0.402    0.166    6.218
  225.750  183.544  122.835    0.436    0.144    5.451
  226.000  183.704  121.047    0.442    0.136    4.964
  226.250  183.800  117.998    0.455    0.140    4.607
  226.500  183.960  113.726    0.446    0.153    4.525
  226.750  184.057  116.909    0.421    0.167    4.707
  227.000  182.146  119.472    0.415    0.181    4.988
  227.250  181.206  116.442    0.411    0.190    5.388
  227.500  179.327  115.276    0.407    0.188    5.495
  227.750  179.391  115.994    0.407    0.174    5.500
  228.000  180.555  117.333    0.414    0.163    5.304
  228.250  180.684  118.050    0.419    0.153    5.209
  228.500  181.911  118.089    0.405    0.139    5.116
  228.750  182.040  115.078    0.395    0.134    5.123
  229.000  183.236  112.669    0.390    0.141    5.325
  229.250  183.300  113.368    0.393    0.142    5.862
  229.500  180.321  114.066    0.399    0.141    6.701
  229.750  175.271  111.017    0.404    0.152    7.375
  230.000  170.253  103.637    0.410    0.158    7.967
  230.250  170.350   99.346    0.410    0.149    8.769
  230.500  169.474   87.617    0.405    0.150    9.651
  230.750  170.638   73.383    0.397    0.197   10.224
  231.000  170.734   66.625    0.397    0.220   10.043
  231.250  171.930   66.081    0.398    0.197    8.319
  231.500  173.094   85.439    0.402    0.179    7.157
  231.750  175.293   87.380    0.404    0.165    6.157
  232.000  171.247   96.796    0.413    0.169    5.399
  232.250  171.407  104.951    0.411    0.159    5.014
  232.500  172.571  111.280    0.402    0.149    4.922
  232.750  173.767  106.367    0.394    0.142    5.020
  233.000  172.860  100.211    0.385    0.141    5.122
  233.250  171.920   94.696    0.387    0.151    5.639
  233.500  172.081   91.064    0.391    0.162    6.323
  233.750  172.177   90.500    0.391    0.153    7.510
  234.000  172.337   89.956    0.387    0.147    8.265
  234.250  174.536   89.411    0.383    0.144    8.596
  234.500  176.736   87.624    0.390    0.167    8.768
  234.750  170.618   83.992    0.397    0.248   10.026
  235.000  166.668   80.322    0.389    0.298   11.031
  235.250  166.732   70.457    0.362    0.307   13.097
  235.500  167.960   65.563    0.324    0.336   15.847
  235.750  168.057   63.154    0.303    0.335   23.182
  236.000  167.181   60.746    0.296    0.329   36.573
  236.250  167.277   60.182    0.299    0.318   42.607
  236.500  167.406   60.259    0.303    0.313   47.790
  236.750  167.534   60.355    0.295    0.303   48.772
  237.000  167.694   60.451    0.291    0.297   47.010
  237.250  167.822   61.130    0.298    0.287   46.179
  237.500  167.950   61.207    0.292    0.298   48.935
  237.750  169.114   62.527    0.290    0.320   53.858
  238.000  173.353   59.497    0.286    0.338   53.858
  238.250  178.691   55.224    0.280    0.349   61.668
  238.500  173.641   53.456    0.289    0.346   71.823
  238.750  170.631   53.533    0.298    0.339   65.384
  239.000  168.688   54.232    0.309    0.325   58.438
  239.250  169.916   55.551    0.303    0.320   53.215
  239.500  169.040   56.890    0.292    0.325   49.371
  239.750  169.104   57.550    0.287    0.320   44.970
  240.000  169.233   57.666    0.296    0.311   40.962
  240.250  169.393   57.704    0.342    0.309   38.730
  240.500  168.453   58.441    0.364    0.310   34.606
  240.750  168.453   59.120    0.375    0.308   31.504
  241.000  169.778   59.856    0.384    0.303   27.102
  241.250  175.084   60.516    0.390    0.296   23.762
  241.500  176.248   60.612    0.396    0.290   20.839
  241.750  175.340   60.068    0.403    0.280   20.081
  242.000  173.397   57.640    0.410    0.280   19.731
  242.250  170.419   54.630    0.412    0.280   19.753
  242.500  170.611   54.085    0.404    0.276   19.769
  242.750  171.743   54.162    0.394    0.267   20.556
  243.000  171.871   56.724    0.363    0.265   22.205
  243.250  170.964   55.539    0.343    0.258   23.524
  243.500  171.060   53.772    0.323    0.247   24.460
  243.750  171.188   52.606    0.296    0.254   27.435
  244.000  166.170   52.061    0.286    0.311   37.905
  244.250  165.263   52.779    0.280    0.331   63.315
  244.500  164.323   55.943    0.274    0.334   84.225
  244.750  159.306   60.991    0.277    0.333  135.415
  245.000  159.434   61.690    0.283    0.324  118.724
