~VERSION INFORMATION
 VERS.                 2.0:   CWLS LOG ASCII STANDARD -VERSION 2.0
 WRAP.                  NO:   ONE LINE PER DEPTH STEP
~WELL INFORMATION BLOCK
#MNEM.UNIT           DATA                    DESCRIPTION OF MNEMONIC
#---------    -------------------            -------------------------------
# Generated from Intellog Unique Number	CS_71_72/WELL/689
WELL.         AEC IPIATIK                    : Well_name    - WELL
LOC .         00/05-21-071-04W4/0            : Location     - LOCATION
UWI .         00/05-21-071-04W4/0            : Uwi          - UNIQUE WELL ID
ENTR.         SP                             : Entered      - ENTERED BY
SRVC.         SCHLUMBERGER                   : Scn          - SERVICE COMPANY
STRT.M        290                            : top_depth    - START DEPTH
STOP.M        505                            : bot_depth    - STOP DEPTH
STEP.M        0.25                           : increment    - STEP LENGTH
 NULL. -999.2500:NULL Value
~CURVE INFORMATION BLOCK
#MNEM UNIT       ERCB CURVE CODE    CURVE DESCRIPTION
#-----------   ------------------   ----------------------------------
DEPT.M        00 001 00 00         : DEPTH        - DEPTH
ILD .OHMM     00 120 00 00         : RESD         - DEEP RESISTIVITY (DIL)
DPHI.V/V      00 890 00 00         : PHID         - DENSITY POROSITY (LIMESTONE)
NPHI.V/V      00 330 00 00         : PHIN         - NEUTRON POROSITY (LIMESTONE)
GR  .API      00 310 00 00         : GR           - GAMMA RAY
~PARAMETER INFORMATION
#MNEM.UNIT           DATA             DESCRIPTION OF MNEMONIC
#---------         -----------     ------------------------------
GL  .M        673.76               : gl           - GROUND LEVEL ELEVATION
EREF.M        677.96               : kb           - ELEVATION OF DEPTH REFERENCE
DATM.M        673.76               : datum        - DATUM ELEVATION
TDD .M        594                  : tdd          - TOTAL DEPTH DRILLER
RUN .         ONE                  : Run          - RUN NUMBER
ENG .         BILL                 : Engineer     - RECORDING ENGINEER
WIT .         JIM                  : Witness      - WITNESSED BY
MUD .         GEL                  : Mud_type     - MUD TYPE
MATR.         LIMESTONE            : Logunit      - NEUTRON MATRIX
TMAX.C        21                   : BHT          - MAXIMUM RECORDED TEMPERATURE
BHTD.M        594                  : BHTDEP       - MAXIMUM RECORDED TEMPERATURE
MATR.         1                    : LOGUNIT      - NEUTRON MATRIX
RMT .C        25                   : MDTP         - TEMPERATURE OF MUD
NEUT.         1                    : NEUTRON      - NEUTRON TYPE
RESI.         0                    : RESIST       - RESISTIVITY TYPE
RMC .OHMM     0.25                 : RMC          - RESISTIVITY OF MUD CAKE
RMF .OHMM     0.25                 : RMF          - RESISTIVITY OF MUD FILTRATE
SUFT.C        15                   : SUFT         - SURFACE TEMPERATURE
~A  DEPTH     RESD     PHID     PHIN       GR
# ...
  377.000    1.622    0.349    0.447   83.581
  377.250    1.710    0.338    0.468   88.803
  377.500    1.806    0.320    0.465   90.937
  377.750    1.936    0.297    0.450   91.323
  378.000    2.099    0.280    0.505   90.558
  378.250    2.213    0.276    0.519   88.637
  378.500    2.386    0.279    0.516   84.422
  378.750    2.539    0.285    0.516   85.652
  379.000    2.588    0.302    0.487   86.220
  379.250    2.595    0.287    0.466   85.146
  379.500    2.568    0.276    0.451   83.777
  379.750    2.528    0.281    0.439   84.585
  380.000    2.511    0.285    0.436   87.509
  380.250    2.503    0.276    0.443   89.644
  380.500    2.501    0.273    0.500   90.447
  380.750    2.502    0.286    0.506   88.169
  381.000    2.462    0.325    0.477   85.953
  381.250    2.357    0.344    0.463   84.276
  381.500    2.315    0.342    0.471   82.903
  381.750    2.343    0.313    0.489   81.293
  382.000    2.540    0.294    0.473   80.105
  382.250    2.779    0.291    0.462   79.642
  382.500    2.963    0.288    0.457   79.654
  382.750    3.020    0.267    0.448   79.197
  383.000    3.012    0.260    0.445   77.580
  383.250    2.964    0.291    0.454   74.148
  383.500    2.858    0.335    0.442   73.079
  383.750    2.705    0.324    0.438   74.913
  384.000    2.642    0.304    0.447   76.141
  384.250    2.770    0.285    0.453   74.225
  384.500    2.882    0.291    0.461   70.917
  384.750    2.895    0.301    0.481   67.551
  385.000    2.791    0.325    0.496   65.454
  385.250    2.579    0.349    0.497   65.110
  385.500    2.432    0.358    0.485   65.495
  385.750    2.302    0.356    0.473   65.148
  386.000    2.191    0.350    0.457   64.202
  386.250    2.164    0.342    0.442   64.945
  386.500    2.182    0.342    0.460   64.422
  386.750    2.280    0.352    0.472   62.264
  387.000    2.345    0.352    0.456   59.077
  387.250    2.604    0.335    0.426   55.589
  387.500    2.963    0.302    0.381   51.798
  387.750    4.022    0.138    0.248   49.697
  388.000    5.164    0.015    0.203   50.624
  388.250    6.190    0.057    0.245   55.182
  388.500    7.268    0.125    0.292   59.860
  388.750    7.850    0.193    0.347   61.937
  389.000    8.246    0.251    0.382   62.500
  389.250    8.251    0.106    0.387   60.764
  389.500    7.427    0.038    0.326   58.787
  389.750    6.346    0.078    0.224   61.651
  390.000    5.176    0.183    0.300   65.125
  390.250    4.206    0.231    0.352   66.287
  390.500    3.541    0.281    0.429   67.456
  390.750    3.082    0.313    0.468   67.781
  391.000    2.759    0.330    0.478   68.042
  391.250    2.549    0.340    0.475   68.726
  391.500    2.448    0.344    0.506   69.349
  391.750    2.418    0.337    0.493   70.215
  392.000    2.462    0.327    0.469   71.748
  392.250    2.519    0.318    0.453   75.639
  392.500    2.568    0.312    0.451   81.285
  392.750    2.613    0.308    0.467   87.233
  393.000    2.601    0.301    0.476   94.753
  393.250    2.559    0.294    0.497   98.704
  393.500    2.491    0.272    0.520  101.627
  393.750    2.336    0.270    0.543  103.523
  394.000    2.281    0.276    0.547  102.816
  394.250    2.212    0.292    0.547   98.783
  394.500    2.226    0.282    0.576   99.648
  394.750    2.296    0.278    0.600  101.061
  395.000    2.344    0.308    0.604  101.746
  395.250    2.440    0.289    0.611  102.249
  395.500    2.515    0.276    0.596  101.844
  395.750    2.589    0.268    0.587  101.871
  396.000    2.590    0.279    0.573  101.890
  396.250    2.549    0.275    0.563  101.666
  396.500    2.518    0.280    0.554  100.718
  396.750    2.530    0.291    0.555   98.676
  397.000    2.540    0.293    0.570   93.977
  397.250    2.704    0.279    0.588   89.584
  397.500    2.823    0.263    0.569   87.120
  397.750    3.118    0.260    0.529   84.724
  398.000    3.438    0.271    0.492   84.497
  398.250    3.624    0.277    0.483   86.512
  398.500    3.996    0.271    0.492   87.924
  398.750    4.065    0.253    0.501   88.306
  399.000    4.199    0.255    0.506   87.418
  399.250    4.297    0.288    0.491   87.077
  399.500    4.332    0.273    0.481   88.909
  399.750    4.280    0.251    0.480   89.234
  400.000    4.134    0.253    0.478   88.829
  400.250    4.068    0.259    0.481   89.395
  400.500    4.049    0.255    0.503   91.712
  400.750    4.029    0.261    0.524   93.241
  401.000    3.980    0.280    0.539   93.866
  401.250    3.859    0.257    0.536   95.342
  401.500    3.680    0.255    0.497   95.176
  401.750    3.581    0.275    0.480   92.594
  402.000    3.538    0.290    0.478   92.433
  402.250    3.594    0.274    0.491   93.965
  402.500    3.657    0.258    0.508   95.073
  402.750    3.646    0.248    0.518   96.362
  403.000    3.381    0.254    0.522   96.625
  403.250    2.788    0.233    0.526   96.646
  403.500    2.274    0.242    0.526   98.538
  403.750    2.172    0.248    0.541  100.313
  404.000    2.307    0.249    0.543  102.267
  404.250    2.535    0.261    0.538  104.345
  404.500    2.687    0.263    0.544  105.030
  404.750    2.902    0.264    0.555  104.565
  405.000    2.981    0.267    0.527  102.470
  405.250    3.022    0.262    0.513  101.157
  405.500    3.013    0.260    0.521  102.205
  405.750    2.960    0.262    0.533  103.677
  406.000    2.892    0.273    0.543  104.059
  406.250    2.845    0.273    0.534  102.929
  406.500    2.805    0.268    0.523  101.196
  406.750    2.813    0.278    0.530  101.576
  407.000    2.867    0.289    0.541  101.475
  407.250    3.197    0.287    0.546   99.437
  407.500    3.505    0.285    0.535   95.282
  407.750    3.708    0.283    0.516   90.947
  408.000    3.945    0.271    0.495   88.425
  408.250    4.183    0.265    0.484   87.236
  408.500    4.386    0.262    0.478   87.558
  408.750    4.380    0.257    0.472   87.577
  409.000    4.287    0.247    0.466   87.356
  409.250    4.187    0.244    0.481   86.226
  409.500    3.861    0.252    0.488   86.124
  409.750    3.580    0.268    0.476   88.381
  410.000    3.370    0.273    0.469   90.582
  410.250    3.323    0.275    0.499   90.901
  410.500    3.438    0.272    0.521   89.771
  410.750    3.625    0.272    0.529   87.314
  411.000    3.786    0.266    0.529   86.120
  411.250    4.030    0.285    0.520   84.087
  411.500    4.240    0.299    0.511   82.288
  411.750    4.420    0.297    0.502   79.526
  412.000    4.872    0.288    0.500   76.943
  412.250    5.711    0.267    0.497   73.577
  412.500    6.921    0.245    0.480   71.659
  412.750    7.904    0.265    0.464   71.557
  413.000    7.807    0.294    0.466   74.177
  413.250    6.368    0.305    0.482   78.675
  413.500    5.512    0.322    0.508   81.478
  413.750    4.816    0.316    0.509   80.407
  414.000    4.433    0.313    0.488   77.402
  414.250    4.204    0.313    0.476   75.184
  414.500    4.129    0.321    0.470   75.203
  414.750    4.125    0.325    0.469   76.676
  415.000    4.206    0.327    0.489   77.481
  415.250    4.271    0.327    0.506   78.649
  415.500    4.396    0.327    0.499   80.729
  415.750    4.515    0.328    0.481   83.412
  416.000    4.656    0.318    0.470   85.667
  416.250    4.711    0.289    0.473   87.868
  416.500    4.733    0.275    0.473   88.911
  416.750    4.648    0.267    0.473   90.389
  417.000    4.548    0.262    0.491   90.585
  417.250    4.518    0.267    0.504   89.090
  417.500    4.694    0.270    0.492   86.571
  417.750    4.911    0.266    0.481   85.805
  418.000    5.072    0.265    0.469   86.123
  418.250    4.955    0.272    0.462   87.596
  418.500    4.305    0.278    0.455   90.155
  418.750    3.531    0.282    0.477   93.383
  419.000    2.928    0.288    0.505   95.701
  419.250    2.438    0.301    0.537   97.234
  419.500    2.139    0.301    0.558   97.556
  419.750    2.012    0.304    0.576   95.215
  420.000    1.958    0.312    0.591   94.632
  420.250    1.875    0.312    0.601   94.650
