~VERSION INFORMATION
 VERS.                 2.0:   CWLS LOG ASCII STANDARD -VERSION 2.0
 WRAP.                  NO:   ONE LINE PER DEPTH STEP
~WELL INFORMATION BLOCK
#MNEM.UNIT           DATA                    DESCRIPTION OF MNEMONIC
#---------    -------------------            -------------------------------
# Generated from Intellog Unique Number	CS_77_79/WELL/915
WELL.         MESA HB LEISMER                : Well_name    - WELL
LOC .         00/07-33-078-09W4/0            : Location     - LOCATION
UWI .         00/07-33-078-09W4/0            : Uwi          - UNIQUE WELL ID
ENTR.         JHS                            : Entered      - ENTERED BY
SRVC.         SCHLUMBERGER                   : Scn          - SERVICE COMPANY
STRT.M        228.6                          : top_depth    - START DEPTH
STOP.M        460.1                          : bot_depth    - STOP DEPTH
STEP.M        0.25                           : increment    - STEP LENGTH
 NULL. -999.2500:NULL Value
~CURVE INFORMATION BLOCK
#MNEM UNIT       ERCB CURVE CODE    CURVE DESCRIPTION
#-----------   ------------------   ----------------------------------
DEPT.M        00 001 00 00         : DEPTH        - DEPTH
RHOB.KG/M3    00 350 00 00         : DENS         - BULK DENSITY
GR  .API      00 310 00 00         : GR           - GAMMA RAY
DPHI.V/V      00 890 00 00         : PHID         - DENSITY POROSITY (SANDSTONE)
NPHI.V/V      00 330 00 00         : PHIN         - NEUTRON POROSITY (SANDSTONE)
ILD .OHMM     00 120 00 00         : RESD         - DEEP RESISTIVITY (DIL)
~PARAMETER INFORMATION
#MNEM.UNIT           DATA             DESCRIPTION OF MNEMONIC
#---------         -----------     ------------------------------
GL  .M        660.38               : gl           - GROUND LEVEL ELEVATION
EREF.M        661.416              : kb           - ELEVATION OF DEPTH REFERENCE
DATM.M        661.416              : datum        - DATUM ELEVATION
TDD .M        475.488              : tdd          - TOTAL DEPTH DRILLER
RUN .         ONE                  : Run          - RUN NUMBER
ENG .         BILL                 : Engineer     - RECORDING ENGINEER
WIT .         JIM                  : Witness      - WITNESSED BY
MUD .         GEL                  : Mud_type     - MUD TYPE
MATR.         SANDSTONE            : Logunit      - NEUTRON MATRIX
TMAX.C        60                   : BHT          - MAXIMUM RECORDED TEMPERATURE
BHTD.M        475.488              : BHTDEP       - MAXIMUM RECORDED TEMPERATURE
MATR.         1                    : LOGUNIT      - NEUTRON MATRIX
RMT .C        25                   : MDTP         - TEMPERATURE OF MUD
NEUT.         1                    : NEUTRON      - NEUTRON TYPE
RESI.         0                    : RESIST       - RESISTIVITY TYPE
RMC .OHMM     0.25                 : RMC          - RESISTIVITY OF MUD CAKE
RMF .OHMM     0.25                 : RMF          - RESISTIVITY OF MUD FILTRATE
SUFT.C        15                   : SUFT         - SURFACE TEMPERATURE
~A  DEPTH     DENS       GR     PHID     PHIN     RESD
# ...
  411.100 2253.260   69.096    0.267    0.375   13.630
  411.350 2238.010   70.553    0.276    0.383   13.944
  411.600 2272.850   77.747    0.256    0.392   14.422
  411.850 2255.880   85.866    0.266    0.368   14.551
  412.100 2280.930   88.474    0.251    0.347   15.053
  412.350 2331.000   84.953    0.222    0.354   15.076
  412.600 2328.890   79.851    0.223    0.367   15.170
  412.850 2291.710   81.254    0.245    0.375   15.401
  413.100 2281.180   79.883    0.251    0.377   15.601
  413.350 2281.430   73.537    0.251    0.378   15.729
  413.600 2254.150   72.754    0.267    0.377   15.741
  413.850 2254.170   78.019    0.267    0.380   16.052
  414.100 2268.210   76.228    0.258    0.387   16.814
  414.350 2271.710   71.725    0.256    0.388   17.800
  414.600 2256.520   72.091    0.265    0.392   20.685
  414.850 2199.840   76.970    0.298    0.371   25.358
  415.100 2223.180   88.226    0.285    0.371   29.088
  415.350 2267.370   90.088    0.259    0.385   32.338
  415.600 2301.670   85.824    0.239    0.392   34.545
  415.850 2255.500   88.681    0.266    0.373   36.377
  416.100 2254.800   92.797    0.266    0.357   37.681
  416.350 2265.410   92.027    0.260    0.374   39.449
  416.600 2244.080   89.380    0.272    0.390   40.647
  416.850 2224.840   86.413    0.284    0.404   42.996
  417.100 2222.390   77.277    0.285    0.426   45.033
  417.350 2215.720   74.806    0.289    0.424   46.893
  417.600 2182.230   79.107    0.309    0.402   48.869
  417.850 2212.170   81.976    0.291    0.393   52.157
  418.100 2219.910   80.343    0.287    0.398   54.016
  418.350 2249.830   73.230    0.269    0.390   54.651
  418.600 2260.260   65.508    0.263    0.382   52.377
  418.850 2243.980   64.460    0.273    0.395   50.472
  419.100 2220.280   65.635    0.286    0.411   47.443
  419.350 2228.230   70.990    0.282    0.416   46.968
  419.600 2250.780   72.971    0.269    0.397   46.729
  419.850 2255.850   71.847    0.266    0.397   46.067
  420.100 2246.630   72.010    0.271    0.395   44.142
  420.350 2252.000   74.580    0.268    0.389   45.508
  420.600 2235.450   77.151    0.278    0.382   53.972
  420.850 2231.940   75.816    0.280    0.379   67.073
  421.100 2226.320   71.125    0.283    0.392   77.695
  421.350 2204.160   68.257    0.296    0.384   78.106
  421.600 2179.170   63.804    0.310    0.388   73.203
  421.850 2168.390   64.836    0.317    0.407   72.284
  422.100 2180.820   73.189    0.309    0.385   80.822
  422.350 2201.410   62.644    0.297    0.390   91.495
  422.600 2205.370   56.297    0.295    0.394  106.567
  422.850 2199.880   60.254    0.298    0.410  105.999
  423.100 2191.670   62.757    0.303    0.412  100.126
  423.350 2184.840   63.182    0.307    0.398   88.601
  423.600 2189.050   64.151    0.305    0.401   74.119
  423.850 2198.760   67.466    0.299    0.396   60.316
  424.100 2203.860   67.235    0.296    0.391   60.392
  424.350 2205.930   71.096    0.295    0.385   65.871
  424.600 2229.060   76.040    0.281    0.371   79.533
  424.850 2250.620   83.376    0.269    0.374   96.685
  425.100 2244.900   84.995    0.272    0.388  103.724
  425.350 2215.320   79.681    0.289    0.373   99.355
  425.600 2206.900   72.275    0.294    0.367   88.174
  425.850 2222.000   71.972    0.285    0.374   78.599
  426.100 2224.770   74.640    0.284    0.392   70.567
  426.350 2240.460   75.415    0.275    0.409   71.538
  426.600 2227.230   75.322    0.282    0.416   88.170
  426.850 2189.180   69.898    0.305    0.417  102.684
  427.100 2168.640   59.583    0.317    0.418  104.949
  427.350 2158.650   58.983    0.322    0.422  103.779
  427.600 2178.770   63.380    0.311    0.425   94.783
  427.850 2194.140   66.535    0.302    0.404   84.628
  428.100 2215.360   66.568    0.289    0.402   82.334
  428.350 2186.970   64.202    0.306    0.401   87.539
  428.600 2227.640   61.976    0.282    0.406   95.926
  428.850 2210.180   58.929    0.292    0.413  106.748
  429.100 2213.330   57.733    0.290    0.416  109.499
  429.350 2220.340   55.112    0.286    0.411  104.250
  429.600 2181.530   56.387    0.309    0.402   92.539
  429.850 2158.970   59.666    0.322    0.390   75.728
  430.100 2185.780   65.275    0.307    0.378   63.478
  430.350 2219.060   64.520    0.287    0.367   59.655
  430.600 2228.940   58.356    0.281    0.365   61.417
  430.850 2224.020   50.450    0.284    0.395   57.653
  431.100 2206.710   48.710    0.294    0.415   51.171
  431.350 2174.060   59.812    0.313    0.393   45.513
  431.600 2230.320   65.143    0.281    0.377   43.329
  431.850 2262.490   60.427    0.262    0.384   43.441
  432.100 2248.630   57.050    0.270    0.374   46.499
  432.350 2226.530   58.799    0.283    0.354   55.703
  432.600 2212.670   64.409    0.291    0.355   62.664
  432.850 2213.990   63.702    0.290    0.374   75.665
  433.100 2173.380   56.572    0.314    0.385   87.953
  433.350 2153.990   49.255    0.325    0.393  125.817
  433.600 2177.250   42.711    0.312    0.408  214.561
  433.850 2171.140   38.091    0.315    0.431  261.423
  434.100 2132.510   36.545    0.338    0.428  220.040
  434.350 2114.950   39.666    0.348    0.408  124.860
  434.600 2125.630   43.800    0.342    0.401  103.564
  434.850 2139.840   43.521    0.333    0.411   95.408
  435.100 2179.690   42.079    0.310    0.421   98.843
  435.350 2195.090   41.669    0.301    0.419  137.346
  435.600 2175.670   43.465    0.312    0.413  189.727
  435.850 2182.210   44.062    0.309    0.408  226.391
  436.100 2144.180   38.888    0.331    0.416  229.976
  436.350 2142.700   36.818    0.332    0.425  183.097
  436.600 2128.690   38.204    0.340    0.414  154.664
  436.850 2095.680   43.411    0.359    0.405  143.129
  437.100 2095.840   48.990    0.359    0.409  126.856
  437.350 2127.080   55.599    0.341    0.417   88.230
  437.600 2143.590   63.798    0.331    0.408   29.711
  437.850 2156.570   77.577    0.324    0.406   13.850
  438.100 2207.060   90.773    0.294    0.373   11.015
  438.350 2267.020  101.594    0.259    0.354    9.546
  438.600 2351.760  105.824    0.209    0.358    8.785
  438.850 2399.540  107.444    0.182    0.383    8.778
  439.100 2411.660  109.523    0.174    0.395    9.426
  439.350 2402.480  107.406    0.180    0.400   10.348
  439.600 2400.290  105.134    0.181    0.402   11.421
  439.850 2403.800   98.899    0.179    0.416   12.346
  440.100 2392.170   86.498    0.186    0.433   12.783
  440.350 2264.570   61.471    0.260    0.410   12.531
  440.600 2199.000   62.669    0.299    0.389   11.469
  440.850 2309.670   82.745    0.234    0.371   10.754
  441.100 2391.850   94.158    0.186    0.368   10.547
  441.350 2436.050   96.037    0.160    0.393   10.920
  441.600 2447.090   98.273    0.154    0.375   11.276
  441.850 2387.060  101.037    0.189    0.408   11.275
  442.100 2328.250   93.701    0.223    0.439   11.159
  442.350 2327.610   90.259    0.224    0.443   11.272
  442.600 2314.060   99.192    0.232    0.396   11.967
  442.850 2351.590  100.311    0.210    0.371   13.554
  443.100 2382.440   81.679    0.192    0.364   15.320
  443.350 2417.390   84.651    0.171    0.391   19.044
  443.600 2347.770   91.742    0.212    0.402   25.320
  443.850 2302.570   78.823    0.238    0.406   31.925
  444.100 2257.460   72.881    0.265    0.411   38.870
  444.350 2218.230   69.462    0.288    0.418   38.858
  444.600 2172.680   64.155    0.314    0.430   31.259
  444.850 2137.470   61.427    0.335    0.432   25.235
  445.100 2169.340   69.023    0.316    0.432   20.552
  445.350 2197.620   83.327    0.300    0.448   16.406
  445.600 2199.790   90.386    0.298    0.474   14.396
  445.850 2203.400   93.082    0.296    0.474   13.115
  446.100 2270.710   87.044    0.257    0.440   12.516
  446.350 2261.330   80.203    0.262    0.416   11.987
  446.600 2205.330   90.536    0.295    0.430   11.203
  446.850 2261.320  109.993    0.262    0.456   10.286
  447.100 2341.550  115.963    0.215    0.428    9.181
  447.350 2399.770  121.715    0.181    0.392    7.556
