~VERSION INFORMATION
 VERS.                 2.0:   CWLS LOG ASCII STANDARD -VERSION 2.0
 WRAP.                  NO:   ONE LINE PER DEPTH STEP
~WELL INFORMATION BLOCK
#MNEM.UNIT           DATA                    DESCRIPTION OF MNEMONIC
#---------    -------------------            -------------------------------
# Generated from Intellog Unique Number	CW_70_72/WELL/2901
NULL.         -999.25                        : NULL_VALUE
COMP .        HOME OIL CO LTD                :  COMPANY
WELL.         SCURRY ET AL DOUCETTE          : Well_name    - WELL              
LOC .         06-29-077-02W5                 : Location     - LOCATION          
UWI .         00/06-29-077-02W5/0            : Uwi          - UNIQUE WELL ID    
ENTR.         MAX                            : Entered      - ENTERED BY        
SRVC.         COMPUTALOG                     : Scn          - SERVICE COMPANY   
DATE.         24 NOV 77                      : Date         - LOG DATE
STRT.M        375                            : top_depth    - START DEPTH       
STOP.M        625                            : bot_depth    - STOP DEPTH        
STEP.M        0.25                           : increment    - STEP LENGTH       
~CURVE INFORMATION BLOCK
#MNEM UNIT       ERCB CURVE CODE    CURVE DESCRIPTION
#-----------   ------------------   ----------------------------------
DEPT.M        00 001 00 00         : DEPTH        - DEPTH                       
ILD .OHMM     00 120 00 00         : RESD         - DEEP RESISTIVITY (DIL)      
NPHI.V/V      00 330 00 00         : PHIN         - NEUTRON POROSITY (SANDSTONE)
DPHI.V/V      00 890 00 00         : PHID         - DENSITY POROSITY (SANDSTONE)
CALI.MM       00 280 01 00         : CAL          - CALIPER                     
GR  .API      00 310 00 00         : GR           - GAMMA RAY                   
~PARAMETER INFORMATION       
#MNEM.UNIT           DATA             DESCRIPTION OF MNEMONIC
#---------         -----------     ------------------------------
GL  .M        678.3                : gl           - GROUND LEVEL ELEVATION      
EREF.M        683.7                : kb           - ELEVATION OF DEPTH REFERENCE
DATM.M        678.3                : datum        - DATUM ELEVATION             
TDD .M        639                  : tdd          - TOTAL DEPTH DRILLER         
RUN .         ONE                  : Run          - RUN NUMBER                  
ENG .         BILL                 : Engineer     - RECORDING ENGINEER          
WIT .         JIM                  : Witness      - WITNESSED BY                
MUD .         GEL                  : Mud_type     - MUD TYPE                    
MATR.         SANDSTONE            : Logunit      - NEUTRON MATRIX              
TMAX.C        36                   : BHT          - MAXIMUM RECORDED TEMPERATURE
BHTD.M        639                  : BHTDEP       - MAXIMUM RECORDED TEMPERATURE
RMT .C        12.5                 : MDTP         - TEMPERATURE OF MUD          
MUDD.KG/M     1160                 : MWT          - MUD DENSITY                 
NEUT.         1                    : NEUTRON      - NEUTRON TYPE                
RESI.         0                    : RESIST       - RESISTIVITY TYPE            
RM  .OHMM     5.1                  : RM           - RESISTIVITY OF MUD          
RMC .OHMM     5                    : RMC          - RESISTIVITY OF MUD CAKE     
RMF .OHMM     4                    : RMF          - RESISTIVITY OF MUD FILTRATE 
SUFT.C        -10                  : SUFT         - SURFACE TEMPERATURE         
~A  DEPTH     RESD     PHIN     PHID      CAL       GR
  375.000    1.917    0.482    0.256  217.483   90.370
  375.250    1.936    0.482    0.252  217.476   92.125
  375.500    1.972    0.482    0.251  217.465   94.760
  375.750    2.009    0.485    0.252  218.435   94.168
  376.000    2.047    0.495    0.252  221.361   91.523
  376.250    2.104    0.499    0.251  222.820   90.637
  376.500    2.143    0.490    0.246  222.323   88.872
  376.750    2.203    0.488    0.232  218.401   85.052
  377.000    2.245    0.465    0.174  217.416   85.341
  377.250    2.246    0.467    0.177  220.338   87.683
  377.500    2.267    0.487    0.206  221.798   91.199
  377.750    2.310    0.489    0.229  222.279   94.126
  378.000    2.353    0.485    0.229  222.758   94.416
  378.250    2.419    0.486    0.227  222.752   96.464
  378.500    2.464    0.489    0.225  222.742   96.458
  378.750    2.533    0.489    0.227  222.734   96.747
  379.000    2.604    0.477    0.231  222.724   97.623
  379.250    2.652    0.470    0.231  222.227   97.618
  379.500    2.702    0.473    0.227  221.242   99.373
  379.750    2.753    0.473    0.221  219.766  101.714
  380.000    2.804    0.472    0.222  218.291  102.003
  380.250    2.857    0.471    0.226  216.325  101.118
  380.500    2.857    0.471    0.224  213.382   98.766
  380.750    2.912    0.468    0.224  210.928   95.240
  381.000    2.993    0.465    0.221  211.409   94.060
  381.250    3.133    0.460    0.221  215.800   93.762
  381.500    3.221    0.460    0.227  216.769   92.583
  381.750    3.341    0.466    0.237  216.764   89.057
  382.000    3.659    0.467    0.257  214.797   85.238
  382.250    4.466    0.460    0.273  212.834   82.592
  382.500    5.807    0.444    0.292  209.401   75.251
  382.750   10.269    0.409    0.318  205.482   67.618
  383.000   13.234    0.368    0.335  201.560   63.505
  383.250   18.005    0.339    0.348  201.062   59.099
  383.500   19.719    0.329    0.347  201.053   55.279
  383.750   19.727    0.327    0.345  201.045   53.219
  384.000   19.036    0.327    0.351  202.015   55.562
  384.250   18.038    0.329    0.358  202.495   56.437
  384.500   16.048    0.335    0.358  204.444   56.432
  384.750   15.345    0.349    0.355  206.388   56.133
  385.000   14.808    0.362    0.339  206.382   55.248
  385.250   14.548    0.378    0.327  207.349   51.721
  385.500   14.424    0.393    0.315  208.810   49.956
  385.750   14.431    0.391    0.320  210.757   51.711
  386.000   14.569    0.392    0.327  210.749   52.294
  386.250   14.576    0.392    0.334  210.741   51.995
  386.500   14.716    0.395    0.336  210.242   54.337
  386.750   14.855    0.401    0.338  210.234   55.799
  387.000   15.134    0.406    0.340  209.735   53.740
  387.250   15.559    0.409    0.341  209.727   50.800
  387.500   15.992    0.407    0.338  209.720   48.741
  387.750   16.439    0.402    0.334  209.711   49.029
  388.000   17.207    0.391    0.322  210.680   50.786
  388.250   18.676    0.367    0.308  210.671   52.540
  388.500   20.825    0.346    0.289  209.684   54.589
  388.750   22.808    0.332    0.272  209.188   57.812
  389.000   25.431    0.347    0.303  209.667   63.381
  389.250   30.488    0.349    0.311  211.616   69.831
  389.500   31.912    0.316    0.272  214.539   70.706
  389.750   32.217    0.260    0.132  216.976   68.941
  390.000   31.371    0.309    0.074  218.434   67.468
  390.250   29.726    0.366    0.197  219.405   64.822
  390.500   27.916    0.412    0.234  218.907   63.643
  390.750   25.983    0.437    0.312  217.432   64.812
  391.000   25.071    0.447    0.315  210.578   67.741
  391.250   24.634    0.448    0.317  202.256   67.736
  391.500   24.654    0.442    0.328  201.268   65.677
  391.750   25.107    0.427    0.343  199.793   61.564
  392.000   26.520    0.432    0.356  196.360   58.038
  392.250   27.018    0.437    0.356  196.840   54.218
  392.500   26.067    0.425    0.352  200.257   50.693
  392.750   24.260    0.403    0.333  207.583   45.699
  393.000   20.626    0.373    0.310  211.974   40.707
  393.250   18.514    0.371    0.290  213.434   39.820
  393.500   16.619    0.396    0.283  218.316   40.989
  393.750   15.188    0.410    0.298  220.263   45.972
  394.000   13.635    0.425    0.319  216.830   50.661
  394.250   12.805    0.438    0.329  212.911   51.242
  394.500   12.245    0.438    0.328  210.458   52.704
  394.750   12.030    0.440    0.346  210.447   54.168
  395.000   11.714    0.444    0.350  209.461   56.802
  395.250   11.719    0.447    0.354  207.495   57.970
  395.500   11.832    0.446    0.339  205.044   58.846
  395.750   12.163    0.430    0.338  201.612   60.601
  396.000   12.503    0.419    0.343  200.136   58.836
  396.250   12.971    0.411    0.340  199.639   58.831
  396.500   13.212    0.408    0.336  199.630   60.880
  396.750   13.581    0.408    0.336  200.111   61.461
  397.000   14.089    0.410    0.341  201.080   60.575
  397.250   13.351    0.410    0.344  203.517   57.343
  397.500   10.277    0.403    0.317  208.397   51.764
  397.750    8.275    0.393    0.288  210.834   46.477
  398.000    6.545    0.369    0.270  211.314   46.178
  398.250    6.091    0.386    0.287  213.262   54.095
  398.500    6.261    0.442    0.337  213.742   56.437
  398.750    9.158    0.452    0.413  212.756   49.977
  399.000   10.588    0.437    0.391  210.791   43.811
  399.250   14.147    0.423    0.339  209.315   41.458
  399.500   19.248    0.409    0.348  208.818   42.333
  399.750   20.701    0.408    0.354  208.810   42.328
  400.000   20.711    0.409    0.357  208.802   41.443
  400.250   18.931    0.406    0.358  206.837   39.677
  400.500   16.687    0.404    0.359  205.850   38.498
  400.750   15.253    0.403    0.355  208.775   39.372
  401.000   14.851    0.404    0.345  208.278   41.715
  401.250   14.461    0.406    0.345  206.802   44.057
  401.500   14.209    0.406    0.348  203.859   42.878
  401.750   14.088    0.405    0.351  201.895   40.820
  402.000   13.966    0.402    0.354  201.396   39.348
  402.250   13.847    0.399    0.362  202.857   39.049
  402.500   13.854    0.407    0.365  202.358   40.218
  402.750   13.735    0.410    0.362  202.349   42.266
  403.000   13.620    0.410    0.361  202.340   43.434
  403.250   13.382    0.409    0.363  201.844   44.309
  403.500   13.267    0.407    0.365  200.856   44.011
  403.750   12.918    0.410    0.368  202.803   43.713
  404.000   12.578    0.412    0.368  204.263   44.588
  404.250   12.247    0.411    0.366  202.297   46.050
  404.500   12.034    0.412    0.361  201.801   44.576
  404.750   11.930    0.415    0.357  205.703   44.865
  405.000   11.936    0.421    0.353  208.630   44.567
  405.250   11.942    0.432    0.352  211.067   46.323
  405.500   11.948    0.434    0.344  211.547   50.132
  405.750   11.953    0.440    0.344  212.517   53.060
  406.000   11.959    0.443    0.343  212.018   52.468
  406.250   11.966    0.448    0.341  210.543   51.583
  406.500   12.079    0.448    0.335  208.090   51.871
  406.750   12.194    0.445    0.336  205.147   53.333
  407.000   12.310    0.438    0.339  202.693   53.328
  407.250   12.316    0.436    0.343  201.705   52.737
  407.500   12.323    0.432    0.340  200.230   49.503
  407.750   12.218    0.427    0.339  199.243   49.497
  408.000   12.223    0.419    0.342  199.236   50.960
  408.250   12.119    0.417    0.354  201.182   49.195
  408.500   12.015    0.423    0.355  199.707   47.429
  408.750   12.021    0.421    0.353  199.209   47.424
  409.000   12.028    0.419    0.348  199.201   49.765
  409.250   12.143    0.425    0.346  202.125   50.934
  409.500   12.257    0.429    0.347  202.118   49.755
  409.750   12.488    0.434    0.348  201.619   47.109
  410.000   12.606    0.439    0.352  202.101   45.050
  410.250   12.727    0.439    0.346  201.115   45.339
  410.500   12.505    0.436    0.349  201.596   45.627
  410.750   12.176    0.423    0.356  201.586   46.210
  411.000   11.855    0.417    0.362  203.045   47.670
  411.250   11.336    0.416    0.362  204.993   50.600
