~VERSION INFORMATION
 VERS.                 2.0:   CWLS LOG ASCII STANDARD -VERSION 2.0
 WRAP.                  NO:   ONE LINE PER DEPTH STEP
~WELL INFORMATION BLOCK
#MNEM.UNIT           DATA                    DESCRIPTION OF MNEMONIC
#---------    -------------------            -------------------------------
# Generated from Intellog Unique Number	CW_73_75/WELL/2735
WELL.         BRENDA ET AL MARTEN HILLS 09-1 : Well_name    - WELL
LOC .         00/09-10-073-25W4/0            : Location     - LOCATION
UWI .         00/09-10-073-25W4/0            : Uwi          - UNIQUE WELL ID
ENTR.         JAYE                           : Entered      - ENTERED BY
SRVC.         SCHLUMBERGER                   : Scn          - SERVICE COMPANY
DATE.         16 FEB 82                      : Date         - LOG DATE
STRT.M        390                            : top_depth    - START DEPTH
STOP.M        620                            : bot_depth    - STOP DEPTH
STEP.M        0.25                           : increment    - STEP LENGTH
 NULL. -999.2500:NULL Value
~CURVE INFORMATION BLOCK
#MNEM UNIT       ERCB CURVE CODE    CURVE DESCRIPTION
#-----------   ------------------   ----------------------------------
DEPT.M        00 001 00 00         : DEPTH        - DEPTH
DPHI.V/V      00 890 00 00         : PHID         - DENSITY POROSITY (SANDSTONE)
NPHI.V/V      00 330 00 00         : PHIN         - NEUTRON POROSITY (SANDSTONE)
GR  .API      00 310 00 00         : GR           - GAMMA RAY
CALI.MM       00 280 01 00         : CAL          - CALIPER
ILD .OHMM     00 120 00 00         : RESD         - DEEP RESISTIVITY (DIL)
~PARAMETER INFORMATION
#MNEM.UNIT           DATA             DESCRIPTION OF MNEMONIC
#---------         -----------     ------------------------------
GL  .M        633.6                : gl           - GROUND LEVEL ELEVATION
EREF.M        637.3                : kb           - ELEVATION OF DEPTH REFERENCE
DATM.M        633.6                : datum        - DATUM ELEVATION
TDD .M        628                  : tdd          - TOTAL DEPTH DRILLER
RUN .         ONE                  : Run          - RUN NUMBER
ENG .         SMYTHE               : Engineer     - RECORDING ENGINEER
WIT .         SAY                  : Witness      - WITNESSED BY
BASE.         EDM                  : Branch       - HOME BASE OF LOGGING UNIT
MUD .         GEL MUDM             : Mud_type     - MUD TYPE
MATR.         SANDSTONE            : Logunit      - NEUTRON MATRIX
TMAX.C        28                   : BHT          - MAXIMUM RECORDED TEMPERATURE
BHTD.M        627.5                : BHTDEP       - MAXIMUM RECORDED TEMPERATURE
RMT .C        12.7                 : MDTP         - TEMPERATURE OF MUD
MUDD.KG/M     1110                 : MWT          - MUD DENSITY
NEUT.         1                    : NEUTRON      - NEUTRON TYPE
RESI.         0                    : RESIST       - RESISTIVITY TYPE
RM  .OHMM     4.32                 : RM           - RESISTIVITY OF MUD
RMC .OHMM     0                    : RMC          - RESISTIVITY OF MUD CAKE
RMF .OHMM     4.55                 : RMF          - RESISTIVITY OF MUD FILTRATE
SUFT.C        0                    : SUFT         - SURFACE TEMPERATURE
~A  DEPTH     PHID     PHIN       GR      CAL     RESD
# ...
  572.500    0.238    0.312   36.816  145.404    3.915
  572.750    0.240    0.320   36.248  145.599    3.904
  573.000    0.238    0.326   35.264  145.794    3.873
  573.250    0.232    0.314   34.941  145.384    3.812
  573.500    0.234    0.319   34.623  145.558    3.701
  573.750    0.246    0.328   35.366  145.575    3.622
  574.000    0.258    0.337   36.162  145.646    3.592
  574.250    0.260    0.326   37.578  146.054    3.576
  574.500    0.264    0.316   40.547  146.158    3.567
  574.750    0.265    0.318   39.303  145.949    3.551
  575.000    0.259    0.327   38.679  145.933    3.555
  575.250    0.255    0.326   39.849  145.910    3.560
  575.500    0.253    0.318   36.196  145.913    3.585
  575.750    0.254    0.325   38.975  146.000    3.644
  576.000    0.253    0.348   43.491  146.122    3.719
  576.250    0.250    0.351   45.597  146.210    3.810
  576.500    0.248    0.345   47.687  146.196    3.867
  576.750    0.247    0.330   51.767  146.184    3.954
  577.000    0.240    0.319   48.480  146.279    4.058
  577.250    0.232    0.320   45.135  146.159    4.189
  577.500    0.252    0.331   47.361  146.265    4.251
  577.750    0.262    0.346   49.958  146.350    4.289
  578.000    0.268    0.336   51.928  146.437    4.368
  578.250    0.256    0.324   54.028  146.634    4.484
  578.500    0.236    0.318   55.945  146.757    4.727
  578.750    0.230    0.318   57.615  146.940    4.917
  579.000    0.226    0.322   59.214  146.938    5.056
  579.250    0.222    0.314   60.386  147.020    5.121
  579.500    0.216    0.311   61.379  147.237    5.196
  579.750    0.214    0.318   61.614  147.424    5.273
  580.000    0.219    0.331   60.560  147.617    5.320
  580.250    0.213    0.322   61.547  147.709    5.388
  580.500    0.198    0.321   63.644  147.897    5.426
  580.750    0.197    0.319   66.051  148.199    5.443
  581.000    0.201    0.317   68.896  147.984    5.439
  581.250    0.202    0.319   70.377  145.910    5.467
  581.500    0.202    0.320   70.058  144.366    5.600
  581.750    0.200    0.320   70.119  144.448    5.770
  582.000    0.195    0.326   70.298  147.435    5.934
  582.250    0.188    0.328   70.914  150.935    6.033
  582.500    0.200    0.314   72.886  152.065    6.122
  582.750    0.196    0.309   70.593  151.847    6.200
  583.000    0.178    0.320   69.906  151.541    6.267
  583.250    0.173    0.313   71.264  152.048    6.299
  583.500    0.179    0.303   73.607  152.233    6.296
  583.750    0.177    0.310   76.822  152.437    6.267
  584.000    0.175    0.312   80.721  152.438    6.335
  584.250    0.176    0.304   85.049  152.417    6.453
  584.500    0.170    0.309   90.552  152.516    6.699
  584.750    0.149    0.310   95.872  152.608    6.956
  585.000    0.129    0.308  110.353  153.213    7.546
  585.250    0.103    0.301  170.465  157.542    8.140
  585.500    0.092    0.336  212.869  159.289    8.647
  585.750    0.091    0.405  245.553  159.585    9.309
  586.000    0.097    0.408  268.209  159.175   10.294
  586.250    0.102    0.391  288.388  158.564   10.810
  586.500    0.110    0.377  294.882  158.529   10.721
  586.750    0.119    0.367  291.163  158.937    9.284
  587.000    0.104    0.363  232.219  159.964    7.859
  587.250    0.088    0.360  171.599  160.691    6.588
  587.500    0.066    0.354  132.902  161.280    6.112
  587.750    0.048    0.351  125.590  161.475    6.038
  588.000    0.058    0.348  119.888  160.974    6.057
  588.250    0.086    0.347  116.049  160.637    6.134
  588.500    0.099    0.342  111.397  160.635    6.189
  588.750    0.077    0.336  108.851  160.830    6.269
  589.000    0.061    0.400  140.236  160.919    6.134
  589.250    0.070    0.463  152.801  163.080    5.668
  589.500    0.077    0.499  155.827  163.074    5.411
  589.750    0.070    0.498  140.034  160.583    5.156
  590.000    0.030    0.423  141.950  156.765    4.884
  590.250    0.023    0.407  136.745  153.861    4.715
  590.500    0.044    0.372  129.993  150.451    4.588
  590.750    0.065    0.329  122.560  150.027    4.542
  591.000    0.085    0.317  115.559  150.843    4.453
  591.250    0.054    0.328  109.112  152.899    4.416
  591.500    0.035    0.324  107.868  155.574    4.447
  591.750    0.023    0.323  116.159  157.740    4.591
  592.000    0.020    0.331  131.508  158.969    4.775
  592.250    0.018    0.397  144.938  159.576    4.948
  592.500    0.013    0.447  134.903  160.188    5.177
  592.750    0.025    0.420  125.797  160.702    5.659
  593.000    0.041    0.396  127.895  160.897    5.932
  593.250    0.030    0.419  135.385  160.982    5.996
  593.500    0.042    0.426  143.921  160.664    5.913
  593.750    0.040    0.401  129.493  160.755    5.753
  594.000    0.028    0.373  122.118  161.267    5.440
  594.250    0.015    0.352  116.542  161.773    5.153
  594.500    0.019    0.344  118.455  164.237    4.628
  594.750    0.038    0.361  127.799  168.154    4.008
  595.000    0.065    0.388  133.248  163.811    3.661
  595.250    0.117    0.384  130.140  157.298    3.508
  595.500    0.136    0.366  132.364  152.967    3.387
  595.750    0.155    0.387  126.972  153.155    3.302
  596.000    0.188    0.419  112.605  153.769    3.164
  596.250    0.214    0.424   99.721  150.769    2.952
  596.500    0.201    0.428   77.739  146.635    2.760
  596.750    0.179    0.432   63.740  144.052    2.660
  597.000    0.157    0.443   52.219  143.418    2.607
  597.250    0.177    0.450   40.825  143.404    2.621
  597.500    0.177    0.442   34.131  143.721    2.731
  597.750    0.167    0.429   28.061  143.928    2.869
  598.000    0.155    0.414   23.909  143.794    2.905
  598.250    0.205    0.434   21.858  143.785    2.865
  598.500    0.246    0.465   22.660  143.781    2.761
  598.750    0.262    0.493   23.764  143.774    2.707
  599.000    0.243    0.491   23.886  143.658    2.843
  599.250    0.236    0.458   22.765  143.032    3.272
  599.500    0.232    0.438   20.781  142.402    3.590
  599.750    0.220    0.415   18.420  141.978    3.858
  600.000    0.191    0.367   17.556  142.382    4.091
  600.250    0.157    0.353   17.800  142.994    4.215
  600.500    0.139    0.349   18.219  144.649    4.132
  600.750    0.134    0.350   18.837  146.482    3.959
  601.000    0.138    0.353   19.322  148.238    3.809
  601.250    0.147    0.365   22.044  145.960    3.615
  601.500    0.143    0.369   22.843  144.496    3.477
  601.750    0.152    0.364   22.469  143.978    3.345
  602.000    0.175    0.391   22.645  144.480    3.187
  602.250    0.196    0.425   20.972  144.987    2.939
  602.500    0.213    0.412   16.694  145.709    2.785
  602.750    0.226    0.395   19.601  146.832    2.628
  603.000    0.240    0.416   22.813  148.785    2.504
  603.250    0.242    0.449   20.639  150.527    2.408
  603.500    0.233    0.454   14.570  150.209    2.334
  603.750    0.248    0.449   12.894  149.590    2.271
  604.000    0.253    0.440   12.950  149.579    2.206
  604.250    0.258    0.434   13.437  149.462    2.134
  604.500    0.275    0.453   14.299  146.219    2.041
  604.750    0.288    0.466   14.416  146.763    1.959
  605.000    0.289    0.472   15.034  147.373    1.870
  605.250    0.282    0.462   15.026  147.790    1.841
  605.500    0.285    0.463   15.895  147.877    1.843
  605.750    0.296    0.512   16.687  148.290    1.863
  606.000    0.305    0.523   17.430  148.804    1.942
  606.250    0.306    0.483   20.146  149.398    2.070
  606.500    0.289    0.464   21.319  149.393    2.195
  606.750    0.272    0.466   21.375  149.166    2.323
  607.000    0.249    0.471   24.156  148.867    2.375
  607.250    0.225    0.423   28.172  148.541    2.383
  607.500    0.208    0.391   33.681  148.429    2.363
  607.750    0.198    0.391   37.634  148.430    2.335
  608.000    0.232    0.448   28.036  148.526    2.311
  608.250    0.247    0.429   22.517  148.932    2.296
  608.500    0.250    0.418   19.727  149.216    2.357
  608.750    0.243    0.446   19.349  149.631    2.528
