~VERSION INFORMATION
 VERS.                 2.0:   CWLS LOG ASCII STANDARD -VERSION 2.0
 WRAP.                  NO:   ONE LINE PER DEPTH STEP
~WELL INFORMATION BLOCK
#MNEM.UNIT           DATA                    DESCRIPTION OF MNEMONIC
#---------    -------------------            -------------------------------
# Generated from Intellog Unique Number	CW_79_81/WELL/2449
WELL.         06-01-080-24W4                 : Well_name    - WELL
LOC .         00/06-01-080-24W4/0            : Location     - LOCATION
UWI .         00/06-01-080-24W4/0            : Uwi          - UNIQUE WELL ID
ENTR.         MAX                            : Entered      - ENTERED BY
SRVC.         COMPUTALOG                     : Scn          - SERVICE COMPANY
STRT.M        225                            : top_depth    - START DEPTH
STOP.M        454.75                         : bot_depth    - STOP DEPTH
STEP.M        0.25                           : increment    - STEP LENGTH
 NULL. -999.2500:NULL Value
~CURVE INFORMATION BLOCK
#MNEM UNIT       ERCB CURVE CODE    CURVE DESCRIPTION
#-----------   ------------------   ----------------------------------
DEPT.M        00 001 00 00         : DEPTH        - DEPTH
ILD .OHMM     00 120 00 00         : RESD         - DEEP RESISTIVITY (DIL)
NPHI.V/V      00 330 00 00         : PHIN         - NEUTRON POROSITY (SANDSTONE)
DPHI.V/V      00 890 00 00         : PHID         - DENSITY POROSITY (SANDSTONE)
GR  .API      00 310 00 00         : GR           - GAMMA RAY
CALI.MM       00 280 01 00         : CAL          - CALIPER
~PARAMETER INFORMATION
#MNEM.UNIT           DATA             DESCRIPTION OF MNEMONIC
#---------         -----------     ------------------------------
GL  .M        547.6                : gl           - GROUND LEVEL ELEVATION
EREF.M        552.6                : kb           - ELEVATION OF DEPTH REFERENCE
DATM.M        547.6                : datum        - DATUM ELEVATION
TDD .M        580.4                : tdd          - TOTAL DEPTH DRILLER
RUN .         ONE                  : Run          - RUN NUMBER
ENG .         BILL                 : Engineer     - RECORDING ENGINEER
WIT .         JIM                  : Witness      - WITNESSED BY
MUD .         GEL                  : Mud_type     - MUD TYPE
MATR.         SANDSTONE            : Logunit      - NEUTRON MATRIX
TMAX.C        22                   : BHT          - MAXIMUM RECORDED TEMPERATURE
BHTD.M        580.4                : BHTDEP       - MAXIMUM RECORDED TEMPERATURE
MATR.         1                    : LOGUNIT      - NEUTRON MATRIX
RMT .C        15.6                 : MDTP         - TEMPERATURE OF MUD
NEUT.         1                    : NEUTRON      - NEUTRON TYPE
RESI.         0                    : RESIST       - RESISTIVITY TYPE
RMC .OHMM     6                    : RMC          - RESISTIVITY OF MUD CAKE
RMF .OHMM     6                    : RMF          - RESISTIVITY OF MUD FILTRATE
SUFT.C        -20                  : SUFT         - SURFACE TEMPERATURE
~A  DEPTH     RESD     PHIN     PHID       GR      CAL
# ...
  298.000    8.713    0.409    0.232   67.606  223.040
  298.250    7.864    0.426    0.215   72.574  223.662
  298.500    7.518    0.437    0.233   76.858  224.540
  298.750    7.578    0.432    0.256   74.961  224.577
  299.000    7.889    0.432    0.250   75.043  224.617
  299.250    8.102    0.439    0.241   74.945  224.860
  299.500    8.091    0.448    0.237   74.429  225.305
  299.750    7.988    0.447    0.233   75.382  225.670
  300.000    7.753    0.451    0.226   76.407  225.287
  300.250    7.588    0.443    0.225   75.470  225.328
  300.500    7.469    0.440    0.231   77.060  225.670
  300.750    7.392    0.438    0.238   78.769  226.115
  301.000    7.448    0.438    0.244   79.334  226.261
  301.250    7.963    0.441    0.254   78.138  225.000
  301.500    8.601    0.441    0.270   75.656  222.537
  301.750    8.796    0.430    0.288   70.150  220.971
  302.000    8.898    0.422    0.305   67.528  220.009
  302.250    9.227    0.422    0.315   66.590  219.649
  302.500    9.742    0.425    0.317   66.016  219.791
  302.750    9.861    0.418    0.314   63.310  219.990
  303.000    9.718    0.418    0.310   58.075  218.776
  303.250    8.636    0.442    0.309   56.654  218.420
  303.500    7.592    0.457    0.302   57.939  222.570
  303.750    6.847    0.466    0.291   63.013  226.820
  304.000    6.398    0.467    0.278   70.793  229.265
  304.250    6.135    0.457    0.264   78.189  230.685
  304.500    5.955    0.450    0.257   78.964  231.567
  304.750    5.871    0.463    0.262   78.751  231.600
  305.000    5.918    0.469    0.264   79.618  231.639
  305.250    6.116    0.472    0.261   79.281  231.480
  305.500    6.374    0.476    0.256   77.623  231.219
  305.750    6.424    0.486    0.265   76.189  231.182
  306.000    6.427    0.488    0.277   73.704  230.811
  306.250    6.478    0.467    0.260   73.248  230.448
  306.500    6.493    0.462    0.250   74.234  230.090
  306.750    6.473    0.471    0.254   74.741  230.131
  307.000    6.441    0.488    0.268   74.467  230.468
  307.250    6.465    0.496    0.270   74.686  230.599
  307.500    6.568    0.495    0.266   74.456  231.068
  307.750    6.717    0.477    0.267   73.519  231.101
  308.000    6.795    0.463    0.270   75.649  231.140
  308.250    6.823    0.454    0.272   76.878  231.183
  308.500    6.827    0.449    0.271   76.602  231.226
  308.750    6.821    0.444    0.267   77.743  230.686
  309.000    6.773    0.448    0.276   78.518  227.802
  309.250    6.727    0.443    0.283   74.933  221.038
  309.500    6.609    0.441    0.309   72.794  218.773
  309.750    6.493    0.446    0.320   71.496  218.608
  310.000    6.426    0.453    0.307   71.158  219.145
  310.250    6.459    0.447    0.282   73.182  220.088
  310.500    6.612    0.448    0.247   75.963  220.549
  310.750    6.713    0.456    0.239   79.357  221.383
  311.000    6.704    0.457    0.234   81.124  222.227
  311.250    6.610    0.452    0.231   82.351  222.669
  311.500    6.483    0.442    0.229   83.458  222.709
  311.750    6.402    0.431    0.227   83.704  222.765
  312.000    6.455    0.432    0.227   81.224  222.799
  312.250    6.364    0.454    0.230   82.210  222.443
  312.500    6.449    0.463    0.231   80.313  222.379
  312.750    6.620    0.455    0.231   79.379  222.418
  313.000    6.771    0.439    0.230   80.665  222.361
  313.250    6.796    0.430    0.229   82.652  221.838
  313.500    6.904    0.432    0.230   81.679  221.041
  313.750    7.215    0.446    0.235   80.498  220.685
  314.000    7.542    0.454    0.253   79.141  220.026
  314.250    7.603    0.455    0.271   75.318  219.265
  314.500    7.304    0.454    0.285   70.952  218.605
  314.750    6.648    0.459    0.290   72.783  218.170
  315.000    5.986    0.466    0.255   75.817  217.791
  315.250    5.902    0.469    0.235   75.359  219.439
  315.500    5.948    0.474    0.225   75.086  221.980
  315.750    6.191    0.478    0.221   75.231  223.419
  316.000    6.617    0.476    0.221   75.553  223.260
  316.250    7.159    0.454    0.219   75.294  222.425
  316.500    7.615    0.437    0.219   75.066  222.055
  316.750    8.191    0.422    0.223   75.091  222.096
  317.000    8.444    0.429    0.231   75.475  221.530
  317.250    8.510    0.444    0.236   75.979  220.567
  317.500    8.484    0.452    0.238   76.665  219.710
  317.750    8.354    0.435    0.239   78.100  219.845
  318.000    8.295    0.419    0.244   79.128  220.297
  318.250    8.299    0.409    0.242   77.224  220.342
  318.500    8.349    0.402    0.241   76.227  220.685
  318.750    8.384    0.399    0.235   75.891  221.123
  319.000    8.374    0.402    0.225   75.433  221.559
  319.250    8.293    0.418    0.220   73.388  222.014
  319.500    8.172    0.429    0.222   72.663  222.057
  319.750    8.059    0.426    0.223   72.447  222.098
  320.000    7.989    0.427    0.224   71.688  223.040
  320.250    7.906    0.425    0.224   72.794  225.086
  320.500    7.796    0.421    0.224   76.124  227.229
  320.750    7.676    0.429    0.227   80.053  227.271
  321.000    7.621    0.444    0.229   80.331  227.318
  321.250    7.625    0.460    0.230   80.116  226.153
  321.500    7.713    0.451    0.228   79.357  224.088
  321.750    7.860    0.433    0.226   77.816  222.729
  322.000    8.038    0.418    0.226   76.276  222.571
  322.250    8.260    0.419    0.228   76.699  222.933
  322.500    8.456    0.426    0.227   77.473  222.554
  322.750    8.460    0.439    0.230   76.779  221.794
  323.000    8.418    0.446    0.234   76.622  221.039
  323.250    8.361    0.444    0.238   76.163  220.279
  323.500    8.274    0.438    0.240   75.404  219.613
  323.750    8.075    0.441    0.238   75.344  219.348
  324.000    7.958    0.457    0.234   76.124  219.799
  324.250    7.847    0.446    0.227   75.906  221.844
  324.500    7.780    0.432    0.226   75.691  225.395
  324.750    7.728    0.424    0.229   76.678  227.841
  325.000    7.676    0.423    0.232   78.263  228.481
  325.250    7.624    0.428    0.225   78.250  228.614
  325.500    7.628    0.430    0.221   79.278  229.074
  325.750    7.745    0.435    0.222   81.709  229.520
  326.000    7.949    0.441    0.220   84.500  229.659
  326.250    8.247    0.443    0.220   85.846  229.500
  326.500    8.682    0.438    0.226   84.667  229.142
  326.750    9.517    0.425    0.243   79.356  227.785
  327.000   10.441    0.423    0.266   73.116  222.817
  327.250   11.230    0.426    0.273   68.572  220.846
  327.500   11.766    0.435    0.275   64.749  219.182
  327.750   11.816    0.437    0.278   63.089  218.020
  328.000   11.525    0.428    0.280   63.533  217.460
  328.250   11.348    0.415    0.277   65.280  217.512
  328.500   11.269    0.412    0.275   69.058  217.563
  328.750   11.442    0.416    0.276   69.326  217.604
  329.000   11.680    0.411    0.279   67.967  217.338
  329.250   11.987    0.406    0.283   66.186  216.974
  329.500   12.283    0.404    0.288   65.009  216.714
  329.750   12.305    0.398    0.289   65.231  216.676
  330.000   11.944    0.394    0.280   65.001  216.301
  330.250   11.351    0.372    0.227   62.140  216.747
  330.500   10.488    0.366    0.182   64.330  216.889
  330.750    9.836    0.379    0.162   69.165  216.926
  331.000    9.543    0.401    0.179   74.658  216.861
  331.250    9.692    0.411    0.239   80.360  216.510
  331.500   10.075    0.417    0.251   85.899  216.557
  331.750   10.683    0.427    0.238   88.328  216.999
  332.000   11.268    0.437    0.211   87.510  217.742
  332.250   11.990    0.435    0.184   82.843  218.584
  332.500   12.821    0.413    0.165   76.436  219.224
  332.750   13.528    0.370    0.166   72.497  219.350
  333.000   14.172    0.360    0.209   69.514  219.815
  333.250   15.243    0.381    0.226   67.853  220.661
  333.500   16.315    0.400    0.234   66.554  221.198
  333.750   18.090    0.361    0.230   67.302  221.241
  334.000   21.074    0.277    0.207   69.011  220.889
  334.250   25.145    0.226    0.138   66.533  220.278
