~VERSION INFORMATION
 VERS.                 2.0:   CWLS LOG ASCII STANDARD -VERSION 2.0
 WRAP.                  NO:   ONE LINE PER DEPTH STEP
~WELL INFORMATION BLOCK
#MNEM.UNIT           DATA                    DESCRIPTION OF MNEMONIC
#---------    -------------------            -------------------------------
# Generated from Intellog Unique Number	CS_67_68/WELL/2174
WELL.         CHIEFCO et al TWEEDIE          : Well_name    - WELL
LOC .         00/07-02-067-12W4/0            : Location     - LOCATION
UWI .         00/07-02-067-12W4/0            : Uwi          - UNIQUE WELL ID
ENTR.         SP                             : Entered      - ENTERED BY
SRVC.         SCHLUMBERGER                   : Scn          - SERVICE COMPANY
STRT.M        330                            : top_depth    - START DEPTH
STOP.M        540                            : bot_depth    - STOP DEPTH
STEP.M        0.25                           : increment    - STEP LENGTH
 NULL. -999.2500:NULL Value
~CURVE INFORMATION BLOCK
#MNEM UNIT       ERCB CURVE CODE    CURVE DESCRIPTION
#-----------   ------------------   ----------------------------------
DEPT.M        00 001 00 00         : DEPTH        - DEPTH
ILD .OHMM     00 120 00 00         : RESD         - DEEP RESISTIVITY (DIL)
DPHI.V/V      00 890 00 00         : PHID         - DENSITY POROSITY (LIMESTONE)
NPHI.V/V      00 330 00 00         : PHIN         - NEUTRON POROSITY (LIMESTONE)
GR  .API      00 310 00 00         : GR           - GAMMA RAY
CALI.MM       00 280 01 00         : CAL          - CALIPER
~PARAMETER INFORMATION
#MNEM.UNIT           DATA             DESCRIPTION OF MNEMONIC
#---------         -----------     ------------------------------
GL  .M        607.4                : gl           - GROUND LEVEL ELEVATION
EREF.M        610.8                : kb           - ELEVATION OF DEPTH REFERENCE
DATM.M        610.8                : datum        - DATUM ELEVATION
TDD .M        545                  : tdd          - TOTAL DEPTH DRILLER
RUN .         ONE                  : Run          - RUN NUMBER
ENG .         BILL                 : Engineer     - RECORDING ENGINEER
WIT .         JIM                  : Witness      - WITNESSED BY
MUD .         GEL                  : Mud_type     - MUD TYPE
MATR.         LIMESTONE            : Logunit      - NEUTRON MATRIX
TMAX.C        28                   : BHT          - MAXIMUM RECORDED TEMPERATURE
BHTD.M        544.7                : BHTDEP       - MAXIMUM RECORDED TEMPERATURE
MATR.         1                    : LOGUNIT      - NEUTRON MATRIX
RMT .C        25                   : MDTP         - TEMPERATURE OF MUD
NEUT.         1                    : NEUTRON      - NEUTRON TYPE
RESI.         0                    : RESIST       - RESISTIVITY TYPE
RMC .OHMM     0.25                 : RMC          - RESISTIVITY OF MUD CAKE
RMF .OHMM     0.25                 : RMF          - RESISTIVITY OF MUD FILTRATE
SUFT.C        15                   : SUFT         - SURFACE TEMPERATURE
~A  DEPTH     RESD     PHID     PHIN       GR      CAL
  330.000    2.584    0.208    0.486  103.897  178.368
  330.250    2.512    0.196    0.484  106.167  179.191
  330.500    2.480    0.212    0.500  107.519  181.240
  330.750    2.452    0.229    0.514  107.217  185.023
  331.000    2.448    0.217    0.505  106.426  190.542
  331.250    2.467    0.205    0.486  104.411  194.736
  331.500    2.491    0.199    0.493  103.987  196.477
  331.750    2.544    0.191    0.482  104.298  197.096
  332.000    2.584    0.192    0.494  101.976  196.595
  332.250    2.659    0.194    0.504   99.471  195.174
  332.500    2.772    0.173    0.508   97.639  190.794
  332.750    2.985    0.153    0.507   96.786  186.314
  333.000    3.154    0.132    0.485  100.587  184.586
  333.250    3.197    0.194    0.472  106.347  184.389
  333.500    3.259    0.204    0.471  108.127  187.459
  333.750    3.253    0.195    0.444  105.071  191.548
  334.000    3.163    0.187    0.468  102.872  194.822
  334.250    2.984    0.193    0.473  101.897  198.505
  334.500    2.793    0.203    0.474  102.269  200.347
  334.750    2.655    0.210    0.502  101.233  202.600
  335.000    2.523    0.216    0.529  100.259  204.243
  335.250    2.486    0.197    0.530  100.263  204.555
  335.500    2.543    0.179    0.528  102.717  204.360
  335.750    2.593    0.204    0.532  106.028  203.654
  336.000    2.678    0.191    0.515  108.298  202.948
  336.250    2.777    0.194    0.507  108.670  201.833
  336.500    2.852    0.200    0.503  109.164  200.515
  336.750    2.842    0.197    0.489  112.108  199.707
  337.000    2.805    0.195    0.488  112.664  200.020
  337.250    2.805    0.199    0.486  110.158  201.765
  337.500    2.870    0.196    0.476  105.817  203.301
  337.750    2.893    0.191    0.468  102.087  204.839
  338.000    2.861    0.213    0.470   98.295  198.624
  338.250    2.922    0.225    0.446   98.423  192.203
  338.500    3.018    0.198    0.434  107.183  186.395
  338.750    2.956    0.176    0.478  112.208  186.709
  339.000    2.848    0.184    0.495  108.478  195.492
  339.250    2.827    0.194    0.505  104.564  198.051
  339.500    2.942    0.200    0.507  100.406  195.202
  339.750    3.562    0.218    0.507   91.656  200.618
  340.000    4.184    0.188    0.216   78.130  189.707
  340.250    5.484    0.190    0.199   67.727  164.002
  340.500    7.465    0.260    0.184   66.874  161.969
  340.750    9.316    0.345    0.175   64.798  161.468
  341.000    9.641    0.344    0.171   62.599  160.863
  341.250    7.671    0.358    0.201   62.971  160.565
  341.500    5.944    0.343    0.226   68.486  160.674
  341.750    4.775    0.325    0.246   73.021  161.193
  342.000    4.183    0.328    0.268   70.700  162.529
  342.250    3.673    0.351    0.222   61.888  163.556
  342.500    3.425    0.369    0.188   55.709  164.891
  342.750    3.286    0.358    0.279   65.571  166.940
  343.000    3.281    0.282    0.359   85.657  169.092
  343.250    3.434    0.220    0.374   98.519  170.424
  343.500    3.642    0.201    0.389  104.402  172.983
  343.750    3.798    0.189    0.410  106.795  175.951
  344.000    3.968    0.196    0.433  109.431  177.899
  344.250    4.098    0.215    0.438  116.477  179.130
  344.500    4.146    0.207    0.415  113.482  180.668
  344.750    4.194    0.197    0.409  110.792  183.738
  345.000    4.155    0.182    0.418  108.349  186.398
  345.250    3.950    0.201    0.433  109.210  183.550
  345.500    3.855    0.223    0.419  112.521  178.251
  345.750    3.841    0.218    0.412  113.138  173.974
  346.000    3.849    0.205    0.408  110.327  170.104
  346.250    3.983    0.220    0.401  101.700  166.030
  346.500    4.209    0.230    0.380   94.296  161.753
  346.750    4.347    0.236    0.358   86.954  161.149
  347.000    4.406    0.231    0.380   99.939  165.240
  347.250    4.449    0.200    0.425  106.616  168.920
  347.500    4.467    0.175    0.453  104.540  173.316
  347.750    4.468    0.182    0.472  103.197  175.467
  348.000    4.461    0.188    0.478  104.855  174.659
  348.250    4.353    0.181    0.464  110.860  173.340
  348.500    4.217    0.177    0.462  116.314  171.919
  348.750    4.226    0.167    0.445  111.666  169.784
  349.000    4.299    0.162    0.412  104.201  167.649
  349.250    4.449    0.171    0.397   93.614  165.414
  349.500    4.569    0.168    0.409   95.334  166.237
  349.750    4.640    0.162    0.414   99.991  174.408
  350.000    4.667    0.235    0.397  102.996  174.315
  350.250    4.660    0.222    0.389  101.654  169.833
  350.500    4.617    0.209    0.397   99.026  167.392
  350.750    4.583    0.202    0.410   96.704  167.808
  351.000    4.593    0.204    0.418   94.627  172.408
  351.250    4.620    0.206    0.402   94.326  175.783
  351.500    4.683    0.210    0.405   96.230  180.078
  351.750    4.719    0.208    0.421   99.418  183.351
  352.000    4.747    0.193    0.426  102.850  186.010
  352.250    4.775    0.178    0.428  107.509  188.162
  352.500    4.804    0.200    0.433  110.268  183.068
  352.750    4.841    0.192    0.422  104.946  176.443
  353.000    4.907    0.178    0.409  100.911  178.085
  353.250    4.880    0.171    0.419  108.079  176.766
  353.500    4.763    0.188    0.435  111.879  175.039
  353.750    4.710    0.202    0.423  113.783  172.496
  354.000    4.729    0.186    0.409  109.869  171.279
  354.250    4.802    0.175    0.400  107.792  171.083
  354.500    4.867    0.173    0.396  108.348  172.928
  354.750    4.933    0.171    0.386  112.701  174.365
  355.000    4.916    0.170    0.376  114.908  176.209
  355.250    4.852    0.169    0.369  117.546  179.483
  355.500    4.808    0.180    0.375  115.223  184.390
  355.750    4.764    0.196    0.418  109.781  187.968
  356.000    4.693    0.189    0.451  107.764  190.425
  356.250    4.712    0.198    0.425  107.524  182.473
  356.500    4.803    0.204    0.400  109.304  176.665
  356.750    4.887    0.161    0.399  107.962  178.919
  357.000    4.953    0.160    0.413  104.171  178.518
  357.250    4.935    0.228    0.424  101.605  175.160
  357.500    4.727    0.246    0.411  102.344  171.085
  357.750    4.492    0.217    0.389  103.145  166.093
  358.000    4.229    0.199    0.371  105.109  161.919
  358.250    3.967    0.200    0.370  103.522  159.375
  358.500    3.770    0.202    0.368   99.302  156.730
  358.750    3.470    0.197    0.352   95.327  154.493
  359.000    3.206    0.206    0.348   91.781  152.972
  359.250    3.018    0.221    0.351   86.705  152.366
  359.500    2.794    0.247    0.348   80.403  152.785
  359.750    2.581    0.276    0.349   74.102  152.893
  360.000    2.430    0.285    0.352   68.903  153.003
  360.250    2.318    0.274    0.353   64.255  153.826
  360.500    2.229    0.298    0.388   69.769  153.834
  360.750    2.126    0.319    0.388   62.183  153.026
  361.000    2.025    0.338    0.375   52.575  151.606
  361.250    1.961    0.322    0.363   47.804  150.900
  361.500    1.932    0.292    0.363   54.115  152.234
  361.750    2.042    0.276    0.371   59.325  154.080
  362.000    2.253    0.285    0.361   62.513  155.720
  362.250    2.501    0.278    0.339   68.395  157.462
  362.500    2.734    0.235    0.326   75.196  158.695
  362.750    2.883    0.183    0.351   85.057  158.805
  363.000    3.052    0.204    0.370   95.592  157.384
  363.250    3.035    0.243    0.381   92.414  159.331
  363.500    2.990    0.265    0.360   88.500  164.033
  363.750    2.963    0.268    0.367   86.913  168.020
  364.000    3.020    0.205    0.402   94.693  167.518
  364.250    2.970    0.243    0.410   94.760  160.588
  364.500    2.833    0.279    0.399   79.214  154.985
  364.750    2.593    0.315    0.420   66.790  152.543
  365.000    2.329    0.345    0.415   60.244  152.143
  365.250    2.075    0.353    0.394   55.902  151.231
  365.500    1.903    0.351    0.376   57.498  149.812
  365.750    1.765    0.349    0.364   64.116  148.595
  366.000    1.709    0.342    0.361   70.367  148.501
  366.250    1.703    0.330    0.364   73.370  149.937
