~VERSION INFORMATION
 VERS.                 2.0:   CWLS LOG ASCII STANDARD -VERSION 2.0
 WRAP.                  NO:   ONE LINE PER DEPTH STEP
~WELL INFORMATION BLOCK
#MNEM.UNIT           DATA                    DESCRIPTION OF MNEMONIC
#---------    -------------------            -------------------------------
# Generated from Intellog Unique Number	CW_76_78/WELL/199
WELL.         SULPETRO MARTEN HILLS 04-29    : Well_name    - WELL
LOC .         00/04-29-076-23W4/0            : Location     - LOCATION
UWI .         00/04-29-076-23W4/0            : Uwi          - UNIQUE WELL ID
ENTR.         JAYE                           : Entered      - ENTERED BY
SRVC.         SCHLUMBERGER                   : Scn          - SERVICE COMPANY
DATE.         4 MAR 84                       : Date         - LOG DATE
STRT.M        640                            : top_depth    - START DEPTH
STOP.M        891                            : bot_depth    - STOP DEPTH
STEP.M        0.25                           : increment    - STEP LENGTH
 NULL. -999.2500:NULL Value
~CURVE INFORMATION BLOCK
#MNEM UNIT       ERCB CURVE CODE    CURVE DESCRIPTION
#-----------   ------------------   ----------------------------------
DEPT.M        00 001 00 00         : DEPTH        - DEPTH
ILD .OHMM     00 120 00 00         : RESD         - DEEP RESISTIVITY (DIL)
NPHI.V/V      00 330 00 00         : PHIN         - NEUTRON POROSITY (SANDSTONE)
DPHI.V/V      00 890 00 00         : PHID         - DENSITY POROSITY (SANDSTONE)
GR  .API      00 310 00 00         : GR           - GAMMA RAY
CALI.MM       00 280 01 00         : CAL          - CALIPER
~PARAMETER INFORMATION
#MNEM.UNIT           DATA             DESCRIPTION OF MNEMONIC
#---------         -----------     ------------------------------
GL  .M        935.93               : gl           - GROUND LEVEL ELEVATION
EREF.M        939.4                : kb           - ELEVATION OF DEPTH REFERENCE
DATM.M        935.93               : datum        - DATUM ELEVATION
TDD .M        896                  : tdd          - TOTAL DEPTH DRILLER
RUN .         ONE                  : Run          - RUN NUMBER
MUD .         GEL CHEM             : Mud_type     - MUD TYPE
MATR.         SANDSTONE            : Logunit      - NEUTRON MATRIX
TMAX.C        24                   : BHT          - MAXIMUM RECORDED TEMPERATURE
BHTD.M        891                  : BHTDEP       - MAXIMUM RECORDED TEMPERATURE
RMT .C        14                   : MDTP         - TEMPERATURE OF MUD
MUDD.KG/M     1170                 : MWT          - MUD DENSITY
NEUT.         1                    : NEUTRON      - NEUTRON TYPE
RESI.         0                    : RESIST       - RESISTIVITY TYPE
RM  .OHMM     1.374                : RM           - RESISTIVITY OF MUD
RMC .OHMM     0                    : RMC          - RESISTIVITY OF MUD CAKE
RMF .OHMM     1.642                : RMF          - RESISTIVITY OF MUD FILTRATE
SUFT.C        0                    : SUFT         - SURFACE TEMPERATURE
~A  DEPTH     RESD     PHIN     PHID       GR      CAL
  640.000    2.166    0.546    0.244  102.402  171.704
  640.250    2.243    0.557    0.233  102.578  171.688
  640.500    2.302    0.542    0.216  101.698  170.635
  640.750    2.335    0.532    0.203  106.844  169.894
  641.000    2.401    0.535    0.213  106.027  170.186
  641.250    2.500    0.513    0.252  102.102  171.408
  641.500    2.504    0.517    0.272  102.527  172.016
  641.750    2.452    0.529    0.257  106.555  172.722
  642.000    2.402    0.533    0.242  103.997  172.812
  642.250    2.401    0.521    0.240   99.513  172.066
  642.500    2.432    0.510    0.238   97.203  171.222
  642.750    2.599    0.549    0.231   87.997  170.066
  643.000    2.861    0.551    0.219   72.949  168.186
  643.250    3.293    0.414    0.181   54.731  163.403
  643.500    4.037    0.351    0.195   57.395  159.245
  643.750    4.885    0.376    0.209   74.534  156.120
  644.000    5.706    0.409    0.221   86.267  153.825
  644.250    6.008    0.423    0.224   93.713  153.185
  644.500    5.745    0.432    0.219   97.680  153.063
  644.750    5.443    0.421    0.208   93.941  153.047
  645.000    5.128    0.417    0.225   89.768  153.134
  645.250    5.164    0.455    0.247   85.284  153.324
  645.500    5.540    0.457    0.244   82.850  153.099
  645.750    6.087    0.393    0.238   84.704  152.458
  646.000    6.245    0.395    0.235   91.466  152.238
  646.250    6.117    0.407    0.217   95.061  152.946
  646.500    5.731    0.407    0.202   99.150  155.206
  646.750    5.232    0.421    0.244  103.863  160.056
  647.000    4.723    0.515    0.286  102.113  168.013
  647.250    4.063    0.523    0.269   94.336  167.581
  647.500    3.635    0.470    0.107   91.840  161.972
  647.750    3.355    0.473    0.149   96.738  159.470
  648.000    3.137    0.512    0.241   99.959  159.969
  648.250    2.967    0.529    0.250   96.593  161.817
  648.500    2.858    0.508    0.236   94.905  164.493
  648.750    2.668    0.495    0.226  100.488  167.168
  649.000    2.509    0.502    0.225  101.223  169.222
  649.250    2.359    0.537    0.244   97.795  171.069
  649.500    2.170    0.547    0.257   96.542  172.917
  649.750    1.944    0.558    0.268   91.747  175.283
  650.000    1.845    0.575    0.286   87.325  175.576
  650.250    1.990    0.591    0.323   81.721  169.862
  650.500    2.195    0.461    0.304   75.871  161.561
  650.750    2.676    0.442    0.240   70.889  154.605
  651.000    3.579    0.444    0.225   66.405  151.895
  651.250    4.859    0.450    0.206   60.989  149.804
  651.500    5.945    0.458    0.235   55.946  147.820
  651.750    6.957    0.466    0.256   50.903  144.801
  652.000    8.295    0.423    0.277   44.617  144.161
  652.250    8.864    0.392    0.298   51.752  143.936
  652.500    8.994    0.407    0.316   57.645  144.437
  652.750    8.925    0.425    0.326   59.622  145.457
  653.000    8.455    0.435    0.310   61.103  146.474
  653.250    7.936    0.443    0.300   63.205  148.215
  653.500    7.353    0.452    0.299   59.405  149.339
  653.750    7.096    0.462    0.324   54.300  150.047
  654.000    7.055    0.465    0.347   53.855  150.446
  654.250    7.092    0.457    0.344   56.640  150.429
  654.500    6.973    0.469    0.346   61.351  150.411
  654.750    6.593    0.482    0.332   65.753  149.980
  655.000    6.053    0.479    0.312   70.714  149.961
  655.250    5.474    0.456    0.288   75.116  149.946
  655.500    4.798    0.463    0.268   81.320  149.721
  655.750    4.220    0.484    0.257   83.174  149.184
  656.000    4.096    0.475    0.256   81.857  148.754
  656.250    4.102    0.450    0.259   79.549  149.254
  656.500    4.232    0.466    0.280   74.567  150.274
  656.750    4.481    0.475    0.300   71.388  151.499
  657.000    4.701    0.486    0.316   68.768  152.309
  657.250    4.796    0.493    0.267   73.045  152.190
  657.500    4.724    0.498    0.257   86.829  151.655
  657.750    4.534    0.502    0.257   88.310  149.981
  658.000    4.352    0.497    0.258   84.882  149.652
  658.250    4.146    0.491    0.259   79.465  150.981
  658.500    3.913    0.486    0.269   76.349  153.451
  658.750    3.680    0.474    0.262   78.141  153.330
  659.000    3.499    0.460    0.251   82.729  150.826
  659.250    3.364    0.471    0.245   88.125  154.123
  659.500    3.283    0.494    0.249   96.938  158.560
  659.750    3.515    0.514    0.257   88.352  160.924
  660.000    4.114    0.499    0.268   79.829  154.073
  660.250    4.987    0.458    0.285   68.448  152.190
  660.500    6.102    0.437    0.303   58.682  156.316
  660.750    7.620    0.434    0.322   53.142  156.816
  661.000    8.562    0.430    0.334   49.216  152.969
  661.250    9.015    0.433    0.344   51.380  149.118
  661.500    8.431    0.437    0.322   57.647  148.686
  661.750    7.639    0.427    0.293   69.877  148.774
  662.000    6.948    0.430    0.275   73.098  148.134
  662.250    6.473    0.444    0.268   68.986  147.392
  662.500    6.167    0.448    0.276   69.597  147.169
  662.750    6.120    0.439    0.289   73.253  146.841
  663.000    6.325    0.431    0.281   74.610  146.512
  663.250    6.848    0.439    0.284   67.144  146.496
  663.500    7.497    0.437    0.304   54.145  147.204
  663.750    8.377    0.429    0.328   49.041  148.427
  664.000    8.985    0.414    0.337   46.979  149.344
  664.250    9.322    0.438    0.340   51.008  149.740
  664.500    9.671    0.455    0.339   52.303  149.723
  664.750    9.885    0.445    0.336   51.734  149.704
  665.000    9.919    0.445    0.337   54.209  149.789
  665.250    9.953    0.456    0.345   58.050  149.879
  665.500    9.931    0.451    0.349   60.588  149.756
  665.750    9.837    0.440    0.341   60.267  149.327
  666.000    9.635    0.436    0.333   61.375  148.585
  666.250    9.299    0.439    0.326   63.043  147.739
  666.500    8.552    0.447    0.321   60.609  147.723
  666.750    8.027    0.443    0.314   66.191  148.638
  667.000    7.410    0.420    0.295   73.451  150.278
  667.250    6.815    0.425    0.273   81.705  154.300
  667.500    6.302    0.433    0.282   88.095  155.522
  667.750    5.938    0.419    0.287   92.931  157.579
  668.000    5.870    0.433    0.292   94.102  166.053
  668.250    5.978    0.442    0.295   91.668  168.311
  668.500    6.111    0.437    0.278   89.793  167.365
  668.750    6.969    0.419    0.248   83.072  165.172
  669.000    7.419    0.387    0.222   64.794  162.671
  669.250    7.698    0.395    0.251   51.113  158.615
  669.500    7.956    0.391    0.293   53.340  154.145
  669.750    8.013    0.357    0.299   62.712  150.814
  670.000    8.070    0.375    0.289   66.555  148.931
  670.250    8.112    0.413    0.286   52.873  149.639
  670.500    8.080    0.466    0.297   42.176  152.005
  670.750    8.123    0.405    0.310   42.041  155.301
  671.000    8.459    0.372    0.316   40.105  157.044
  671.250    9.312    0.379    0.311   34.440  156.510
  671.500   10.579    0.378    0.320   34.553  155.973
  671.750   11.201    0.369    0.328   41.814  155.128
  672.000   11.387    0.362    0.313   45.594  153.247
  672.250   11.489    0.370    0.306   39.369  153.231
  672.500   11.507    0.381    0.318   35.942  157.768
  672.750   11.334    0.376    0.325   36.490  160.135
  673.000   10.738    0.378    0.330   44.123  160.015
  673.250   10.116    0.385    0.334   53.869  155.025
  673.500    9.201    0.390    0.330   60.259  151.694
  673.750    8.260    0.405    0.281   66.462  149.399
  674.000    7.753    0.414    0.260   73.038  148.656
  674.250    7.170    0.398    0.249   82.473  149.365
  674.500    6.485    0.384    0.244   84.699  150.588
  674.750    5.866    0.386    0.240   85.497  151.608
  675.000    5.160    0.400    0.228   88.593  153.456
  675.250    4.254    0.419    0.266   92.995  157.580
  675.500    3.520    0.498    0.335  100.813  161.187
  675.750    3.056    0.566    0.350  104.842  163.447
  676.000    2.821    0.563    0.284   97.003  164.572
  676.250    2.733    0.585    0.269   85.808  164.450
