~VERSION INFORMATION
 VERS.                 2.0:   CWLS LOG ASCII STANDARD -VERSION 2.0
 WRAP.                  NO:   ONE LINE PER DEPTH STEP
~WELL INFORMATION BLOCK
#MNEM.UNIT           DATA                    DESCRIPTION OF MNEMONIC
#---------    -------------------            -------------------------------
# Generated from Intellog Unique Number	CS_71_72/WELL/785
WELL.         BVX ET AL LYLE                 : Well_name    - WELL
LOC .         00/06-31-072-16W4/0            : Location     - LOCATION
UWI .         00/06-31-072-16W4/0            : Uwi          - UNIQUE WELL ID
ENTR.         SP                             : Entered      - ENTERED BY
SRVC.         SCHLUMBERGER                   : Scn          - SERVICE COMPANY
STRT.M        249.936                        : top_depth    - START DEPTH
STOP.M        441.686                        : bot_depth    - STOP DEPTH
STEP.M        0.25                           : increment    - STEP LENGTH
 NULL. -999.2500:NULL Value
~CURVE INFORMATION BLOCK
#MNEM UNIT       ERCB CURVE CODE    CURVE DESCRIPTION
#-----------   ------------------   ----------------------------------
DEPT.M        00 001 00 00         : DEPTH        - DEPTH
GR  .API      00 310 00 00         : GR           - GAMMA RAY
DPHI.V/V      00 890 00 00         : PHID         - DENSITY POROSITY (SANDSTONE)
NPHI.V/V      00 330 00 00         : PHIN         - NEUTRON POROSITY (SANDSTONE)
ILD .OHMM     00 120 00 00         : RESD         - DEEP RESISTIVITY (DIL)
~PARAMETER INFORMATION
#MNEM.UNIT           DATA             DESCRIPTION OF MNEMONIC
#---------         -----------     ------------------------------
GL  .M        575.584              : gl           - GROUND LEVEL ELEVATION
EREF.M        578.815              : kb           - ELEVATION OF DEPTH REFERENCE
DATM.M        575.584              : datum        - DATUM ELEVATION
TDD .M        443.179              : tdd          - TOTAL DEPTH DRILLER
RUN .         ONE                  : Run          - RUN NUMBER
ENG .         BILL                 : Engineer     - RECORDING ENGINEER
WIT .         JIM                  : Witness      - WITNESSED BY
MUD .         GEL                  : Mud_type     - MUD TYPE
MATR.         SANDSTONE            : Logunit      - NEUTRON MATRIX
TMAX.C        14.4444              : BHT          - MAXIMUM RECORDED TEMPERATURE
BHTD.M        443.179              : BHTDEP       - MAXIMUM RECORDED TEMPERATURE
MATR.         1                    : LOGUNIT      - NEUTRON MATRIX
RMT .C        25                   : MDTP         - TEMPERATURE OF MUD
NEUT.         1                    : NEUTRON      - NEUTRON TYPE
RESI.         0                    : RESIST       - RESISTIVITY TYPE
RMC .OHMM     0.25                 : RMC          - RESISTIVITY OF MUD CAKE
RMF .OHMM     0.25                 : RMF          - RESISTIVITY OF MUD FILTRATE
SUFT.C        15                   : SUFT         - SURFACE TEMPERATURE
~A  DEPTH       GR     PHID     PHIN     RESD
# ...
  293.436  115.071    0.259    0.464    6.874
  293.686  114.336    0.249    0.469    6.491
  293.936  110.447    0.252    0.476    6.413
  294.186  108.038    0.257    0.481    6.386
  294.436  106.682    0.269    0.490    6.375
  294.686  103.254    0.290    0.468    6.703
  294.936   96.145    0.308    0.449    6.923
  295.186   90.804    0.323    0.439    7.233
  295.436   87.147    0.310    0.449    7.461
  295.686   85.380    0.305    0.457    7.506
  295.936   88.893    0.296    0.461    7.521
  296.186   95.109    0.276    0.453    7.372
  296.436   99.119    0.266    0.457    7.234
  296.686  101.463    0.279    0.455    7.044
  296.936  104.433    0.285    0.449    6.804
  297.186  107.410    0.263    0.465    6.597
  297.436  108.172    0.252    0.492    6.486
  297.686  105.882    0.258    0.499    6.343
  297.936  105.011    0.264    0.503    6.473
  298.186  104.305    0.266    0.496    6.742
  298.436  102.844    0.271    0.490    6.985
  298.686   98.195    0.294    0.489    7.434
  298.936   92.316    0.302    0.476    8.071
  299.186   78.852    0.315    0.479    8.543
  299.436   71.576    0.305    0.464    8.925
  299.686   68.108    0.302    0.441    9.152
  299.936   64.802    0.286    0.429    9.332
  300.186   63.820    0.284    0.436    9.321
  300.436   63.709    0.300    0.432    9.332
  300.686   63.703    0.311    0.426    9.153
  300.936   63.710    0.320    0.425    8.881
  301.186   63.713    0.321    0.442    8.607
  301.436   63.760    0.322    0.449    8.507
  301.686   63.156    0.328    0.457    8.332
  301.936   62.521    0.331    0.456    8.345
  302.186   62.043    0.330    0.460    8.344
  302.436   61.987    0.327    0.465    8.342
  302.686   61.991    0.337    0.454    8.341
  302.936   61.556    0.344    0.446    8.340
  303.186   60.559    0.354    0.436    8.339
  303.436   59.578    0.358    0.433    8.337
  303.686   58.995    0.360    0.441    8.336
  303.936   59.142    0.365    0.445    8.334
  304.186   60.234    0.371    0.454    8.333
  304.436   59.525    0.372    0.458    8.328
  304.686   60.373    0.364    0.462    8.299
  304.936   61.949    0.369    0.466    8.175
  305.186   63.302    0.374    0.461    8.176
  305.436   64.663    0.374    0.472    8.176
  305.686   65.689    0.367    0.457    8.174
  305.936   66.429    0.369    0.439    8.172
  306.186   65.691    0.376    0.431    8.171
  306.436   65.321    0.378    0.448    8.170
  306.686   64.327    0.380    0.462    8.169
  306.936   63.336    0.384    0.464    8.167
  307.186   63.024    0.383    0.462    8.079
  307.436   62.151    0.381    0.465    7.404
  307.686   61.591    0.374    0.466    7.457
  307.936   61.225    0.364    0.464    7.303
  308.186   60.897    0.358    0.460    7.314
  308.436   60.388    0.356    0.453    7.302
  308.686   60.702    0.359    0.456    7.459
  308.936   61.044    0.372    0.466    7.445
  309.186   62.124    0.374    0.464    7.443
  309.436   63.560    0.377    0.457    7.445
  309.686   65.277    0.380    0.450    7.445
  309.936   66.944    0.385    0.445    7.586
  310.186   66.860    0.378    0.446    7.579
  310.436   66.477    0.368    0.456    7.571
  310.686   65.564    0.374    0.462    7.724
  310.936   63.876    0.381    0.470    7.712
  311.186   62.975    0.376    0.466    7.709
  311.436   62.278    0.372    0.463    7.708
  311.686   62.401    0.369    0.460    7.706
  311.936   62.907    0.367    0.457    7.717
  312.186   63.811    0.368    0.457    7.537
  312.436   64.761    0.372    0.472    7.710
  312.686   65.156    0.379    0.476    7.696
  312.936   66.168    0.387    0.465    7.652
  313.186   67.175    0.372    0.466    7.561
  313.436   67.547    0.365    0.478    7.557
  313.686   67.482    0.369    0.468    7.555
  313.936   66.044    0.377    0.464    7.561
  314.186   65.955    0.375    0.459    7.406
  314.436   67.999    0.370    0.452    7.416
  314.686   68.460    0.369    0.451    7.416
  314.936   67.226    0.370    0.469    7.415
  315.186   65.959    0.390    0.485    7.413
  315.436   65.483    0.395    0.508    7.411
  315.686   64.739    0.387    0.501    7.399
  315.936   65.490    0.386    0.489    7.551
  316.186   65.846    0.385    0.488    7.513
  316.436   66.708    0.379    0.480    7.855
  316.686   67.284    0.384    0.477    7.823
  316.936   67.643    0.371    0.491    7.821
  317.186   66.814    0.364    0.492    7.820
  317.436   67.348    0.373    0.486    7.821
  317.686   67.406    0.373    0.483    7.893
  317.936   66.709    0.369    0.485    7.937
  318.186   66.727    0.363    0.485    7.810
  318.436   67.662    0.371    0.494    7.813
  318.686   68.647    0.377    0.510    7.813
  318.936   69.228    0.379    0.508    7.812
  319.186   69.413    0.368    0.502    7.810
  319.436   69.803    0.355    0.499    7.809
  319.686   69.933    0.347    0.499    7.823
  319.936   68.377    0.349    0.494    7.651
  320.186   67.454    0.355    0.481    7.663
  320.436   67.424    0.360    0.472    7.594
  320.686   68.319    0.369    0.473    7.378
  320.936   69.751    0.366    0.485    7.385
  321.186   71.407    0.344    0.476    7.362
  321.436   71.340    0.299    0.442    7.700
  321.686   65.645    0.254    0.282    8.261
  321.936   61.812    0.119    0.251    9.562
  322.186   60.309    0.076    0.254   11.096
  322.436   62.170    0.089    0.265   12.924
  322.686   64.091    0.090    0.266   14.171
  322.936   66.313    0.100    0.314   15.036
  323.186   67.863    0.135    0.338   15.325
  323.436   69.454    0.180    0.369   15.273
  323.686   69.397    0.218    0.403   14.555
  323.936   66.980    0.258    0.435   14.007
  324.186   62.258    0.274    0.413   13.119
  324.436   59.596    0.167    0.339   11.984
  324.686   65.351    0.197    0.338   11.138
  324.936   72.085    0.301    0.408   10.354
  325.186   76.334    0.337    0.436    9.414
  325.436   79.388    0.349    0.451    8.600
  325.686   82.698    0.357    0.457    7.621
  325.936   83.136    0.353    0.471    6.872
  326.186   84.770    0.333    0.475    6.415
  326.436   91.447    0.312    0.477    5.923
  326.686   96.468    0.281    0.490    5.644
  326.936   99.714    0.253    0.502    5.379
  327.186  100.089    0.246    0.502    5.304
  327.436   99.744    0.245    0.498    5.298
  327.686  100.209    0.250    0.491    5.303
  327.936   99.427    0.257    0.483    5.392
  328.186  102.604    0.249    0.484    5.390
  328.436  104.407    0.242    0.489    5.392
  328.686  103.478    0.241    0.492    5.491
  328.936  102.326    0.241    0.510    5.484
  329.186  101.969    0.237    0.521    5.483
  329.436  102.395    0.232    0.526    5.480
  329.686  102.732    0.240    0.508    5.466
  329.936  102.718    0.242    0.495    5.204
  330.186   98.164    0.264    0.502    4.854
  330.436   93.839    0.287    0.492    4.416
  330.686   94.388    0.300    0.480    4.045
  330.936   97.614    0.301    0.464    3.658
  331.186   99.175    0.266    0.520    3.390
  331.436   99.316    0.272    0.531    3.288
  331.686   94.740    0.278    0.526    3.354
  331.936   86.371    0.298    0.529    3.669
  332.186   81.871    0.316    0.503    3.890
  332.436   76.308    0.332    0.500    4.143
  332.686   72.182    0.362    0.479    4.631
  332.936   69.516    0.378    0.467    4.973
  333.186   69.618    0.368    0.463    5.321
  333.436   68.133    0.368    0.459    5.558
  333.686   66.008    0.370    0.452    5.734
  333.936   66.222    0.366    0.458    5.772
  334.186   66.743    0.365    0.468    5.773
  334.436   67.654    0.368    0.478    5.771
  334.686   68.636    0.373    0.478    5.769
  334.936   69.214    0.378    0.469    5.850
  335.186   69.189    0.381    0.459    5.872
  335.436   69.204    0.382    0.476    5.874
  335.686   68.134    0.376    0.482    5.873
  335.936   67.748    0.372    0.484    5.872
  336.186   66.291    0.358    0.474    5.871
  336.436   64.843    0.344    0.472    5.870
  336.686   66.538    0.360    0.479    5.869
