~VERSION INFORMATION
 VERS.                 2.0:   CWLS LOG ASCII STANDARD -VERSION 2.0
 WRAP.                  NO:   ONE LINE PER DEPTH STEP
~WELL INFORMATION BLOCK
#MNEM.UNIT           DATA                    DESCRIPTION OF MNEMONIC
#---------    -------------------            -------------------------------
# Generated from Intellog Unique Number	CS_77_79/WELL/851
WELL.         BOW VALLEY INDUSTRIES LTD      : Well_name    - WELL
LOC .         00/04-26-077-15W4/0            : Location     - LOCATION
UWI .         00/04-26-077-15W4/0            : Uwi          - UNIQUE WELL ID
ENTR.         SP                             : Entered      - ENTERED BY
SRVC.         SCHLUMBERGER                   : Scn          - SERVICE COMPANY
STRT.M        270                            : top_depth    - START DEPTH
STOP.M        515                            : bot_depth    - STOP DEPTH
STEP.M        0.25                           : increment    - STEP LENGTH
 NULL. -999.2500:NULL Value
~CURVE INFORMATION BLOCK
#MNEM UNIT       ERCB CURVE CODE    CURVE DESCRIPTION
#-----------   ------------------   ----------------------------------
DEPT.M        00 001 00 00         : DEPTH        - DEPTH
ILD .OHMM     00 120 00 00         : RESD         - DEEP RESISTIVITY (DIL)
DPHI.V/V      00 890 00 00         : PHID         - DENSITY POROSITY (LIMESTONE)
NPHI.V/V      00 330 00 00         : PHIN         - NEUTRON POROSITY (LIMESTONE)
GR  .API      00 310 00 00         : GR           - GAMMA RAY
~PARAMETER INFORMATION
#MNEM.UNIT           DATA             DESCRIPTION OF MNEMONIC
#---------         -----------     ------------------------------
GL  .M        662.4                : gl           - GROUND LEVEL ELEVATION
EREF.M        665.7                : kb           - ELEVATION OF DEPTH REFERENCE
DATM.M        662.4                : datum        - DATUM ELEVATION
TDD .M        524.6                : tdd          - TOTAL DEPTH DRILLER
RUN .         ONE                  : Run          - RUN NUMBER
ENG .         BILL                 : Engineer     - RECORDING ENGINEER
WIT .         JIM                  : Witness      - WITNESSED BY
MUD .         GEL                  : Mud_type     - MUD TYPE
MATR.         LIMESTONE            : Logunit      - NEUTRON MATRIX
TMAX.C        26.1                 : BHT          - MAXIMUM RECORDED TEMPERATURE
BHTD.M        524.6                : BHTDEP       - MAXIMUM RECORDED TEMPERATURE
MATR.         1                    : LOGUNIT      - NEUTRON MATRIX
RMT .C        25                   : MDTP         - TEMPERATURE OF MUD
NEUT.         1                    : NEUTRON      - NEUTRON TYPE
RESI.         0                    : RESIST       - RESISTIVITY TYPE
RMC .OHMM     0.25                 : RMC          - RESISTIVITY OF MUD CAKE
RMF .OHMM     0.25                 : RMF          - RESISTIVITY OF MUD FILTRATE
SUFT.C        15                   : SUFT         - SURFACE TEMPERATURE
~A  DEPTH     RESD     PHID     PHIN       GR
# ...
  444.000    5.366    0.203    0.491   96.395
  444.250    4.982    0.208    0.490   98.228
  444.500    4.800    0.209    0.480  100.061
  444.750    4.456    0.231    0.467  101.285
  445.000    4.136    0.263    0.472   96.412
  445.250    3.700    0.271    0.520   92.758
  445.500    3.309    0.288    0.559   90.932
  445.750    3.015    0.306    0.575   92.157
  446.000    2.852    0.285    0.549   93.380
  446.250    2.647    0.289    0.542   93.385
  446.500    2.412    0.282    0.549   93.391
  446.750    2.198    0.273    0.569   94.614
  447.000    2.079    0.269    0.583   97.057
  447.250    1.930    0.265    0.575   98.891
  447.500    1.930    0.218    0.559   94.018
  447.750    2.459    0.202    0.514   92.193
  448.000    2.962    0.191    0.474   92.808
  448.250    3.636    0.187    0.444   95.251
  448.500    4.991    0.196    0.439   96.474
  448.750    5.581    0.202    0.434   94.649
  449.000    6.127    0.192    0.428   93.435
  449.250    6.243    0.192    0.414   94.658
  449.500    6.602    0.204    0.428   94.662
  449.750    6.853    0.209    0.435   91.619
  450.000    7.384    0.184    0.444   87.965
  450.250    7.665    0.158    0.430   85.529
  450.500    8.106    0.121    0.410   83.704
  450.750    8.415    0.109    0.364   85.538
  451.000    8.108    0.128    0.347   90.420
  451.250    7.527    0.178    0.364   95.303
  451.500    7.119    0.207    0.391   96.527
  451.750    6.487    0.207    0.405   93.483
  452.000    5.911    0.192    0.405   92.877
  452.250    5.590    0.203    0.418   95.323
  452.500    5.387    0.207    0.434   96.545
  452.750    5.095    0.186    0.442   95.940
  453.000    5.001    0.190    0.447   97.164
  453.250    4.730    0.181    0.441  101.437
  453.500    4.558    0.174    0.451  104.490
  453.750    4.392    0.199    0.464  108.764
  454.000    4.311    0.207    0.481  110.598
  454.250    4.232    0.216    0.485  111.821
  454.500    4.232    0.221    0.491  108.776
  454.750    4.312    0.208    0.496  105.732
  455.000    4.561    0.188    0.482  106.346
  455.250    4.734    0.199    0.444  106.961
  455.500    5.197    0.198    0.451  102.697
  455.750    5.496    0.176    0.458   94.775
  456.000    5.812    0.180    0.436   89.290
  456.250    6.262    0.182    0.418   82.588
  456.500    7.003    0.165    0.407   77.714
  456.750    8.129    0.174    0.387   72.230
  457.000    8.923    0.202    0.360   69.186
  457.250    9.263    0.214    0.336   67.361
  457.500    8.925    0.214    0.339   75.903
  457.750    7.836    0.220    0.365   82.614
  458.000    7.550    0.217    0.410   82.009
  458.250    7.693    0.205    0.427   78.356
  458.500    7.986    0.215    0.407   77.139
  458.750    8.766    0.240    0.377   75.314
  459.000    9.803    0.273    0.372   75.319
  459.250   10.761    0.243    0.381   77.764
  459.500   12.034    0.234    0.393   77.767
  459.750   12.492    0.237    0.401   77.162
  460.000   12.264    0.247    0.410   86.923
  460.250   11.817    0.240    0.411   92.415
  460.500   11.385    0.217    0.407  104.005
  460.750   10.374    0.200    0.406  112.546
  461.000    9.631    0.199    0.414  113.161
  461.250    8.941    0.207    0.419  110.726
  461.500    8.941    0.211    0.414  110.731
  461.750    9.282    0.213    0.409  105.857
  462.000   10.380    0.235    0.394   98.544
  462.250   11.184    0.194    0.378   93.672
  462.500   12.277    0.158    0.389   92.455
  462.750   12.984    0.161    0.394   90.632
  463.000   13.477    0.224    0.395   90.636
  463.250   13.991    0.212    0.392   90.639
  463.500   14.255    0.218    0.391   91.864
  463.750   14.526    0.224    0.391   94.307
  464.000   14.527    0.221    0.391   95.530
  464.250   14.802    0.211    0.390   91.267
  464.500   14.804    0.190    0.383   85.784
  464.750   15.084    0.189    0.378   77.861
  465.000   15.369    0.205    0.365   72.377
  465.250   15.660    0.218    0.345   71.162
  465.500   15.956    0.229    0.338   72.996
  465.750   15.957    0.204    0.352   79.709
  466.000   16.258    0.205    0.369   83.372
  466.250   15.960    0.212    0.386   84.595
  466.500   15.378    0.217    0.404   86.429
  466.750   14.818    0.226    0.414   87.653
  467.000   14.820    0.206    0.418   87.048
  467.250   14.822    0.210    0.402   88.881
  467.500   14.823    0.216    0.401   91.324
  467.750   15.103    0.268    0.402   91.329
  468.000   15.678    0.283    0.397   80.358
  468.250   16.892    0.293    0.393   75.483
  468.500   18.891    0.313    0.389   67.562
  468.750   23.188    0.342    0.385   63.298
  469.000   26.419    0.369    0.305   59.643
  469.250   30.100    0.379    0.218   53.549
  469.500   33.661    0.377    0.207   44.408
  469.750   39.807    0.371    0.218   42.583
  470.000   47.075    0.369    0.228   43.806
  470.250   52.645    0.365    0.230   46.252
  470.500   55.675    0.353    0.231   47.474
  470.750   54.656    0.349    0.247   49.309
  471.000   54.661    0.342    0.259   49.923
  471.250   54.667    0.324    0.287   51.148
  471.500   54.676    0.318    0.301   50.542
  471.750   54.679    0.317    0.330   49.936
  472.000   56.762    0.321    0.365   48.110
  472.250   58.924    0.314    0.387   42.017
  472.500   60.037    0.308    0.396   42.634
  472.750   61.170    0.304    0.398   43.246
  473.000   63.500    0.300    0.392   43.251
  473.250   64.700    0.298    0.385   45.694
  473.500   65.922    0.316    0.392   45.089
  473.750   68.437    0.325    0.397   45.093
  474.000   69.730    0.330    0.398   45.707
  474.250   69.736    0.328    0.397   49.981
  474.500   71.053    0.321    0.393   49.986
  474.750   71.064    0.320    0.403   49.379
  475.000   69.205    0.327    0.399   40.251
  475.250   69.161    0.327    0.394   39.648
  475.500   67.839    0.320    0.392   41.492
  475.750   69.084    0.323    0.393   43.330
  476.000   69.040    0.325    0.399   43.342
  476.250   67.719    0.325    0.400   41.524
  476.500   68.960    0.323    0.389   40.925
  476.750   68.930    0.321    0.389   38.496
  477.000   68.859    0.320    0.392   39.120
  477.250   68.832    0.320    0.399   40.961
  477.500   68.808    0.326    0.403   42.190
  477.750   67.476    0.321    0.410   43.422
  478.000   67.448    0.318    0.415   42.823
  478.250   66.167    0.323    0.423   41.005
  478.500   63.716    0.323    0.406   41.626
  478.750   60.203    0.325    0.407   44.695
  479.000   55.845    0.329    0.412   45.925
  479.250   44.609    0.342    0.424   47.765
  479.500   33.699    0.351    0.436   49.604
  479.750   28.472    0.346    0.444   52.048
  480.000   24.055    0.335    0.414   63.646
  480.250   20.707    0.323    0.389   72.193
  480.500   18.852    0.291    0.374   83.793
  480.750   17.160    0.258    0.370   91.120
  481.000   16.834    0.247    0.380   92.351
  481.250   16.208    0.235    0.395   91.145
  481.500   15.316    0.231    0.391   94.204
  481.750   13.943    0.229    0.380   96.653
  482.000   13.178    0.231    0.392  100.937
  482.250   12.451    0.241    0.403  102.775
  482.500   11.987    0.241    0.408  107.057
  482.750   11.982    0.248    0.413  110.120
  483.000   12.201    0.238    0.409  111.345
  483.250   12.894    0.228    0.404  111.969
  483.500   13.629    0.245    0.430  111.369
  483.750   15.525    0.265    0.456  106.500
  484.000   18.701    0.309    0.467   99.806
  484.250   23.382    0.321    0.493   83.350
  484.500   31.500    0.326    0.527   77.263
  484.750   33.926    0.330    0.508   74.229
  485.000   30.885    0.338    0.482   73.627
  485.250   27.085    0.342    0.433   74.250
  485.500   21.238    0.327    0.425   79.751
  485.750   17.944    0.317    0.420   86.470
  486.000   15.160    0.294    0.420   95.020
  486.250   12.808    0.267    0.421   99.910
  486.500   11.660    0.255    0.415  101.746
  486.750   11.018    0.236    0.398  103.588
  487.000   10.810    0.199    0.401  102.990
  487.250   10.801    0.182    0.403  101.781
