~VERSION INFORMATION
 VERS.                 2.0:   CWLS LOG ASCII STANDARD -VERSION 2.0
 WRAP.                  NO:   ONE LINE PER DEPTH STEP
~WELL INFORMATION BLOCK
#MNEM.UNIT           DATA                    DESCRIPTION OF MNEMONIC
#---------    -------------------            -------------------------------
# Generated from Intellog Unique Number	CS_67_68/WELL/2175
WELL.         MURPHY ET AL SANDHILL          : Well_name    - WELL
LOC .         00/07-07-067-16W4/0            : Location     - LOCATION
UWI .         00/07-07-067-16W4/0            : Uwi          - UNIQUE WELL ID
ENTR.         SP                             : Entered      - ENTERED BY
SRVC.         SCHLUMBERGER                   : Scn          - SERVICE COMPANY
STRT.M        384.048                        : top_depth    - START DEPTH
STOP.M        550.298                        : bot_depth    - STOP DEPTH
STEP.M        0.25                           : increment    - STEP LENGTH
 NULL. -999.2500:NULL Value
~CURVE INFORMATION BLOCK
#MNEM UNIT       ERCB CURVE CODE    CURVE DESCRIPTION
#-----------   ------------------   ----------------------------------
DEPT.M        00 001 00 00         : DEPTH        - DEPTH
CALI.MM       00 280 01 00         : CAL          - CALIPER
GR  .API      00 310 00 00         : GR           - GAMMA RAY
DPHI.V/V      00 890 00 00         : PHID         - DENSITY POROSITY (SANDSTONE)
NPHI.V/V      00 330 00 00         : PHIN         - NEUTRON POROSITY (SANDSTONE)
ILD .OHMM     00 120 00 00         : RESD         - DEEP RESISTIVITY (DIL)
~PARAMETER INFORMATION
#MNEM.UNIT           DATA             DESCRIPTION OF MNEMONIC
#---------         -----------     ------------------------------
GL  .M        609.905              : gl           - GROUND LEVEL ELEVATION
EREF.M        612.953              : kb           - ELEVATION OF DEPTH REFERENCE
DATM.M        612.953              : datum        - DATUM ELEVATION
TDD .M        574.853              : tdd          - TOTAL DEPTH DRILLER
RUN .         ONE                  : Run          - RUN NUMBER
ENG .         BILL                 : Engineer     - RECORDING ENGINEER
WIT .         JIM                  : Witness      - WITNESSED BY
MUD .         GEL                  : Mud_type     - MUD TYPE
MATR.         SANDSTONE            : Logunit      - NEUTRON MATRIX
TMAX.C        14.4444              : BHT          - MAXIMUM RECORDED TEMPERATURE
BHTD.M        574.853              : BHTDEP       - MAXIMUM RECORDED TEMPERATURE
MATR.         1                    : LOGUNIT      - NEUTRON MATRIX
RMT .C        25                   : MDTP         - TEMPERATURE OF MUD
NEUT.         1                    : NEUTRON      - NEUTRON TYPE
RESI.         0                    : RESIST       - RESISTIVITY TYPE
RMC .OHMM     0.25                 : RMC          - RESISTIVITY OF MUD CAKE
RMF .OHMM     0.25                 : RMF          - RESISTIVITY OF MUD FILTRATE
SUFT.C        15                   : SUFT         - SURFACE TEMPERATURE
~A  DEPTH      CAL       GR     PHID     PHIN     RESD
# ...
  530.048  179.431  103.804    0.159    0.398    3.336
  530.298  171.801  102.171    0.147    0.411    3.149
  530.548  169.673  103.782    0.102    0.435    3.099
  530.798  169.888  104.634    0.116    0.451    3.115
  531.048  171.169  104.374    0.129    0.437    3.144
  531.298  172.000  102.859    0.135    0.439    3.157
  531.548  172.441  101.916    0.138    0.447    3.132
  531.798  172.829  104.565    0.144    0.445    3.111
  532.048  172.975  108.455    0.129    0.448    3.028
  532.298  173.201  112.463    0.085    0.455    2.974
  532.548  173.500  114.600    0.157    0.463    2.903
  532.798  173.601  114.941    0.167    0.464    2.824
  533.048  173.656  114.608    0.175    0.456    2.775
  533.298  172.831  114.459    0.155    0.452    2.751
  533.548  171.905  114.375    0.129    0.466    2.738
  533.798  171.861  113.824    0.136    0.474    2.755
  534.048  172.612  112.602    0.140    0.478    2.772
  534.298  173.379  110.418    0.125    0.474    2.793
  534.548  173.095  107.820    0.121    0.465    2.811
  534.798  172.636  105.401    0.138    0.455    2.856
  535.048  171.355  106.564    0.139    0.451    2.895
  535.298  170.288  109.541    0.123    0.461    2.938
  535.548  170.166  111.785    0.148    0.466    2.982
  535.798  170.532  112.449    0.142    0.469    3.032
  536.048  170.509  109.525    0.147    0.466    3.132
  536.298  169.784  104.968    0.137    0.452    3.318
  536.548  167.109  102.003    0.123    0.441    3.567
  536.798  165.405   99.798    0.104    0.428    3.939
  537.048  165.944   97.204    0.121    0.413    3.550
  537.298  167.198  100.495    0.106    0.397    3.106
  537.548  170.249  108.391    0.116    0.437    2.919
  537.798  176.559  115.019    0.164    0.472    2.748
  538.048  192.734  117.069    0.182    0.492    2.553
  538.298  196.720  116.726    0.162    0.497    2.423
  538.548  191.533  114.474    0.142    0.479    2.354
  538.798  186.851  114.161    0.184    0.474    2.332
  539.048  183.595  114.488    0.188    0.469    2.363
  539.298  180.975  110.527    0.182    0.457    2.537
  539.548  179.428  104.565    0.178    0.444    2.724
  539.798  177.451   97.716    0.163    0.424    2.945
  540.048  175.804   91.060    0.168    0.369    3.242
  540.298  170.963   78.825    0.161    0.347    3.424
  540.548  164.201   66.317    0.127    0.330    3.507
  540.798  159.116   64.698    0.059    0.343    3.490
  541.048  155.685   63.717    0.071    0.356    3.438
  541.298  154.042   62.538    0.148    0.355    3.324
  541.548  153.212   61.107    0.186    0.342    3.247
  541.798  155.780   60.673    0.185    0.333    3.216
  542.048  155.748   61.202    0.176    0.339    3.221
  542.298  156.045   61.896    0.170    0.345    3.251
  542.548  156.206   62.821    0.164    0.346    3.343
  542.798  156.329   63.645    0.157    0.344    3.449
  543.048  156.725   64.713    0.149    0.340    3.586
  543.298  157.205   65.248    0.152    0.332    3.699
  543.548  157.685   66.545    0.157    0.323    3.780
  543.798  158.332   67.823    0.165    0.319    3.844
  544.048  158.891   69.418    0.174    0.330    3.959
  544.298  159.512   71.484    0.159    0.333    4.080
  544.548  160.253   73.707    0.151    0.330    4.244
  544.798  161.151   75.972    0.125    0.329    4.448
  545.048  162.044   78.133    0.137    0.331    4.638
  545.298  162.975   80.234    0.149    0.338    4.794
  545.548  164.084   79.961    0.158    0.362    5.033
  545.798  164.942   72.574    0.174    0.393    5.399
  546.048  165.185   62.877    0.205    0.423    5.989
  546.298  165.712   52.151    0.456    0.573    6.523
  546.548  166.173   44.320    0.615    0.618    7.319
  546.798  163.874   54.816    0.620    0.616    8.191
  547.048  164.118   81.624    0.617    0.616    9.055
  547.298  164.207   85.245    0.612    0.615   10.032
  547.548  164.291   90.287    0.589    0.604   10.158
  547.798  164.303   95.220    0.490    0.520    9.229
  548.048  164.193   98.167    0.263    0.387    8.078
  548.298  164.244  100.284    0.125    0.349    7.401
  548.548  163.951   95.200    0.092    0.327    6.989
  548.798  164.301   94.265    0.067    0.314    6.758
  549.048  164.299   97.966    0.047    0.321    6.639
  549.298  164.328  100.833    0.032    0.325    6.522
  549.548  163.927  103.253    0.022    0.324    6.376
  549.798  163.393  106.141    0.031    0.326    6.253
  550.048  163.177  109.376    0.019    0.330    6.164
  550.298  162.822  111.681    0.018    0.340    6.149
