~VERSION INFORMATION
 VERS.                 2.0:   CWLS LOG ASCII STANDARD -VERSION 2.0
 WRAP.                  NO:   ONE LINE PER DEPTH STEP
~WELL INFORMATION BLOCK
#MNEM.UNIT           DATA                    DESCRIPTION OF MNEMONIC
#---------    -------------------            -------------------------------
# Generated from Intellog Unique Number	CS_73_76/WELL/800
WELL.         SULPETRO LIMITED               : Well_name    - WELL
LOC .         00/09-32-073-10W4/0            : Location     - LOCATION
UWI .         00/09-32-073-10W4/0            : Uwi          - UNIQUE WELL ID
ENTR.         SP                             : Entered      - ENTERED BY
SRVC.         SCHLUMBERGER                   : Scn          - SERVICE COMPANY
STRT.M        295                            : top_depth    - START DEPTH
STOP.M        515                            : bot_depth    - STOP DEPTH
STEP.M        0.25                           : increment    - STEP LENGTH
 NULL. -999.2500:NULL Value
~CURVE INFORMATION BLOCK
#MNEM UNIT       ERCB CURVE CODE    CURVE DESCRIPTION
#-----------   ------------------   ----------------------------------
DEPT.M        00 001 00 00         : DEPTH        - DEPTH
ILD .OHMM     00 120 00 00         : RESD         - DEEP RESISTIVITY (DIL)
DPHI.V/V      00 890 00 00         : PHID         - DENSITY POROSITY (LIMESTONE)
NPHI.V/V      00 330 00 00         : PHIN         - NEUTRON POROSITY (LIMESTONE)
GR  .API      00 310 00 00         : GR           - GAMMA RAY
~PARAMETER INFORMATION
#MNEM.UNIT           DATA             DESCRIPTION OF MNEMONIC
#---------         -----------     ------------------------------
GL  .M        659.06               : gl           - GROUND LEVEL ELEVATION
EREF.M        662.2                : kb           - ELEVATION OF DEPTH REFERENCE
DATM.M        659.06               : datum        - DATUM ELEVATION
TDD .M        526                  : tdd          - TOTAL DEPTH DRILLER
RUN .         ONE                  : Run          - RUN NUMBER
ENG .         BILL                 : Engineer     - RECORDING ENGINEER
WIT .         JIM                  : Witness      - WITNESSED BY
MUD .         GEL                  : Mud_type     - MUD TYPE
MATR.         LIMESTONE            : Logunit      - NEUTRON MATRIX
TMAX.C        24                   : BHT          - MAXIMUM RECORDED TEMPERATURE
BHTD.M        526                  : BHTDEP       - MAXIMUM RECORDED TEMPERATURE
MATR.         1                    : LOGUNIT      - NEUTRON MATRIX
RMT .C        25                   : MDTP         - TEMPERATURE OF MUD
NEUT.         1                    : NEUTRON      - NEUTRON TYPE
RESI.         0                    : RESIST       - RESISTIVITY TYPE
RMC .OHMM     0.25                 : RMC          - RESISTIVITY OF MUD CAKE
RMF .OHMM     0.25                 : RMF          - RESISTIVITY OF MUD FILTRATE
SUFT.C        15                   : SUFT         - SURFACE TEMPERATURE
~A  DEPTH     RESD     PHID     PHIN       GR
# ...
  425.500    5.805    0.236    0.366   89.886
  425.750    5.697    0.236    0.377   90.497
  426.000    5.384    0.225    0.376   91.721
  426.250    4.992    0.220    0.375   95.392
  426.500    4.293    0.217    0.384  102.125
  426.750    3.833    0.214    0.397  104.574
  427.000    5.088    0.214    0.426  108.246
  427.250    6.145    0.211    0.482   98.448
  427.500    6.882    0.136    0.348   84.365
  427.750    7.284    0.070    0.221   79.466
  428.000    7.148    0.037    0.190   76.403
  428.250    6.146    0.031    0.189   77.014
  428.500    5.808    0.134    0.242   82.523
  428.750    4.994    0.194    0.310   87.419
  429.000    4.810    0.222    0.353   90.479
  429.250    4.545    0.237    0.382   93.539
  429.500    4.545    0.242    0.384   90.477
  429.750    4.546    0.235    0.368   89.251
  430.000    4.721    0.219    0.378   94.760
  430.250    4.996    0.208    0.395   98.432
  430.500    5.188    0.201    0.402  100.267
  430.750    5.388    0.199    0.402  100.265
  431.000    5.491    0.195    0.394   99.652
  431.250    5.596    0.192    0.376   99.038
  431.500    5.922    0.183    0.405   97.812
  431.750    6.035    0.179    0.421   96.587
  432.000    6.035    0.169    0.400   93.523
  432.250    6.150    0.162    0.375   90.461
  432.500    6.151    0.155    0.381   88.623
  432.750    6.151    0.167    0.386   92.295
  433.000    6.151    0.176    0.397   95.967
  433.250    6.037    0.184    0.408   99.639
  433.500    6.037    0.190    0.374  101.475
  433.750    6.037    0.187    0.354  102.697
  434.000    5.924    0.184    0.353  103.309
  434.250    5.925    0.185    0.368  104.531
  434.500    5.814    0.194    0.374  106.367
  434.750    5.814    0.199    0.391  106.978
  435.000    5.706    0.193    0.412  106.976
  435.250    5.600    0.190    0.427  105.751
  435.500    5.495    0.192    0.437   99.014
  435.750    5.495    0.208    0.438   94.115
  436.000    5.496    0.238    0.376   89.828
  436.250    5.393    0.253    0.352   84.928
  436.500    5.496    0.262    0.343   81.866
  436.750    5.393    0.250    0.356   81.253
  437.000    5.293    0.247    0.367   84.312
  437.250    5.194    0.231    0.380   89.821
  437.500    4.908    0.173    0.356   92.881
  437.750    4.552    0.149    0.340   94.716
  438.000    4.221    0.149    0.356   96.552
  438.250    3.769    0.163    0.344   98.387
  438.500    3.562    0.177    0.336  100.222
  438.750    3.121    0.188    0.314  103.894
  439.000    2.787    0.194    0.303  104.505
  439.250    2.585    0.195    0.322  102.667
  439.500    2.442    0.219    0.390  100.829
  439.750    2.352    0.226    0.483   99.603
  440.000    2.308    0.239    0.460   99.602
  440.250    2.308    0.239    0.420   98.376
  440.500    2.223    0.234    0.389   98.375
  440.750    2.223    0.225    0.402  102.046
  441.000    2.223    0.214    0.418  103.882
  441.250    2.265    0.208    0.430  106.942
  441.500    2.586    0.208    0.400  104.491
  441.750    3.182    0.209    0.426  103.265
  442.000    3.564    0.204    0.437  102.652
  442.250    4.068    0.199    0.414  102.038
  442.500    4.305    0.189    0.380   98.976
  442.750    4.556    0.181    0.374   94.689
  443.000    4.643    0.184    0.396   95.299
  443.250    4.643    0.188    0.384   97.135
  443.500    4.643    0.192    0.358   98.970
  443.750    4.643    0.191    0.352  100.193
  444.000    4.643    0.181    0.358  100.804
  444.250    4.732    0.172    0.359  102.027
  444.500    4.822    0.166    0.411  101.413
  444.750    4.914    0.198    0.433   97.739
  445.000    5.008    0.236    0.404   89.166
  445.250    5.104    0.250    0.372   74.471
  445.500    5.104    0.256    0.371   71.408
  445.750    5.009    0.247    0.387   69.570
  446.000    5.009    0.245    0.388   69.569
  446.250    5.009    0.246    0.383   70.179
  446.500    5.010    0.249    0.385   70.178
  446.750    5.010    0.250    0.400   70.789
  447.000    5.203    0.252    0.415   72.012
  447.250    5.506    0.250    0.426   73.847
  447.500    6.167    0.242    0.394   72.621
  447.750    6.777    0.238    0.383   73.232
  448.000    7.590    0.233    0.383   72.618
  448.250    8.186    0.207    0.261   67.107
  448.500    8.342    0.151    0.141   60.983
  448.750    7.883    0.100    0.127   54.247
  449.000    7.591    0.066    0.129   50.572
  449.250    6.652    0.107    0.361   54.244
  449.500    6.169    0.170    0.398   63.426
  449.750    5.940    0.219    0.417   70.159
  450.000    5.721    0.240    0.395   71.995
  450.250    5.509    0.246    0.387   74.443
  450.500    5.109    0.242    0.388   76.890
  450.750    4.920    0.236    0.406   79.338
  451.000    4.230    0.236    0.404   84.234
  451.250    3.707    0.236    0.373   88.519
  451.500    3.438    0.225    0.334   92.191
  451.750    3.373    0.212    0.350   99.537
  452.000    3.438    0.203    0.378  109.331
  452.250    3.503    0.194    0.464  113.003
  452.500    3.708    0.193    0.462  114.226
  452.750    3.924    0.193    0.436  113.613
  453.000    3.999    0.190    0.388  111.775
  453.250    3.924    0.185    0.363  108.099
  453.500    3.708    0.182    0.341  107.486
  453.750    3.504    0.193    0.369  106.260
  454.000    3.375    0.198    0.400  108.095
  454.250    3.639    0.203    0.399  110.543
  454.500    4.233    0.208    0.393  113.603
  454.750    5.210    0.207    0.411  112.989
  455.000    5.726    0.192    0.389  105.641
  455.250    6.412    0.159    0.318   98.293
  455.500    6.915    0.116    0.307   92.781
  455.750    7.182    0.112    0.314   98.289
  456.000    7.893    0.123    0.326  101.962
  456.250    9.180    0.132    0.315  104.410
  456.500   10.088    0.139    0.288   88.489
  456.750   10.880    0.172    0.276   82.978
  457.000   11.957    0.234    0.301   78.691
  457.250   12.655    0.238    0.310   77.465
  457.500   12.896    0.220    0.325   78.688
  457.750   13.142    0.212    0.333   79.299
  458.000   13.143    0.218    0.354   77.461
  458.250   13.394    0.213    0.350   76.235
  458.500   13.395    0.208    0.328   79.295
  458.750   13.650    0.193    0.318   83.579
  459.000   14.176    0.185    0.323   86.027
  459.250   16.179    0.177    0.331   86.025
  459.500   17.448    0.188    0.342   85.412
  459.750   20.680    0.195    0.341   83.574
  460.000   24.510    0.212    0.336   81.736
  460.250   29.602    0.250    0.345   76.224
  460.500   31.925    0.267    0.340   64.590
  460.750   36.435    0.272    0.302   49.894
  461.000   40.043    0.276    0.274   44.995
  461.250   43.184    0.277    0.270   37.647
  461.500   45.702    0.270    0.296   31.523
  461.750   44.850    0.265    0.319   29.073
  462.000   40.812    0.254    0.309   30.296
  462.250   36.445    0.246    0.322   37.029
  462.500   33.164    0.244    0.324   40.089
  462.750   29.615    0.242    0.329   43.761
  463.000   27.463    0.237    0.323   50.493
  463.250   24.991    0.230    0.336   53.554
  463.500   22.741    0.221    0.339   57.226
  463.750   20.307    0.191    0.267   63.347
  464.000   18.134    0.094    0.211   58.448
  464.250   16.193    0.089    0.244   68.243
  464.500   15.016    0.158    0.349   82.935
  464.750   14.460    0.200    0.367   89.056
  465.000   13.665    0.213    0.368   90.891
  465.250   12.913    0.211    0.360   92.727
  465.500   11.751    0.202    0.356   95.787
  465.750   11.316    0.211    0.352   97.010
  466.000   10.494    0.215    0.355   96.396
  466.250    9.917    0.213    0.346  100.680
  466.500    9.371    0.203    0.328  104.965
  466.750    8.528    0.190    0.312  114.147
  467.000    8.528    0.181    0.300  119.656
  467.250    9.551    0.180    0.293  125.777
  467.500   10.496    0.184    0.323  133.735
  467.750   11.320    0.186    0.346  139.856
  468.000   13.166    0.180    0.328  126.385
  468.250   14.469    0.171    0.312  105.567
  468.500   16.205    0.184    0.314   96.382
  468.750   17.476    0.216    0.330   88.421
