~V
VERS. 2.00: Ver 2.00
WRAP. NO:
VEND. PRIZM:GeoGraphix
~W
STRT.M 43.8912:START DEPTH
STOP.M 295.6560:STOP DEPTH
STEP.M 0.3048:STEP
NULL. -999.2500:NULL VALUE
WELL. NUMAC SURMONT :WELL
COMP. :COMPANY
UWI. 00_06-35-082-06W4_0:UNIQUE WELL ID
FLD. :FIELD
CNTY. :COUNTY
STAT. :STATE
CTRY. :COUNTRY
PDAT. :PERMANENT DATUM
LMF. :LOG MEASURED FROM
DMF. :DRILLING MEASURED FROM
LOC1. 06-35-082-06W4:LOCATION LINE 1
LOC2. :LOCATION LINE 2
LOC3. :LOCATION LINE 3
SEC. :SECTION
TWP. :TOWNSHIP
RAN. :RANGE
SRVC. SCHLUMBERGER:Logging Company
BASE. :Logging Unit Location
ENG. BILL:Logging Engineer
WITN. JIM:Witnessed By
DATE. 21 - MAR - 1973:Date
RUN. ONE:Run No.
MUD_TYPE. GEL:Type Fluid in Hole
MUDS. :Source of Mud Sample
RMFS. :Source of Mud Filtrate
RMCS. :Source of Mud Cake
LOC. :LOCATION
~C
DEPT.M :DEPTH
PHID. :Density Pososity
NPHI. :PHIN         - NEUTRON POROSITY (LIMESTONE)
GR.API :GR           - GAMMA RAY
RHOB.KG/M3 :DENS         - BULK DENSITY
ILD.OHMM :RESD         - DEEP RESISTIVITY (DIL)
~P
EKB. 495.6000:ELEVATION OF KELLY BUSHING
EDF. -999.2500:ELEVATION OF DRILLING FLOOR
EGL. 493.7760:ELEVATION OF GROUND LEVEL
EPD. -999.2500:ELEVATION OF PERMANENT DATUM
APD. -999.2500:LMF DISTANCE ABOVE PERMANENT DATUM
LAT. 56.1488:LATITUDE OF WELL LOCATION
LONG. 110.8308:LONGITUDE OF WELL LOCATION
TDD. 296.8750:Total Depth Driller
TDL. -999.2500:Total Depth Logger
LCSG1. -999.2500:Depth of Casing from Logger
CSIZE. -999.2500:Casing Size
CWT. -999.2500:Casing Weight
BS. -999.2500:Bit Size
TLI. 43.8912:Top Logged Interval
BLI. 295.6560:Bottom Logged Interval
MRT. 17.2222:Maximum Recorded Temperature
WMUD. -999.2500:Drilling Mud Density
DFV. -999.2500:Drilling Mud Viscosity
PH. -999.2500:Drilling Mud pH
DFL. -999.2500:Drilling Mud Fluid Loss
RM. -999.2500:Resistivity of Drilling Fluid
RMT. -999.2500:Measured Temp. of Drilling Fluid
RMF. 0.2500:Resistivity of Drilling Fluid Filtrate
RMFT. -999.2500:Measured Temp. of Drilling Fluid Filtrate
RMC. 0.2500:Resistivity of Mud Cake
RMCT. -999.2500:Measured Temp. of Mud Cake
PHImax.V/V 0.3900:Maximum allowable Porosity
RwBnd.OHMM 0.1500:Bound Water Resistivity
RhoHy.KG/MT 1000.0000:Hydrocarbon Bulk density
SwCutoff.V/V 0.7000:Water Saturation Cutoff
PHINsh.V/V 0.4800:New Description
Rw.OHMM 1.0000:Formation Water Resistivity
Rshl.OHMM 5.0000:Resistivity shale
Trw.DEGC 25.0000:Rw measured at Lab conditions
ShaleCutoff.V/V 0.4000:New Description
GRcln.API 45.0000:Gamma Ray clean
RhoM.KG/MT 2650.0000:Bulk Density Matrix
GRshl.API 90.0000:Gamma Ray shale
m. 2.0000:Archie "m"
n. 2.0000:Archie "n"
GasTol.V/V 0.0500:Gas Tollerance
BHTemp.DEGC 25.0000:Bottom Hole Temperature
BHTDepth.M 1000.0000:Bottom Hole Depth
PHIDsh.US/MT 0.1800:New Description
a. 1.0000:Archie "a"
Gas Tol.V/V 0.0500:Gas Tollerance
RhoF.KG/MT 1000.0000:Bulk Density Fluid
RhoShl.KG/MT 2300.0000:Bulk Density Shale
TarCutoff.V/V 0.0300:New Description
SurfTemp.DEGC 10.0000:New Description
HIshl.V/V 0.4000:Neutron Hydrogen Index shale
MATR. 1.0000:
NEUT. 0.0000:
BHTD.M 296.8750:
DATM.M 495.6050:
NULL. -999.2500:
RESI. 0.0000:
SUFT.C 15.0000:
~A
# ...
  263.3472     0.3261     0.2820    38.4360  2112.0000   115.5820 
  263.6520     0.3224     0.2790    36.0030  2118.0701   171.4200 
  263.9568     0.3236     0.2790    39.0100  2116.0100    87.3790 
  264.2616     0.3163     0.2950    40.2050  2128.1599   147.7890 
  264.5664     0.3163     0.2950    39.5900  2128.1299   192.2280 
  264.8712     0.3188     0.2980    38.9710  2124.0500   245.4240 
  265.1760     0.3335     0.3040    38.9560  2099.6799   232.1790 
  265.4808     0.3053     0.3020    42.5690  2146.3201   241.2360 
  265.7856     0.2758     0.2870    48.6010  2194.9900   192.8040 
  266.0904     0.2204     0.2680    60.0750  2286.2600    15.6670 
  266.3952     0.2303     0.2520    73.9660  2270.0100    26.9960 
  266.7000     0.2389     0.2640    64.8840  2255.7800    16.2880 
  267.0048     0.2709     0.2560    66.6830  2203.0000    23.7110 
  267.3096     0.2316     0.2610    69.0870  2267.8999    46.5840 
  267.6144     0.2390     0.2900    64.2340  2255.7000    35.1930 
  267.9192     0.2390     0.2890    66.6380  2255.6799    22.4670 
  268.2240     0.2378     0.2950    70.2530  2257.6799    29.2280 
  268.5288     0.2464     0.3070    67.2120  2243.4500    33.9740 
  268.8336     0.2612     0.3110    65.9940  2219.0801    22.0970 
  269.1384     0.2686     0.3110    65.3710  2206.8799    19.3930 
  269.4432     0.2809     0.3100    65.9670  2186.5701    16.7070 
  269.7480     0.2883     0.3060    65.3490  2174.3701    14.9400 
  270.0528     0.3239     0.2990    63.5200  2115.5000    79.2320 
  270.3576     0.3387     0.2950    42.3460  2091.1399   263.0520 
  270.6624     0.3436     0.2950    38.1020  2082.9900   147.2800 
  270.9672     0.3338     0.2990    33.2510  2099.2000   105.1820 
  271.2720     0.3474     0.3170    30.8150  2076.8601   120.0040 
  271.5768     0.3670     0.3210    31.4040  2044.3700   150.3980 
  271.8816     0.3511     0.3010    31.9920  2070.7200    99.6450 
  272.1864     0.3474     0.2910    33.7980  2076.7800   132.1220 
  272.4912     0.3388     0.2820    37.4110  2090.9600   134.6780 
  272.7960     0.3192     0.2760    43.4410  2123.3999   137.3580 
  273.1008     0.2983     0.2750    50.6860  2157.8601   113.9560 
  273.4056     0.2725     0.2690    60.9490  2200.4500    25.9500 
  273.7104     0.2135     0.2590    76.6530  2297.8000    15.0820 
  274.0152     0.1704     0.2500    83.2880  2368.7900     7.9820 
  274.3200     0.1606     0.2490    85.6920  2385.0000     9.1110 
  274.6248     0.2344     0.2530    84.4680  2263.2400     9.6410 
  274.9296     0.2246     0.2500    82.0350  2279.4500     9.1220 
  275.2344     0.2320     0.2650    79.6060  2267.2500     8.7920 
  275.5392     0.2529     0.2960    74.1500  2232.7300    12.5600 
  275.8440     0.2787     0.2880    68.0880  2190.1001    15.4490 
  276.1488     0.2529     0.2770    66.2620  2232.6799    14.0750 
  276.4536     0.2234     0.2810    68.0620  2281.3501    12.5870 
  276.7584     0.2407     0.2730    71.6780  2252.9199    10.0600 
  277.0632     0.2677     0.2630    69.2440  2208.2600    11.0580 
  277.3680     0.2665     0.2590    69.8350  2210.2600    10.8620 
  277.6728     0.2505     0.2580    74.0510  2236.6101    10.0860 
  277.9776     0.2493     0.2740    69.8090  2238.6101    10.0890 
  278.2824     0.2456     0.2590    69.1860  2244.6799    11.5140 
  278.5872     0.2309     0.2480    69.7810  2269.0000    12.1870 
  278.8920     0.2162     0.2530    73.3940  2293.3201    11.1080 
  279.1968     0.1977     0.2470    78.2180  2323.7300     8.2360 
  279.5016     0.1744     0.2390    83.0380  2362.2500     7.5040 
  279.8064     0.1744     0.2330    82.4170  2362.2300     8.8910 
  280.1112     0.1880     0.2350    78.1730  2339.8799     9.9530 
  280.4160     0.2101     0.2440    65.4640  2303.3401    12.2400 
  280.7208     0.2470     0.2670    52.7530  2242.4500    23.6000 
  281.0256     0.2728     0.2830    47.9040  2199.8101    52.8630 
  281.3304     0.3048     0.2880    43.0540  2147.0400    41.4640 
  281.6352     0.3294     0.2940    35.1780  2106.4299    20.7440 
  281.9400     0.3270     0.2850    38.1870  2110.4500    21.5530 
  282.2448     0.3270     0.2880    40.5880  2110.4299    24.1340 
  282.5496     0.3295     0.3000    39.9710  2106.3601    29.1330 
  282.8544     0.3356     0.3150    39.3540  2096.1899    32.6190 
  283.1592     0.3430     0.3270    37.5250  2083.9900    50.2320 
  283.4640     0.3332     0.3100    36.3020  2100.2000    23.3140 
  283.7688     0.3074     0.3010    36.2890  2142.7800    13.8070 
  284.0736     0.2927     0.2980    37.4850  2167.1001    59.5880 
  284.3784     0.3025     0.2890    38.0770  2150.8401    30.3760 
  284.6832     0.2976     0.2810    37.4560  2158.9299    25.6800 
  284.9880     0.3235     0.2730    36.2340  2116.3000    76.1910 
  285.2928     0.3149     0.2780    34.4060  2130.4800    30.4430 
  285.5976     0.3272     0.2920    32.5810  2110.1599    41.8980 
  285.9024     0.3383     0.3000    30.7480  2091.8799    41.9230 
  286.2072     0.3456     0.2930    30.7360  2079.6799    46.9440 
  286.5120     0.3284     0.2720    30.7220  2108.0601    56.6590 
  286.8168     0.3297     0.2630    31.3110  2106.0000   115.5610 
  287.1216     0.3346     0.2910    33.1120  2097.8601    45.3190 
  287.4264     0.3285     0.2720    36.1230  2107.9800    57.8650 
  287.7312     0.3051     0.2540    37.3200  2146.5100    48.9150 
  288.0360     0.3125     0.2540    39.7190  2134.3101    21.8710 
  288.3408     0.3236     0.2790    40.9160  2116.0200    48.0780 
  288.6456     0.3433     0.2870    42.7140  2083.5400    44.6410 
  288.9504     0.3421     0.2760    43.9110  2085.5300    33.7290 
  289.2552     0.3310     0.2750    45.1060  2103.7700    17.5170 
  289.5600     0.3175     0.2750    46.3010  2126.0601    16.2650 
  289.8648     0.3212     0.2750    44.4770  2119.9600   112.1360 
  290.1696     0.3176     0.2760    39.6260  2126.0200   116.5210 
  290.4744     0.2918     0.2840    45.6550  2168.6001   104.1880 
  290.7792     0.2463     0.2890    54.1080  2243.6399    17.9130 
  291.0840     0.1824     0.2840    76.4640  2349.1201     5.8270 
  291.3888     0.1393     0.2580    96.4010  2420.1101     6.6460 
  291.6936     0.1074     0.2250    91.5490  2472.8301     8.4880 
  291.9984     0.0951     0.2080    76.4200  2493.1001     8.9820 
  292.3032     0.0914     0.1960    69.1510  2499.1599    10.2530 
  292.6080     0.1025     0.1850    69.1360  2480.8701    10.2570 
  292.9128     0.1038     0.1770    70.3310  2478.8101    10.8590 
  293.2176     0.1050     0.1720    70.3140  2476.7700    11.2800 
  293.5224     0.1112     0.1680    70.3070  2466.6001    11.5030 
  293.8272     0.1013     0.1630    70.2930  2482.8000    11.0860 
  294.1320     0.0890     0.1600    70.2780  2503.0701    13.1330 
  294.4368     0.1075     0.1470    70.2620  2472.6101    18.4130 
  294.7416     0.1026     0.1120    70.2430  2480.7000    21.0090 
  295.0464     0.0903     0.0850    70.8370  2500.9600    25.8370 
  295.3512     0.0559     0.0770    70.2200  2557.7500    33.6100 
  295.6560     0.0584     0.0760    69.6030  2553.6599    35.5810 
