~VERSION INFORMATION
 VERS.                 2.0:   CWLS LOG ASCII STANDARD -VERSION 2.0
 WRAP.                  NO:   ONE LINE PER DEPTH STEP
~WELL INFORMATION BLOCK
#MNEM.UNIT           DATA                    DESCRIPTION OF MNEMONIC
#---------    -------------------            -------------------------------
# Generated from Intellog Unique Number	CW_79_81/WELL/200
WELL.         ALLIED ET AL 07-18             : Well_name    - WELL
LOC .         00/07-18-079-19W4/0            : Location     - LOCATION
UWI .         00/07-18-079-19W4/0            : Uwi          - UNIQUE WELL ID
ENTR.         JJ                             : Entered      - ENTERED BY
SRVC.         SCHLUMBERGER                   : Scn          - SERVICE COMPANY
DATE.         15 MAR 72                      : Date         - LOG DATE
STRT.M        252.984                        : top_depth    - START DEPTH
STOP.M        380.984                        : bot_depth    - STOP DEPTH
STEP.M        0.25                           : increment    - STEP LENGTH
 NULL. -999.2500:NULL Value
~CURVE INFORMATION BLOCK
#MNEM UNIT       ERCB CURVE CODE    CURVE DESCRIPTION
#-----------   ------------------   ----------------------------------
DEPT.M        00 001 00 00         : DEPTH        - DEPTH
ILD .OHMM     00 120 00 00         : RESD         - DEEP RESISTIVITY (DIL)
CALI.MM       00 280 01 00         : CAL          - CALIPER
GR  .API      00 310 00 00         : GR           - GAMMA RAY
DELT.US/F     00 520 00 00         : DELT         - SONIC TRAVEL TIME
~PARAMETER INFORMATION
#MNEM.UNIT           DATA             DESCRIPTION OF MNEMONIC
#---------         -----------     ------------------------------
GL  .M        564.794              : gl           - GROUND LEVEL ELEVATION
EREF.M        567.995              : kb           - ELEVATION OF DEPTH REFERENCE
DATM.M        567.995              : datum        - DATUM ELEVATION
TDD .M        853.44               : tdd          - TOTAL DEPTH DRILLER
RUN .         ONE                  : Run          - RUN NUMBER
ENG .         LYE                  : Engineer     - RECORDING ENGINEER
WIT .         PENDRY & CONNELLY    : Witness      - WITNESSED BY
BASE.         RED DEER             : Branch       - HOME BASE OF LOGGING UNIT
MUD .         GEL CHEM             : Mud_type     - MUD TYPE
MATR.         SANDSTONE            : Logunit      - NEUTRON MATRIX
TMAX.C        31.6667              : BHT          - MAXIMUM RECORDED TEMPERATURE
BHTD.M        852.221              : BHTDEP       - MAXIMUM RECORDED TEMPERATURE
RMT .C        14.4444              : MDTP         - TEMPERATURE OF MUD
MUDD.KG/M     1200                 : MWT          - MUD DENSITY
NEUT.         1                    : NEUTRON      - NEUTRON TYPE
RESI.         0                    : RESIST       - RESISTIVITY TYPE
RM  .OHMM     0                    : RM           - RESISTIVITY OF MUD
RMC .OHMM     0                    : RMC          - RESISTIVITY OF MUD CAKE
RMF .OHMM     1.97                 : RMF          - RESISTIVITY OF MUD FILTRATE
SUFT.C        5                    : SUFT         - SURFACE TEMPERATURE
~A  DEPTH     RESD      CAL       GR     DELT
# ...
  339.984   13.918  242.658   61.646  376.297
  340.234   13.094  242.908   61.673  377.376
  340.484   12.620  243.368   64.482  387.230
  340.734   12.294  244.121   70.561  394.266
  340.984   12.021  245.100   70.833  388.412
  341.234   11.716  245.548   64.204  386.285
  341.484   11.600  244.677   58.549  384.104
  341.734   11.598  244.008   56.094  376.223
  341.984   11.848  244.568   52.130  328.505
  342.234   13.635  245.844   47.931  277.253
  342.484   16.038  246.814   49.288  246.019
  342.734   17.759  247.486   54.880  279.875
  342.984   18.586  247.834   59.927  311.443
  343.234   17.140  248.390   64.432  372.452
  343.484   14.826  249.062   64.098  381.450
  343.734   13.350  249.729   59.589  385.801
  343.984   12.047  249.868   56.832  388.255
  344.234   11.400  250.434   59.283  388.750
  344.484   11.227  250.993   62.696  387.744
  344.734   11.120  251.241   67.866  386.663
  344.984   11.195  252.112   63.539  386.633
  345.234   11.397  252.472   61.875  387.388
  345.484   11.625  252.716   66.745  388.606
  345.734   11.576  253.005   69.975  389.823
  345.984   11.550  252.612   70.127  391.167
  346.234   11.463  252.656   64.955  391.920
  346.484   11.311  253.624   60.507  391.889
  346.734   11.201  255.827   58.900  391.336
  346.984   11.136  256.703   58.566  390.192
  347.234   11.090  256.739   59.081  389.647
  347.484   11.272  257.001   59.956  388.311
  347.734   11.412  256.839   60.952  381.410
  347.984   11.446  256.473   61.887  368.035
  348.234   11.868  255.098   58.469  297.226
  348.484   14.114  254.433   49.360  278.748
  348.734   17.477  255.196   43.339  322.484
  348.984   20.185  258.210   56.918  346.006
  349.234   20.032  261.431   57.073  356.704
  349.484   18.677  264.351   55.706  369.890
  349.734   16.728  266.026   56.822  380.067
  349.984   15.399  268.540   61.084  385.400
  350.234   14.127  270.846   64.862  383.337
  350.484   13.464  272.731   64.587  380.759
  350.734   12.927  274.925   64.133  382.500
  350.984   12.522  275.997   66.822  385.745
  351.234   12.203  276.665   69.873  384.338
  351.484   12.153  277.734   68.086  378.882
  351.734   12.372  280.136   67.814  374.600
  351.984   12.757  281.103   73.528  382.287
  352.234   12.751  281.166   77.547  386.706
  352.484   11.979  281.100   80.782  391.194
  352.734   11.374  280.428   82.869  396.917
  352.984   10.918  279.256   83.565  401.928
  353.234   10.501  277.967   82.257  379.005
  353.484   10.104  276.997   79.442  369.030
  353.734    9.791  276.227   79.535  384.375
  353.984    9.677  275.855   84.403  412.477
  354.234    9.584  276.214   88.064  395.636
  354.484    9.564  276.569   90.026  385.532
  354.734    9.577  276.725   91.264  381.316
  354.984    9.680  277.275   91.777  393.778
  355.234    9.907  277.331   91.559  382.893
  355.484   10.234  276.247   90.562  372.200
  355.734   10.786  274.453   88.169  369.546
  355.984   12.079  271.938   84.323  356.966
  356.234   13.650  269.835   76.972  339.076
  356.484   14.758  267.942   72.162  328.188
  356.734   16.077  267.683   70.563  322.661
  356.984   17.223  267.734   71.802  321.977
  357.234   18.321  267.266   72.913  336.671
  357.484   17.855  266.698   75.421  368.106
  357.734   16.859  265.315   79.082  374.553
  357.984   15.633  264.231   81.287  376.028
  358.234   14.819  262.129   81.251  379.991
  358.484   14.359  260.846   78.439  369.102
  358.734   14.459  264.788   74.959  347.682
  358.984   15.493  268.319   72.868  329.530
  359.234   17.315  268.567   67.637  318.578
  359.484   18.722  265.645   72.502  337.128
  359.734   19.268  264.267   72.654  360.716
  359.984   18.369  265.029   70.990  369.779
  360.234   17.409  265.894   72.289  363.797
  360.484   16.386  266.970   74.496  346.300
  360.734   16.198  268.050   75.973  331.877
  360.984   16.488  269.217   76.969  317.589
  361.234   17.351  269.982   77.180  336.465
  361.484   17.473  270.333   77.448  340.099
  361.734   17.116  270.483   78.693  347.460
  361.984   16.520  270.635   80.052  353.843
  362.234   15.604  270.685   81.466  367.096
  362.484   14.843  270.536   83.737  378.185
  362.734   13.767  270.063   85.089  387.969
  362.984   12.534  269.393   89.657  396.902
  363.234   11.204  268.618   92.646  403.678
  363.484   10.165  267.437   86.748  401.946
  363.734    9.309  266.051   82.904  385.698
  363.984    8.788  264.666   78.577  358.188
  364.234    8.134  263.484   80.306  375.562
  364.484    7.354  261.904   81.603  392.021
  364.734    6.467  260.611   79.993  423.196
  364.984    5.728  258.612   77.122  455.811
  365.234    5.102  259.589   75.090  473.117
  365.484    3.441  262.600   69.860  485.650
  365.734    3.383  266.134   63.595  393.377
  365.984    4.582  268.439   57.152  377.323
  366.234    5.874  267.661   52.038  379.254
  366.484    7.839  261.972   54.426  386.424
  366.734   13.641  263.464   56.029  389.792
  366.984   21.742  265.349   50.610  383.879
  367.234   36.475  266.421   48.889  373.445
  367.484   38.804  266.274   59.017  370.797
  367.734   29.150  265.590   66.844  376.792
  367.984   14.222  264.723   73.592  393.967
  368.234    8.932  264.049   76.223  404.337
  368.484    6.639  262.781   76.854  395.872
  368.734    6.280  262.302   74.826  387.729
  368.984    6.596  261.445   72.553  399.148
  369.234    7.604  261.070   68.285  396.766
  369.484    9.947  261.021   60.390  354.213
  369.734   12.498  260.962   56.910  331.941
  369.984   13.915  260.809   72.304  352.515
  370.234   13.808  260.853   82.617  375.714
  370.484   12.828  260.804   86.391  378.757
  370.734   11.428  260.950   93.620  374.339
  370.984   10.234  260.584   98.850  372.683
  371.234    9.132  260.225   89.078  376.840
  371.484    8.150  259.965   89.046  403.896
  371.734    7.839  259.403   87.687  424.669
  371.984    8.523  259.044   81.903  401.090
  372.234   10.305  258.275   69.594  371.295
  372.484   16.067  257.708   63.274  343.070
  372.734   19.969  257.134   65.235  330.209
  372.984   22.276  256.065   68.106  327.050
  373.234   23.183  254.974   70.254  338.927
  373.484   22.921  252.260   74.397  352.307
  373.734   20.980  248.825   76.782  356.792
  373.984   18.482  246.001   80.317  362.452
  374.234   16.797  242.159   85.244  368.969
  374.484   15.352  239.543   90.293  381.041
  374.734   14.060  236.927   85.849  385.722
  374.984   13.593  233.598   78.073  368.549
  375.234   13.463  230.474   68.846  369.898
  375.484   14.193  227.959   59.018  389.365
  375.734   15.773  225.960   53.055  359.961
  375.984   21.011  224.270   49.215  393.625
  376.234   27.039  223.901   50.032  390.520
  376.484   30.827  224.665   53.866  381.855
  376.734   32.082  225.838   61.761  402.368
  376.984   32.006  226.707   70.072  413.457
  377.234   31.876  226.963   62.479  420.628
  377.484   32.153  226.499   56.642  385.860
  377.734   32.738  226.344   59.941  337.287
  377.984   33.569  228.031   62.200  336.804
  378.234   34.489  230.950   43.422  236.682
  378.484   35.433  233.143   39.397  200.475
  378.734   36.666  235.655   42.265  221.051
  378.984   39.295  236.933   50.943  226.586
  379.234   42.885  237.802   55.992  235.444
  379.484   47.395  238.049   50.397  232.281
  379.734   53.955  237.481   48.792  230.617
  379.984   56.347  236.501   50.215  234.909
  380.234   57.463  234.715   50.605  246.324
  380.484   58.927  232.295   47.968  240.933
  380.734   60.766  227.633   41.527  233.641
  380.984   69.173  223.992   36.838  236.428
