~VERSION INFORMATION
 VERS.                 2.0:   CWLS LOG ASCII STANDARD -VERSION 2.0
 WRAP.                  NO:   ONE LINE PER DEPTH STEP
~WELL INFORMATION BLOCK
#MNEM.UNIT           DATA                    DESCRIPTION OF MNEMONIC
#---------    -------------------            -------------------------------
# Generated from Intellog Unique Number	CW_82_90/WELL/3057
WELL.         TOTAL ET AL LIVOCK             : Well_name    - WELL
LOC .         00/06-34-086-23W4/0            : Location     - LOCATION
UWI .         00/06-34-086-23W4/0            : Uwi          - UNIQUE WELL ID
ENTR.         MAX                            : Entered      - ENTERED BY
SRVC.         SCHLUMBERGER                   : Scn          - SERVICE COMPANY
STRT.M        155.448                        : top_depth    - START DEPTH
STOP.M        332.198                        : bot_depth    - STOP DEPTH
STEP.M        0.25                           : increment    - STEP LENGTH
 NULL. -999.2500:NULL Value
~CURVE INFORMATION BLOCK
#MNEM UNIT       ERCB CURVE CODE    CURVE DESCRIPTION
#-----------   ------------------   ----------------------------------
DEPT.M        00 001 00 00         : DEPTH        - DEPTH
ILD .OHMM     00 120 00 00         : RESD         - DEEP RESISTIVITY (DIL)
NPHI.V/V      00 330 00 00         : PHIN         - NEUTRON POROSITY (SANDSTONE)
DPHI.V/V      00 890 00 00         : PHID         - DENSITY POROSITY (SANDSTONE)
CALI.MM       00 280 01 00         : CAL          - CALIPER
GR  .API      00 310 00 00         : GR           - GAMMA RAY
~PARAMETER INFORMATION
#MNEM.UNIT           DATA             DESCRIPTION OF MNEMONIC
#---------         -----------     ------------------------------
GL  .M        530.962              : gl           - GROUND LEVEL ELEVATION
EREF.M        534.01               : kb           - ELEVATION OF DEPTH REFERENCE
DATM.M        530.962              : datum        - DATUM ELEVATION
TDD .M        335.89               : tdd          - TOTAL DEPTH DRILLER
RUN .         ONE                  : Run          - RUN NUMBER
ENG .         BILL                 : Engineer     - RECORDING ENGINEER
WIT .         JIM                  : Witness      - WITNESSED BY
MUD .         GEL                  : Mud_type     - MUD TYPE
MATR.         SANDSTONE            : Logunit      - NEUTRON MATRIX
TMAX.C        24.4444              : BHT          - MAXIMUM RECORDED TEMPERATURE
BHTD.M        335.89               : BHTDEP       - MAXIMUM RECORDED TEMPERATURE
MATR.         1                    : LOGUNIT      - NEUTRON MATRIX
RMT .C        15.5556              : MDTP         - TEMPERATURE OF MUD
NEUT.         1                    : NEUTRON      - NEUTRON TYPE
RESI.         0                    : RESIST       - RESISTIVITY TYPE
RMC .OHMM     3.5                  : RMC          - RESISTIVITY OF MUD CAKE
RMF .OHMM     3.5                  : RMF          - RESISTIVITY OF MUD FILTRATE
SUFT.C        -20.5556             : SUFT         - SURFACE TEMPERATURE
~A  DEPTH     RESD     PHIN     PHID      CAL       GR
# ...
  301.448    8.665    0.440    0.129  203.191  140.885
  301.698    8.746    0.448    0.146  203.173  137.629
  301.948    8.990    0.459    0.163  203.650  129.945
  302.198    9.762    0.470    0.160  203.632  112.231
  302.448   11.198    0.468    0.164  203.609   91.564
  302.698   12.963    0.441    0.150  203.089   75.030
  302.948   15.854    0.416    0.173  203.066   63.512
  303.198   21.636    0.417    0.186  202.546   62.316
  303.448   28.468    0.446    0.194  202.029   63.779
  303.698   53.506    0.434    0.176  202.006   65.244
  303.948   67.874    0.419    0.159  201.983   68.183
  304.198   64.256    0.424    0.140  201.963   72.006
  304.448   59.729    0.442    0.180  201.443   71.109
  304.698   55.016    0.446    0.232  201.425   71.390
  304.948   51.610    0.443    0.216  201.402   70.493
  305.198   51.614    0.442    0.191  201.382   67.236
  305.448   54.531    0.439    0.188  201.364   66.337
  305.698   57.611    0.432    0.231  201.840   67.507
  305.948   60.313    0.425    0.248  201.817   72.215
  306.198   56.064    0.436    0.223  202.294   78.397
  306.448   43.010    0.439    0.206  202.279   81.631
  306.698   30.388    0.437    0.189  202.755   83.391
  306.948   19.064    0.437    0.165  202.735   85.444
  307.198   13.594    0.442    0.145  202.213   87.197
  307.448   12.071    0.446    0.125  201.193   87.778
  307.698   11.533    0.452    0.137  204.173   87.766
  307.948   11.325    0.459    0.172  202.654   86.574
  308.198   11.326    0.463    0.190  202.633   83.020
  308.448   11.536    0.464    0.171  202.613   81.534
  308.698   12.642    0.462    0.160  202.090   70.605
  308.948   14.370    0.458    0.181  202.070   60.561
  309.198   18.565    0.440    0.191  202.049   51.698
  309.448   26.041    0.418    0.216  202.526   51.978
  309.698   32.733    0.406    0.218  203.005   56.688
  309.948   40.769    0.388    0.219  203.484   61.987
  310.198   32.441    0.373    0.213  198.466   66.104
  310.448   23.775    0.385    0.187  198.947   70.224
  310.698   20.169    0.409    0.172  196.929   75.227
  310.948   17.747    0.424    0.150  194.907   81.706
  311.198   14.919    0.432    0.147  194.390   86.710
  311.448   13.741    0.448    0.179  193.867   86.403
  311.698   14.386    0.460    0.170  193.849   80.490
  311.948   17.593    0.445    0.172  194.823   74.871
  312.198   18.930    0.423    0.175  195.804   78.989
  312.448   20.368    0.413    0.156  198.782   91.074
  312.698   20.557    0.402    0.129  201.257   99.028
  312.948   19.821    0.438    0.143  202.235  104.325
  313.198   16.360    0.459    0.151  202.215  105.199
  313.448   15.488    0.446    0.161  202.197  100.762
  313.698   16.513    0.414    0.176  201.175   92.784
  313.948   18.430    0.357    0.244  197.158   73.591
  314.198   20.197    0.346    0.263  196.138   78.891
  314.448   20.572    0.389    0.253  196.618   90.681
  314.698   20.763    0.407    0.189  201.094   93.619
  314.948   21.342    0.410    0.172  204.568   89.772
  315.198   23.820    0.415    0.200  208.045   82.383
  315.448   25.629    0.426    0.206  216.517   75.289
  315.698   30.776    0.439    0.210  217.491   71.146
  315.948   35.627    0.448    0.224  216.979   67.296
  316.198   46.027    0.455    0.251  215.957   64.337
  316.448   52.799    0.459    0.278  214.435   57.242
  316.698   58.392    0.458    0.276  214.914   49.854
  316.948   60.573    0.458    0.276  215.396   44.826
  317.198   61.134    0.464    0.284  215.373   43.634
  317.448   58.944    0.474    0.302  215.352   47.163
  317.698   51.395    0.458    0.290  215.327   56.002
  317.948   41.651    0.415    0.254  215.806   66.611
  318.198   37.669    0.375    0.238  216.288   77.810
  318.448   32.546    0.390    0.216  216.765   81.042
  318.698   27.863    0.396    0.205  217.246   81.620
  318.948   23.854    0.390    0.196  217.723   82.785
  319.198   21.377    0.378    0.184  218.205   84.252
  319.448   19.511    0.374    0.184  218.681   87.778
  319.698   17.646    0.376    0.179  218.664   91.308
  319.948   16.554    0.382    0.179  219.143   92.180
  320.198   15.671    0.402    0.179  219.614   96.890
  320.448   14.973    0.402    0.173  220.099  108.975
  320.698   14.305    0.396    0.166  220.078  114.273
  320.948   13.793    0.399    0.158  218.059  116.621
  321.198   13.420    0.400    0.164  218.539  120.738
  321.448   13.300    0.397    0.163  223.012  126.334
  321.698   13.180    0.402    0.152  228.490  115.994
  321.948   13.424    0.385    0.162  231.465  103.295
  322.198   13.926    0.347    0.154  225.951   96.202
  322.448   13.927    0.338    0.125  218.434   86.747
  322.698   13.929    0.353    0.122  215.916   75.229
  322.948   14.581    0.363    0.139  213.892   65.185
  323.198   17.192    0.383    0.155  213.877   60.155
  323.448   20.085    0.397    0.163  217.351   59.258
  323.698   22.623    0.404    0.212  217.330   57.477
  323.948   24.791    0.410    0.246  216.813   56.285
  324.198   28.963    0.415    0.236  216.290   58.338
  324.448   31.164    0.413    0.254  217.269   60.391
  324.698   30.884    0.407    0.250  222.744   63.031
  324.948   28.447    0.398    0.243  227.218   65.971
  325.198   26.443    0.388    0.250  222.202   71.565
  325.448   24.805    0.378    0.246  217.685   83.945
  325.698   23.270    0.386    0.233  216.168   93.669
  325.948   22.030    0.399    0.225  216.148  102.213
  326.198   21.633    0.404    0.206  201.636   99.840
  326.448   21.438    0.397    0.189  199.615   88.617
  326.698   21.440    0.399    0.176  203.092   81.819
  326.948   21.247    0.406    0.137  206.072   76.495
  327.198   20.299    0.413    0.058  200.056   73.827
  327.448   19.043    0.407    0.085  195.537   72.340
  327.698   18.194    0.401    0.168  196.013   70.556
  327.948   17.542    0.443    0.170  195.993   69.071
  328.198   18.197    0.448    0.147  195.973   66.992
  328.448   21.455    0.427    0.050  194.956   65.505
  328.698   29.280    0.400    0.003  196.434   65.786
  328.948   35.159    0.216    0.003  197.408   73.151
  329.198   40.702    0.239    0.006  197.889   82.579
  329.448   42.223    0.271    0.034  196.867   84.632
  329.698   39.973    0.277    0.047  196.849   87.277
  329.948   34.536    0.276    0.062  197.329   89.921
  330.198   35.826    0.271    0.105  197.306   89.907
  330.448   40.722    0.259    0.095  197.288   89.303
  330.698   49.801    0.256    0.088  198.766   88.406
  330.948   56.092    0.253    0.130  204.236   87.510
  331.198   64.345    0.252    0.231  209.215   84.843
  331.448   64.942    0.249    0.225  221.684   83.354
  331.698   62.618    0.246    0.104  219.665   82.161
  331.948   62.052    0.244    0.078  211.651   81.265
  332.198   62.629    0.243    0.070  202.638   79.776
