~V
VERS. 2.00: Ver 2.00
WRAP. NO:
VEND. PRIZM:GeoGraphix
~W
STRT.M 125.0000:START DEPTH
STOP.M 325.0000:STOP DEPTH
STEP.M 0.2500:STEP
NULL. -999.2500:NULL VALUE
WELL. 00/06-21-082-05W4/0 :WELL
COMP. :COMPANY
UWI. 00_06-21-082-05W4_0:UNIQUE WELL ID
FLD. :FIELD
CNTY. :COUNTY
STAT. :STATE
CTRY. :COUNTRY
PDAT. :PERMANENT DATUM
LMF. :LOG MEASURED FROM
DMF. :DRILLING MEASURED FROM
LOC1. :LOCATION LINE 1
LOC2. :LOCATION LINE 2
LOC3. :LOCATION LINE 3
SEC. :SECTION
TWP. :TOWNSHIP
RAN. :RANGE
SRVC. :Logging Company
BASE. :Logging Unit Location
ENG. :Logging Engineer
WITN. :Witnessed By
RUN. :Run No.
MUD_TYPE. :Type Fluid in Hole
MUDS. :Source of Mud Sample
RMFS. :Source of Mud Filtrate
RMCS. :Source of Mud Cake
LOC. :LOCATION
DATE. :LOG DATE
~C
DEPT.M :DEPTH
NPHI. :NPHI
GR.API :GR
DPHI. :Created by graphical digitiser entry.
ILD.Ohmm :ILD
~P
EKB. -999.2500:ELEVATION OF KELLY BUSHING
EDF. -999.2500:ELEVATION OF DRILLING FLOOR
EGL. -999.2500:ELEVATION OF GROUND LEVEL
EPD. -999.2500:ELEVATION OF PERMANENT DATUM
APD. -999.2500:LMF DISTANCE ABOVE PERMANENT DATUM
LAT. -999.2500:LATITUDE OF WELL LOCATION
LONG. -999.2500:LONGITUDE OF WELL LOCATION
TDD. -999.2500:Total Depth Driller
TDL. -999.2500:Total Depth Logger
LCSG1. -999.2500:Depth of Casing from Logger
CSIZE. -999.2500:Casing Size
CWT. -999.2500:Casing Weight
BS. -999.2500:Bit Size
TLI. 125.1000:Top Logged Interval
BLI. 324.9000:Bottom Logged Interval
MRT. 0.0000:Maximum Recorded Temperature
WMUD. -999.2500:Drilling Mud Density
DFV. -999.2500:Drilling Mud Viscosity
PH. -999.2500:Drilling Mud pH
DFL. -999.2500:Drilling Mud Fluid Loss
RM. -999.2500:Resistivity of Drilling Fluid
RMT. -999.2500:Measured Temp. of Drilling Fluid
RMF. -999.2500:Resistivity of Drilling Fluid Filtrate
RMFT. -999.2500:Measured Temp. of Drilling Fluid Filtrate
RMC. -999.2500:Resistivity of Mud Cake
RMCT. -999.2500:Measured Temp. of Mud Cake
PHImax.V/V 0.3900:Maximum allowable Porosity
RwBnd.OHMM 0.1500:Bound Water Resistivity
RhoHy.KG/MT 1000.0000:Hydrocarbon Bulk density
SwCutoff.V/V 0.7000:Water Saturation Cutoff
PHINsh.V/V 0.4800:New Description
Rw.OHMM 1.0000:Formation Water Resistivity
Rshl.OHMM 5.0000:Resistivity shale
Trw.DEGC 25.0000:Rw measured at Lab conditions
ShaleCutoff.V/V 0.4000:New Description
GRcln.API 45.0000:Gamma Ray clean
RhoM.KG/MT 2650.0000:Bulk Density Matrix
GRshl.API 90.0000:Gamma Ray shale
m. 2.0000:Archie "m"
n. 2.0000:Archie "n"
GasTol.V/V 0.0500:Gas Tollerance
BHTemp.DEGC 25.0000:Bottom Hole Temperature
BHTDepth.M 1000.0000:Bottom Hole Depth
PHIDsh.US/MT 0.1800:New Description
a. 1.0000:Archie "a"
Gas Tol.V/V 0.0500:Gas Tollerance
RhoF.KG/MT 1000.0000:Bulk Density Fluid
RhoShl.KG/MT 2300.0000:Bulk Density Shale
TarCutoff.V/V 0.0300:New Description
SurfTemp.DEGC 10.0000:New Description
HIshl.V/V 0.4000:Neutron Hydrogen Index shale
NULL. -999.2500:
~A
  125.0000  -999.2500  -999.2500  -999.2500  -999.2500 
  125.2500  -999.2500    92.0345  -999.2500     2.3398 
  125.5000  -999.2500    93.6134     0.2833     2.4396 
  125.7500  -999.2500    94.1089     0.2913     2.4566 
  126.0000  -999.2500    93.9411     0.2946     2.5343 
  126.2500  -999.2500    92.4343     0.2873     2.7256 
  126.5000  -999.2500    90.4327     0.2827     2.8801 
  126.7500     0.5656    88.8657     0.2801     2.9307 
  127.0000     0.5725    88.2866     0.2792     2.8700 
  127.2500     0.5767    88.8927     0.2808     2.7332 
  127.5000     0.5798    90.5445     0.2883     2.5822 
  127.7500     0.5906    90.8193     0.2958     2.4514 
  128.0000     0.6085    89.0342     0.2990     2.3358 
  128.2500     0.6086    86.1084     0.3082     2.2346 
  128.5000     0.6063    84.1356     0.3213     2.1504 
  128.7500     0.6176    84.2347     0.3313     2.0842 
  129.0000     0.6184    84.4013     0.3348     2.0315 
  129.2500     0.6237    82.0560     0.3330     2.0061 
  129.5000     0.6202    78.9062     0.3373     1.9963 
  129.7500     0.6173    74.5392     0.3463     2.0609 
  130.0000     0.6164    69.2183     0.3532     2.2549 
  130.2500     0.6141    63.4174     0.3501     2.5799 
  130.5000     0.6060    57.3556     0.3323     2.9355 
  130.7500     0.4922    52.9942     0.3317     3.2733 
  131.0000     0.4533    52.1596     0.3331     3.5242 
  131.2500     0.4464    52.5807     0.3368     3.6993 
  131.5000     0.4511    53.1522     0.3436     3.7812 
  131.7500     0.4593    53.3995     0.3516     3.7759 
  132.0000     0.4639    52.9417     0.3534     3.7651 
  132.2500     0.4621    52.0024     0.3542     3.7272 
  132.5000     0.4634    51.7785     0.3553     3.6689 
  132.7500     0.4714    52.5758     0.3543     3.6054 
  133.0000     0.4842    53.4563     0.3542     3.5443 
  133.2500     0.4983    53.3061     0.3564     3.4908 
  133.5000     0.5131    51.9027     0.3547     3.4531 
  133.7500     0.5064    51.8338     0.3516     3.4311 
  134.0000     0.4962    51.5414     0.3493     3.4129 
  134.2500     0.4951    52.0160     0.3444     3.4339 
  134.5000     0.4935    53.2730     0.3380     3.5232 
  134.7500     0.4812    54.5840     0.3319     3.6679 
  135.0000     0.4681    54.7080     0.3250     3.7758 
  135.2500     0.4610    53.7937     0.3319     3.7489 
  135.5000     0.4583    53.2368     0.3482     3.6400 
  135.7500     0.4574    53.5185     0.3589     3.5223 
  136.0000     0.4605    54.2780     0.3607     3.4346 
  136.2500     0.4694    54.7045     0.3565     3.3812 
  136.5000     0.4804    53.9290     0.3495     3.3319 
  136.7500     0.4821    53.5462     0.3450     3.2849 
  137.0000     0.4762    53.7149     0.3466     3.2397 
  137.2500     0.4689    53.7284     0.3465     3.2106 
  137.5000     0.4617    53.3058     0.3339     3.2450 
  137.7500     0.4274    52.4914     0.2960     3.4219 
  138.0000     0.2866    51.5535     0.2204     3.8487 
  138.2500     0.2280    47.9660     0.1322     4.5570 
  138.5000     0.2273    45.1824     0.1004     5.1882 
  138.7500     0.2808    45.4686     0.1493     5.5743 
  139.0000     0.3607    47.8782     0.2496     5.4723 
  139.2500     0.4337    50.4560     0.3422     4.7878 
  139.5000     0.4794    52.4409     0.3613     3.7980 
  139.7500     0.4739    52.5441     0.3553     3.3943 
  140.0000     0.4790    51.8704     0.3510     3.1581 
  140.2500     0.4819    51.0324     0.3501     3.0311 
  140.5000     0.4791    50.7253     0.3566     2.9714 
  140.7500     0.4745    51.3644     0.3684     2.9517 
  141.0000     0.4778    52.7242     0.3682     2.9577 
  141.2500     0.4748    53.0360     0.3610     2.9637 
  141.5000     0.4642    52.6543     0.3539     2.9704 
  141.7500     0.4567    53.2050     0.3515     2.9783 
  142.0000     0.4529    54.4988     0.3526     2.9867 
  142.2500     0.4512    55.8062     0.3555     2.9961 
  142.5000     0.4549    57.1319     0.3627     3.0094 
  142.7500     0.4570    57.8480     0.3654     3.0376 
  143.0000     0.4657    57.5449     0.3603     3.0742 
  143.2500     0.4764    57.1162     0.3564     3.1130 
  143.5000     0.4849    57.0839     0.3550     3.1511 
  143.7500     0.4891    57.6092     0.3539     3.1848 
  144.0000     0.4918    58.5022     0.3529     3.2045 
  144.2500     0.4866    59.8529     0.3537     3.1960 
  144.5000     0.4764    61.1213     0.3531     3.1875 
  144.7500     0.4631    61.8283     0.3490     3.1790 
  145.0000     0.4537    61.7855     0.3427     3.1705 
  145.2500     0.4551    61.1285     0.3368     3.1622 
  145.5000     0.4688    60.3499     0.3336     3.1545 
  145.7500     0.4674    59.0027     0.3329     3.1491 
  146.0000     0.4688    58.4067     0.3336     3.1446 
  146.2500     0.4724    59.7510     0.3379     3.1403 
  146.5000     0.4718    61.9144     0.3448     3.1361 
  146.7500     0.4658    63.1763     0.3511     3.1320 
  147.0000     0.4690    62.9272     0.3542     3.1277 
  147.2500     0.4698    61.9906     0.3494     3.1214 
  147.5000     0.4630    59.9350     0.3439     3.1097 
  147.7500     0.4583    56.8902     0.3402     3.0930 
  148.0000     0.4615    54.2810     0.3423     3.0740 
  148.2500     0.4715    53.3002     0.3495     3.0553 
  148.5000     0.4772    53.3824     0.3488     3.0384 
  148.7500     0.4903    52.5437     0.3439     3.0259 
  149.0000     0.4938    52.7629     0.3466     3.0136 
  149.2500     0.4889    52.2814     0.3529     3.0014 
  149.5000     0.4830    51.9555     0.3572     2.9893 
  149.7500     0.4811    53.2554     0.3580     2.9773 
  150.0000     0.4768    56.2656     0.3634     2.9652 
  150.2500     0.4740    57.7002     0.3580     2.9539 
  150.5000     0.4676    57.7006     0.3517     2.9463 
  150.7500     0.4592    57.3358     0.3496     2.9429 
  151.0000     0.4511    57.2047     0.3521     2.9416 
  151.2500     0.4482    57.3738     0.3566     2.9404 
  151.5000     0.4601    57.3152     0.3609     2.9392 
  151.7500     0.4731    56.9408     0.3493     2.9380 
  152.0000     0.4824    56.9686     0.3399     2.9368 
  152.2500     0.4850    57.6945     0.3390     2.9355 
  152.5000     0.4822    58.9898     0.3411     2.9340 
  152.7500     0.4783    60.3584     0.3395     2.9325 
  153.0000     0.4795    60.9944     0.3367     2.9311 
  153.2500     0.4825    59.0158     0.3441     2.9290 
  153.5000     0.4822    58.1269     0.3487     2.9247 
  153.7500     0.4790    58.9123     0.3478     2.9179 
  154.0000     0.4739    59.4921     0.3472     2.9098 
  154.2500     0.4688    58.4828     0.3509     2.9017 
  154.5000     0.4671    57.9589     0.3514     2.8936 
  154.7500     0.4663    58.9950     0.3452     2.8855 
  155.0000     0.4643    60.6489     0.3385     2.8828 
  155.2500     0.4573    61.2048     0.3386     2.8897 
  155.5000     0.4499    60.9023     0.3445     2.9021 
  155.7500     0.4468    60.8570     0.3516     2.9146 
  156.0000     0.4450    61.9793     0.3556     2.9269 
  156.2500     0.4452    63.5929     0.3563     2.9367 
  156.5000     0.4465    64.6135     0.3528     2.9434 
  156.7500     0.4517    65.2251     0.3494     2.9495 
  157.0000     0.4570    65.8581     0.3466     2.9598 
  157.2500     0.4608    67.0697     0.3434     2.9813 
  157.5000     0.4734    69.4237     0.3387     3.0221 
  157.7500     0.4904    71.8801     0.3373     3.0690 
  158.0000     0.4837    73.0552     0.3317     3.1158 
  158.2500     0.4847    71.9865     0.3284     3.1545 
  158.5000     0.4928    69.2816     0.3274     3.1774 
  158.7500     0.4953    66.5258     0.3262     3.1847 
  159.0000     0.4874    65.6888     0.3229     3.1920 
  159.2500     0.4793    67.1900     0.3255     3.1992 
  159.5000     0.4766    68.7735     0.3335     3.1971 
  159.7500     0.4762    70.7129     0.3448     3.1707 
  160.0000     0.4839    73.3455     0.3500     3.1131 
  160.2500     0.5062    76.7415     0.3423     3.0208 
  160.5000     0.5419    80.3730     0.3254     2.8885 
