~VERSION INFORMATION
 VERS.                 2.0:   CWLS LOG ASCII STANDARD -VERSION 2.0
 WRAP.                  NO:   ONE LINE PER DEPTH STEP
~WELL INFORMATION BLOCK
#MNEM.UNIT           DATA                    DESCRIPTION OF MNEMONIC
#---------    -------------------            -------------------------------
# Generated from Intellog Unique Number	CS_67_68/WELL/2400
WELL.         BVI ET AL TOUCHWOOD            : Well_name    - WELL
LOC .         00/06-27-067-10W4/0            : Location     - LOCATION
UWI .         00/06-27-067-10W4/0            : Uwi          - UNIQUE WELL ID
ENTR.         ANDERSEN                       : Entered      - ENTERED BY
SRVC.         COMPUTALOG                     : Scn          - SERVICE COMPANY
STRT.M        355                            : top_depth    - START DEPTH
STOP.M        570                            : bot_depth    - STOP DEPTH
STEP.M        0.25                           : increment    - STEP LENGTH
 NULL. -999.2500:NULL Value
~CURVE INFORMATION BLOCK
#MNEM UNIT       ERCB CURVE CODE    CURVE DESCRIPTION
#-----------   ------------------   ----------------------------------
DEPT.M        00 001 00 00         : DEPTH        - DEPTH
GR  .API      00 310 00 00         : GR           - GAMMA RAY
CALI.MM       00 280 01 00         : CAL          - CALIPER
NPHI.V/V      00 330 00 00         : PHIN         - NEUTRON POROSITY (SANDSTONE)
DPHI.V/V      00 890 00 00         : PHID         - DENSITY POROSITY (SANDSTONE)
ILD .OHMM     00 120 00 00         : RESD         - DEEP RESISTIVITY (DIL)
~PARAMETER INFORMATION
#MNEM.UNIT           DATA             DESCRIPTION OF MNEMONIC
#---------         -----------     ------------------------------
GL  .M        645                  : gl           - GROUND LEVEL ELEVATION
EREF.M        649.15               : kb           - ELEVATION OF DEPTH REFERENCE
DATM.M        649.15               : datum        - DATUM ELEVATION
TDD .M        583                  : tdd          - TOTAL DEPTH DRILLER
RUN .         ONE                  : Run          - RUN NUMBER
ENG .         BILL                 : Engineer     - RECORDING ENGINEER
WIT .         JIM                  : Witness      - WITNESSED BY
MUD .         GEL                  : Mud_type     - MUD TYPE
MATR.         SANDSTONE            : Logunit      - NEUTRON MATRIX
TMAX.C        28                   : BHT          - MAXIMUM RECORDED TEMPERATURE
BHTD.M        583                  : BHTDEP       - MAXIMUM RECORDED TEMPERATURE
MATR.         1                    : LOGUNIT      - NEUTRON MATRIX
RMT .C        18                   : MDTP         - TEMPERATURE OF MUD
NEUT.         1                    : NEUTRON      - NEUTRON TYPE
RESI.         0                    : RESIST       - RESISTIVITY TYPE
RMC .OHMM     3.2                  : RMC          - RESISTIVITY OF MUD CAKE
RMF .OHMM     2.8                  : RMF          - RESISTIVITY OF MUD FILTRATE
SUFT.C        15                   : SUFT         - SURFACE TEMPERATURE
~A  DEPTH       GR      CAL     PHIN     PHID     RESD
# ...
  537.500   92.565  182.581    0.328    0.162    6.019
  537.750   94.905  182.558    0.333    0.166    6.358
  538.000   97.836  183.498    0.334    0.171    6.594
  538.250   97.224  183.452    0.339    0.172    6.714
  538.500   87.726  182.420    0.344    0.190    6.710
  538.750   75.862  182.362    0.334    0.201    6.707
  539.000   61.030  182.316    0.313    0.196    6.704
  539.250   54.492  182.270    0.281    0.158    6.825
  539.500   47.954  182.224    0.209    0.114    7.210
  539.750   43.784  182.190    0.154    0.120    7.758
  540.000   44.933  181.157    0.158    0.139    8.196
  540.250   45.497  181.111    0.186    0.144    8.500
  540.500   44.871  181.065    0.205    0.095    8.655
  540.750   44.265  180.996    0.199    0.080    9.142
  541.000   43.054  180.962    0.189    0.084    9.308
  541.250   44.809  180.916    0.217    0.151    9.133
  541.500   48.332  180.870    0.243    0.179    8.322
  541.750   49.488  179.837    0.263    0.190    7.870
  542.000   53.597  178.805    0.280    0.196    7.041
  542.250   57.719  179.757    0.290    0.186    5.850
  542.500   65.386  180.697    0.284    0.168    5.846
  542.750   59.440  180.651    0.274    0.162    6.063
  543.000   53.493  179.630    0.284    0.173    6.173
  543.250   48.731  181.557    0.300    0.201    6.170
  543.500   43.376  181.511    0.291    0.201    5.834
  543.750   65.248  182.452    0.308    0.223    5.416
  544.000   71.731  182.406    0.300    0.198    5.121
  544.250   71.111  184.321    0.306    0.158    5.119
  544.500   70.485  184.286    0.319    0.164    5.117
  544.750   69.879  184.229    0.312    0.165    5.405
  545.000   66.300  182.210    0.313    0.169    5.709
  545.250   62.715  182.164    0.320    0.190    5.921
  545.500   62.102  182.118    0.316    0.196    5.810
  545.750   64.442  182.072    0.319    0.191    5.394
  546.000   66.775  182.026    0.316    0.176    5.100
  546.250   69.115  181.980    0.316    0.181    5.098
  546.500   72.645  181.934    0.320    0.179    5.095
  546.750   73.209  182.874    0.318    0.147    5.092
  547.000   70.814  182.851    0.321    0.152    5.185
  547.250   69.603  182.805    0.326    0.167    5.182
  547.500   71.936  182.759    0.326    0.171    5.179
  547.750   71.317  182.713    0.325    0.168    5.176
  548.000   69.513  182.656    0.321    0.159    5.173
  548.250   68.894  182.610    0.314    0.154    5.171
  548.500   70.057  182.564    0.313    0.159    5.169
  548.750   71.220  182.518    0.313    0.162    5.165
  549.000   72.362  182.472    0.319    0.154    4.975
  549.250   68.205  182.426    0.321    0.156    4.973
  549.500   65.219  182.391    0.327    0.165    4.702
  549.750   68.742  182.345    0.330    0.183    4.787
  550.000   72.858  182.299    0.325    0.190    4.697
  550.250   65.728  182.253    0.324    0.177    4.609
  550.500   53.863  181.221    0.322    0.170    4.606
  550.750   50.277  181.163    0.298    0.116    4.604
  551.000   47.889  181.129    0.286    0.162    4.687
  551.250   48.453  181.083    0.299    0.217    4.685
  551.500   51.970  181.037    0.316    0.208    4.430
  551.750   56.092  181.977    0.320    0.194    4.112
  552.000   64.351  181.931    0.314    0.181    3.889
  552.250   67.874  181.885    0.323    0.172    3.887
  552.500   63.112  181.839    0.328    0.170    4.106
  552.750   61.900  180.807    0.327    0.178    4.259
  553.000   67.791  179.774    0.325    0.175    4.417
  553.250   68.349  178.742    0.328    0.175    4.666
  553.500   68.335  179.694    0.332    0.171    4.578
  553.750   71.859  179.648    0.336    0.165    4.661
  554.000   75.382  178.615    0.337    0.164    4.658
  554.250   71.796  177.571    0.336    0.171    4.656
  554.500   69.401  177.537    0.333    0.181    4.653
  554.750   66.421  177.491    0.331    0.185    4.651
  555.000   61.067  178.420    0.331    0.185    4.649
  555.250   63.999  179.360    0.322    0.189    4.646
  555.500   75.216  179.314    0.315    0.192    4.644
  555.750   75.774  179.280    0.322    0.184    4.641
  556.000   72.794  179.211    0.334    0.168    4.724
  556.250   70.990  179.188    0.335    0.152    4.722
  556.500   76.882  180.128    0.330    0.159    4.808
  556.750   74.480  180.082    0.330    0.162    4.986
  557.000   74.459  181.023    0.331    0.146    5.268
  557.250   75.608  180.977    0.320    0.124    5.363
  557.500   77.370  180.942    0.316    0.120    5.360
  557.750   80.302  180.896    0.326    0.126    5.559
  558.000   78.492  180.850    0.336    0.130    5.556
  558.250   77.879  180.804    0.339    0.134    5.352
  558.500   81.987  180.758    0.340    0.163    5.349
  558.750   81.960  180.712    0.337    0.149    5.346
  559.000   84.898  180.666    0.339    0.133    5.444
  559.250   89.599  181.595    0.347    0.117    5.646
  559.500   91.946  181.560    0.351    0.130    5.747
  559.750   93.694  181.514    0.355    0.142    5.850
  560.000   96.033  182.443    0.346    0.148    5.849
  560.250   98.972  182.397    0.342    0.155    5.955
  560.500  104.264  182.351    0.342    0.151    6.062
  560.750  105.420  182.317    0.349    0.137    6.172
  561.000  107.760  183.257    0.365    0.124    6.400
  561.250  104.188  184.198    0.359    0.125    6.398
  561.500   99.426  185.150    0.341    0.135    6.514
  561.750   94.656  187.065    0.329    0.152    6.510
  562.000   92.268  187.019    0.327    0.147    6.388
  562.250   88.683  186.984    0.322    0.148    6.268
  562.500   96.356  185.941    0.331    0.145    6.037
  562.750  102.247  184.908    0.346    0.132    5.924
  563.000   96.893  183.887    0.352    0.047    5.706
  563.250   88.579  183.841    0.349    0.007    5.598
  563.500  110.450  183.795    0.358    0.112    5.595
  563.750  104.497  184.736    0.407    0.146    5.592
  564.000  100.327  185.676    0.400    0.155    5.589
  564.250  100.891  185.630    0.391    0.150    6.014
  564.500   99.095  185.584    0.368    0.133    6.237
  564.750   91.373  185.538    0.350    0.106    6.469
  565.000   75.957  185.492    0.340    0.076    6.708
  565.250   73.562  185.446    0.343    0.076    6.831
  565.500   89.514  185.400    0.348    0.130    6.827
  565.750   95.997  185.354    0.348    0.150    6.222
  566.000   98.337  185.308    0.351    0.161    4.982
  566.250  100.684  185.262    0.361    0.170    4.625
  566.500  102.425  185.204    0.377    0.184    4.538
  566.750  100.030  184.183    0.407    0.196    4.975
  567.000   97.050  184.137    0.430    0.188    5.764
  567.250   91.104  184.091    0.407    0.124    6.436
  567.500   83.382  184.045    0.375    0.105    7.054
  567.750   72.701  183.999    0.342    0.082    7.453
  568.000   55.502  183.965    0.262    0.048    7.313
  568.250   34.760  182.932    0.184   -0.002    6.789
  568.500   23.486  182.886    0.147   -0.004    7.442
  568.750   21.676  182.840    0.132   -0.004    8.309
  569.000   24.023  182.794    0.137    0.006    9.279
  569.250   28.139  183.735    0.144    0.017    9.984
  569.500   34.030  183.689    0.163    0.034    9.796
  569.750   36.362  184.629    0.186    0.056    9.095
  570.000   36.342  184.583    0.209    0.073    7.282
