~VERSION INFORMATION
 VERS.                 2.0:   CWLS LOG ASCII STANDARD -VERSION 2.0
 WRAP.                  NO:   ONE LINE PER DEPTH STEP
~WELL INFORMATION BLOCK
#MNEM.UNIT           DATA                    DESCRIPTION OF MNEMONIC
#---------    -------------------            -------------------------------
# Generated from Intellog Unique Number	CW_70_72/WELL/529
NULL.         -999.25                        : NULL_VALUE
WELL.         CHIEFCO SCEPTRE SPURFIELD 06-0 : Well_name    - WELL              
LOC .         06-02-072-02W5                 : Location     - LOCATION          
UWI .         00/06-02-072-02W5/0            : Uwi          - UNIQUE WELL ID    
ENTR.         JAYE                           : Entered      - ENTERED BY        
SRVC.         SCHLUMBERGER                   : Scn          - SERVICE COMPANY   
DATE.         21 JAN 78                      : Date         - LOG DATE          
STRT.M        387.096                        : top_depth    - START DEPTH       
STOP.M        640.096                        : bot_depth    - STOP DEPTH        
STEP.M        0.25                           : increment    - STEP LENGTH       
~CURVE INFORMATION BLOCK
#MNEM UNIT       ERCB CURVE CODE    CURVE DESCRIPTION
#-----------   ------------------   ----------------------------------
DEPT.M        00 001 00 00         : DEPTH        - DEPTH                       
DPHI.V/V      00 890 00 00         : PHID         - DENSITY POROSITY (SANDSTONE)
NPHI.V/V      00 330 00 00         : PHIN         - NEUTRON POROSITY (SANDSTONE)
GR  .API      00 310 00 00         : GR           - GAMMA RAY                   
CALI.MM       00 280 01 00         : CAL          - CALIPER                     
ILD .OHMM     00 120 00 00         : RESD         - DEEP RESISTIVITY (DIL)      
~PARAMETER INFORMATION       
#MNEM.UNIT           DATA             DESCRIPTION OF MNEMONIC
#---------         -----------     ------------------------------
GL  .M        588.416              : gl           - GROUND LEVEL ELEVATION      
EREF.M        591.312              : kb           - ELEVATION OF DEPTH REFERENCE
DATM.M        588.416              : datum        - DATUM ELEVATION             
TDD .M        659.892              : tdd          - TOTAL DEPTH DRILLER         
RUN .         ONE                  : Run          - RUN NUMBER                  
ENG .         CONQUIST/DALY        : Engineer     - RECORDING ENGINEER          
WIT .         SIFERD               : Witness      - WITNESSED BY                
BASE.         EDM                  : Branch       - HOME BASE OF LOGGING UNIT   
MUD .         GEL CHEM             : Mud_type     - MUD TYPE                    
MATR.         SANDSTONE            : Logunit      - NEUTRON MATRIX              
TMAX.C        25.5556              : BHT          - MAXIMUM RECORDED TEMPERATURE
BHTD.M        660.197              : BHTDEP       - MAXIMUM RECORDED TEMPERATURE
RMT .C        18.8889              : MDTP         - TEMPERATURE OF MUD          
MUDD.KG/M     1128                 : MWT          - MUD DENSITY                 
NEUT.         1                    : NEUTRON      - NEUTRON TYPE                
RESI.         0                    : RESIST       - RESISTIVITY TYPE            
RM  .OHMM     6.55                 : RM           - RESISTIVITY OF MUD          
RMC .OHMM     0                    : RMC          - RESISTIVITY OF MUD CAKE     
RMF .OHMM     5.8                  : RMF          - RESISTIVITY OF MUD FILTRATE 
SUFT.C        0                    : SUFT         - SURFACE TEMPERATURE         
~A  DEPTH     PHID     PHIN       GR      CAL     RESD
# ...
  606.096    0.182    0.291   57.157  154.426    9.159
  606.346    0.199    0.322   58.594  150.315    7.388
  606.596    0.220    0.345   60.718  148.421    5.949
  606.846    0.204    0.343   62.779  147.794    5.078
  607.096    0.192    0.338   59.604  147.695    4.604
  607.346    0.179    0.335   55.617  148.019    4.434
  607.596    0.185    0.335   52.254  148.341    4.238
  607.846    0.208    0.345   49.390  148.558    4.190
  608.096    0.182    0.333   46.838  149.198    4.214
  608.346    0.082    0.310   42.166  150.683    4.302
  608.596    0.061    0.249   39.052  152.167    4.578
  608.846    0.103    0.155   39.991  154.179    4.964
  609.096    0.150    0.251   42.052  155.769    5.021
  609.346    0.191    0.292   46.296  154.931    4.745
  609.596    0.217    0.321   49.790  153.038    4.367
  609.846    0.192    0.329   52.787  152.832    4.081
  610.096    0.197    0.326   55.222  152.627    3.857
  610.346    0.172    0.322   58.280  152.211    3.864
  610.596    0.175    0.319   62.649  152.219    3.974
  610.846    0.191    0.321   68.451  152.225    4.190
  611.096    0.181    0.324   71.072  152.441    4.543
  611.346    0.179    0.337   75.316  152.766    4.927
  611.596    0.162    0.344   79.372  153.089    5.414
  611.846    0.077    0.342   80.872  153.833    6.107
  612.096    0.041    0.273   76.138  155.845    6.955
  612.346    0.021    0.220   62.925  160.602    8.056
  612.596    0.010    0.187   56.257  164.198    9.599
  612.846    0.033    0.173   50.400  162.831   11.119
  613.096    0.094    0.215   46.040  160.726   12.264
  613.346    0.137    0.292   41.617  158.516   10.748
  613.596    0.164    0.328   31.271  156.833    9.708
  613.846    0.118    0.286   24.979  155.785    8.786
  614.096    0.059    0.185   21.428  155.368    8.132
  614.346    0.038    0.150   20.684  155.163    8.953
  614.596    0.108    0.142   21.997  154.958   10.350
  614.846    0.119    0.173   23.685  155.177   11.655
  615.096    0.130    0.194   24.810  155.393   10.043
  615.346    0.144    0.213   25.749  156.033    9.037
  615.596    0.165    0.230   28.434  158.046    9.455
  615.846    0.053    0.229   32.677  160.480   10.370
  616.096    0.027    0.184   37.481  163.020   11.655
  616.346    0.059    0.128   43.532  164.082   13.323
  616.596    0.080    0.227   56.442  164.300   15.059
  616.846    0.106    0.268   77.580  164.412   17.345
  617.096    0.037    0.308   69.853  164.419   20.053
  617.346    0.015    0.193   52.650  164.635   22.708
  617.596   -0.005    0.100   41.494  164.748   27.057
  617.846    0.003    0.078   29.029  164.859   42.528
  618.096   -0.008    0.085   33.022  165.393   70.335
  618.346   -0.010    0.206   49.485  166.456   66.594
  618.596    0.005    0.229   63.517  167.941   35.894
  618.846    0.025    0.256   73.932  169.107   24.393
  619.096    0.021    0.261   72.502  170.909   19.165
  619.346   -0.004    0.261   81.234  172.498   14.945
  619.596    0.003    0.263  100.939  174.194   12.124
  619.846    0.037    0.271  123.511  175.467   10.194
  620.096    0.098    0.394  137.917  176.846    8.735
  620.346    0.122    0.412  142.410  177.803    7.127
  620.596    0.147    0.426  137.675  179.181    5.423
  620.846    0.143    0.439  134.936  180.771    0.833
  621.096    0.121    0.452  129.765  182.361    0.580
  621.346    0.102    0.424  120.229  183.951    0.344
  621.596    0.071    0.393  117.366  185.435    0.284
  621.846    0.120    0.380  119.053  186.814    0.291
  622.096    0.112    0.351  120.802  186.609    0.539
  622.346    0.102    0.331  124.920  177.748    0.951
  622.596    0.086    0.340  133.528  179.337    6.317
  622.846    0.101    0.382  123.120  181.455    7.033
  623.096    0.135    0.400  103.984  179.667    7.786
  623.346    0.117    0.295   96.382  177.034    9.036
  623.596    0.101    0.272   94.141  175.246    9.854
  623.846    0.083    0.255  102.561  173.668   10.726
  624.096    0.081    0.275  116.406  171.880   10.387
  624.346    0.092    0.305  123.142  169.880    7.742
  624.596    0.101    0.332  122.398  166.614    6.849
  624.846    0.122    0.318  113.985  162.398    6.461
  625.096    0.132    0.296  107.318  160.715    6.400
  625.346    0.121    0.288  100.090  159.560    6.621
  625.596    0.096    0.282   91.864  158.617    6.862
  625.846    0.106    0.267   87.129  158.095    6.953
  626.096    0.082    0.256   86.822  157.574    6.233
  626.346    0.111    0.270   94.868  157.158    5.222
  626.596    0.046    0.328  105.907  156.847    4.628
  626.846   -0.012    0.350  118.504  156.536    4.103
  627.096   -0.025    0.368  116.451  156.226    3.892
  627.346   -0.011    0.391  112.651  155.811    3.996
  627.596    0.062    0.381  122.692  155.500    4.366
  627.846    0.108    0.350  130.801  155.401    4.851
  628.096    0.087    0.317  132.488  154.986    5.301
  628.346    0.084    0.327  130.996  154.991    6.163
  628.596    0.062    0.348  127.383  154.893    6.388
  628.846    0.055    0.355  120.405  154.793    5.453
  629.096    0.038    0.303  114.485  154.694    4.707
  629.346   -0.002    0.289  111.122  154.595    4.672
  629.596    0.043    0.281  115.428  154.706    4.972
  629.846    0.076    0.300  120.232  154.713    5.290
  630.096    0.095    0.312  122.356  154.930    5.556
  630.346    0.077    0.330  112.821  155.676    5.901
  630.596    0.062    0.314  110.331  156.315    6.221
  630.846    0.044    0.347  119.063  157.166    5.901
  631.096    0.018    0.442  124.117  157.912    4.851
  631.346   -0.013    0.369  111.963  155.067    4.806
  631.596   -0.025    0.326   90.271  152.540    4.897
  631.846    0.033    0.253   85.848  153.180    4.925
  632.096    0.070    0.240  114.842  154.664    4.971
  632.346    0.100    0.291  126.567  156.676    5.037
  632.596    0.051    0.401  121.022  158.583    5.162
  632.846    0.062    0.368  108.120  159.962    5.442
  633.096    0.077    0.334   97.588  159.968    5.737
  633.346    0.091    0.298   90.297  158.602    6.232
  633.596    0.115    0.295  100.026  157.658    7.398
  633.846    0.101    0.316  100.030  160.198    8.129
  634.096    0.087    0.300   90.558  159.254    6.797
  634.346    0.118    0.280   73.666  153.666    5.934
  634.596    0.130    0.259   64.505  154.411    5.133
  634.846    0.141    0.281   83.835  155.473    4.724
  635.096    0.155    0.400   98.553  157.485    4.645
  635.346    0.177    0.513  105.913  162.348    4.760
  635.596    0.062    0.531   94.446  170.905    4.832
  635.846    0.089    0.496   80.796  174.185    4.796
  636.096    0.102    0.464   73.318  171.868    4.778
  636.346    0.123    0.443   67.399  158.573    5.046
  636.596    0.071    0.424   57.303  151.400    5.441
  636.846    0.101    0.405   47.394  150.984    6.150
  637.096    0.143    0.375   46.026  151.941    6.874
  637.346    0.155    0.333   45.344  153.109    8.113
  637.596    0.166    0.323   41.358  153.431   11.303
  637.846    0.207    0.293   39.366  151.432   12.143
  638.096    0.147    0.309   39.619  143.731    8.915
  638.346    0.131    0.347   32.142  144.477    7.205
  638.596    0.132    0.401   26.223  146.278    4.961
  638.846    0.147    0.422   23.484  147.446    3.775
  639.096    0.143    0.416   21.804  148.086    3.216
  639.346    0.184    0.404   20.249  148.092    3.247
  639.596    0.159    0.386   19.754  147.465    3.449
  639.846    0.131    0.356   20.568  146.733    3.761
  640.096    0.105    0.341   21.819  146.528    3.995
