~VERSION INFORMATION
 VERS.                 2.0:   CWLS LOG ASCII STANDARD -VERSION 2.0
 WRAP.                  NO:   ONE LINE PER DEPTH STEP
~WELL INFORMATION BLOCK
#MNEM.UNIT           DATA                    DESCRIPTION OF MNEMONIC
#---------    -------------------            -------------------------------
# Generated from Intellog Unique Number	CW_76_78/WELL/2572
WELL.         BAYSEL WILLOW R                : Well_name    - WELL
LOC .         00/07-10-078-03W5/0            : Location     - LOCATION
UWI .         00/07-10-078-03W5/0            : Uwi          - UNIQUE WELL ID
ENTR.         MAX                            : Entered      - ENTERED BY
SRVC.         SCHLUMBERGER                   : Scn          - SERVICE COMPANY
STRT.M        365.76                         : top_depth    - START DEPTH
STOP.M        640.01                         : bot_depth    - STOP DEPTH
STEP.M        0.25                           : increment    - STEP LENGTH
 NULL. -999.2500:NULL Value
~CURVE INFORMATION BLOCK
#MNEM UNIT       ERCB CURVE CODE    CURVE DESCRIPTION
#-----------   ------------------   ----------------------------------
DEPT.M        00 001 00 00         : DEPTH        - DEPTH
ILD .OHMM     00 120 00 00         : RESD         - DEEP RESISTIVITY (DIL)
NPHI.V/V      00 330 00 00         : PHIN         - NEUTRON POROSITY (SANDSTONE)
DPHI.V/V      00 890 00 00         : PHID         - DENSITY POROSITY (SANDSTONE)
CALI.MM       00 280 01 00         : CAL          - CALIPER
GR  .API      00 310 00 00         : GR           - GAMMA RAY
~PARAMETER INFORMATION
#MNEM.UNIT           DATA             DESCRIPTION OF MNEMONIC
#---------         -----------     ------------------------------
GL  .M        660.197              : gl           - GROUND LEVEL ELEVATION
EREF.M        664.403              : kb           - ELEVATION OF DEPTH REFERENCE
DATM.M        660.197              : datum        - DATUM ELEVATION
TDD .M        658.063              : tdd          - TOTAL DEPTH DRILLER
RUN .         ONE                  : Run          - RUN NUMBER
ENG .         BILL                 : Engineer     - RECORDING ENGINEER
WIT .         JIM                  : Witness      - WITNESSED BY
MUD .         GEL                  : Mud_type     - MUD TYPE
MATR.         SANDSTONE            : Logunit      - NEUTRON MATRIX
TMAX.C        26.6667              : BHT          - MAXIMUM RECORDED TEMPERATURE
BHTD.M        658.063              : BHTDEP       - MAXIMUM RECORDED TEMPERATURE
RMT .C        15                   : MDTP         - TEMPERATURE OF MUD
MUDD.KG/M     9300                 : MWT          - MUD DENSITY
NEUT.         1                    : NEUTRON      - NEUTRON TYPE
RESI.         0                    : RESIST       - RESISTIVITY TYPE
RM  .OHMM     0.25                 : RM           - RESISTIVITY OF MUD
RMC .OHMM     0.25                 : RMC          - RESISTIVITY OF MUD CAKE
RMF .OHMM     3.74                 : RMF          - RESISTIVITY OF MUD FILTRATE
SUFT.C        -15                  : SUFT         - SURFACE TEMPERATURE
~A  DEPTH     RESD     PHIN     PHID      CAL       GR
# ...
  402.260   14.584    0.405    0.241  165.973   48.416
  402.510   14.567    0.441    0.236  164.868   47.453
  402.760   14.554    0.440    0.287  164.281   48.956
  403.010   14.537    0.413    0.306  164.225   49.237
  403.260   14.392    0.415    0.306  164.140   49.204
  403.510   14.115    0.443    0.297  163.574   49.167
  403.760   13.977    0.451    0.297  162.979   50.987
  404.010   13.463    0.428    0.307  162.398   53.737
  404.260   12.969    0.415    0.317  162.342   54.014
  404.510   12.381    0.431    0.315  163.328   55.215
  404.760   11.928    0.447    0.306  163.272   57.041
  405.010   11.391    0.461    0.307  164.264   57.941
  405.260   10.488    0.466    0.311  164.719   56.966
  405.510    9.569    0.455    0.310  164.662   55.079
  405.760    8.652    0.439    0.311  164.606   54.736
  406.010    7.544    0.432    0.309  164.019   54.389
  406.260    7.010    0.438    0.325  163.962   57.449
  406.510    6.693    0.453    0.310  165.997   60.826
  406.760    6.106    0.467    0.296  168.039   66.364
  407.010    5.423    0.465    0.277  169.017   66.946
  407.260    4.017    0.458    0.253  168.968   65.665
  407.510    3.348    0.458    0.265  169.429   66.260
  407.760    2.549    0.460    0.286  169.891   69.939
  408.010    2.326    0.460    0.288  170.883   77.958
  408.260    2.261    0.476    0.299  171.869   86.287
  408.510    2.261    0.533    0.294  174.966   93.067
  408.760    2.236    0.539    0.309  174.372   96.746
  409.010    2.193    0.560    0.320  176.413   97.023
  409.260    2.191    0.547    0.315  185.804   98.840
  409.510    2.208    0.530    0.297  195.705  100.669
  409.760    2.206    0.545    0.294  196.173  103.114
  410.010    2.184    0.580    0.322  196.110  105.240
  410.260    2.162    0.605    0.326  197.627  104.278
  410.510    2.159    0.615    0.307  203.319  103.931
  410.760    2.217    0.592    0.304  205.367  104.203
  411.010    2.402    0.567    0.308  208.982  104.789
  411.260    2.929    0.543    0.308  202.108  103.203
  411.510    3.146    0.532    0.333  193.647  100.387
  411.760    3.977    0.568    0.309  192.011   96.943
  412.010    4.937    0.556    0.298  193.010   95.977
  412.260    5.400    0.561    0.299  187.696   94.081
  412.510    6.180    0.508    0.279  185.024   87.854
  412.760    7.008    0.467    0.260  176.570   78.835
  413.010    7.733    0.456    0.243  172.305   79.111
  413.260    8.379    0.453    0.246  170.151   84.029
  413.510    9.166    0.441    0.224  168.514   82.749
  413.760   10.116    0.445    0.216  171.597   79.933
  414.010   11.367    0.466    0.237  173.115   76.489
  414.260   12.098    0.479    0.238  171.485   73.668
  414.510   12.532    0.462    0.257  167.226   69.295
  414.760   12.633    0.450    0.286  164.548   65.541
  415.010   12.733    0.447    0.294  165.541   63.340
  415.260   12.953    0.438    0.312  165.464   60.197
  415.510   13.176    0.431    0.306  165.946   61.097
  415.760   13.403    0.438    0.288  166.917   61.064
  416.010   13.633    0.441    0.300  166.861   58.855
  416.260   13.494    0.435    0.294  166.861   58.202
  416.510   13.240    0.436    0.298  166.196   59.408
  416.760   12.188    0.440    0.303  165.637   59.680
  417.010   11.123    0.438    0.304  166.105   59.953
  417.260    8.622    0.440    0.288  167.098   62.092
  417.510    6.930    0.437    0.290  168.083   66.390
  417.760    6.210    0.426    0.288  168.552   70.383
  418.010    5.513    0.420    0.272  169.530   81.809
  418.260    5.170    0.443    0.246  174.187   96.332
  418.510    4.759    0.481    0.211  179.914  104.041
  418.760    4.503    0.510    0.185  187.717  105.243
  419.010    4.413    0.504    0.177  187.136  102.728
  419.260    4.333    0.505    0.173  186.549  102.071
  419.510    4.329    0.502    0.202  186.457  104.206
  419.760    4.403    0.507    0.202  186.415  106.023
  420.010    4.520    0.505    0.199  186.898  106.308
  420.260    4.598    0.498    0.194  188.918  106.270
  420.510    4.677    0.499    0.185  190.442  105.308
  420.760    4.799    0.507    0.194  191.952  105.262
  421.010    4.839    0.513    0.184  190.847  103.371
  421.260    4.967    0.505    0.203  187.637  100.864
  421.510    5.099    0.501    0.202  187.581   99.894
  421.760    5.139    0.499    0.211  187.518   99.555
  422.010    5.181    0.488    0.193  187.979   98.584
  422.260    5.082    0.485    0.183  187.916   98.242
  422.510    4.941    0.482    0.202  188.377   98.828
  422.760    4.847    0.482    0.201  188.335   98.790
  423.010    4.847    0.485    0.194  188.782   98.439
  423.260    4.792    0.491    0.203  189.265   97.477
  423.510    4.876    0.501    0.202  189.719   97.138
  423.760    5.143    0.498    0.195  190.194   99.884
  424.010    5.674    0.510    0.177  191.697   98.922
  424.260    6.553    0.525    0.193  195.837   95.172
  424.510    7.918    0.528    0.212  197.878   91.724
  424.760    8.580    0.546    0.256  195.200   86.430
  425.010    9.385    0.534    0.304  184.648   72.766
  425.260   10.449    0.510    0.307  178.291   63.437
  425.510   10.629    0.485    0.295  174.033   60.303
  425.760   10.716    0.456    0.281  171.340   60.567
  426.010   10.704    0.445    0.302  169.194   59.604
  426.260   10.790    0.440    0.315  166.515   59.261
  426.510   10.975    0.431    0.320  165.396   58.609
  426.760   10.975    0.428    0.288  166.382   57.647
  427.010   11.051    0.447    0.282  166.850   57.300
  427.260   11.344    0.457    0.280  166.801   56.643
  427.510   11.434    0.439    0.279  166.213   55.672
  427.760   11.422    0.435    0.273  165.626   57.196
  428.010   11.309    0.441    0.280  165.562   58.397
  428.260   11.298    0.446    0.280  166.031   56.502
  428.510   11.597    0.449    0.283  166.457   55.849
  428.760   12.338    0.453    0.281  166.422   55.193
  429.010   12.782    0.459    0.273  165.848   54.850
  429.260   13.004    0.465    0.265  163.687   54.507
  429.510   13.004    0.464    0.262  163.631   53.850
  429.760   13.088    0.459    0.265  164.617   53.185
  430.010   12.844    0.466    0.267  165.085   53.160
  430.260   12.487    0.438    0.257  165.539   50.947
  430.510   11.707    0.392    0.242  166.546   47.511
  430.760   11.078    0.350    0.161  169.105   47.164
  431.010   10.671    0.248    0.122  171.664   50.228
  431.260   10.563    0.300    0.068  170.545   54.221
  431.510   10.459    0.385    0.194  168.922   56.037
  431.760   10.352    0.440    0.261  168.335   56.000
  432.010   10.342    0.461    0.286  168.271   55.657
  432.260   10.238    0.466    0.309  167.698   55.319
  432.510    9.863    0.461    0.314  167.096   55.905
  432.760    9.863    0.456    0.318  167.578   57.106
  433.010    9.751    0.450    0.315  168.033   56.144
  433.260    9.566    0.456    0.306  167.452   54.558
  433.510    9.558    0.443    0.304  166.340   55.760
  433.760    9.722    0.428    0.294  166.277   56.346
  434.010    9.888    0.438    0.302  166.220   55.379
  434.260    9.790    0.438    0.303  166.164   55.346
  434.510    9.790    0.435    0.297  166.633   54.070
  434.760    9.677    0.435    0.301  167.618   53.719
  435.010    9.584    0.440    0.306  169.135   53.070
  435.260    9.484    0.444    0.304  170.121   52.723
  435.510    9.477    0.444    0.309  169.540   52.067
  435.760    9.467    0.444    0.308  169.470   51.100
  436.010    9.542    0.446    0.298  168.883   51.071
  436.260    9.532    0.458    0.300  168.819   51.959
  436.510    9.351    0.463    0.291  168.777   53.474
  436.760    9.173    0.452    0.310  168.714   54.989
  437.010    9.079    0.450    0.303  169.175   55.576
  437.260    9.071    0.449    0.301  169.636   56.781
  437.510    9.142    0.444    0.293  169.573   57.979
  437.760    9.135    0.441    0.297  170.049   57.326
  438.010    9.377    0.451    0.294  169.985   56.665
  438.260    9.624    0.466    0.286  170.454   58.792
  438.510    9.790    0.469    0.298  171.432   60.319
