~VERSION INFORMATION
 VERS.                 2.0:   CWLS LOG ASCII STANDARD -VERSION 2.0
 WRAP.                  NO:   ONE LINE PER DEPTH STEP
~WELL INFORMATION BLOCK
#MNEM.UNIT           DATA                    DESCRIPTION OF MNEMONIC
#---------    -------------------            -------------------------------
# Generated from Intellog Unique Number	CW_73_75/WELL/829
WELL.         07-31-074-25W4                 : Well_name    - WELL
LOC .         00/07-31-074-25W4/0            : Location     - LOCATION
UWI .         00/07-31-074-25W4/0            : Uwi          - UNIQUE WELL ID
ENTR.         JAYE                           : Entered      - ENTERED BY
SRVC.         COMPUTALOG                     : Scn          - SERVICE COMPANY
DATE.         24 FEB 80                      : Date         - LOG DATE
STRT.M        430                            : top_depth    - START DEPTH
STOP.M        626                            : bot_depth    - STOP DEPTH
STEP.M        0.25                           : increment    - STEP LENGTH
 NULL. -999.2500:NULL Value
~CURVE INFORMATION BLOCK
#MNEM UNIT       ERCB CURVE CODE    CURVE DESCRIPTION
#-----------   ------------------   ----------------------------------
DEPT.M        00 001 00 00         : DEPTH        - DEPTH
ILD .OHMM     00 120 00 00         : RESD         - DEEP RESISTIVITY (DIL)
CALI.MM       00 280 01 00         : CAL          - CALIPER
GR  .API      00 310 00 00         : GR           - GAMMA RAY
NPHI.V/V      00 330 00 00         : PHIN         - NEUTRON POROSITY (SANDSTONE)
DPHI.V/V      00 890 00 00         : PHID         - DENSITY POROSITY (SANDSTONE)
~PARAMETER INFORMATION
#MNEM.UNIT           DATA             DESCRIPTION OF MNEMONIC
#---------         -----------     ------------------------------
GL  .M        703.95               : gl           - GROUND LEVEL ELEVATION
EREF.M        707.95               : kb           - ELEVATION OF DEPTH REFERENCE
DATM.M        703.95               : datum        - DATUM ELEVATION
TDD .M        626.4                : tdd          - TOTAL DEPTH DRILLER
RUN .         ONE                  : Run          - RUN NUMBER
ENG .         HOLDEN               : Engineer     - RECORDING ENGINEER
WIT .         LEGG/LEROUX          : Witness      - WITNESSED BY
BASE.         EDM                  : Branch       - HOME BASE OF LOGGING UNIT
MUD .         GEL CHEM             : Mud_type     - MUD TYPE
MATR.         SANDSTONE            : Logunit      - NEUTRON MATRIX
TMAX.C        18                   : BHT          - MAXIMUM RECORDED TEMPERATURE
BHTD.M        627                  : BHTDEP       - MAXIMUM RECORDED TEMPERATURE
RMT .C        5                    : MDTP         - TEMPERATURE OF MUD
MUDD.KG/M     1186                 : MWT          - MUD DENSITY
NEUT.         1                    : NEUTRON      - NEUTRON TYPE
RESI.         0                    : RESIST       - RESISTIVITY TYPE
RM  .OHMM     4.4                  : RM           - RESISTIVITY OF MUD
RMC .OHMM     5.5                  : RMC          - RESISTIVITY OF MUD CAKE
RMF .OHMM     4.7                  : RMF          - RESISTIVITY OF MUD FILTRATE
SUFT.C        0                    : SUFT         - SURFACE TEMPERATURE
~A  DEPTH     RESD      CAL       GR     PHIN     PHID
# ...
  576.000   24.978  202.455   61.365    0.362    0.208
  576.250   25.110  202.369   64.660    0.362    0.200
  576.500   25.243  202.385   66.902    0.349    0.198
  576.750   25.470  202.710   66.601    0.345    0.207
  577.000   25.509  203.139   67.975    0.350    0.218
  577.250   25.788  203.671   67.736    0.373    0.229
  577.500   26.263  204.203   65.079    0.404    0.229
  577.750   26.947  204.530   65.151    0.432    0.227
  578.000   27.803  204.753   66.524    0.424    0.222
  578.250   27.588  204.560   72.549    0.374    0.211
  578.500   27.173  204.576   75.845    0.389    0.200
  578.750   26.320  204.181   73.188    0.379    0.200
  579.000   25.448  203.575   72.949    0.325    0.211
  579.250   23.401  202.555   72.152    0.359    0.227
  579.500   20.466  200.607   68.751    0.372    0.241
  579.750   18.134  199.589   69.567    0.384    0.242
  580.000   16.217  198.987   73.669    0.400    0.236
  580.250   14.858  198.590   76.531    0.393    0.238
  580.500   14.232  198.603   75.859    0.402    0.253
  580.750   14.228  199.446   71.713    0.422    0.263
  581.000   14.816  201.014   69.241    0.442    0.266
  581.250   15.230  202.578   67.329    0.496    0.248
  581.500   15.226  203.214   67.338    0.434    0.211
  581.750   14.531  203.335   67.409    0.360    0.212
  582.000   13.612  203.866   64.752    0.356    0.225
  582.250   12.564  204.501   64.885    0.311    0.232
  582.500   11.639  204.826   67.066    0.335    0.237
  582.750   11.379  205.256   71.912    0.359    0.243
  583.000   11.675  205.378   74.712    0.390    0.245
  583.250   11.979  205.596   75.093    0.356    0.236
  583.500   12.291  205.819   75.847    0.334    0.231
  583.750   12.800  205.941   73.127    0.363    0.229
  584.000   13.231  205.851   71.215    0.370    0.230
  584.250   13.651  205.765   70.480    0.365    0.229
  584.500   14.111  205.473   70.118    0.386    0.226
  584.750   14.668  205.176   67.025    0.386    0.219
  585.000   15.388  204.986   66.664    0.354    0.214
  585.250   15.936  204.689   72.067    0.321    0.216
  585.500   16.320  204.499   71.395    0.340    0.213
  585.750   16.407  204.307   68.552    0.347    0.200
  586.000   16.130  203.808   61.678    0.343    0.190
  586.250   15.337  203.411   63.485    0.352    0.186
  586.500   14.939  202.907   67.650    0.367    0.191
  586.750   15.731  202.719   69.333    0.372    0.190
  587.000   17.192  202.731   69.468    0.344    0.185
  587.250   19.428  202.746   68.733    0.330    0.186
  587.500   21.954  202.766   69.052    0.387    0.196
  587.750   22.567  202.470   66.829    0.420    0.209
  588.000   21.023  202.383   61.443    0.407    0.178
  588.250   19.153  202.400   62.197    0.250    0.128
  588.500   17.450  202.308   68.655    0.233    0.107
  588.750   16.017  202.430   72.386    0.261    0.138
  589.000   14.701  202.442   72.582    0.287    0.164
  589.250   14.293  203.078   71.164    0.296    0.187
  589.500   14.315  203.921   68.445    0.325    0.203
  589.750   14.552  205.283   68.206    0.364    0.215
  590.000   14.958  205.813   70.510    0.386    0.202
  590.250   15.009  205.830   73.186    0.398    0.176
  590.500   14.324  205.431   72.948    0.354    0.146
  590.750   12.343  204.723   76.183    0.332    0.138
  591.000   10.896  204.119   75.757    0.319    0.128
  591.250    9.927  203.826   75.457    0.293    0.098
  591.500    9.027  203.737   75.900    0.257    0.095
  591.750    8.457  203.444   76.654    0.268    0.126
  592.000    8.222  203.354   74.492    0.322    0.175
  592.250    7.979  203.165   71.897    0.334    0.163
  592.500    7.962  203.076   77.301    0.311    0.140
  592.750    8.048  202.988   84.753    0.334    0.133
  593.000    8.121  203.006   90.529    0.351    0.138
  593.250    8.058  203.020   92.214    0.381    0.144
  593.500    7.982  203.138   89.865    0.392    0.153
  593.750    7.862  203.363   89.069    0.365    0.124
  594.000    7.686  203.481   92.117    0.334    0.104
  594.250    7.473  203.702   95.538    0.335    0.122
  594.500    7.292  204.132   98.275    0.341    0.140
  594.750    7.183  204.459  101.944    0.327    0.142
  595.000    7.140  204.991  103.999    0.322    0.144
  595.250    7.353  205.524   95.698    0.339    0.138
  595.500    7.503  205.848   91.615    0.372    0.139
  595.750    8.034  206.174   94.105    0.332    0.145
  596.000    8.797  206.086  101.742    0.282    0.140
  596.250   10.183  205.484  110.495    0.298    0.127
  596.500   10.905  204.671  110.381    0.330    0.132
  596.750   10.881  203.342  103.879    0.353    0.148
  597.000   10.638  201.602   89.377    0.316    0.157
  597.250   10.362  200.790   82.875    0.284    0.109
  597.500   10.301  200.393   85.365    0.189    0.083
  597.750   10.279  200.822   88.910    0.189    0.070
  598.000   10.507  200.942   94.748    0.285    0.106
  598.250   11.044  201.576   97.610    0.339    0.140
  598.500   11.914  202.626   94.519    0.358    0.137
  598.750   12.640  203.365   83.427    0.311    0.101
  599.000   12.778  203.690   75.747    0.280    0.111
  599.250   12.104  203.395   77.183    0.268    0.118
  599.500   11.424  203.413   81.719    0.264    0.113
  599.750   10.427  203.531   87.931    0.251    0.091
  600.000    9.570  203.650   86.823    0.255    0.087
  600.250    8.817  203.666   89.562    0.272    0.099
  600.500    8.461  203.577   87.710    0.283    0.115
  600.750    8.601  203.181   87.719    0.248    0.135
  601.000    9.227  202.059   99.139    0.265    0.152
  601.250    9.789  201.454  111.055    0.288    0.155
  601.500    9.859  201.779  111.127    0.329    0.152
  601.750    9.657  202.312  105.183    0.385    0.102
  602.000    9.165  202.640   94.216    0.306    0.054
  602.250    8.812  202.859   86.411    0.268    0.053
  602.500    8.777  202.671   85.739    0.287    0.083
  602.750    8.807  202.581   85.811    0.346    0.110
  603.000    8.969  202.805   86.068    0.382    0.131
  603.250    9.185  204.474   86.263    0.322    0.143
  603.500    9.372  206.867   82.428    0.304    0.115
  603.750    9.616  205.952   79.585    0.290    0.108
  604.000    9.848  204.210   79.160    0.302    0.111
  604.250    9.918  203.091   82.147    0.319    0.105
  604.500    9.607  202.691   84.698    0.335    0.101
  604.750    9.254  203.018   79.685    0.331    0.095
  605.000    8.799  203.137   77.152    0.290    0.088
  605.250    8.397  203.255   78.960    0.275    0.100
  605.500    8.149  203.168   86.410    0.305    0.113
  605.750    8.041  203.286   90.698    0.337    0.126
  606.000    8.039  203.301   91.266    0.357    0.128
  606.250    8.081  203.318   84.763    0.358    0.120
  606.500    8.094  203.231   78.200    0.345    0.092
  606.750    8.122  202.834   79.822    0.300    0.088
  607.000    8.089  202.643   85.226    0.296    0.096
  607.250    8.132  202.450   86.352    0.332    0.126
  607.500    8.190  202.465   89.028    0.349    0.120
  607.750    7.933  202.484   91.765    0.325    0.116
  608.000    8.185  202.706   89.791    0.292    0.118
  608.250    8.413  202.928   89.367    0.295    0.124
  608.500    8.490  203.357   95.391    0.318    0.130
  608.750    8.487  203.888  105.570    0.330    0.142
  609.000    8.437  204.420  101.673    0.313    0.148
  609.250    8.326  204.952   97.155    0.309    0.136
  609.500    8.261  205.485   90.902    0.313    0.049
  609.750    8.137  205.709   80.368    0.303    0.032
  610.000    7.809  205.931   96.501    0.300    0.042
  610.250    7.248  206.049  105.006    0.297    0.075
  610.500    6.339  206.271  103.094    0.252    0.099
  610.750    5.273  206.493  104.964    0.244    0.108
  611.000    4.020  206.200  105.965    0.274    0.090
  611.250    3.264  206.008  100.951    0.281    0.076
  611.500    2.844  205.610  102.201    0.263    0.227
  611.750    2.724  205.627   96.381    0.252    0.261
  612.000    2.901  206.572   89.693    0.379    0.305
  612.250    3.346  213.099   89.517    0.424    0.337
