~VERSION INFORMATION
 VERS.                 2.0:   CWLS LOG ASCII STANDARD -VERSION 2.0
 WRAP.                  NO:   ONE LINE PER DEPTH STEP
~WELL INFORMATION BLOCK
#MNEM.UNIT           DATA                    DESCRIPTION OF MNEMONIC
#---------    -------------------            -------------------------------
# Generated from Intellog Unique Number	CS_73_76/WELL/2172
WELL.         BOW VALLEY INDUSTRIES LTD      : Well_name    - WELL
LOC .         00/06-34-074-16W4/0            : Location     - LOCATION
UWI .         00/06-34-074-16W4/0            : Uwi          - UNIQUE WELL ID
ENTR.         SP                             : Entered      - ENTERED BY
SRVC.         SCHLUMBERGER                   : Scn          - SERVICE COMPANY
STRT.M        316.992                        : top_depth    - START DEPTH
STOP.M        517.992                        : bot_depth    - STOP DEPTH
STEP.M        0.25                           : increment    - STEP LENGTH
 NULL. -999.2500:NULL Value
~CURVE INFORMATION BLOCK
#MNEM UNIT       ERCB CURVE CODE    CURVE DESCRIPTION
#-----------   ------------------   ----------------------------------
DEPT.M        00 001 00 00         : DEPTH        - DEPTH
GR  .API      00 310 00 00         : GR           - GAMMA RAY
DPHI.V/V      00 890 00 00         : PHID         - DENSITY POROSITY (SANDSTONE)
NPHI.V/V      00 330 00 00         : PHIN         - NEUTRON POROSITY (SANDSTONE)
ILD .OHMM     00 120 00 00         : RESD         - DEEP RESISTIVITY (DIL)
~PARAMETER INFORMATION
#MNEM.UNIT           DATA             DESCRIPTION OF MNEMONIC
#---------         -----------     ------------------------------
GL  .M        666.902              : gl           - GROUND LEVEL ELEVATION
EREF.M        669.95               : kb           - ELEVATION OF DEPTH REFERENCE
DATM.M        666.902              : datum        - DATUM ELEVATION
TDD .M        521.513              : tdd          - TOTAL DEPTH DRILLER
RUN .         ONE                  : Run          - RUN NUMBER
ENG .         BILL                 : Engineer     - RECORDING ENGINEER
WIT .         JIM                  : Witness      - WITNESSED BY
MUD .         GEL                  : Mud_type     - MUD TYPE
MATR.         SANDSTONE            : Logunit      - NEUTRON MATRIX
TMAX.C        28.8889              : BHT          - MAXIMUM RECORDED TEMPERATURE
BHTD.M        521.513              : BHTDEP       - MAXIMUM RECORDED TEMPERATURE
MATR.         1                    : LOGUNIT      - NEUTRON MATRIX
RMT .C        25                   : MDTP         - TEMPERATURE OF MUD
NEUT.         1                    : NEUTRON      - NEUTRON TYPE
RESI.         0                    : RESIST       - RESISTIVITY TYPE
RMC .OHMM     0.25                 : RMC          - RESISTIVITY OF MUD CAKE
RMF .OHMM     0.25                 : RMF          - RESISTIVITY OF MUD FILTRATE
SUFT.C        15                   : SUFT         - SURFACE TEMPERATURE
~A  DEPTH       GR     PHID     PHIN     RESD
# ...
  360.492  102.377    0.274    0.436    8.683
  360.742  107.895    0.270    0.435    8.774
  360.992   99.628    0.254    0.446    9.026
  361.242  100.092    0.261    0.425    9.224
  361.492   96.697    0.250    0.448    8.745
  361.742  101.539    0.221    0.470    8.311
  361.992  103.690    0.230    0.482    8.067
  362.242  100.743    0.234    0.447    7.823
  362.492  105.871    0.225    0.440    7.649
  362.742  104.851    0.238    0.468    7.652
  362.992  108.601    0.250    0.481    7.749
  363.242  108.294    0.234    0.474    8.119
  363.492  102.856    0.262    0.489    8.906
  363.742   97.791    0.272    0.474    9.427
  363.992   74.608    0.267    0.494   10.003
  364.242   66.148    0.301    0.469   10.621
  364.492   60.217    0.338    0.443   10.740
  364.742   55.942    0.352    0.429   10.791
  364.992   54.303    0.353    0.434   10.790
  365.242   59.333    0.345    0.448   10.780
  365.492   63.132    0.357    0.442   10.773
  365.742   61.260    0.362    0.446   10.764
  365.992   60.402    0.351    0.431   10.735
  366.242   59.736    0.336    0.429   10.961
  366.492   57.311    0.334    0.427   10.936
  366.742   54.881    0.343    0.427   10.930
  366.992   51.881    0.336    0.437   10.924
  367.242   52.355    0.352    0.434   10.916
  367.492   53.353    0.358    0.425   10.907
  367.742   53.714    0.353    0.433   10.899
  367.992   53.491    0.358    0.406   10.889
  368.242   58.455    0.358    0.405   10.870
  368.492   59.136    0.352    0.436   11.062
  368.742   56.804    0.337    0.437   11.063
  368.992   55.919    0.343    0.472   11.058
  369.242   58.498    0.355    0.477   11.056
  369.492   60.431    0.352    0.449   11.140
  369.742   58.232    0.337    0.454   11.235
  369.992   56.165    0.338    0.464   11.231
  370.242   54.197    0.348    0.466   11.222
  370.492   54.910    0.352    0.450   11.213
  370.742   56.079    0.347    0.416   11.207
  370.992   55.963    0.337    0.407   11.197
  371.242   57.159    0.337    0.414   11.188
  371.492   59.279    0.345    0.424   11.201
  371.742   57.881    0.352    0.424   10.948
  371.992   56.568    0.357    0.431   10.960
  372.242   58.442    0.369    0.458   10.966
  372.492   60.252    0.357    0.473   10.702
  372.742   60.631    0.359    0.463   10.544
  372.992   64.512    0.367    0.451   10.188
  373.242   66.456    0.375    0.459    9.578
  373.492   61.152    0.378    0.466    9.181
  373.742   56.595    0.382    0.467    8.659
  373.992   56.573    0.383    0.457    8.573
  374.242   60.180    0.406    0.450    8.643
  374.492   56.689    0.427    0.508    9.111
  374.742   56.505    0.434    0.547    9.367
  374.992   58.194    0.426    0.490    9.643
  375.242   57.374    0.407    0.457    9.911
  375.492   59.240    0.385    0.449    9.876
  375.742   67.127    0.392    0.459   10.083
  375.992   66.423    0.401    0.468   10.056
  376.242   62.373    0.399    0.479   10.201
  376.492   61.216    0.394    0.465   10.226
  376.742   62.329    0.390    0.458   10.223
  376.992   61.021    0.389    0.458   10.081
  377.242   71.231    0.389    0.471   10.027
  377.492   80.202    0.389    0.465   10.015
  377.742   81.323    0.385    0.482   10.012
  377.992   68.725    0.375    0.474   10.040
  378.242   62.534    0.371    0.470   10.181
  378.492   60.962    0.370    0.460   10.148
  378.742   58.555    0.376    0.464   10.358
  378.992   57.513    0.376    0.476   10.507
  379.242   58.871    0.368    0.477   10.593
  379.492   55.632    0.364    0.485   10.932
  379.742   51.159    0.366    0.481   11.259
  379.992   50.181    0.344    0.467   11.593
  380.242   52.874    0.344    0.459   11.943
  380.492   53.367    0.337    0.470   12.458
  380.742   55.073    0.348    0.482   12.912
  380.992   55.823    0.356    0.466   13.055
  381.242   55.363    0.355    0.457   13.316
  381.492   51.982    0.347    0.454   13.287
  381.742   51.026    0.334    0.465   13.275
  381.992   52.436    0.331    0.465   13.267
  382.242   51.642    0.340    0.453   13.261
  382.492   50.159    0.351    0.444   13.041
  382.742   49.590    0.353    0.449   12.900
  382.992   49.855    0.355    0.442   12.742
  383.242   49.436    0.363    0.455   12.340
  383.492   48.605    0.365    0.460   11.971
  383.742   48.600    0.358    0.459   11.600
  383.992   51.181    0.351    0.464   11.499
  384.242   52.900    0.343    0.461   10.887
  384.492   52.229    0.340    0.465   10.574
  384.742   52.956    0.345    0.472   10.237
  384.992   55.750    0.356    0.469   10.163
  385.242   55.135    0.363    0.469   10.138
  385.492   54.215    0.363    0.474   10.421
  385.742   53.210    0.367    0.470   10.728
  385.992   57.993    0.361    0.466   11.190
  386.242   68.317    0.346    0.441   11.808
  386.492   77.208    0.350    0.457   12.390
  386.742   82.883    0.364    0.472   12.757
  386.992   85.419    0.351    0.505   13.153
  387.242   76.942    0.342    0.496   13.298
  387.492   72.113    0.331    0.477   13.138
  387.742   69.540    0.319    0.468   12.993
  387.992   66.322    0.318    0.471   12.799
  388.242   70.004    0.320    0.478   12.538
  388.492   72.846    0.328    0.482   12.259
  388.742   70.116    0.333    0.472   12.235
  388.992   67.734    0.326    0.463   12.613
  389.242   65.822    0.318    0.472   12.992
  389.492   66.991    0.328    0.483   13.544
  389.742   67.909    0.327    0.489   14.393
  389.992   69.910    0.327    0.490   15.275
  390.242   69.956    0.322    0.502   15.927
  390.492   69.227    0.321    0.512   15.053
  390.742   66.554    0.309    0.509   13.711
  390.992   63.646    0.167    0.516   12.888
  391.242   59.999    0.096    0.238   12.104
  391.492   62.596    0.118    0.363   11.779
  391.742   69.510    0.227    0.449   11.295
  391.992   70.253    0.281    0.487   11.092
  392.242   68.504    0.318    0.485   11.122
  392.492   70.207    0.340    0.483   10.867
  392.742   70.454    0.346    0.482   10.879
  392.992   70.415    0.340    0.487   10.865
  393.242   71.356    0.328    0.501   10.808
  393.492   70.477    0.328    0.504   10.657
  393.742   70.330    0.321    0.498   10.649
  393.992   71.689    0.327    0.506   10.640
  394.242   72.628    0.322    0.490   10.636
  394.492   74.639    0.315    0.483   10.704
  394.742   75.850    0.327    0.495   11.015
  394.992   76.885    0.328    0.487   11.335
  395.242   77.035    0.339    0.479   11.727
  395.492   75.676    0.335    0.505   11.826
  395.742   74.792    0.325    0.522   11.925
  395.992   72.943    0.304    0.543   12.870
  396.242   66.812    0.257    0.528   14.192
  396.492   60.321    0.105    0.484   15.421
  396.742   64.007    0.095    0.399   16.498
  396.992   68.270    0.125    0.363   17.037
  397.242   66.985    0.270    0.458   15.300
  397.492   56.714    0.242    0.414   13.093
  397.742   50.828    0.125    0.275   11.387
  397.992   51.858    0.055    0.168   10.521
  398.242   59.673    0.056    0.186    9.928
  398.492   70.158    0.215    0.365    9.619
  398.742   78.510    0.305    0.441    9.388
  398.992   82.212    0.333    0.468    9.205
  399.242   77.699    0.347    0.473    9.048
  399.492   74.551    0.356    0.484    8.840
  399.742   74.996    0.337    0.489    9.019
  399.992   79.379    0.332    0.480    9.286
  400.242   81.997    0.338    0.480    9.555
  400.492   84.004    0.347    0.487   10.031
  400.742   83.138    0.362    0.501   10.154
  400.992   81.537    0.357    0.498    9.997
  401.242   81.049    0.339    0.520    9.113
  401.492   81.637    0.191    0.478    8.224
  401.742   81.513    0.123    0.421    7.587
  401.992   79.748    0.175    0.427    7.347
  402.242   76.458    0.258    0.451    7.309
  402.492   85.762    0.314    0.466    7.446
  402.742   88.796    0.350    0.488    7.815
  402.992   85.725    0.344    0.490    8.722
  403.242   82.314    0.332    0.481    9.267
  403.492   79.862    0.326    0.478    8.388
  403.742   80.585    0.328    0.466    7.613
