~VERSION INFORMATION
 VERS.                 2.0:   CWLS LOG ASCII STANDARD -VERSION 2.0
 WRAP.                  NO:   ONE LINE PER DEPTH STEP
~WELL INFORMATION BLOCK
#MNEM.UNIT           DATA                    DESCRIPTION OF MNEMONIC
#---------    -------------------            -------------------------------
# Generated from Intellog Unique Number	CS_73_76/WELL/768
WELL.         MAYNARD EXPLORATION            : Well_name    - WELL
LOC .         00/07-11-073-12W4/0            : Location     - LOCATION
UWI .         00/07-11-073-12W4/0            : Uwi          - UNIQUE WELL ID
ENTR.         SP                             : Entered      - ENTERED BY
SRVC.         SCHLUMBERGER                   : Scn          - SERVICE COMPANY
STRT.M        300                            : top_depth    - START DEPTH
STOP.M        545                            : bot_depth    - STOP DEPTH
STEP.M        0.25                           : increment    - STEP LENGTH
 NULL. -999.2500:NULL Value
~CURVE INFORMATION BLOCK
#MNEM UNIT       ERCB CURVE CODE    CURVE DESCRIPTION
#-----------   ------------------   ----------------------------------
DEPT.M        00 001 00 00         : DEPTH        - DEPTH
ILD .OHMM     00 120 00 00         : RESD         - DEEP RESISTIVITY (DIL)
DPHI.V/V      00 890 00 00         : PHID         - DENSITY POROSITY (LIMESTONE)
NPHI.V/V      00 330 00 00         : PHIN         - NEUTRON POROSITY (LIMESTONE)
GR  .API      00 310 00 00         : GR           - GAMMA RAY
~PARAMETER INFORMATION
#MNEM.UNIT           DATA             DESCRIPTION OF MNEMONIC
#---------         -----------     ------------------------------
GL  .M        661.5                : gl           - GROUND LEVEL ELEVATION
EREF.M        665                  : kb           - ELEVATION OF DEPTH REFERENCE
DATM.M        661.5                : datum        - DATUM ELEVATION
TDD .M        562                  : tdd          - TOTAL DEPTH DRILLER
RUN .         ONE                  : Run          - RUN NUMBER
ENG .         BILL                 : Engineer     - RECORDING ENGINEER
WIT .         JIM                  : Witness      - WITNESSED BY
MUD .         GEL                  : Mud_type     - MUD TYPE
MATR.         LIMESTONE            : Logunit      - NEUTRON MATRIX
TMAX.C        21                   : BHT          - MAXIMUM RECORDED TEMPERATURE
BHTD.M        562                  : BHTDEP       - MAXIMUM RECORDED TEMPERATURE
MATR.         1                    : LOGUNIT      - NEUTRON MATRIX
RMT .C        25                   : MDTP         - TEMPERATURE OF MUD
NEUT.         1                    : NEUTRON      - NEUTRON TYPE
RESI.         0                    : RESIST       - RESISTIVITY TYPE
RMC .OHMM     0.25                 : RMC          - RESISTIVITY OF MUD CAKE
RMF .OHMM     0.25                 : RMF          - RESISTIVITY OF MUD FILTRATE
SUFT.C        15                   : SUFT         - SURFACE TEMPERATURE
~A  DEPTH     RESD     PHID     PHIN       GR
  300.000    1.953    0.289    0.578  103.163
  300.250    2.343    0.278    0.568  100.209
  300.500    2.343    0.277    0.562  102.590
  300.750    2.343    0.270    0.556  100.823
  301.000    2.342    0.263    0.550  102.618
  301.250    2.342    0.265    0.550  102.035
  301.500    2.419    0.265    0.563  100.264
  301.750    2.575    0.273    0.572   97.310
  302.000    2.575    0.278    0.582   97.324
  302.250    2.575    0.270    0.587   94.962
  302.500    2.496    0.266    0.584   91.415
  302.750    2.496    0.260    0.582   93.799
  303.000    2.495    0.250    0.586   95.590
  303.250    2.573    0.244    0.589   97.974
  303.500    2.807    0.248    0.589  100.354
  303.750    2.963    0.245    0.594  103.921
  304.000    3.040    0.246    0.601  105.119
  304.250    3.118    0.254    0.603  100.978
  304.500    3.196    0.254    0.587   98.026
  304.750    3.274    0.257    0.576   95.669
  305.000    3.273    0.266    0.559   92.120
  305.250    3.351    0.262    0.558   95.688
  305.500    3.351    0.258    0.564   97.477
  305.750    3.272    0.249    0.566   96.896
  306.000    3.194    0.246    0.565   96.911
  306.250    3.037    0.249    0.559   95.736
  306.500    2.880    0.259    0.551   96.338
  306.750    2.724    0.260    0.543   98.718
  307.000    2.645    0.254    0.546  101.696
  307.250    2.645    0.249    0.555  102.298
  307.500    2.879    0.253    0.557  100.531
  307.750    2.957    0.259    0.553  100.545
  308.000    3.269    0.264    0.549  101.149
  308.250    3.346    0.260    0.543   99.382
  308.500    3.346    0.259    0.539   98.796
  308.750    3.345    0.256    0.559   99.401
  309.000    3.345    0.253    0.568  101.196
  309.250    3.267    0.244    0.578  101.200
  309.500    3.110    0.236    0.587  104.181
  309.750    3.110    0.243    0.571  104.783
  310.000    3.031    0.245    0.563  104.793
  310.250    3.109    0.251    0.552  104.808
  310.500    3.108    0.255    0.533  104.225
  310.750    3.108    0.244    0.516  103.639
  311.000    2.951    0.232    0.503  100.688
  311.250    2.873    0.232    0.492   96.547
  311.500    3.029    0.237    0.487   96.561
  311.750    3.341    0.244    0.488   97.163
  312.000    4.903    0.312    0.459   89.465
  312.250    7.637    0.350    0.284   76.434
  312.500   13.184    0.375    0.231   67.552
  312.750   25.864    0.394    0.194   59.855
  313.000   30.508    0.390    0.171   50.382
  313.250   31.239    0.405    0.157   44.462
  313.500   29.631    0.411    0.151   45.072
  313.750   26.439    0.409    0.150   44.488
  314.000   25.602    0.408    0.147   43.904
  314.250   27.904    0.414    0.142   39.171
  314.500   33.335    0.415    0.133   35.627
  314.750   37.196    0.415    0.133   37.414
  315.000   37.932    0.402    0.139   40.393
  315.250   34.751    0.376    0.149   40.993
  315.500   26.067    0.345    0.172   45.750
  315.750   21.318    0.326    0.205   54.061
  316.000   14.506    0.309    0.280   61.189
  316.250   12.865    0.298    0.396   65.941
  316.500   12.084    0.301    0.418   71.881
  316.750    7.239    0.311    0.427   76.633
  317.000    7.395    0.314    0.431   76.053
  317.250    7.395    0.317    0.433   76.657
  317.500    7.394    0.315    0.434   80.819
  317.750    7.238    0.310    0.436   84.386
  318.000    7.159    0.301    0.437   88.548
  318.250    7.159    0.293    0.438   92.116
  318.500    7.158    0.287    0.444   95.684
  318.750    7.236    0.279    0.451   95.105
  319.000    7.236    0.265    0.459   92.741
  319.250    7.157    0.255    0.465   92.752
  319.500    7.001    0.243    0.461   93.949
  319.750    6.532    0.239    0.451   97.517
  320.000    6.219    0.240    0.444  101.678
  320.250    6.062    0.243    0.435  104.062
  320.500    5.827    0.249    0.441  102.890
  320.750    5.905    0.255    0.439  102.306
  321.000    6.295    0.272    0.434  101.722
  321.250    6.686    0.282    0.426   99.362
  321.500    7.154    0.295    0.421   96.412
  321.750    7.700    0.297    0.423   95.237
  322.000    8.169    0.287    0.433   94.061
  322.250    8.481    0.280    0.435   95.850
  322.500    8.402    0.269    0.432   92.310
  322.750    7.464    0.262    0.423   91.724
  323.000    7.073    0.252    0.422   91.140
  323.250    6.448    0.235    0.430   89.965
  323.500    6.057    0.217    0.452   95.904
  323.750    5.744    0.216    0.462   89.987
  324.000    5.509    0.215    0.470   88.816
  324.250    5.353    0.215    0.462   91.788
  324.500    5.196    0.230    0.450   95.950
  324.750    5.196    0.238    0.440   94.780
  325.000    5.273    0.230    0.433   95.382
  325.250    5.273    0.231    0.435   95.391
  325.500    5.429    0.219    0.436   93.623
  325.750    5.429    0.209    0.425   93.634
  326.000    5.506    0.232    0.423   92.459
  326.250    5.428    0.252    0.415   89.505
  326.500    5.427    0.239    0.412   87.738
  326.750    5.583    0.262    0.410   86.564
  327.000    5.739    0.269    0.422   85.987
  327.250    5.817    0.251    0.442   86.586
  327.500    5.504    0.254    0.457   90.750
  327.750    5.191    0.241    0.462   93.724
  328.000    5.034    0.228    0.468   97.292
  328.250    4.800    0.222    0.474   99.674
  328.500    4.565    0.222    0.461  101.465
  328.750    4.486    0.222    0.451   97.323
  329.000    4.642    0.222    0.439   93.188
  329.250    4.954    0.239    0.425   91.418
  329.500    5.110    0.248    0.424   87.278
  329.750    5.578    0.247    0.420   79.584
  330.000    5.812    0.255    0.417   79.596
  330.250    6.203    0.264    0.409   79.011
  330.500    6.749    0.268    0.394   75.466
  330.750    7.061    0.293    0.378   65.398
  331.000    7.452    0.302    0.365   51.773
  331.250    7.685    0.306    0.366   47.633
  331.500    7.763    0.308    0.373   59.502
  331.750    7.919    0.312    0.379   67.221
  332.000    7.762    0.296    0.385   74.941
  332.250    7.449    0.305    0.379   79.693
  332.500    7.449    0.286    0.361   70.811
  332.750    8.074    0.294    0.352   58.373
  333.000    8.230    0.316    0.345   48.304
  333.250    8.698    0.326    0.336   42.980
  333.500    9.244    0.315    0.329   40.030
  333.750    9.635    0.303    0.323   39.445
  334.000    9.869    0.307    0.324   38.862
  334.250    9.946    0.310    0.327   38.876
  334.500    9.946    0.328    0.330   38.886
  334.750    9.789    0.340    0.340   38.304
  335.000    9.711    0.347    0.346   38.313
  335.250    9.632    0.350    0.353   40.105
  335.500    9.476    0.360    0.355   40.708
  335.750    9.397    0.368    0.357   40.127
  336.000    9.241    0.362    0.362   42.512
  336.250    9.084    0.353    0.366   46.082
  336.500    9.005    0.341    0.370   47.871
  336.750    9.005    0.350    0.377   50.846
  337.000    9.083    0.342    0.381   53.821
  337.250    9.004    0.331    0.390   57.389
  337.500    8.613    0.338    0.407   60.362
  337.750    8.457    0.337    0.418   63.933
  338.000    8.144    0.332    0.401   66.314
  338.250    7.909    0.351    0.389   62.177
  338.500    7.909    0.359    0.365   55.069
  338.750    8.221    0.348    0.349   34.923
  339.000    9.158    0.336    0.339   29.005
  339.250    9.704    0.335    0.336   30.795
  339.500    9.938    0.336    0.338   32.584
  339.750   10.250    0.337    0.355   39.713
  340.000    9.938    0.335    0.375   43.873
  340.250    9.546    0.333    0.384   47.444
  340.500    9.155    0.349    0.383   50.417
  340.750    8.999    0.364    0.366   51.020
  341.000    8.764    0.372    0.358   42.735
  341.250    9.154    0.364    0.347   38.591
  341.500    9.388    0.345    0.336   32.674
  341.750    9.700    0.328    0.332   28.541
  342.000   10.012    0.325    0.328   27.954
  342.250   10.090    0.325    0.333   29.156
  342.500   10.168    0.325    0.335   29.163
  342.750   10.168    0.325    0.348   29.775
  343.000   10.167    0.325    0.353   29.783
  343.250   10.089    0.325    0.348   29.790
