~VERSION INFORMATION
 VERS.                 2.0:   CWLS LOG ASCII STANDARD -VERSION 2.0
 WRAP.                  NO:   ONE LINE PER DEPTH STEP
~WELL INFORMATION BLOCK
#MNEM.UNIT           DATA                    DESCRIPTION OF MNEMONIC
#---------    -------------------            -------------------------------
# Generated from Intellog Unique Number	CW_73_75/WELL/2730
WELL.         MANNVILLE ET AL MITSUE 07-21   : Well_name    - WELL
LOC .         00/07-21-073-02W5/0            : Location     - LOCATION
UWI .         00/07-21-073-02W5/0            : Uwi          - UNIQUE WELL ID
ENTR.         JAYE                           : Entered      - ENTERED BY
SRVC.         SCHLUMBERGER                   : Scn          - SERVICE COMPANY
DATE.         31 JULY 77                     : Date         - LOG DATE
STRT.M        381                            : top_depth    - START DEPTH
STOP.M        603.5                          : bot_depth    - STOP DEPTH
STEP.M        0.25                           : increment    - STEP LENGTH
 NULL. -999.2500:NULL Value
~CURVE INFORMATION BLOCK
#MNEM UNIT       ERCB CURVE CODE    CURVE DESCRIPTION
#-----------   ------------------   ----------------------------------
DEPT.M        00 001 00 00         : DEPTH        - DEPTH
DPHI.V/V      00 890 00 00         : PHID         - DENSITY POROSITY (SANDSTONE)
NPHI.V/V      00 330 00 00         : PHIN         - NEUTRON POROSITY (SANDSTONE)
GR  .API      00 310 00 00         : GR           - GAMMA RAY
CALI.MM       00 280 01 00         : CAL          - CALIPER
ILD .OHMM     00 120 00 00         : RESD         - DEEP RESISTIVITY (DLL)
~PARAMETER INFORMATION
#MNEM.UNIT           DATA             DESCRIPTION OF MNEMONIC
#---------         -----------     ------------------------------
GL  .M        615.086              : gl           - GROUND LEVEL ELEVATION
EREF.M        618.134              : kb           - ELEVATION OF DEPTH REFERENCE
DATM.M        615.086              : datum        - DATUM ELEVATION
TDD .M        612.648              : tdd          - TOTAL DEPTH DRILLER
RUN .         ONE                  : Run          - RUN NUMBER
ENG .         MACKAY               : Engineer     - RECORDING ENGINEER
WIT .         SPICER               : Witness      - WITNESSED BY
BASE.         EDM                  : Branch       - HOME BASE OF LOGGING UNIT
MUD .         GEL                  : Mud_type     - MUD TYPE
MATR.         SANDSTONE            : Logunit      - NEUTRON MATRIX
TMAX.C        27.2222              : BHT          - MAXIMUM RECORDED TEMPERATURE
BHTD.M        612.953              : BHTDEP       - MAXIMUM RECORDED TEMPERATURE
RMT .C        18.8889              : MDTP         - TEMPERATURE OF MUD
MUDD.KG/M     1128                 : MWT          - MUD DENSITY
NEUT.         1                    : NEUTRON      - NEUTRON TYPE
RESI.         1                    : RESIST       - RESISTIVITY TYPE
RM  .OHMM     5.1                  : RM           - RESISTIVITY OF MUD
RMC .OHMM     0                    : RMC          - RESISTIVITY OF MUD CAKE
RMF .OHMM     6.58                 : RMF          - RESISTIVITY OF MUD FILTRATE
SUFT.C        -17.7778             : SUFT         - SURFACE TEMPERATURE
~A  DEPTH     PHID     PHIN       GR      CAL     RESD
# ...
  454.000    0.192    0.374   93.787  162.503    4.335
  454.250    0.163    0.356   97.457  163.553    4.318
  454.500    0.171    0.386   95.836  164.392    4.317
  454.750    0.192    0.402   95.895  165.125    4.316
  455.000    0.200    0.415   97.573  165.331    4.323
  455.250    0.201    0.421   99.625  165.537    4.322
  455.500    0.209    0.417  102.236  165.850    4.305
  455.750    0.217    0.422  103.541  166.478    4.279
  456.000    0.207    0.441  102.231  167.211    4.278
  456.250    0.195    0.457   99.241  168.364    4.164
  456.500    0.182    0.443   96.624  168.782    4.147
  456.750    0.195    0.432   93.634  169.199    4.283
  457.000    0.195    0.435   90.271  169.407    4.340
  457.250    0.201    0.436   89.148  168.875    4.273
  457.500    0.214    0.440   91.013  167.712    4.216
  457.750    0.217    0.441   94.184  166.443    4.072
  458.000    0.199    0.434   97.293  166.122    4.040
  458.250    0.179    0.430  100.465  166.328    4.062
  458.500    0.171    0.432  102.890  166.535    4.108
  458.750    0.181    0.433  104.941  166.425    4.115
  459.000    0.168    0.438  106.183  166.526    4.067
  459.250    0.158    0.444  106.679  166.522    3.974
  459.500    0.150    0.456  107.298  166.517    3.687
  459.750    0.151    0.457  108.167  166.302    3.548
  460.000    0.151    0.450  107.978  166.192    3.665
  460.250    0.155    0.442  106.855  166.083    3.970
  460.500    0.167    0.445  103.678  166.395    4.302
  460.750    0.173    0.460   99.817  165.863    4.590
  461.000    0.182    0.475   95.333  165.121    4.832
  461.250    0.166    0.481   90.227  163.431    5.205
  461.500    0.181    0.488   81.822  160.791    5.491
  461.750    0.199    0.494   69.994  159.312    5.628
  462.000    0.249    0.474   64.141  158.359    5.333
  462.250    0.267    0.453   64.698  158.460    5.034
  462.500    0.278    0.432   66.127  158.982    4.644
  462.750    0.268    0.434   70.295  159.926    4.426
  463.000    0.261    0.439   79.068  160.132    4.367
  463.250    0.254    0.425   84.293  160.444    4.408
  463.500    0.223    0.420   85.535  160.335    4.373
  463.750    0.209    0.432   76.259  160.225    4.208
  464.000    0.232    0.445   68.165  160.009    3.995
  464.250    0.270    0.431   64.677  160.005    3.616
  464.500    0.256    0.418   69.716  160.106    3.368
  464.750    0.238    0.403   71.954  159.891    3.247
  465.000    0.273    0.431   70.831  159.570    3.191
  465.250    0.294    0.435   68.837  159.039    3.221
  465.500    0.266    0.441   66.469  158.930    3.270
  465.750    0.248    0.449   64.164  158.609    3.332
  466.000    0.268    0.458   60.552  158.499    3.435
  466.250    0.249    0.448   62.416  158.284    3.454
  466.500    0.238    0.432   62.600  158.385    3.453
  466.750    0.232    0.434   61.042  157.326    3.472
  467.000    0.224    0.438   63.653  156.901    3.518
  467.250    0.208    0.421   67.012  156.791    3.655
  467.500    0.241    0.433   69.623  156.997    3.818
  467.750    0.271    0.456   67.504  157.099    4.177
  468.000    0.274    0.436   67.875  156.989    4.491
  468.250    0.254    0.415   72.727  156.984    4.603
  468.500    0.236    0.399   77.704  156.768    4.532
  468.750    0.215    0.388   82.867  156.765    4.411
  469.000    0.202    0.374   91.703  156.761    4.124
  469.250    0.204    0.403  107.820  157.073    3.754
  469.500    0.210    0.430  121.884  157.277    3.366
  469.750    0.228    0.455  104.392  157.275    3.017
  470.000    0.250    0.485   86.900  157.480    2.843
  470.250    0.275    0.482   78.308  157.897    2.788
  470.500    0.314    0.458   82.040  157.999    2.820
  470.750    0.300    0.447   78.303  158.100    2.857
  471.000    0.284    0.443   74.130  158.412    2.878
  471.250    0.286    0.443   70.891  158.302    2.922
  471.500    0.303    0.443   70.764  157.981    3.007
  471.750    0.290    0.440   74.807  157.767    3.094
  472.000    0.271    0.431   80.406  157.656    3.183
  472.250    0.258    0.423   83.204  157.652    3.281
  472.500    0.269    0.436   86.749  157.647    3.408
  472.750    0.281    0.445   92.099  157.854    3.507
  473.000    0.243    0.438   94.088  157.956    3.567
  473.250    0.223    0.453   91.783  158.372    3.532
  473.500    0.250    0.447   89.415  158.685    3.525
  473.750    0.243    0.438   87.857  158.891    3.517
  474.000    0.226    0.423   84.307  159.097    3.496
  474.250    0.246    0.441   82.499  159.515    3.502
  474.500    0.266    0.456   84.239  159.404    3.521
  474.750    0.256    0.444   87.410  159.400    3.534
  475.000    0.259    0.461   89.462  159.290    3.547
  475.250    0.247    0.467   91.327  159.391    3.560
  475.500    0.236    0.444   93.378  159.492    3.566
  475.750    0.220    0.453   94.060  159.804    3.585
  476.000    0.201    0.455   94.058  160.221    3.654
  476.250    0.218    0.436   94.180  160.955    3.717
  476.500    0.205    0.450   92.683  161.688    3.766
  476.750    0.186    0.456   92.369  162.105    3.794
  477.000    0.196    0.432   95.665  162.206    3.793
  477.250    0.182    0.407   98.962  162.307    3.792
  477.500    0.185    0.435   99.021  162.725    3.791
  477.750    0.211    0.441   97.587  163.141    3.812
  478.000    0.195    0.434   98.518  163.875    3.826
  478.250    0.191    0.429   98.827  164.292    3.803
  478.500    0.179    0.423   98.949  164.393    3.824
  478.750    0.165    0.434  102.120  164.389    3.823
  479.000    0.157    0.461  100.250  164.279    3.808
  479.250    0.161    0.473   97.571  164.274    3.800
  479.500    0.184    0.465   97.818  164.586    3.763
  479.750    0.202    0.464   99.745  164.687    3.762
  480.000    0.189    0.475  101.049  164.894    3.783
  480.250    0.202    0.474  101.296  165.311    3.811
  480.500    0.185    0.455  100.111  165.413    3.817
  480.750    0.162    0.452   98.552  165.302    3.817
  481.000    0.193    0.452   98.674  165.086    3.830
  481.250    0.204    0.455   96.244  165.082    3.851
  481.500    0.195    0.469   97.797  165.184    3.858
  481.750    0.214    0.469  100.346  165.496    3.857
  482.000    0.196    0.466   99.784  166.124    3.820
  482.250    0.177    0.465  101.773  166.541    3.753
  482.500    0.189    0.464  103.326  166.115    3.543
  482.750    0.204    0.462   98.033  164.213    3.351
  483.000    0.233    0.459   89.317  161.996    3.268
  483.250    0.266    0.446   81.099  160.410    3.280
  483.500    0.291    0.436   75.682  160.090    3.311
  483.750    0.301    0.427   73.811  159.875    3.446
  484.000    0.315    0.427   73.125  159.975    3.586
  484.250    0.319    0.432   70.446  160.077    3.754
  484.500    0.308    0.429   68.451  160.388    3.922
  484.750    0.303    0.425   65.586  160.911    4.043
  485.000    0.293    0.443   66.144  161.223    4.168
  485.250    0.288    0.436   68.630  161.324    4.223
  485.500    0.288    0.426   70.184  161.003    4.222
  485.750    0.282    0.424   71.986  160.788    4.229
  486.000    0.283    0.440   74.162  160.572    4.252
  486.250    0.284    0.437   75.902  160.674    4.309
  486.500    0.292    0.441   77.331  160.669    4.366
  486.750    0.302    0.440   77.515  160.665    4.382
  487.000    0.298    0.433   76.205  160.451    4.347
  487.250    0.262    0.421   75.020  160.341    4.321
  487.500    0.270    0.413   74.396  160.336    4.288
  487.750    0.290    0.430   73.646  160.227    4.221
  488.000    0.258    0.440   73.270  160.327    4.172
  488.250    0.270    0.433   73.516  160.323    4.077
  488.500    0.282    0.424   74.696  160.423    4.045
  488.750    0.288    0.435   76.125  160.525    3.998
  489.000    0.295    0.428   75.251  160.520    3.913
  489.250    0.283    0.424   70.145  160.622    3.868
  489.500    0.255    0.432   69.022  160.300    3.736
  489.750    0.269    0.436   69.268  160.086    3.757
  490.000    0.291    0.441   70.137  160.187    3.821
  490.250    0.279    0.436   71.068  160.183    3.909
