~VERSION INFORMATION
 VERS.                 2.0:   CWLS LOG ASCII STANDARD -VERSION 2.0
 WRAP.                  NO:   ONE LINE PER DEPTH STEP
~WELL INFORMATION BLOCK
#MNEM.UNIT           DATA                    DESCRIPTION OF MNEMONIC
#---------    -------------------            -------------------------------
# Generated from Intellog Unique Number	CW_79_81/WELL/2451
WELL.         06-15-080-22W4                 : Well_name    - WELL
LOC .         00/06-15-080-22W4/0            : Location     - LOCATION
UWI .         00/06-15-080-22W4/0            : Uwi          - UNIQUE WELL ID
ENTR.         MAX                            : Entered      - ENTERED BY
SRVC.         SCHLUMBERGER                   : Scn          - SERVICE COMPANY
STRT.M        215                            : top_depth    - START DEPTH
STOP.M        434.75                         : bot_depth    - STOP DEPTH
STEP.M        0.25                           : increment    - STEP LENGTH
 NULL. -999.2500:NULL Value
~CURVE INFORMATION BLOCK
#MNEM UNIT       ERCB CURVE CODE    CURVE DESCRIPTION
#-----------   ------------------   ----------------------------------
DEPT.M        00 001 00 00         : DEPTH        - DEPTH
ILD .OHMM     00 120 00 00         : RESD         - DEEP RESISTIVITY (DIL)
NPHI.V/V      00 330 00 00         : PHIN         - NEUTRON POROSITY (SANDSTONE)
DPHI.V/V      00 890 00 00         : PHID         - DENSITY POROSITY (SANDSTONE)
GR  .API      00 310 00 00         : GR           - GAMMA RAY
CALI.MM       00 280 01 00         : CAL          - CALIPER
~PARAMETER INFORMATION
#MNEM.UNIT           DATA             DESCRIPTION OF MNEMONIC
#---------         -----------     ------------------------------
GL  .M        586                  : gl           - GROUND LEVEL ELEVATION
EREF.M        590.5                : kb           - ELEVATION OF DEPTH REFERENCE
DATM.M        586                  : datum        - DATUM ELEVATION
TDD .M        440                  : tdd          - TOTAL DEPTH DRILLER
RUN .         ONE                  : Run          - RUN NUMBER
ENG .         BILL                 : Engineer     - RECORDING ENGINEER
WIT .         JIM                  : Witness      - WITNESSED BY
MUD .         GEL                  : Mud_type     - MUD TYPE
MATR.         SANDSTONE            : Logunit      - NEUTRON MATRIX
TMAX.C        28                   : BHT          - MAXIMUM RECORDED TEMPERATURE
BHTD.M        440                  : BHTDEP       - MAXIMUM RECORDED TEMPERATURE
MATR.         1                    : LOGUNIT      - NEUTRON MATRIX
RMT .C        17                   : MDTP         - TEMPERATURE OF MUD
NEUT.         1                    : NEUTRON      - NEUTRON TYPE
RESI.         0                    : RESIST       - RESISTIVITY TYPE
RMC .OHMM     7.25                 : RMC          - RESISTIVITY OF MUD CAKE
RMF .OHMM     6.53                 : RMF          - RESISTIVITY OF MUD FILTRATE
SUFT.C        -20.5556             : SUFT         - SURFACE TEMPERATURE
~A  DEPTH     RESD     PHIN     PHID       GR      CAL
# ...
  361.000   10.194    0.428    0.192   92.836  231.291
  361.250   10.168    0.422    0.200   94.409  231.348
  361.500   10.228    0.428    0.207   93.376  231.012
  361.750   10.508    0.449    0.208   89.053  230.517
  362.000   10.818    0.438    0.218   88.597  229.741
  362.250   11.123    0.430    0.219   87.677  229.017
  362.500   11.210    0.420    0.223   87.649  228.273
  362.750   11.181    0.412    0.223   87.681  228.125
  363.000   11.095    0.411    0.215   87.183  228.478
  363.250   10.943    0.427    0.204   85.902  228.538
  363.500   10.876    0.426    0.195   86.419  228.595
  363.750   10.886    0.428    0.192   89.055  229.828
  364.000   10.895    0.431    0.193   91.694  231.064
  364.250   10.831    0.429    0.196   91.608  231.905
  364.500   10.659    0.424    0.200   89.152  232.253
  364.750   10.359    0.422    0.200   88.015  232.405
  365.000   10.222    0.422    0.199   89.282  232.867
  365.250   10.231    0.431    0.202   90.028  232.922
  365.500   10.345    0.412    0.202   91.122  232.976
  365.750   10.461    0.405    0.198   92.456  233.028
  366.000   10.540    0.422    0.194   93.853  233.081
  366.250   10.607    0.440    0.204   95.070  233.154
  366.500   10.542    0.436    0.212   95.104  233.194
  366.750   10.130    0.413    0.214   93.713  233.249
  367.000    9.836    0.413    0.203   93.392  233.311
  367.250    9.748    0.423    0.192   94.135  233.171
  367.500    9.839    0.432    0.185   95.171  232.925
  367.750    9.997    0.430    0.177   94.526  232.984
  368.000   10.075    0.429    0.177   92.341  233.035
  368.250    9.749    0.426    0.176   92.847  233.484
  368.500    9.385    0.432    0.181   92.463  233.929
  368.750    9.145    0.433    0.187   91.904  234.967
  369.000    9.076    0.423    0.191   91.702  236.206
  369.250    9.173    0.411    0.192   92.705  236.030
  369.500    9.311    0.405    0.191   95.204  234.848
  369.750    9.702    0.407    0.198   96.900  234.514
  370.000    9.762    0.396    0.203   98.052  235.059
  370.250    9.274    0.384    0.200   99.737  235.699
  370.500    8.557    0.381    0.191  101.190  235.651
  370.750    8.185    0.397    0.182   99.562  234.222
  371.000    8.252    0.407    0.157   98.359  234.696
  371.250    8.426    0.382    0.168  102.889  236.312
  371.500    8.648    0.372    0.180  101.026  237.053
  371.750    8.921    0.376    0.179   95.023  236.716
  372.000    9.267    0.386    0.164   89.376  235.392
  372.250    9.850    0.388    0.141   91.618  233.234
  372.500   10.507    0.396    0.138   95.601  232.057
  372.750   11.318    0.405    0.177   90.897  232.117
  373.000   12.255    0.400    0.198   85.840  232.161
  373.250   13.385    0.392    0.211   82.320  232.016
  373.500   14.666    0.391    0.223   81.107  231.484
  373.750   16.079    0.408    0.240   81.557  230.355
  374.000   17.523    0.421    0.242   80.112  230.412
  374.250   19.002    0.417    0.238   78.965  231.261
  374.500   20.715    0.416    0.236   74.969  231.510
  374.750   22.492    0.398    0.198   70.029  229.981
  375.000   24.025    0.357    0.127   65.329  227.860
  375.250   24.883    0.299    0.073   60.993  228.792
  375.500   24.906    0.281    0.062   59.301  229.260
  375.750   23.930    0.296    0.132   63.354  229.314
  376.000   22.525    0.337    0.167   68.298  229.665
  376.250   20.322    0.379    0.199   70.934  230.111
  376.500   18.092    0.410    0.226   70.909  230.653
  376.750   16.730    0.425    0.212   71.355  231.503
  377.000   16.283    0.403    0.189   74.591  231.559
  377.250   15.972    0.383    0.192   80.777  232.014
  377.500   14.871    0.386    0.191   86.967  233.060
  377.750   13.927    0.408    0.181   90.194  233.509
  378.000   13.368    0.430    0.165   88.507  232.868
  378.250   13.028    0.413    0.146   80.729  231.432
  378.500   13.037    0.392    0.136   79.534  231.900
  378.750   12.962    0.383    0.152   79.083  232.738
  379.000   12.755    0.382    0.149   76.865  233.280
  379.250   12.510    0.385    0.157   75.239  233.927
  379.500   12.272    0.396    0.187   74.677  234.676
  379.750   12.154    0.415    0.224   72.981  235.134
  380.000   12.781    0.420    0.195   69.066  235.179
  380.250   14.322    0.364    0.147   62.945  233.661
  380.500   17.298    0.278    0.092   58.421  232.723
  380.750   22.125    0.216    0.058   55.140  232.772
  381.000   28.139    0.201    0.052   53.515  233.222
  381.250   29.879    0.226    0.058   55.523  232.174
  381.500   27.693    0.244    0.073   59.499  230.582
  381.750   23.831    0.293    0.136   63.085  230.242
  382.000   20.866    0.332    0.171   64.716  230.498
  382.250   18.370    0.357    0.190   66.049  230.747
  382.500   16.433    0.369    0.200   67.321  230.793
  382.750   15.085    0.381    0.204   67.358  231.024
  383.000   14.179    0.394    0.198   67.392  231.909
  383.250   13.719    0.393    0.179   70.268  231.963
  383.500   13.479    0.384    0.175   70.654  231.714
  383.750   13.309    0.380    0.186   69.738  230.974
  384.000   13.097    0.384    0.203   69.119  230.042
  384.250   12.672    0.399    0.199   71.552  229.630
  384.500   12.248    0.404    0.188   75.285  229.270
  384.750   11.931    0.412    0.185   79.104  228.925
  385.000   11.622    0.414    0.201   80.797  229.775
  385.250   11.439    0.411    0.218   80.829  230.619
  385.500   11.314    0.407    0.226   79.794  230.962
  385.750   10.994    0.409    0.225   78.458  231.197
  386.000   10.849    0.410    0.211   78.736  232.070
  386.250   10.499    0.396    0.201   83.739  232.113
  386.500   10.316    0.389    0.200   88.390  232.165
  386.750   10.186    0.388    0.205   91.383  232.222
  387.000   10.144    0.394    0.210   92.657  232.477
  387.250   10.407    0.403    0.197   92.911  233.325
  387.500   10.636    0.394    0.177   90.483  233.376
  387.750   10.790    0.382    0.154   91.219  233.442
  388.000   10.565    0.380    0.130   94.978  233.491
  388.250   10.258    0.388    0.136   98.090  233.540
  388.500    9.993    0.400    0.168   98.834  233.399
  388.750    9.683    0.402    0.190   97.496  232.679
  389.000    9.424    0.393    0.198   97.780  232.724
  389.250    9.180    0.385    0.204   95.683  232.779
  389.500    9.034    0.398    0.202   93.585  234.017
  389.750    8.951    0.406    0.190   94.325  235.055
  390.000    8.989    0.395    0.177   97.548  235.006
  390.250    9.425    0.366    0.186   99.916  233.000
  390.500   10.053    0.361    0.190  100.939  230.586
  390.750   10.266    0.367    0.185  100.729  229.462
  391.000   10.223    0.383    0.177   99.991  230.697
  391.250    9.922    0.400    0.174  100.852  233.113
  391.500    9.440    0.412    0.178  102.425  235.435
  391.750    8.873    0.413    0.176  100.024  235.971
  392.000    8.756    0.407    0.156   96.106  234.378
  392.250    9.185    0.387    0.088   96.138  231.266
  392.500   10.165    0.375    0.119   99.009  230.828
  392.750   11.024    0.384    0.162  103.894  232.067
  393.000   11.431    0.410    0.177  107.360  233.595
  393.250   12.159    0.415    0.155  102.679  233.410
  393.500   13.539    0.393    0.119   99.261  232.240
  393.750   14.975    0.365    0.150  109.944  231.116
  394.000   16.338    0.369    0.167  112.105  230.272
  394.250   17.450    0.375    0.159  106.811  229.927
  394.500   18.369    0.369    0.126   96.429  230.084
  394.750   19.605    0.345    0.090   84.679  230.625
  395.000   19.899    0.328    0.113   84.959  231.087
  395.250   19.520    0.338    0.171   87.356  231.136
  395.500   19.048    0.350    0.197   89.934  230.598
  395.750   18.362    0.362    0.199   90.796  230.261
  396.000   17.246    0.373    0.183   89.879  230.514
  396.250   15.389    0.383    0.150   88.725  231.523
  396.500   14.770    0.369    0.124   87.527  232.407
  396.750   14.097    0.351    0.112   91.816  231.662
  397.000   13.594    0.361    0.143   95.931  230.925
  397.250   13.199    0.371    0.173   97.264  230.585
