~VERSION INFORMATION
 VERS.                 2.0:   CWLS LOG ASCII STANDARD -VERSION 2.0
 WRAP.                  NO:   ONE LINE PER DEPTH STEP
~WELL INFORMATION BLOCK
#MNEM.UNIT           DATA                    DESCRIPTION OF MNEMONIC
#---------    -------------------            -------------------------------
# Generated from Intellog Unique Number	CS_77_79/WELL/904
WELL.         DOME PETROLEUM                 : Well_name    - WELL
LOC .         00/07-22-077-15W4/0            : Location     - LOCATION
UWI .         00/07-22-077-15W4/0            : Uwi          - UNIQUE WELL ID
ENTR.         SP                             : Entered      - ENTERED BY
SRVC.         SCHLUMBERGER                   : Scn          - SERVICE COMPANY
STRT.M        290.25                         : top_depth    - START DEPTH
STOP.M        546                            : bot_depth    - STOP DEPTH
STEP.M        0.25                           : increment    - STEP LENGTH
 NULL. -999.2500:NULL Value
~CURVE INFORMATION BLOCK
#MNEM UNIT       ERCB CURVE CODE    CURVE DESCRIPTION
#-----------   ------------------   ----------------------------------
DEPT.M        00 001 00 00         : DEPTH        - DEPTH
ILD .OHMM     00 120 00 00         : RESD         - DEEP RESISTIVITY (DIL)
DPHI.V/V      00 890 00 00         : PHID         - DENSITY POROSITY (LIMESTONE)
NPHI.V/V      00 330 00 00         : PHIN         - NEUTRON POROSITY (LIMESTONE)
GR  .API      00 310 00 00         : GR           - GAMMA RAY
~PARAMETER INFORMATION
#MNEM.UNIT           DATA             DESCRIPTION OF MNEMONIC
#---------         -----------     ------------------------------
GL  .M        689.6                : gl           - GROUND LEVEL ELEVATION
EREF.M        693.74               : kb           - ELEVATION OF DEPTH REFERENCE
DATM.M        689.6                : datum        - DATUM ELEVATION
TDD .M        554                  : tdd          - TOTAL DEPTH DRILLER
RUN .         ONE                  : Run          - RUN NUMBER
ENG .         BILL                 : Engineer     - RECORDING ENGINEER
WIT .         JIM                  : Witness      - WITNESSED BY
MUD .         GEL                  : Mud_type     - MUD TYPE
MATR.         LIMESTONE            : Logunit      - NEUTRON MATRIX
TMAX.C        22                   : BHT          - MAXIMUM RECORDED TEMPERATURE
BHTD.M        554                  : BHTDEP       - MAXIMUM RECORDED TEMPERATURE
MATR.         1                    : LOGUNIT      - NEUTRON MATRIX
RMT .C        25                   : MDTP         - TEMPERATURE OF MUD
NEUT.         1                    : NEUTRON      - NEUTRON TYPE
RESI.         0                    : RESIST       - RESISTIVITY TYPE
RMC .OHMM     0.25                 : RMC          - RESISTIVITY OF MUD CAKE
RMF .OHMM     0.25                 : RMF          - RESISTIVITY OF MUD FILTRATE
SUFT.C        15                   : SUFT         - SURFACE TEMPERATURE
~A  DEPTH     RESD     PHID     PHIN       GR
# ...
  377.250   11.387    0.332    0.385   50.053
  377.500   11.607    0.336    0.393   48.236
  377.750   11.611    0.328    0.395   48.839
  378.000   11.614    0.311    0.397   49.442
  378.250   11.617    0.300    0.395   49.439
  378.500   11.622    0.292    0.391   48.831
  378.750   11.626    0.303    0.389   48.224
  379.000   11.413    0.311    0.393   47.013
  379.250   11.417    0.317    0.402   46.407
  379.500   11.420    0.316    0.405   45.195
  379.750   11.424    0.313    0.411   43.983
  380.000   10.599    0.309    0.412   43.981
  380.250   10.603    0.305    0.406   43.978
  380.500   10.807    0.305    0.403   44.581
  380.750   10.812    0.308    0.396   44.579
  381.000   10.814    0.320    0.396   46.392
  381.250   10.818    0.317    0.401   49.413
  381.500   11.027    0.313    0.394   53.644
  381.750   11.031    0.310    0.373   55.457
  382.000   11.245    0.303    0.367   57.270
  382.250   11.462    0.305    0.374   59.082
  382.500   12.363    0.311    0.376   58.475
  382.750   14.652    0.298    0.348   50.610
  383.000   15.217    0.239    0.291   45.165
  383.250   15.805    0.168    0.153   37.299
  383.500   16.417    0.077    0.122   36.088
  383.750   15.522    0.032    0.113   36.691
  384.000   15.236    0.076    0.141   43.342
  384.250   14.405    0.143    0.232   46.969
  384.500   13.116    0.186    0.316   48.176
  384.750   12.877    0.223    0.358   48.779
  385.000   12.880    0.260    0.389   48.776
  385.250   12.886    0.276    0.399   48.170
  385.500   12.889    0.286    0.397   46.353
  385.750   12.893    0.284    0.394   51.794
  386.000   11.520    0.289    0.392   53.002
  386.250   12.195    0.292    0.403   52.395
  386.500   12.430    0.291    0.415   51.182
  386.750   12.201    0.293    0.422   51.180
  387.000   12.206    0.289    0.413   52.388
  387.250   12.210    0.283    0.403   52.386
  387.500   12.214    0.277    0.386   52.989
  387.750   11.991    0.277    0.381   51.172
  388.000   12.691    0.273    0.375   49.960
  388.250   12.696    0.320    0.396   50.562
  388.500   12.464    0.309    0.415   50.560
  388.750   12.235    0.297    0.417   50.559
  389.000   12.010    0.292    0.415   51.767
  389.250   12.243    0.302    0.416   54.182
  389.500   12.479    0.313    0.419   56.600
  389.750   11.799    0.307    0.421   58.413
  390.000   10.947    0.294    0.417   60.830
  390.250   10.545    0.262    0.415   62.643
  390.500    9.970    0.270    0.420   66.269
  390.750    9.078    0.270    0.428   67.477
  391.000    8.422    0.276    0.438   70.499
  391.250    7.668    0.285    0.456   72.311
  391.500    6.982    0.282    0.471   74.124
  391.750    6.357    0.261    0.471   73.516
  392.000    6.010    0.269    0.463   72.910
  392.250    5.790    0.275    0.456   72.302
  392.500    5.902    0.283    0.450   70.486
  392.750    6.486    0.290    0.447   69.275
  393.000    7.402    0.292    0.436   69.877
  393.250    8.608    0.292    0.422   71.085
  393.500    9.640    0.304    0.400   71.686
  393.750   10.013    0.319    0.398   70.475
  394.000    9.647    0.320    0.400   69.262
  394.250    9.120    0.302    0.413   69.261
  394.500    8.462    0.293    0.427   71.073
  394.750    8.152    0.280    0.450   71.675
  395.000    7.854    0.269    0.465   72.279
  395.250    7.856    0.265    0.460   72.882
  395.500    7.712    0.263    0.450   74.694
  395.750    7.571    0.261    0.443   75.297
  396.000    7.433    0.256    0.437   78.318
  396.250    7.295    0.252    0.428   80.131
  396.500    7.163    0.245    0.423   81.339
  396.750    7.165    0.238    0.428   80.732
  397.000    7.033    0.228    0.437   82.544
  397.250    6.776    0.221    0.444   83.147
  397.500    6.406    0.215    0.452   80.725
  397.750    6.171    0.211    0.452   81.933
  398.000    5.946    0.210    0.448   82.536
  398.250    5.837    0.217    0.448   80.114
  398.500    5.729    0.210    0.457   78.297
  398.750    5.624    0.216    0.474   77.085
  399.000    5.418    0.218    0.479   78.897
  399.250    5.221    0.217    0.481   80.105
  399.500    5.125    0.230    0.470   79.497
  399.750    5.126    0.237    0.453   79.496
  400.000    5.128    0.241    0.447   80.099
  400.250    5.227    0.259    0.438   80.701
  400.500    5.430    0.269    0.432   78.280
  400.750    5.747    0.279    0.428   75.859
  401.000    5.858    0.291    0.420   74.042
  401.250    6.085    0.303    0.419   74.039
  401.500    6.320    0.302    0.417   75.247
  401.750    5.542    0.289    0.426   80.084
  402.000    4.952    0.284    0.469   84.920
  402.250    4.594    0.275    0.490   90.360
  402.500    4.183    0.268    0.503   92.174
  402.750    3.737    0.274    0.525   93.986
  403.000    3.339    0.277    0.545   92.774
  403.250    3.098    0.279    0.539   91.563
  403.500    2.929    0.263    0.524   91.560
  403.750    2.770    0.247    0.520   92.767
  404.000    2.718    0.251    0.520   93.370
  404.250    2.571    0.255    0.523   94.577
  404.500    2.523    0.265    0.527   93.366
  404.750    2.431    0.279    0.539   89.130
  405.000    2.431    0.292    0.549   89.127
  405.250    2.387    0.278    0.557   89.731
  405.500    2.433    0.269    0.560   90.332
  405.750    2.434    0.275    0.544   89.726
  406.000    2.529    0.273    0.532   87.305
  406.250    2.577    0.282    0.512   86.093
  406.500    2.728    0.285    0.500   86.695
  406.750    2.998    0.265    0.500   86.088
  407.000    3.295    0.268    0.496   83.666
  407.250    3.422    0.258    0.485   82.455
  407.500    3.761    0.263    0.460   77.010
  407.750    4.293    0.274    0.447   71.564
  408.000    4.544    0.273    0.432   67.328
  408.250    4.900    0.305    0.420   65.512
  408.500    5.488    0.305    0.406   61.880
  408.750    7.012    0.295    0.393   59.458
  409.000    9.843    0.256    0.344   58.247
  409.250   11.885    0.157    0.200   55.826
  409.500   15.473    0.022    0.159   52.799
  409.750   18.686    0.009    0.114   49.168
  410.000   20.536    0.006    0.103   47.351
  410.250   21.329    0.015    0.103   47.349
  410.500   17.349    0.021    0.129   49.161
  410.750   15.794    0.043    0.159   53.998
  411.000   13.089    0.076    0.205   57.624
  411.250   11.263    0.128    0.272   58.832
  411.500    9.511    0.203    0.311   59.435
  411.750    8.499    0.262    0.330   57.618
  412.000    8.343    0.119    0.302   52.173
  412.250    8.504    0.089    0.267   46.727
  412.500    8.670    0.078    0.246   45.516
  412.750    8.672    0.103    0.261   46.118
  413.000    8.674    0.155    0.285   49.140
  413.250    8.357    0.210    0.326   50.953
  413.500    8.050    0.295    0.355   54.579
  413.750    7.903    0.306    0.369   55.786
  414.000    7.907    0.310    0.364   55.785
  414.250    8.058    0.302    0.366   54.572
  414.500    8.215    0.284    0.373   53.966
  414.750    8.218    0.259    0.375   55.173
  415.000    8.220    0.240    0.367   56.381
  415.250    8.223    0.235    0.364   56.379
  415.500    8.073    0.254    0.361   53.352
  415.750    7.777    0.281    0.366   52.141
  416.000    7.634    0.301    0.372   53.953
  416.250    7.495    0.306    0.375   56.974
  416.500    7.357    0.310    0.377   58.787
  416.750    7.223    0.320    0.378   60.599
  417.000    7.225    0.327    0.380   61.202
  417.250    7.094    0.327    0.385   60.595
  417.500    6.964    0.332    0.387   61.802
  417.750    6.966    0.338    0.392   64.824
  418.000    6.838    0.344    0.398   70.266
  418.250    6.840    0.338    0.408   75.102
  418.500    6.714    0.310    0.418   79.334
  418.750    6.717    0.293    0.421   84.171
  419.000    6.847    0.285    0.423   89.007
  419.250    6.979    0.277    0.417   91.424
  419.500    6.981    0.262    0.412   90.212
  419.750    6.237    0.251    0.407   85.976
  420.000    5.574    0.209    0.410   81.741
  420.250    5.370    0.204    0.418   78.715
  420.500    4.982    0.215    0.424   76.898
