~VERSION INFORMATION
 VERS.                 2.0:   CWLS LOG ASCII STANDARD -VERSION 2.0
 WRAP.                  NO:   ONE LINE PER DEPTH STEP
~WELL INFORMATION BLOCK
#MNEM.UNIT           DATA                    DESCRIPTION OF MNEMONIC
#---------    -------------------            -------------------------------
# Generated from Intellog Unique Number	CW_76_78/WELL/288
WELL.         PRECAM ET AL MARTEN HILLS 05-2 : Well_name    - WELL
LOC .         00/05-23-076-01W5/0            : Location     - LOCATION
UWI .         00/05-23-076-01W5/0            : Uwi          - UNIQUE WELL ID
ENTR.         JAYE                           : Entered      - ENTERED BY
SRVC.         SCHLUMBERGER                   : Scn          - SERVICE COMPANY
DATE.         11 FEB 84                      : Date         - LOG DATE
STRT.M        575                            : top_depth    - START DEPTH
STOP.M        775                            : bot_depth    - STOP DEPTH
STEP.M        0.25                           : increment    - STEP LENGTH
 NULL. -999.2500:NULL Value
~CURVE INFORMATION BLOCK
#MNEM UNIT       ERCB CURVE CODE    CURVE DESCRIPTION
#-----------   ------------------   ----------------------------------
DEPT.M        00 001 00 00         : DEPTH        - DEPTH
ILD .OHMM     00 120 00 00         : RESD         - DEEP RESISTIVITY (DIL)
NPHI.V/V      00 330 00 00         : PHIN         - NEUTRON POROSITY (SANDSTONE)
DPHI.V/V      00 890 00 00         : PHID         - DENSITY POROSITY (SANDSTONE)
GR  .API      00 310 00 00         : GR           - GAMMA RAY
CALI.MM       00 280 01 00         : CAL          - CALIPER
~PARAMETER INFORMATION
#MNEM.UNIT           DATA             DESCRIPTION OF MNEMONIC
#---------         -----------     ------------------------------
GL  .M        862.83               : gl           - GROUND LEVEL ELEVATION
EREF.M        866.33               : kb           - ELEVATION OF DEPTH REFERENCE
DATM.M        862.83               : datum        - DATUM ELEVATION
TDD .M        776                  : tdd          - TOTAL DEPTH DRILLER
RUN .         ONE                  : Run          - RUN NUMBER
ENG .         ACKERMAN             : Engineer     - RECORDING ENGINEER
WIT .         KOCSIS               : Witness      - WITNESSED BY
BASE.         EDM                  : Branch       - HOME BASE OF LOGGING UNIT
MUD .         GEL CHEM             : Mud_type     - MUD TYPE
MATR.         SANDSTONE            : Logunit      - NEUTRON MATRIX
TMAX.C        32.2                 : BHT          - MAXIMUM RECORDED TEMPERATURE
BHTD.M        773                  : BHTDEP       - MAXIMUM RECORDED TEMPERATURE
RMT .C        22                   : MDTP         - TEMPERATURE OF MUD
MUDD.KG/M     9.5                  : MWT          - MUD DENSITY
NEUT.         1                    : NEUTRON      - NEUTRON TYPE
RESI.         0                    : RESIST       - RESISTIVITY TYPE
RM  .OHMM     4.377                : RM           - RESISTIVITY OF MUD
RMC .OHMM     0                    : RMC          - RESISTIVITY OF MUD CAKE
RMF .OHMM     5.828                : RMF          - RESISTIVITY OF MUD FILTRATE
SUFT.C        0                    : SUFT         - SURFACE TEMPERATURE
~A  DEPTH     RESD     PHIN     PHID       GR      CAL
# ...
  611.500   10.320    0.381    0.293   66.751  214.986
  611.750   11.507    0.374    0.286   68.152  215.250
  612.000   13.096    0.353    0.272   66.750  215.500
  612.250   14.602    0.331    0.253   67.900  215.657
  612.500   15.831    0.332    0.248   68.114  215.916
  612.750   16.440    0.358    0.237   68.769  216.168
  613.000   15.520    0.372    0.233   74.773  216.425
  613.250   14.221    0.383    0.223   81.271  216.480
  613.500   13.350    0.389    0.208   80.618  216.321
  613.750   12.463    0.376    0.192   74.674  215.744
  614.000   11.810    0.335    0.179   67.609  215.381
  614.250   11.359    0.375    0.178   69.627  215.013
  614.500   11.049    0.401    0.222   68.103  214.643
  614.750   10.971    0.402    0.263   63.775  214.382
  615.000   10.853    0.394    0.254   63.368  214.010
  615.250   10.736    0.422    0.250   68.501  213.861
  615.500   10.482    0.432    0.243   74.068  213.900
  615.750    9.533    0.418    0.241   73.912  214.057
  616.000    8.227    0.390    0.241   77.676  213.999
  616.250    6.663    0.432    0.250   84.923  213.944
  616.500    5.188    0.485    0.291   83.585  214.097
  616.750    4.771    0.481    0.312   75.274  214.355
  617.000    5.030    0.489    0.336   62.608  214.511
  617.250    5.577    0.501    0.339   55.978  214.770
  617.500    7.061    0.487    0.339   51.091  215.130
  617.750    8.923    0.447    0.337   46.451  215.491
  618.000   10.348    0.435    0.336   49.344  215.831
  618.250   11.031    0.443    0.335   50.926  216.101
  618.500   11.350    0.432    0.330   49.839  216.661
  618.750   11.677    0.444    0.324   49.804  217.014
  619.000   11.969    0.451    0.318   52.635  217.066
  619.250   12.406    0.456    0.298   52.103  216.702
  619.500   13.325    0.454    0.262   50.018  216.342
  619.750   14.884    0.280    0.142   47.307  216.184
  620.000   15.086    0.278    0.152   45.097  215.717
  620.250   14.084    0.307    0.224   47.303  215.562
  620.500   12.177    0.351    0.250   52.998  215.294
  620.750   10.373    0.377    0.280   59.001  215.126
  621.000    9.002    0.408    0.292   62.079  214.769
  621.250    8.467    0.417    0.304   62.605  214.398
  621.500    8.859    0.418    0.304   61.014  214.145
  621.750   10.045    0.416    0.301   57.001  213.866
  622.000   10.491    0.418    0.300   52.984  213.706
  622.250   10.339    0.425    0.300   54.006  213.547
  622.500    9.779    0.417    0.297   54.972  213.288
  622.750    9.044    0.409    0.296   56.492  213.236
  623.000    8.427    0.413    0.264   57.771  212.975
  623.250    8.197    0.410    0.243   60.848  212.610
  623.500    8.625    0.401    0.229   61.001  212.248
  623.750   10.658    0.394    0.209   59.038  211.987
  624.000   12.927    0.379    0.193   57.078  211.830
  624.250   14.602    0.374    0.177   55.054  211.671
  624.500   16.965    0.351    0.160   52.468  211.722
  624.750   17.356    0.298    0.151   49.759  211.773
  625.000   16.820    0.316    0.163   47.795  211.494
  625.250   15.732    0.351    0.191   47.393  211.554
  625.500   14.659    0.369    0.212   49.474  211.706
  625.750   13.786    0.387    0.227   52.987  212.174
  626.000   12.822    0.381    0.227   55.322  213.355
  626.250   12.082    0.353    0.225   54.666  214.753
  626.500   11.363    0.369    0.234   54.691  215.746
  626.750   10.431    0.423    0.246   56.402  216.200
  627.000    9.774    0.440    0.284   59.733  216.357
  627.250    9.280    0.431    0.299   64.368  216.509
  627.500    8.943    0.416    0.293   63.091  216.653
  627.750    8.714    0.414    0.259   64.052  216.916
  628.000    8.477    0.407    0.221   65.763  216.971
  628.250    8.154    0.398    0.214   63.800  217.117
  628.500    7.917    0.396    0.260   61.277  217.070
  628.750    7.994    0.407    0.290   60.062  217.000
  629.000    8.458    0.420    0.282   59.532  217.159
  629.250    9.136    0.422    0.252   59.124  217.318
  629.500   10.496    0.408    0.232   58.594  217.466
  629.750   12.194    0.387    0.216   57.751  217.504
  630.000   13.775    0.374    0.211   56.660  217.457
  630.250   15.018    0.371    0.210   55.383  217.611
  630.500   15.860    0.380    0.210   55.036  217.661
  630.750   16.876    0.373    0.217   55.192  217.819
  631.000   17.138    0.355    0.226   54.661  217.968
  631.250   16.484    0.349    0.240   53.383  217.917
  631.500   14.576    0.357    0.257   54.718  217.861
  631.750   12.603    0.375    0.270   58.420  219.048
  632.000   11.000    0.393    0.287   61.252  220.242
  632.250    9.892    0.412    0.292   62.086  222.250
  632.500    8.878    0.424    0.289   62.365  223.451
  632.750    8.165    0.426    0.290   63.391  225.781
  633.000    7.767    0.420    0.299   64.667  224.896
  633.250    7.726    0.407    0.345   64.947  225.150
  633.500    7.949    0.407    0.403   53.337  225.507
  633.750    9.623    0.586    0.432   38.928  226.389
  634.000   10.729    0.678    0.517   34.041  226.229
  634.250   11.352    0.712    0.539   41.038  224.828
  634.500   10.879    0.734    0.358   56.939  225.394
  634.750    9.820    0.739    0.284   63.317  225.433
  635.000    9.064    0.409    0.291   68.201  225.598
  635.250    9.153    0.433    0.294   66.299  224.712
  635.500    9.506    0.448    0.299   59.046  223.206
  635.750   10.209    0.442    0.306   55.030  222.114
  636.000   11.995    0.421    0.300   55.245  221.123
  636.250   13.225    0.436    0.306   56.270  220.759
  636.500   14.364    0.438    0.310   57.667  220.699
  636.750   14.696    0.409    0.301   59.007  220.334
  637.000   13.925    0.395    0.299   59.971  219.759
  637.250   12.736    0.415    0.301   59.561  219.711
  637.500   11.800    0.409    0.302   58.969  219.656
  637.750   10.631    0.390    0.302   59.248  219.801
  638.000    9.888    0.377    0.295   58.712  220.064
  638.250    9.564    0.375    0.226   57.565  220.313
  638.500    9.622    0.393    0.172   55.042  220.471
  638.750   12.435    0.375    0.131   51.272  220.517
  639.000   16.375    0.322    0.119   47.631  220.671
  639.250   20.160    0.247    0.140   44.116  221.126
  639.500   23.073    0.273    0.154   44.394  221.600
  639.750   23.696    0.278    0.161   45.604  222.268
  640.000   23.221    0.267    0.147   47.561  223.358
  640.250   22.045    0.285    0.130   47.529  224.961
  640.500   20.773    0.281    0.155   47.061  226.145
  640.750   18.927    0.256    0.223   47.027  226.402
  641.000   16.396    0.286    0.266   47.242  226.553
  641.250   13.707    0.367    0.302   48.766  226.707
  641.500   11.374    0.405    0.326   51.100  227.271
  641.750    9.246    0.427    0.321   53.991  227.637
  642.000    8.009    0.437    0.315   56.012  228.312
  642.250    7.339    0.417    0.304   56.413  228.984
  642.500    7.059    0.415    0.287   55.014  229.436
  642.750    6.970    0.407    0.265   53.233  230.003
  643.000    6.960    0.388    0.238   53.267  230.580
  643.250    6.937    0.381    0.221   55.971  231.460
  643.500    6.927    0.400    0.213   58.550  232.126
  643.750    6.929    0.396    0.211   61.444  232.696
  644.000    6.970    0.368    0.212   63.591  234.408
  644.250    7.039    0.371    0.214   65.176  236.423
  644.500    7.121    0.390    0.215   67.320  238.030
  644.750    7.286    0.408    0.190   68.718  239.325
  645.000    7.580    0.410    0.162   69.620  240.097
  645.250    8.218    0.392    0.167   68.219  240.563
  645.500    8.777    0.350    0.171   64.696  241.019
  645.750    9.166    0.364    0.124   64.603  241.487
  646.000    9.325    0.359    0.143   74.777  242.266
  646.250    8.936    0.331    0.177   84.079  243.040
  646.500    7.932    0.383    0.183   90.146  243.707
  646.750    7.106    0.399    0.183   94.780  244.898
  647.000    6.683    0.421    0.178   85.849  245.672
  647.250    6.525    0.412    0.173   83.263  246.239
  647.500    6.479    0.417    0.178   86.966  246.393
  647.750    6.482    0.437    0.174   90.605  246.337
