~VERSION INFORMATION
 VERS.                 2.0:   CWLS LOG ASCII STANDARD -VERSION 2.0
 WRAP.                  NO:   ONE LINE PER DEPTH STEP
~WELL INFORMATION BLOCK
#MNEM.UNIT           DATA                    DESCRIPTION OF MNEMONIC
#---------    -------------------            -------------------------------
# Generated from Intellog Unique Number	CW_70_72/WELL/619
NULL.         -999.25                        : NULL_VALUE
WELL.         MESA SMITH 06-10               : Well_name    - WELL              
LOC .         06-10-072-25W4                 : Location     - LOCATION          
UWI .         00/06-10-072-25W4/0            : Uwi          - UNIQUE WELL ID    
ENTR.         JAYE                           : Entered      - ENTERED BY        
SRVC.         SCHLUMBERGER                   : Scn          - SERVICE COMPANY   
DATE.         10 FEB 75                      : Date         - LOG DATE          
STRT.M        384.048                        : top_depth    - START DEPTH       
STOP.M        600.548                        : bot_depth    - STOP DEPTH        
STEP.M        0.25                           : increment    - STEP LENGTH       
~CURVE INFORMATION BLOCK
#MNEM UNIT       ERCB CURVE CODE    CURVE DESCRIPTION
#-----------   ------------------   ----------------------------------
DEPT.M        00 001 00 00         : DEPTH        - DEPTH                       
DPHI.V/V      00 890 00 00         : PHID         - DENSITY POROSITY (SANDSTONE)
NPHI.V/V      00 330 00 00         : PHIN         - NEUTRON POROSITY (SANDSTONE)
GR  .API      00 310 00 00         : GR           - GAMMA RAY                   
CALI.MM       00 280 01 00         : CAL          - CALIPER                     
ILD .OHMM     00 120 00 00         : RESD         - DEEP RESISTIVITY (DIL)      
~PARAMETER INFORMATION       
#MNEM.UNIT           DATA             DESCRIPTION OF MNEMONIC
#---------         -----------     ------------------------------
GL  .M        606.857              : gl           - GROUND LEVEL ELEVATION      
EREF.M        610.819              : kb           - ELEVATION OF DEPTH REFERENCE
DATM.M        606.857              : datum        - DATUM ELEVATION             
TDD .M        609.6                : tdd          - TOTAL DEPTH DRILLER         
RUN .         ONE                  : Run          - RUN NUMBER                  
ENG .         FETTERLEY            : Engineer     - RECORDING ENGINEER          
WIT .         HOVER                : Witness      - WITNESSED BY                
BASE.         EDM                  : Branch       - HOME BASE OF LOGGING UNIT   
MUD .         GEL CHEM             : Mud_type     - MUD TYPE                    
MATR.         SANDSTONE            : Logunit      - NEUTRON MATRIX              
TMAX.C        23.8889              : BHT          - MAXIMUM RECORDED TEMPERATURE
BHTD.M        610.21               : BHTDEP       - MAXIMUM RECORDED TEMPERATURE
RMT .C        7.22222              : MDTP         - TEMPERATURE OF MUD          
MUDD.KG/M     0                    : MWT          - MUD DENSITY                 
NEUT.         1                    : NEUTRON      - NEUTRON TYPE                
RESI.         0                    : RESIST       - RESISTIVITY TYPE            
RM  .OHMM     4.38                 : RM           - RESISTIVITY OF MUD          
RMC .OHMM     0                    : RMC          - RESISTIVITY OF MUD CAKE     
RMF .OHMM     0                    : RMF          - RESISTIVITY OF MUD FILTRATE 
SUFT.C        -17.7778             : SUFT         - SURFACE TEMPERATURE         
~A  DEPTH     PHID     PHIN       GR      CAL     RESD
# ...
  566.548    0.249    0.339   30.619  164.393    2.997
  566.798    0.236    0.350   29.532  164.100    2.689
  567.048    0.227    0.366   28.505  164.013    2.445
  567.298    0.230    0.375   27.844  163.619    2.239
  567.548    0.240    0.366   28.037  163.532    2.086
  567.798    0.247    0.366   28.291  163.545    2.012
  568.048    0.248    0.367   28.238  163.150    2.000
  568.298    0.243    0.365   28.126  162.755    1.995
  568.548    0.240    0.362   28.075  162.567    1.997
  568.798    0.242    0.363   27.903  162.476    2.022
  569.048    0.238    0.375   27.119  162.288    2.042
  569.298    0.235    0.374   27.130  162.305    2.072
  569.548    0.249    0.348   27.139  162.526    2.082
  569.798    0.245    0.355   26.600  162.648    2.096
  570.048    0.254    0.366   26.062  162.769    2.110
  570.298    0.260    0.373   26.072  162.577    2.121
  570.548    0.247    0.371   26.509  162.904    2.135
  570.798    0.230    0.361   26.762  162.920    2.157
  571.048    0.232    0.358   26.527  163.038    2.172
  571.298    0.238    0.351   26.111  163.057    2.190
  571.548    0.223    0.350   26.058  162.865    2.217
  571.798    0.232    0.347   26.191  162.677    2.228
  572.048    0.239    0.364   26.567  162.489    2.239
  572.298    0.255    0.361   27.063  162.400    2.241
  572.548    0.259    0.351   27.865  162.312    2.265
  572.798    0.242    0.355   28.730  162.124    2.272
  573.048    0.235    0.359   29.349  162.140    2.283
  573.298    0.245    0.359   29.664  161.950    2.298
  573.548    0.246    0.354   30.040  161.760    2.301
  573.798    0.231    0.338   30.659  161.775    2.307
  574.048    0.227    0.350   30.973  161.383    2.315
  574.298    0.222    0.358   31.350  160.983    2.326
  574.548    0.236    0.360   31.908  161.001    2.337
  574.798    0.244    0.363   33.808  161.224    2.366
  575.048    0.235    0.361   36.136  161.343    2.391
  575.298    0.224    0.352   36.328  161.362    2.416
  575.548    0.198    0.361   36.581  161.171    2.469
  575.798    0.211    0.364   37.200  161.291    2.541
  576.048    0.211    0.357   38.614  161.408    2.694
  576.298    0.195    0.347   39.964  161.737    2.879
  576.548    0.186    0.340   41.376  161.857    3.024
  576.798    0.189    0.342   43.338  161.874    3.201
  577.048    0.196    0.349   45.177  161.890    3.382
  577.298    0.188    0.338   46.711  161.906    3.552
  577.548    0.177    0.343   47.818  162.024    3.767
  577.798    0.181    0.345   48.926  162.044    4.009
  578.048    0.177    0.336   50.460  162.162    4.355
  578.298    0.173    0.323   52.239  162.280    4.618
  578.548    0.164    0.313   53.650  162.400    4.843
  578.798    0.165    0.307   56.099  162.522    5.051
  579.048    0.156    0.324   58.548  162.330    5.075
  579.298    0.149    0.328   61.362  162.243    5.100
  579.548    0.138    0.339   64.787  162.058    5.135
  579.798    0.129    0.332   68.151  161.866    5.227
  580.048    0.109    0.320   69.258  161.983    5.320
  580.298    0.111    0.317   70.487  162.416    5.437
  580.548    0.125    0.325   72.143  162.844    5.545
  580.798    0.143    0.331   74.287  163.273    5.676
  581.048    0.139    0.330   76.615  163.185    5.789
  581.298    0.125    0.327   77.355  162.479    5.993
  581.548    0.117    0.325   80.902  162.702    6.169
  581.798    0.115    0.327   81.157  166.126    6.363
  582.048    0.109    0.326   79.397  167.898    6.501
  582.298    0.103    0.321   75.200  168.536    6.629
  582.548    0.113    0.316   73.929  168.861    6.749
  582.798    0.134    0.322   76.072  169.602    6.819
  583.048    0.124    0.315   79.803  169.929    6.841
  583.298    0.130    0.320   82.617  170.046    6.835
  583.548    0.131    0.327   79.090  170.269    6.857
  583.798    0.120    0.337   78.856  170.389    6.839
  584.048    0.104    0.335   79.781  170.716    6.796
  584.298    0.105    0.330   81.254  170.940    6.742
  584.548    0.119    0.336   83.582  170.851    6.687
  584.798    0.108    0.338   86.151  170.869    6.681
  585.048    0.107    0.329   88.479  170.577    6.627
  585.298    0.103    0.329   88.977  170.487    6.673
  585.548    0.097    0.331   90.388  170.711    6.730
  585.798    0.099    0.331   89.971  170.729    6.776
  586.048    0.096    0.327   81.748  170.643    6.833
  586.298    0.115    0.327   75.112  170.452    6.790
  586.548    0.133    0.335   61.707  170.261    6.371
  586.798    0.154    0.365   46.228  169.348    5.319
  587.048    0.201    0.397   26.848  166.887    4.358
  587.298    0.236    0.368   22.955  165.355    3.366
  587.548    0.219    0.360   20.587  163.720    3.351
  587.798    0.119    0.345   17.732  162.186    4.069
  588.048    0.079    0.281   18.838  160.448    5.078
  588.298    0.052    0.145   24.092  160.051   10.834
  588.548    0.073    0.179   28.616  160.688   15.543
  588.798    0.110    0.210   32.404  161.222   19.010
  589.048    0.109    0.232   37.658  161.340   20.085
  589.298    0.064    0.222   45.473  162.390   20.636
  589.548    0.053    0.221   50.910  163.542   20.658
  589.798    0.061    0.242   54.212  165.623   19.855
  590.048    0.099    0.266   58.795  168.634   16.303
  590.298    0.130    0.297   57.219  169.684   13.089
  590.548    0.189    0.331   50.462  167.945   10.146
  590.798    0.237    0.353   52.240  166.102    7.893
  591.048    0.239    0.381   59.017  166.533    7.203
  591.298    0.256    0.413   58.173  167.272    6.708
  591.548    0.199    0.339   47.207  168.011    6.283
  591.798    0.185    0.318   40.144  166.996    5.993
  592.048    0.214    0.324   42.348  165.050    6.023
  592.298    0.246    0.501   51.017  164.343    6.304
  592.548    0.381    0.533   60.600  164.154    6.976
  592.798    0.442    0.538   57.378  164.170    7.370
  593.048    0.406    0.528   52.510  163.773    7.405
  593.298    0.203    0.389   53.007  163.584    7.026
  593.548    0.173    0.367   49.785  134.586    5.621
  593.798    0.181    0.315   45.344  146.683    4.405
  594.048    0.247    0.321   45.478  157.128    3.421
  594.298    0.262    0.345   45.670  159.313    2.877
  594.548    0.251    0.346   47.081  159.640    2.516
  594.798    0.247    0.352   50.505  159.346    2.326
  595.048    0.240    0.364   56.552  159.363    2.303
  595.298    0.182    0.389   63.453  159.483    2.340
  595.548    0.161    0.389   71.449  159.810    2.672
  595.798    0.142    0.334   85.118  160.135    3.514
  596.048    0.133    0.344   79.214  160.462    4.242
  596.298    0.147    0.347   61.845  160.891    5.027
  596.548    0.186    0.338   52.891  160.599    5.667
  596.798    0.146    0.285   45.644  160.511    5.633
  597.048    0.192    0.301   40.288  160.631    5.343
  597.298    0.203    0.320   38.590  160.648    4.173
  597.548    0.184    0.318   47.076  160.975    3.187
  597.798    0.160    0.310   67.330  162.127    2.886
  598.048    0.123    0.298   86.304  163.796    2.928
  598.298    0.063    0.276  109.546  165.155    3.145
  598.548    0.006    0.290  123.641  166.720    3.652
  598.798    0.008    0.327  132.737  167.975    4.336
  599.048    0.014    0.344  135.247  168.921    5.333
  599.298   -0.002    0.364  132.146  169.041    6.297
  599.548   -0.009    0.389   65.752  164.825    5.942
  599.798   -0.011    0.356   42.652  159.471    5.185
  600.048    0.010    0.346   20.893  155.151    4.273
  600.298    0.042    0.339   13.220  157.448    4.176
  600.548    0.070    0.332   12.255  157.825    4.283
