~VERSION INFORMATION
 VERS.                 2.0:   CWLS LOG ASCII STANDARD -VERSION 2.0
 WRAP.                  NO:   ONE LINE PER DEPTH STEP
~WELL INFORMATION BLOCK
#MNEM.UNIT           DATA                    DESCRIPTION OF MNEMONIC
#---------    -------------------            -------------------------------
# Generated from Intellog Unique Number	CW_70_72/WELL/879
NULL.         -999.25                        : NULL_VALUE
WELL.         ICG ET AL CALL W 07-10         : Well_name    - WELL              
LOC .         07-10-072-20W4                 : Location     - LOCATION          
UWI .         00/07-10-072-20W4/0            : Uwi          - UNIQUE WELL ID    
ENTR.         JAYE                           : Entered      - ENTERED BY        
SRVC.         SCHLUMBERGER                   : Scn          - SERVICE COMPANY   
DATE.         22 MAR 77                      : Date         - LOG DATE          
STRT.M        320.04                         : top_depth    - START DEPTH       
STOP.M        503.04                         : bot_depth    - STOP DEPTH        
STEP.M        0.25                           : increment    - STEP LENGTH       
~CURVE INFORMATION BLOCK
#MNEM UNIT       ERCB CURVE CODE    CURVE DESCRIPTION
#-----------   ------------------   ----------------------------------
DEPT.M        00 001 00 00         : DEPTH        - DEPTH                       
DPHI.V/V      00 890 00 00         : PHID         - DENSITY POROSITY (SANDSTONE)
NPHI.V/V      00 330 00 00         : PHIN         - NEUTRON POROSITY (SANDSTONE)
GR  .API      00 310 00 00         : GR           - GAMMA RAY                   
CALI.MM       00 280 01 00         : CAL          - CALIPER                     
ILD .OHMM     00 120 00 00         : RESD         - DEEP RESISTIVITY (DIL)      
~PARAMETER INFORMATION       
#MNEM.UNIT           DATA             DESCRIPTION OF MNEMONIC
#---------         -----------     ------------------------------
GL  .M        594.36               : gl           - GROUND LEVEL ELEVATION      
EREF.M        597.408              : kb           - ELEVATION OF DEPTH REFERENCE
DATM.M        594.36               : datum        - DATUM ELEVATION             
TDD .M        504.444              : tdd          - TOTAL DEPTH DRILLER         
RUN .         ONE                  : Run          - RUN NUMBER                  
ENG .         WORONUK              : Engineer     - RECORDING ENGINEER          
WIT .         GREEN                : Witness      - WITNESSED BY                
BASE.         EDM                  : Branch       - HOME BASE OF LOGGING UNIT   
MUD .         GEL CHEM             : Mud_type     - MUD TYPE                    
MATR.         SANDSTONE            : Logunit      - NEUTRON MATRIX              
TMAX.C        22.7778              : BHT          - MAXIMUM RECORDED TEMPERATURE
BHTD.M        504.444              : BHTDEP       - MAXIMUM RECORDED TEMPERATURE
RMT .C        17.2222              : MDTP         - TEMPERATURE OF MUD          
MUDD.KG/M     1140                 : MWT          - MUD DENSITY                 
NEUT.         1                    : NEUTRON      - NEUTRON TYPE                
RESI.         0                    : RESIST       - RESISTIVITY TYPE            
RM  .OHMM     4.75                 : RM           - RESISTIVITY OF MUD          
RMC .OHMM     0                    : RMC          - RESISTIVITY OF MUD CAKE     
RMF .OHMM     5.46                 : RMF          - RESISTIVITY OF MUD FILTRATE 
SUFT.C        -17.7778             : SUFT         - SURFACE TEMPERATURE         
~A  DEPTH     PHID     PHIN       GR      CAL     RESD
# ...
  393.040    0.318    0.501   79.167  147.692    4.335
  393.290    0.328    0.488   80.952  147.937    4.403
  393.540    0.328    0.495   81.948  149.111    4.456
  393.790    0.331    0.486   83.612  151.412    4.484
  394.040    0.335    0.475   81.753  152.995    4.488
  394.290    0.338    0.465   79.774  152.424    4.501
  394.540    0.341    0.472   82.833  151.639    4.513
  394.790    0.335    0.476   87.474  150.754    4.540
  395.040    0.318    0.473   87.194  149.761    4.620
  395.290    0.304    0.471   86.855  149.083    4.658
  395.540    0.319    0.473   88.578  148.712    4.670
  395.790    0.300    0.478   88.907  148.754    4.649
  396.040    0.295    0.481   91.541  148.791    4.627
  396.290    0.306    0.483   92.659  149.040    4.597
  396.540    0.300    0.490   91.472  148.153    4.575
  396.790    0.277    0.502   92.465  146.958    4.579
  397.040    0.284    0.497   94.797  146.078    4.575
  397.290    0.300    0.486   95.125  145.803    4.562
  397.540    0.331    0.485   94.965  145.534    4.524
  397.790    0.312    0.490   94.684  145.586    4.495
  398.040    0.299    0.497   93.556  145.421    4.456
  398.290    0.293    0.504   91.816  145.355    4.420
  398.540    0.283    0.521   88.316  145.390    4.390
  398.790    0.293    0.533   86.153  145.632    4.385
  399.040    0.287    0.537   87.212  146.292    4.374
  399.290    0.288    0.517   90.878  146.649    4.361
  399.540    0.301    0.505   93.940  146.678    4.348
  399.790    0.315    0.496   91.596  140.957    4.328
  400.040    0.310    0.477   90.405  139.764    4.388
  400.290    0.297    0.464   91.763  143.198    4.506
  400.540    0.291    0.454   94.339  145.710    4.670
  400.790    0.280    0.438   97.946  146.265    4.822
  401.040    0.282    0.438   99.246  146.613    4.818
  401.290    0.296    0.451   91.675  146.959    4.698
  401.540    0.313    0.456   86.717  147.103    4.483
  401.790    0.313    0.447   84.859  146.526    4.285
  402.040    0.291    0.451   86.765  142.656    4.400
  402.290    0.304    0.456   84.180  144.548    4.846
  402.540    0.312    0.452   82.681  146.140    5.366
  402.790    0.306    0.446   80.763  146.171    6.922
  403.040    0.260    0.439   77.566  142.922    9.435
  403.290    0.205    0.419   70.967  141.730   11.121
  403.540    0.077    0.299   69.718  149.997   11.655
  403.790    0.033    0.243   73.507  161.457   10.331
  404.040    0.059    0.251   82.216  153.475    7.564
  404.290    0.179    0.292   90.141  151.145    6.392
  404.540    0.267    0.452   95.933  146.665    5.046
  404.790    0.295    0.463   98.571  145.053    5.032
  405.040    0.321    0.453   93.551  142.935    5.321
  405.290    0.299    0.464   92.182  141.019    5.515
  405.540    0.282    0.480   93.967  140.445    5.602
  405.790    0.277    0.481   98.180  138.322    5.596
  406.040    0.254    0.452  103.369  137.028    5.518
  406.290    0.234    0.436  106.731  136.967    5.433
  406.540    0.190    0.453  112.709  138.855    5.418
  406.790    0.197    0.469  117.956  141.362    5.462
  407.040    0.211    0.479  122.842  145.417    5.506
  407.290    0.202    0.483  123.656  149.160    5.562
  407.540    0.199    0.488  121.369  147.347    5.588
  407.790    0.206    0.481  121.453  141.833    5.540
  408.040    0.199    0.474  125.245  135.187    5.434
  408.290    0.192    0.482  129.340  131.322    5.320
  408.540    0.200    0.493  134.040  128.889    5.170
  408.790    0.157    0.486  129.992  139.732    4.746
  409.040    0.182    0.467  123.396  149.131    4.115
  409.290    0.197    0.466  126.517  143.518    3.641
  409.540    0.167    0.483  129.152  141.397    3.454
  409.790    0.205    0.510  128.083  142.263    3.470
  410.040    0.235    0.519  122.582  142.811    3.773
  410.290    0.252    0.500  116.224  141.517    4.335
  410.540    0.225    0.484  112.238  137.338    4.970
  410.790    0.243    0.452  107.583  139.436    5.826
  411.040    0.261    0.421  101.959  145.341    6.416
  411.290    0.265    0.349   93.539  145.688    6.686
  411.540    0.131    0.304   87.181  145.830    6.841
  411.790    0.163    0.299   91.338  148.447    6.722
  412.040    0.220    0.345   99.257  150.233    6.426
  412.290    0.234    0.394  105.541  142.659    5.986
  412.540    0.212    0.436  108.600  140.850    5.556
  412.790    0.187    0.457  110.386  141.096    5.430
  413.040    0.213    0.469  111.261  144.837    5.423
  413.290    0.220    0.484  114.260  148.479    5.438
  413.540    0.237    0.474  110.339  147.593    5.463
  413.790    0.239    0.459  105.683  143.208    5.487
  414.040    0.243    0.447  104.854  140.887    5.481
  414.290    0.226    0.452  110.710  142.575    5.446
  414.540    0.207    0.467  114.261  144.772    5.420
  414.790    0.196    0.458  115.255  146.354    5.415
  415.040    0.212    0.447  117.160  146.093    5.410
  415.290    0.191    0.447  114.633  144.890    5.414
  415.540    0.212    0.451  110.647  143.697    5.389
  415.790    0.216    0.465  112.432  141.678    5.373
  416.040    0.179    0.472  113.247  141.411    5.338
  416.290    0.195    0.478  112.662  144.334    5.303
  416.540    0.208    0.489  109.223  148.900    5.279
  416.790    0.221    0.493  106.209  153.258    5.283
  417.040    0.236    0.478  102.953  155.767    5.288
  417.290    0.278    0.463   96.598  147.066    5.311
  417.540    0.274    0.486   94.740  144.642    5.345
  417.790    0.269    0.489   95.065  145.296    5.379
  418.040    0.272    0.478   97.218  146.982    5.383
  418.290    0.278    0.468   99.731  150.210    5.378
  418.540    0.274    0.463  101.092  150.763    5.372
  418.790    0.273    0.481   99.536  150.293    5.367
  419.040    0.279    0.474  101.140  147.653    5.361
  419.290    0.272    0.464  103.530  141.212    5.307
  419.540    0.261    0.451  103.433  141.974    5.196
  419.790    0.245    0.441   99.692  144.485    5.049
  420.040    0.248    0.453   95.461  146.787    4.934
  420.290    0.263    0.465   91.050  148.474    4.883
  420.540    0.259    0.457   88.341  147.589    4.923
  420.790    0.252    0.462   86.664  143.621    5.265
  421.040    0.240    0.457   87.354  142.421    5.819
  421.290    0.220    0.410   89.929  143.386    6.885
  421.540    0.132    0.306   86.674  145.485    7.895
  421.790    0.102    0.296   82.505  149.129    8.396
  422.040    0.127    0.307   79.978  151.119    7.415
  422.290    0.148    0.317   83.220  150.030    6.096
  422.540    0.182    0.333   88.227  149.348    5.494
  422.790    0.228    0.395   92.686  149.188    4.852
  423.040    0.270    0.450   95.564  149.330    4.470
  423.290    0.293    0.467   95.166  149.468    4.548
  423.540    0.298    0.485   94.032  149.718    4.900
  423.790    0.282    0.464   92.901  150.479    5.426
  424.040    0.293    0.443   88.976  151.140    6.746
  424.290    0.299    0.415   82.501  151.279    8.606
  424.540    0.257    0.397   77.967  151.212   12.082
  424.790    0.182    0.372   73.131  151.665   14.803
  425.040    0.070    0.346   70.967  147.902   16.004
  425.290    0.051    0.221   72.510  147.640   15.271
  425.540    0.102    0.260   81.647  149.318   12.506
  425.790    0.154    0.306   85.683  151.108    9.089
  426.040    0.199    0.387   86.675  152.071    6.741
  426.290    0.270    0.426   88.707  151.391    5.017
  426.540    0.299    0.446   94.924  150.815    4.186
  426.790    0.296    0.450   97.986  149.829    3.972
  427.040    0.289    0.457   95.336  147.502    3.961
  427.290    0.269    0.469   97.852  144.147    3.971
  427.540    0.275    0.467   95.383  140.073    4.063
  427.790    0.277    0.453   94.132  136.306    4.111
  428.040    0.282    0.449   96.343  135.215    4.161
  428.290    0.281    0.448   99.405  135.978    4.219
  428.540    0.260    0.447   97.969  137.251    4.245
  428.790    0.281    0.445   99.208  138.831    4.233
  429.040    0.296    0.447  102.149  139.697    4.205
  429.290    0.273    0.465  101.808  138.605    4.155
