~VERSION INFORMATION
 VERS.                 2.0:   CWLS LOG ASCII STANDARD -VERSION 2.0
 WRAP.                  NO:   ONE LINE PER DEPTH STEP
~WELL INFORMATION BLOCK
#MNEM.UNIT           DATA                    DESCRIPTION OF MNEMONIC
#---------    -------------------            -------------------------------
# Generated from Intellog Unique Number	CW_82_90/WELL/3060
WELL.         TEXEX WABASCA                  : Well_name    - WELL
LOC .         00/07-01-085-22W4/0            : Location     - LOCATION
UWI .         00/07-01-085-22W4/0            : Uwi          - UNIQUE WELL ID
ENTR.         JAYE                           : Entered      - ENTERED BY
SRVC.         WESTERN ATLAS                  : Scn          - SERVICE COMPANY
DATE.         4 FEB 75                       : Date         - LOG DATE
STRT.M        192.024                        : top_depth    - START DEPTH
STOP.M        426.774                        : bot_depth    - STOP DEPTH
STEP.M        0.25                           : increment    - STEP LENGTH
 NULL. -999.2500:NULL Value
~CURVE INFORMATION BLOCK
#MNEM UNIT       ERCB CURVE CODE    CURVE DESCRIPTION
#-----------   ------------------   ----------------------------------
DEPT.M        00 001 00 00         : DEPTH        - DEPTH
CALI.MM       00 280 01 00         : CAL          - CALIPER
GR  .API      00 310 00 00         : GR           - GAMMA RAY
NPHI.V/V      00 330 00 00         : PHIN         - NEUTRON POROSITY (SANDSTONE)
DPHI.V/V      00 890 00 00         : PHID         - DENSITY POROSITY (SANDSTONE)
ILD .OHMM     00 120 00 00         : RESD         - DEEP RESISTIVITY (DIL)
~PARAMETER INFORMATION
#MNEM.UNIT           DATA             DESCRIPTION OF MNEMONIC
#---------         -----------     ------------------------------
GL  .M        605.485              : gl           - GROUND LEVEL ELEVATION
EREF.M        608.533              : kb           - ELEVATION OF DEPTH REFERENCE
DATM.M        605.485              : datum        - DATUM ELEVATION
TDD .M        380.695              : tdd          - TOTAL DEPTH DRILLER
RUN .         ONE                  : Run          - RUN NUMBER
ENG .         CLARK                : Engineer     - RECORDING ENGINEER
WIT .         McDOUGAL             : Witness      - WITNESSED BY
MUD .         CHEM GEL             : Mud_type     - MUD TYPE
MATR.         SANDSTONE            : Logunit      - NEUTRON MATRIX
TMAX.C        25                   : BHT          - MAXIMUM RECORDED TEMPERATURE
BHTD.M        380.695              : BHTDEP       - MAXIMUM RECORDED TEMPERATURE
RMT .C        15.5556              : MDTP         - TEMPERATURE OF MUD
MUDD.KG/M     9200                 : MWT          - MUD DENSITY
NEUT.         1                    : NEUTRON      - NEUTRON TYPE
RESI.         0                    : RESIST       - RESISTIVITY TYPE
RM  .OHMM     8.8                  : RM           - RESISTIVITY OF MUD
RMC .OHMM     0                    : RMC          - RESISTIVITY OF MUD CAKE
RMF .OHMM     0                    : RMF          - RESISTIVITY OF MUD FILTRATE
SUFT.C        4                    : SUFT         - SURFACE TEMPERATURE
~A  DEPTH      CAL       GR     PHIN     PHID     RESD
# ...
  374.524  245.688   21.569    0.464    0.269   12.730
  374.774  246.856   22.328    0.467    0.270   13.187
  375.024  248.327   23.088    0.469    0.261   13.788
  375.274  249.487   24.894    0.469    0.220   14.031
  375.524  248.261   27.980    0.472    0.190   13.890
  375.774  245.266   30.148    0.472    0.180   13.508
  376.024  243.731   31.027    0.472    0.200   13.016
  376.274  242.812   31.057    0.475    0.244   11.985
  376.524  241.169   29.486    0.475    0.254   10.936
  376.774  239.835   26.196    0.464    0.253    9.979
  377.024  238.087   23.773    0.458    0.252    9.530
  377.274  234.574   21.412    0.452    0.252    9.099
  377.524  232.411   18.920    0.479    0.251    8.846
  377.774  234.097   17.782    0.481    0.251    8.681
  378.024  235.982   17.006    0.474    0.256    8.516
  378.274  236.005   16.667    0.470    0.265    8.510
  378.524  231.970   18.040    0.471    0.302    8.503
  378.774  228.352   19.597    0.482    0.320    8.496
  379.024  228.578   22.134    0.473    0.307    8.645
  379.274  228.494   22.517    0.460    0.299    8.717
  379.524  227.165   22.486    0.450    0.282    8.789
  379.774  226.663   21.351    0.438    0.275    8.782
  380.024  226.579   18.062    0.425    0.296    8.854
  380.274  227.014   17.105    0.406    0.309    8.927
  380.524  227.242   17.679    0.395    0.272    9.083
  380.774  227.678   17.583    0.395    0.241    9.497
  381.024  227.698   15.835    0.405    0.238   10.296
  381.274  227.824   14.999    0.408    0.249   11.164
  381.524  228.048   17.841    0.400    0.248   12.104
  381.774  228.692   21.302    0.390    0.234   13.364
  382.024  228.813   22.106    0.380    0.221   15.162
  382.274  228.936   22.207    0.374    0.214   17.515
  382.524  228.955   22.350    0.367    0.203   21.565
  382.774  229.290   21.883    0.354    0.191   23.168
  383.024  229.311   21.355    0.276    0.169   23.361
  383.274  229.227   21.445    0.251    0.157   23.342
  383.524  229.245   20.673    0.302    0.115   23.321
  383.774  229.161   19.451    0.496    0.084   23.300
  384.024  228.657   21.155    0.504    0.095   23.710
  384.274  228.057   29.576    0.504    0.125   24.338
  384.524  227.970   32.106    0.516    0.177   24.319
  384.774  227.988   31.086    0.524    0.176   24.085
  385.024  228.116   31.601    0.523    0.197   23.841
  385.274  228.446   31.082    0.521    0.238   23.183
  385.524  228.672   26.387    0.519    0.226   22.752
  385.774  228.696   27.149    0.496    0.209   22.321
  386.024  228.405   32.059    0.479    0.215   22.506
  386.274  228.419   32.525    0.466    0.219   23.965
  386.524  228.748   34.695    0.456    0.228   26.457
  386.774  229.079   36.007    0.442    0.284   29.477
  387.024  228.891   32.108    0.429    0.310   33.440
  387.274  229.123   30.054    0.427    0.308   33.115
  387.524  229.138   32.034    0.432    0.280   33.088
  387.774  228.640   33.717    0.437    0.177   33.052
  388.024  228.140   33.244    0.440    0.184   33.026
  388.274  227.744   32.415    0.437    0.186   33.917
  388.524  228.284   29.070    0.435    0.193   35.136
  388.774  228.615   27.869    0.440    0.206   35.111
  389.024  228.638   28.197    0.468    0.208   32.034
  389.274  229.177   30.298    0.553    0.195   28.706
  389.524  229.608   33.521    0.551    0.191   23.495
  389.774  229.834   36.415    0.552    0.186   17.086
  390.024  229.752   36.934    0.555    0.205   16.164
  390.274  229.768   37.335    0.570    0.228   16.155
  390.524  229.377   39.810    0.574    0.281   16.737
  390.774  229.186   42.469    0.565    0.334   17.983
  391.024  228.790   41.631    0.502    0.354   20.035
  391.274  228.287   40.063    0.482    0.371   22.116
  391.524  228.515   37.516    0.461    0.360   22.098
  391.774  228.534   33.369    0.418    0.332   21.688
  392.024  229.178   29.720    0.423    0.269   20.333
  392.274  229.719   18.771    0.441    0.260   19.069
  392.524  230.049   20.201    0.463    0.268   16.627
  392.774  230.381   24.524    0.465    0.294   15.036
  393.024  230.926   30.066    0.442    0.315   13.350
  393.274  231.562   32.415    0.432    0.326   12.749
  393.524  232.309   34.404    0.412    0.292   12.737
  393.774  232.641   33.872    0.403    0.275   12.726
  394.024  232.143   31.686    0.392    0.266   12.373
  394.274  231.848   30.360    0.372    0.254   11.924
  394.524  231.556   27.511    0.378    0.241   11.180
  394.774  231.368   22.696    0.388    0.224   10.485
  395.024  230.882   20.703    0.400    0.212    9.480
  395.274  230.681   21.933    0.406    0.205    8.419
  395.524  230.804   23.011    0.414    0.195    7.275
  395.774  230.926   24.870    0.428    0.214    6.884
  396.024  230.947   27.168    0.478    0.346    7.600
  396.274  231.277   30.258    0.501    0.355    8.700
  396.524    0.000   33.228    0.525    0.350    9.605
  396.774    0.000   32.944    0.583    0.323   10.320
  397.024    0.000   25.977    0.580    0.237   11.088
  397.274    0.000   26.920    0.572    0.199   11.595
  397.524    0.000   30.505    0.564    0.179   12.122
  397.774    0.000   38.559    0.557    0.152   12.222
  398.024    0.000   45.199    0.541    0.142   12.212
  398.274    0.000   50.618    0.510    0.151   11.872
  398.524    0.000   51.319    0.432    0.160   11.546
  398.774    0.000   44.970    0.414    0.172   11.125
  399.024    0.000   33.166    0.397    0.181   10.818
  399.274    0.000   25.038    0.408    0.192   11.106
  399.524    0.000   15.564    0.414    0.211   11.934
  399.774    0.000   14.122    0.431    0.226   13.912
  400.024    0.000   14.564    0.467    0.243   15.360
  400.274    0.000   15.443    0.482    0.263   17.113
  400.524    0.000   16.324    0.497    0.286   18.555
  400.774    0.000   16.853    0.502    0.313   18.877
  401.024    0.000   16.746    0.500    0.330   18.692
  401.274    0.000   16.656    0.499    0.341   18.176
  401.524    0.000   16.066    0.493    0.307   17.354
  401.774    0.000   15.655    0.487    0.306   16.720
  402.024    0.000   15.496    0.476    0.315   16.405
  402.274    0.000   15.766    0.450    0.318   16.244
  402.524    0.000   16.397    0.436    0.223   15.939
  402.774    0.000   18.695    0.434    0.200   15.642
  403.024    0.000   32.519    0.432    0.179   15.483
  403.274    0.000   34.313    0.430    0.146   15.471
  403.524    0.000   31.945    0.429    0.138   15.885
  403.774    0.000   29.461    0.424    0.144   16.309
  404.024    0.000   26.610    0.415    0.205   16.746
  404.274    0.000   22.285    0.425    0.211   17.196
  404.524    0.000   22.118    0.441    0.209   17.656
  404.774    0.000   26.066    0.452    0.079   17.965
  405.024    0.000   28.603    0.461    0.084   18.115
  405.274    0.000   28.624    0.467    0.092   18.939
  405.524    0.000   28.224    0.470    0.091   22.078
  405.774    0.000   27.623    0.469    0.090   24.158
  406.024    0.000   27.480    0.467    0.091   26.672
  406.274    0.000   27.006    0.458    0.093   28.142
  406.524    0.000   26.477    0.450    0.106   29.422
  406.774    0.000   26.020    0.446    0.110   29.130
  407.024    0.000   27.082    0.446    0.114   28.844
  407.274    0.000   26.561    0.445    0.116   27.791
  407.524    0.000   26.401    0.441    0.115   26.540
  407.774    0.000   27.092    0.436    0.109   25.109
  408.024    0.000   27.922    0.428    0.099   22.915
  408.274    0.000   28.242    0.421    0.100   20.165
  408.524    0.000   28.704    0.411    0.106   16.803
  408.774    0.000   28.416    0.401    0.105   14.784
  409.024    0.000   29.117    0.395    0.101   13.737
  409.274    0.000   28.350    0.385    0.098   13.120
  409.524    0.000   26.594    0.377    0.097   12.641
  409.774    0.000   26.439    0.371    0.112   12.404
  410.024    0.000   26.154    0.373    0.132   12.171
  410.274    0.000   25.264    0.379    0.147   12.159
  410.524    0.000   24.729    0.384    0.159   12.038
  410.774    0.000   25.982    0.386    0.166   12.031
