~VERSION INFORMATION
 VERS.                 2.0:   CWLS LOG ASCII STANDARD -VERSION 2.0
 WRAP.                  NO:   ONE LINE PER DEPTH STEP
~WELL INFORMATION BLOCK
#MNEM.UNIT           DATA                    DESCRIPTION OF MNEMONIC
#---------    -------------------            -------------------------------
# Generated from Intellog Unique Number	CW_79_81/WELL/2460
WELL.         GULF PELICAN                   : Well_name    - WELL
LOC .         00/07-21-081-21W4/0            : Location     - LOCATION
UWI .         00/07-21-081-21W4/0            : Uwi          - UNIQUE WELL ID
ENTR.         MAX                            : Entered      - ENTERED BY
SRVC.         SCHLUMBERGER                   : Scn          - SERVICE COMPANY
STRT.M        185                            : top_depth    - START DEPTH
STOP.M        429.75                         : bot_depth    - STOP DEPTH
STEP.M        0.25                           : increment    - STEP LENGTH
 NULL. -999.2500:NULL Value
~CURVE INFORMATION BLOCK
#MNEM UNIT       ERCB CURVE CODE    CURVE DESCRIPTION
#-----------   ------------------   ----------------------------------
DEPT.M        00 001 00 00         : DEPTH        - DEPTH
ILD .OHMM     00 120 00 00         : RESD         - DEEP RESISTIVITY (DIL)
NPHI.V/V      00 330 00 00         : PHIN         - NEUTRON POROSITY (SANDSTONE)
DPHI.V/V      00 890 00 00         : PHID         - DENSITY POROSITY (SANDSTONE)
GR  .API      00 310 00 00         : GR           - GAMMA RAY
CALI.MM       00 280 01 00         : CAL          - CALIPER
~PARAMETER INFORMATION
#MNEM.UNIT           DATA             DESCRIPTION OF MNEMONIC
#---------         -----------     ------------------------------
GL  .M        613.45               : gl           - GROUND LEVEL ELEVATION
EREF.M        616.75               : kb           - ELEVATION OF DEPTH REFERENCE
DATM.M        613.45               : datum        - DATUM ELEVATION
TDD .M        432                  : tdd          - TOTAL DEPTH DRILLER
RUN .         ONE                  : Run          - RUN NUMBER
ENG .         BILL                 : Engineer     - RECORDING ENGINEER
WIT .         JIM                  : Witness      - WITNESSED BY
MUD .         GEL                  : Mud_type     - MUD TYPE
MATR.         SANDSTONE            : Logunit      - NEUTRON MATRIX
TMAX.C        19.4                 : BHT          - MAXIMUM RECORDED TEMPERATURE
BHTD.M        432                  : BHTDEP       - MAXIMUM RECORDED TEMPERATURE
MATR.         1                    : LOGUNIT      - NEUTRON MATRIX
RMT .C        17.8                 : MDTP         - TEMPERATURE OF MUD
NEUT.         1                    : NEUTRON      - NEUTRON TYPE
RESI.         0                    : RESIST       - RESISTIVITY TYPE
RMC .OHMM     2.81                 : RMC          - RESISTIVITY OF MUD CAKE
RMF .OHMM     2.05                 : RMF          - RESISTIVITY OF MUD FILTRATE
SUFT.C        -20                  : SUFT         - SURFACE TEMPERATURE
~A  DEPTH     RESD     PHIN     PHID       GR      CAL
# ...
  331.000   13.568    0.409    0.178   75.294  218.782
  331.250   13.520    0.389    0.182   70.679  218.772
  331.500   13.248    0.325    0.147   62.993  219.056
  331.750   12.208    0.315    0.113   59.647  220.144
  332.000   10.911    0.393    0.211   61.855  219.722
  332.250    9.059    0.433    0.252   64.921  218.924
  332.500    7.944    0.450    0.269   67.811  218.421
  332.750    7.294    0.453    0.271   70.641  218.017
  333.000    6.936    0.449    0.266   73.057  217.811
  333.250    6.728    0.453    0.255   74.624  218.436
  333.500    6.678    0.464    0.236   76.587  219.657
  333.750    6.876    0.470    0.251   78.944  221.222
  334.000    6.966    0.468    0.251   79.529  221.606
  334.250    6.967    0.470    0.250   79.286  221.596
  334.500    6.917    0.476    0.252   79.219  221.586
  334.750    6.879    0.472    0.260   80.887  221.489
  335.000    6.932    0.461    0.266   83.343  221.070
  335.250    6.933    0.462    0.255   86.408  221.061
  335.500    7.010    0.468    0.241   86.461  221.641
  335.750    7.165    0.477    0.236   84.682  222.418
  336.000    7.378    0.485    0.240   82.490  222.997
  336.250    7.610    0.486    0.242   81.537  222.741
  336.500    7.669    0.479    0.235   81.530  221.499
  336.750    7.614    0.473    0.228   83.178  219.913
  337.000    7.560    0.462    0.218   85.713  222.166
  337.250    7.479    0.458    0.221   86.889  224.519
  337.500    7.372    0.465    0.234   85.642  225.593
  337.750    7.244    0.482    0.228   81.548  226.366
  338.000    7.136    0.487    0.217   78.834  226.355
  338.250    7.034    0.474    0.198   80.481  224.768
  338.500    6.895    0.471    0.192   83.016  225.252
  338.750    6.822    0.475    0.203   85.846  227.014
  339.000    6.823    0.478    0.222   88.084  228.873
  339.250    6.864    0.471    0.226   88.353  229.338
  339.500    7.078    0.461    0.230   87.362  229.736
  339.750    7.554    0.459    0.239   84.992  228.939
  340.000    8.236    0.448    0.247   82.623  224.597
  340.250    9.238    0.445    0.239   81.789  221.041
  340.500   10.657    0.449    0.224   82.019  219.848
  340.750   12.894    0.445    0.231   80.043  219.590
  341.000   15.643    0.426    0.216   76.098  218.350
  341.250   17.424    0.404    0.224   75.381  217.158
  341.500   18.035    0.382    0.207   73.780  217.146
  341.750   17.773    0.362    0.173   71.175  217.332
  342.000   16.910    0.357    0.150   68.982  217.223
  342.250   15.219    0.404    0.198   70.944  216.655
  342.500   13.909    0.432    0.269   74.876  215.822
  342.750   14.012    0.421    0.261   74.633  216.204
  343.000   14.193    0.415    0.202   73.682  217.473
  343.250   14.247    0.397    0.146   71.432  218.645
  343.500   13.961    0.366    0.116   69.535  219.326
  343.750   13.014    0.342    0.113   73.022  219.871
  344.000   12.254    0.366    0.139   78.678  220.680
  344.250   11.816    0.393    0.177   79.380  222.243
  344.500   11.776    0.396    0.185   78.134  223.219
  344.750   12.078    0.393    0.175   76.945  223.800
  345.000   12.554    0.393    0.160   76.879  224.282
  345.250   12.834    0.405    0.158   78.201  225.140
  345.500   12.836    0.416    0.158   78.935  225.538
  345.750   12.745    0.415    0.159   78.928  226.710
  346.000   12.446    0.422    0.161   78.745  227.586
  346.250   12.045    0.435    0.166   78.620  227.772
  346.500   11.551    0.446    0.171   78.791  226.973
  346.750   10.853    0.444    0.181   80.083  224.419
  347.000   10.611    0.448    0.193   83.031  221.537
  347.250   10.846    0.444    0.186   85.624  221.131
  347.500   10.848    0.427    0.167   86.445  222.795
  347.750   10.692    0.421    0.160   86.438  224.360
  348.000   10.463    0.432    0.168   86.137  224.546
  348.250   10.223    0.447    0.178   85.608  222.547
  348.500   10.147    0.445    0.179   85.356  220.485
  348.750    9.856    0.432    0.174   86.295  219.294
  349.000    9.521    0.424    0.175   86.525  219.580
  349.250    9.250    0.426    0.173   86.755  219.964
  349.500    9.052    0.434    0.166   87.398  220.248
  349.750    8.911    0.438    0.164   88.276  221.744
  350.000    9.188    0.442    0.162   86.793  223.374
  350.250    9.948    0.442    0.177   84.897  222.971
  350.500   10.382    0.438    0.193   84.772  221.975
  350.750   10.460    0.435    0.205   84.648  221.177
  351.000   10.214    0.438    0.208   84.110  220.872
  351.250    9.528    0.451    0.196   84.151  221.022
  351.500    8.707    0.450    0.194   84.391  221.835
  351.750    8.091    0.447    0.194   84.620  222.610
  352.000    7.606    0.449    0.186   84.673  223.091
  352.250    7.367    0.451    0.182   85.258  223.672
  352.500    7.354    0.452    0.187   86.552  225.238
  352.750    7.595    0.460    0.204   88.446  229.246
  353.000    8.327    0.478    0.232   89.670  229.647
  353.250    9.015    0.490    0.239   90.609  226.484
  353.500    9.257    0.477    0.249   90.839  219.187
  353.750    9.627    0.464    0.249   89.178  214.450
  354.000   10.307    0.461    0.238   85.746  213.948
  354.250   10.964    0.465    0.232   81.365  214.903
  354.500   11.567    0.451    0.226   78.405  217.765
  354.750   11.823    0.437    0.214   71.546  220.509
  355.000   12.086    0.415    0.209   69.117  220.895
  355.250   12.443    0.413    0.214   69.465  220.688
  355.500   12.952    0.430    0.221   70.168  220.874
  355.750   13.914    0.425    0.212   67.591  221.650
  356.000   15.493    0.401    0.208   65.368  221.637
  356.250   15.383    0.382    0.194   64.180  221.234
  356.500   15.525    0.375    0.190   64.056  221.126
  356.750   17.919    0.364    0.189   64.286  221.115
  357.000   23.570    0.346    0.179   64.457  221.005
  357.250   26.451    0.327    0.144   64.351  220.599
  357.500   26.057    0.314    0.119   63.852  220.590
  357.750   23.155    0.296    0.116   64.083  221.760
  358.000   19.767    0.307    0.131   65.731  222.044
  358.250   16.786    0.325    0.142   68.206  221.640
  358.500   14.622    0.345    0.151   71.272  220.350
  358.750   13.331    0.387    0.190   75.833  217.415
  359.000   12.936    0.427    0.232   79.765  216.585
  359.250   13.512    0.430    0.250   81.177  217.757
  359.500   14.192    0.428    0.258   81.171  217.450
  359.750   14.673    0.417    0.252   81.047  216.258
  360.000   14.728    0.399    0.234   81.513  214.968
  360.250   14.176    0.391    0.205   82.441  215.053
  360.500   13.550    0.399    0.201   81.204  217.504
  360.750   12.874    0.405    0.215   80.016  219.463
  361.000   12.578    0.429    0.231   79.537  219.059
  361.250   12.123    0.444    0.238   80.003  217.474
  361.500   11.698    0.442    0.234   81.120  216.086
  361.750   12.046    0.433    0.231   82.303  216.549
  362.000   12.047    0.431    0.249   83.528  216.948
  362.250   12.049    0.435    0.244   84.704  216.938
  362.500   11.854    0.442    0.253   86.056  217.223
  362.750   11.340    0.452    0.258   87.585  217.211
  363.000   10.707    0.461    0.252   88.643  216.510
  363.250   10.342    0.453    0.235   88.173  214.841
  363.500   10.423    0.445    0.230   89.396  214.420
  363.750   10.809    0.446    0.229   90.098  214.411
  364.000   11.031    0.444    0.232   89.739  214.401
  364.250   11.154    0.444    0.229   88.906  214.390
  364.500   11.196    0.446    0.226   87.955  214.477
  364.750   11.100    0.447    0.236   87.001  215.188
  365.000   11.018    0.448    0.242   86.994  216.817
  365.250   10.859    0.448    0.231   88.643  217.989
  365.500   10.586    0.448    0.230   89.228  218.865
  365.750   10.436    0.449    0.231   89.221  218.855
  366.000   10.494    0.454    0.228   89.097  218.155
  366.250   10.761    0.462    0.226   89.424  217.912
  366.500   10.927    0.471    0.233   89.909  218.721
  366.750   10.929    0.472    0.226   88.959  218.711
  367.000   10.930    0.484    0.232   88.185  218.997
  367.250   10.932    0.491    0.243   87.823  219.381
