~VERSION INFORMATION
 VERS.                 2.0:   CWLS LOG ASCII STANDARD -VERSION 2.0
 WRAP.                  NO:   ONE LINE PER DEPTH STEP
~WELL INFORMATION BLOCK
#MNEM.UNIT           DATA                    DESCRIPTION OF MNEMONIC
#---------    -------------------            -------------------------------
# Generated from Intellog Unique Number	CW_70_72/WELL/2904
NULL.         -999.25                        : NULL_VALUE
COMP .        CALMARK RESOURCES LTD          :  COMPANY
WELL.         CALMARK ET AL MISTAHAE         : Well_name    - WELL              
LOC .         09-25-079-01W5                 : Location     - LOCATION          
UWI .         00/09-25-079-01W5/0            : Uwi          - UNIQUE WELL ID    
ENTR.         MAX                            : Entered      - ENTERED BY        
SRVC.         COMPUTALOG                     : Scn          - SERVICE COMPANY   
DATE.         25 FEB 89                      : Date         - LOG DATE
STRT.M        245                            : top_depth    - START DEPTH       
STOP.M        500                            : bot_depth    - STOP DEPTH        
STEP.M        0.25                           : increment    - STEP LENGTH       
~CURVE INFORMATION BLOCK
#MNEM UNIT       ERCB CURVE CODE    CURVE DESCRIPTION
#-----------   ------------------   ----------------------------------
DEPT.M        00 001 00 00         : DEPTH        - DEPTH                       
ILD .OHMM     00 120 00 00         : RESD         - DEEP RESISTIVITY (DIL)      
NPHI.V/V      00 330 00 00         : PHIN         - NEUTRON POROSITY (SANDSTONE)
DPHI.V/V      00 890 00 00         : PHID         - DENSITY POROSITY (SANDSTONE)
CALI.MM       00 280 01 00         : CAL          - CALIPER                     
GR  .API      00 310 00 00         : GR           - GAMMA RAY                   
~PARAMETER INFORMATION       
#MNEM.UNIT           DATA             DESCRIPTION OF MNEMONIC
#---------         -----------     ------------------------------
GL  .M        570.5                : gl           - GROUND LEVEL ELEVATION      
EREF.M        574.14               : kb           - ELEVATION OF DEPTH REFERENCE
DATM.M        570.5                : datum        - DATUM ELEVATION             
TDD .M        521                  : tdd          - TOTAL DEPTH DRILLER         
RUN .         ONE                  : Run          - RUN NUMBER                  
ENG .         BILL                 : Engineer     - RECORDING ENGINEER          
WIT .         JIM                  : Witness      - WITNESSED BY                
MUD .         GEL                  : Mud_type     - MUD TYPE                    
MATR.         SANDSTONE            : Logunit      - NEUTRON MATRIX              
TMAX.C        21                   : BHT          - MAXIMUM RECORDED TEMPERATURE
BHTD.M        521                  : BHTDEP       - MAXIMUM RECORDED TEMPERATURE
RMT .C        14.4                 : MDTP         - TEMPERATURE OF MUD          
MUDD.KG/M     950                  : MWT          - MUD DENSITY                 
NEUT.         1                    : NEUTRON      - NEUTRON TYPE                
RESI.         0                    : RESIST       - RESISTIVITY TYPE            
RM  .OHMM     2.2                  : RM           - RESISTIVITY OF MUD          
RMC .OHMM     1.9                  : RMC          - RESISTIVITY OF MUD CAKE     
RMF .OHMM     2                    : RMF          - RESISTIVITY OF MUD FILTRATE 
SUFT.C        -20                  : SUFT         - SURFACE TEMPERATURE         
~A  DEPTH     RESD     PHIN     PHID      CAL       GR
# ...
  318.000   13.305    0.296    0.063  164.753   52.067
  318.250   11.818    0.394    0.103  165.236   59.410
  318.500   10.690    0.448    0.276  165.718   69.691
  318.750    9.670    0.467    0.273  165.711   74.682
  319.000    8.908    0.472    0.273  166.192   76.147
  319.250    8.746    0.469    0.267  166.184   79.081
  319.500    8.586    0.466    0.260  166.176   81.427
  319.750    8.430    0.463    0.257  166.166   80.835
  320.000    8.352    0.458    0.252  166.159   81.710
  320.250    8.351    0.458    0.243  166.641   82.588
  320.500    8.350    0.460    0.244  166.633   85.228
  320.750    8.348    0.454    0.246  166.626   86.693
  321.000    8.577    0.446    0.241  166.617   85.218
  321.250    8.654    0.452    0.232  166.609   84.038
  321.500    8.575    0.463    0.224  167.090   86.385
  321.750    8.342    0.446    0.219  167.081   92.257
  322.000    8.189    0.439    0.220  166.584   94.016
  322.250    8.041    0.448    0.225  166.086   91.071
  322.500    7.895    0.458    0.227  166.079   89.009
  322.750    7.893    0.441    0.228  166.070   88.711
  323.000    7.610    0.442    0.229  166.070   86.061
  323.250    7.403    0.452    0.228  166.050   85.174
  323.500    7.203    0.459    0.223  166.535   85.464
  323.750    7.072    0.462    0.220  167.018   88.692
  324.000    6.943    0.494    0.218  167.010   89.862
  324.250    6.879    0.511    0.228  167.491   87.799
  324.500    6.815    0.513    0.239  168.462   88.677
  324.750    6.814    0.506    0.236  168.454   90.436
  325.000    6.814    0.492    0.234  167.957   92.781
  325.250    6.811    0.476    0.241  167.459   93.951
  325.500    6.749    0.462    0.238  166.960   93.360
  325.750    6.747    0.457    0.226  166.461   90.710
  326.000    6.808    0.458    0.214  166.454   88.942
  326.250    6.995    0.461    0.216  165.466   86.291
  326.500    7.187    0.468    0.231  164.968   85.699
  326.750    7.186    0.484    0.239  164.962   85.988
  327.000    7.251    0.492    0.255  164.464   83.337
  327.250    7.518    0.498    0.262  163.964   82.157
  327.500    7.939    0.511    0.263  163.957   83.623
  327.750    8.460    0.476    0.269  163.458   88.320
  328.000    9.180    0.458    0.262  162.962   83.613
  328.250    9.962    0.458    0.263  162.953   78.906
  328.500   10.236    0.460    0.258  162.946   81.839
  328.750   10.327    0.460    0.254  163.426   85.949
  329.000   10.325    0.463    0.265  163.426   87.120
  329.250   10.138    0.467    0.275  163.409   85.352
  329.500    9.773    0.469    0.278  163.891   81.526
  329.750    9.337    0.466    0.269  163.883   80.346
  330.000    9.336    0.451    0.270  163.875   83.280
  330.250    8.600    0.445    0.279  163.867   85.920
  330.500    7.709    0.436    0.267  163.860   86.503
  330.750    7.298    0.438    0.256  164.340   87.674
  331.000    7.165    0.447    0.255  164.333   89.726
  331.250    7.229    0.460    0.276  164.815   86.782
  331.500    7.294    0.469    0.271  164.807   82.663
  331.750    7.293    0.475    0.265  165.289   82.952
  332.000    7.291    0.471    0.268  165.279   81.478
  332.250    7.290    0.473    0.268  165.763   81.767
  332.500    7.092    0.478    0.271  165.755   82.937
  332.750    6.838    0.456    0.273  166.236   81.169
  333.000    6.532    0.443    0.271  166.716   78.519
  333.250    6.128    0.468    0.254  166.709   78.514
  333.500    5.908    0.481    0.237  166.701   80.860
  333.750    5.748    0.455    0.208  166.692   79.093
  334.000    5.799    0.431    0.192  164.725   75.855
  334.250    6.068    0.419    0.214  162.269   82.903
  334.500    6.466    0.419    0.231  161.770   92.890
  334.750    6.705    0.428    0.227  162.253   91.710
  335.000    6.827    0.449    0.225  162.735   90.529
  335.250    6.826    0.460    0.227  163.216   90.230
  335.500    6.950    0.468    0.225  163.697   88.462
  335.750    7.076    0.466    0.222  164.178   87.283
  336.000    7.271    0.442    0.210  164.171   85.221
  336.250    7.403    0.423    0.197  164.653   84.334
  336.500    7.402    0.414    0.207  166.113   86.386
  336.750    7.267    0.441    0.220  167.086   88.733
  337.000    7.006    0.470    0.220  167.567   88.139
  337.250    6.816    0.494    0.218  167.559   90.780
  337.500    6.816    0.479    0.216  167.060   93.126
  337.750    6.691    0.461    0.205  167.053   94.591
  338.000    6.629    0.448    0.202  167.534   92.235
  338.250    6.568    0.455    0.202  167.526   88.114
  338.500    6.567    0.467    0.202  168.008   89.285
  338.750    6.506    0.468    0.200  168.000   90.457
  339.000    6.564    0.470    0.197  168.483   89.864
  339.250    6.684    0.479    0.191  168.964   88.390
  339.500    6.867    0.479    0.189  169.934   90.148
  339.750    7.121    0.458    0.192  170.416   92.788
  340.000    7.588    0.442    0.190  169.919   93.372
  340.250    7.868    0.437    0.187  168.442   90.722
  340.500    8.158    0.421    0.193  166.965   87.483
  340.750    8.157    0.411    0.202  166.466   86.304
  341.000    8.008    0.431    0.211  166.459   86.886
  341.250    7.721    0.460    0.210  166.449   86.294
  341.500    7.511    0.469    0.206  166.441   86.876
  341.750    7.375    0.474    0.205  166.922   91.281
  342.000    7.508    0.483    0.209  166.916   96.271
  342.250    7.929    0.477    0.213  167.398   92.446
  342.500    8.762    0.467    0.217  168.368   86.269
  342.750    9.595    0.462    0.228  167.869   82.150
  343.000   10.132    0.447    0.241  167.862   80.088
  343.250   10.316    0.422    0.247  167.855   79.202
  343.500   10.315    0.422    0.242  167.845   79.491
  343.750   10.313    0.439    0.226  167.838   82.131
  344.000    9.942    0.454    0.210  167.340   79.775
  344.250    9.327    0.458    0.204  166.843   76.243
  344.500    8.750    0.455    0.206  167.324   78.001
  344.750    8.283    0.458    0.204  167.806   82.111
  345.000    7.913    0.457    0.206  167.798   84.164
  345.250    7.560    0.455    0.213  167.299   84.452
  345.500    7.355    0.452    0.220  167.292   85.622
  345.750    7.156    0.445    0.222  167.282   87.381
  346.000    7.090    0.430    0.220  167.766   84.732
  346.250    7.024    0.436    0.219  167.758   84.726
  346.500    7.023    0.456    0.215  168.238   85.015
  346.750    7.151    0.472    0.204  168.719   89.420
  347.000    7.215    0.475    0.209  168.223   96.174
  347.250    7.214    0.459    0.218  167.236   94.700
  347.500    7.212    0.458    0.228  166.246   90.287
  347.750    7.411    0.470    0.243  165.747   85.874
  348.000    7.409    0.471    0.256  165.734   82.929
  348.250    7.408    0.460    0.252  165.731   83.511
  348.500    7.407    0.461    0.244  165.725   84.683
  348.750    7.541    0.465    0.236  165.715   85.266
  349.000    7.749    0.460    0.234  166.198   86.143
  349.250    8.035    0.459    0.230  166.191   86.432
  349.500    8.107    0.453    0.223  166.181   84.663
  349.750    7.959    0.452    0.220  166.173   84.365
  350.000    7.814    0.448    0.217  165.675   85.242
  350.250    7.602    0.438    0.212  165.667   86.118
  350.500    7.601    0.438    0.208  165.661   87.583
  350.750    7.531    0.442    0.209  165.651   87.284
  351.000    7.461    0.440    0.219  165.644   85.221
  351.250    7.325    0.442    0.228  165.636   83.748
  351.500    7.258    0.454    0.239  165.138   82.568
  351.750    7.191    0.467    0.246  165.129   82.268
  352.000    7.124    0.473    0.244  165.122   83.439
  352.250    6.931    0.480    0.238  165.114   87.549
  352.500    6.930    0.480    0.228  164.615   91.952
  352.750    6.929    0.460    0.223  164.118   87.833
  353.000    7.055    0.446    0.220  164.598   87.240
  353.250    7.055    0.447    0.220  164.591   86.354
  353.500    7.182    0.454    0.219  164.582   86.350
  353.750    7.584    0.455    0.217  164.574   88.989
  354.000    8.008    0.446    0.214  164.564   86.339
  354.250    8.533    0.438    0.216  164.564   84.277
