~VERSION INFORMATION
 VERS.                 2.0:   CWLS LOG ASCII STANDARD -VERSION 2.0
 WRAP.                  NO:   ONE LINE PER DEPTH STEP
~WELL INFORMATION BLOCK
#MNEM.UNIT           DATA                    DESCRIPTION OF MNEMONIC
#---------    -------------------            -------------------------------
# Generated from Intellog Unique Number	CS_77_79/WELL/3272
WELL.         ALLIED ROXANA MINERALS LTD.    : Well_name    - WELL
LOC .         00/06-03-078-16W4/0            : Location     - LOCATION
UWI .         00/06-03-078-16W4/0            : Uwi          - UNIQUE WELL ID
ENTR.         JOETTE                         : Entered      - ENTERED BY
SRVC.         SCHLUMBERGER                   : Scn          - SERVICE COMPANY
DATE.         08-24-92                       : Date         - LOG DATE
STRT.M        243.84                         : top_depth    - START DEPTH
STOP.M        467.84                         : bot_depth    - STOP DEPTH
STEP.M        0.25                           : increment    - STEP LENGTH
 NULL. -999.2500:NULL Value
~CURVE INFORMATION BLOCK
#MNEM UNIT       ERCB CURVE CODE    CURVE DESCRIPTION
#-----------   ------------------   ----------------------------------
DEPT.M        00 001 00 00         : DEPTH        - DEPTH
ILD .OHMM     00 120 00 00         : RESD         - DEEP RESISTIVITY (DIL)
NPHI.V/V      00 330 00 00         : PHIN         - NEUTRON POROSITY (SANDSTONE)
GR  .API      00 310 00 00         : GR           - GAMMA RAY
~PARAMETER INFORMATION
#MNEM.UNIT           DATA             DESCRIPTION OF MNEMONIC
#---------         -----------     ------------------------------
GL  .M        631.85               : gl           - GROUND LEVEL ELEVATION
EREF.M        634.898              : kb           - ELEVATION OF DEPTH REFERENCE
DATM.M        634.898              : datum        - DATUM ELEVATION
TDD .M        472.135              : tdd          - TOTAL DEPTH DRILLER
RUN .         ONE                  : Run          - RUN NUMBER
ENG .         BILL                 : Engineer     - RECORDING ENGINEER
WIT .         JIM                  : Witness      - WITNESSED BY
MUD .         GEL                  : Mud_type     - MUD TYPE
MATR.         SANDSTONE            : Logunit      - NEUTRON MATRIX
TMAX.C        17.7778              : BHT          - MAXIMUM RECORDED TEMPERATURE
BHTD.M        472.135              : BHTDEP       - MAXIMUM RECORDED TEMPERATURE
MATR.         1                    : LOGUNIT      - NEUTRON MATRIX
RMT .C        17.7778              : MDTP         - TEMPERATURE OF MUD
NEUT.         1                    : NEUTRON      - NEUTRON TYPE
RESI.         0                    : RESIST       - RESISTIVITY TYPE
RMC .OHMM     1.93                 : RMC          - RESISTIVITY OF MUD CAKE
RMF .OHMM     1.93                 : RMF          - RESISTIVITY OF MUD FILTRATE
SUFT.C        15                   : SUFT         - SURFACE TEMPERATURE
~A  DEPTH     RESD     PHIN       GR
  243.840    4.105    0.619   97.786
  244.090    4.092    0.616   98.976
  244.340    4.284    0.615  100.150
  244.590    4.265    0.615   97.682
  244.840    4.256    0.617   94.594
  245.090    4.448    0.621   89.674
  245.340    4.436    0.627   93.300
  245.590    4.420    0.634   91.443
  245.840    4.410    0.640   91.403
  246.090    4.600    0.650   91.974
  246.340    4.590    0.655   93.164
  246.590    4.780    0.636   94.355
  246.840    4.761    0.616   93.719
  247.090    4.959    0.608   93.688
  247.340    4.944    0.614   96.711
  247.590    4.934    0.627   97.290
  247.840    5.127    0.640   96.639
  248.090    5.111    0.634   99.059
  248.340    5.101    0.624  102.083
  248.590    4.883    0.617  103.265
  248.840    4.659    0.616  103.225
  249.090    4.646    0.619  102.582
  249.340    4.634    0.626  101.328
  249.590    4.416    0.632   99.462
  249.840    4.198    0.641   99.438
  250.090    4.185    0.651   99.406
  250.340    4.176    0.660   96.319
  250.590    4.163    0.652   93.835
  250.840    4.352    0.643   94.414
  251.090    5.154    0.628   93.160
  251.340    5.558    0.613   86.406
  251.590    6.572    0.577   77.208
  251.840    9.227    0.522   68.606
  252.090   11.267    0.536   70.399
  252.340   13.717    0.510   70.383
  252.590   15.756    0.496   69.121
  252.840   17.587    0.483   68.478
  253.090   17.578    0.498   70.890
  253.340   17.562    0.526   74.532
  253.590   17.136    0.485   82.444
  253.840   16.719    0.470   93.403
  254.090   15.674    0.478   96.427
  254.340   14.843    0.493   97.014
  254.590   14.010    0.518   96.982
  254.840   12.971    0.513   93.878
  255.090   11.932    0.512   92.021
  255.340   10.893    0.534   90.767
  255.590    9.854    0.557   89.513
  255.840    8.604    0.545   88.259
  256.090    7.774    0.549   88.227
  256.340    6.940    0.558   94.306
  256.590    6.309    0.572   99.154
  256.840    5.885    0.595  102.780
  257.090    5.664    0.660  105.201
  257.340    5.446    0.668  109.446
  257.590    5.437    0.642  105.129
  257.840    5.424    0.625  101.438
  258.090    6.024    0.634   97.129
  258.340    7.246    0.633   92.820
  258.590    8.875    0.466   85.455
  258.840   10.706    0.447   73.805
  259.090   11.312    0.442   73.162
  259.340   11.909    0.441   84.129
  259.590   11.899    0.436   91.430
  259.840   11.890    0.450   93.223
  260.090   11.669    0.477   88.913
  260.340   11.246    0.481   91.945
  260.590   10.614    0.492   94.357
  260.840   10.191    0.516   93.714
  261.090    9.563    0.458   92.452
  261.340    9.140    0.493   97.912
  261.590    8.922    0.522   96.657
  261.840    8.704    0.536   97.236
  262.090    8.483    0.549   99.657
  262.340    8.880    0.568   99.014
  262.590   10.099    0.586   94.093
  262.840   11.731    0.478   88.562
  263.090   12.950    0.430   79.356
  263.340   13.758    0.439   76.269
  263.590   13.537    0.451   84.791
  263.840   13.117    0.497   88.426
  264.090   12.078    0.531   87.775
  264.340   10.834    0.551   86.529
  264.590    9.786    0.530   85.275
  264.840    9.780    0.432   89.520
  265.090   10.998    0.437   90.710
  265.340   13.243    0.484   89.448
  265.590   15.071    0.468   92.471
  265.840   15.475    0.458   94.273
  266.090   16.075    0.454   92.399
  266.340   16.265    0.463   94.812
  266.590   16.050    0.445   95.399
  266.840   15.835    0.465   92.922
  267.090   15.617    0.452   89.216
  267.340   14.774    0.449   87.962
  267.590   14.562    0.456   89.152
  267.840   15.159    0.463   90.953
  268.090   15.563    0.462   89.699
  268.340   16.371    0.459   87.223
  268.590   16.564    0.443   83.525
  268.840   16.138    0.443   81.660
  269.090   15.923    0.436   75.509
  269.340   14.874    0.424   68.136
  269.590   14.455    0.438   69.326
  269.840   14.028    0.461   71.731
  270.090   13.813    0.476   71.088
  270.340   14.003    0.454   69.850
  270.590   14.404    0.457   69.207
  270.840   14.600    0.464   71.611
  271.090   14.792    0.448   75.848
  271.340   14.770    0.446   78.269
  271.590   14.764    0.451   83.117
  271.840   14.546    0.458   86.759
  272.090   13.504    0.461   93.449
  272.340   12.051    0.468  101.361
  272.590   11.015    0.516  104.995
  272.840    9.361    0.556  102.503
  273.090    7.912    0.571  102.487
  273.340    6.873    0.581  103.066
  273.590    6.235    0.606  107.923
  273.840    6.225    0.628  110.946
  274.090    6.008    0.628  109.692
  274.340    5.995    0.590  109.652
  274.590    5.985    0.574  112.064
  274.840    5.969    0.587  113.254
  275.090    6.162    0.604  113.222
  275.340    6.153    0.629  110.738
  275.590    6.133    0.657  113.158
  275.840    6.124    0.667  111.896
  276.090    6.114    0.655  112.483
  276.340    6.099    0.633  113.674
  276.590    6.083    0.647  111.808
  276.840    5.862    0.673  111.157
  277.090    5.650    0.705  115.403
  277.340    5.224    0.700  117.212
  277.590    5.211    0.676  114.720
  277.840    5.817    0.629  112.855
  278.090    7.036    0.546  110.386
  278.340    8.867    0.532  109.132
  278.590    9.672    0.514  105.434
  278.840    9.868    0.485  107.846
  279.090    9.644    0.472  109.036
  279.340    9.224    0.485  107.155
  279.590    9.009    0.501  104.076
  279.840    8.583    0.511  100.378
  280.090    8.368    0.539   98.504
  280.340    8.352    0.538  100.314
  280.590    8.548    0.547  103.940
  280.840    9.350    0.557  108.185
  281.090   10.363    0.546  109.376
  281.340   11.380    0.545  105.677
  281.590   12.598    0.543  101.368
  281.840   13.403    0.522   97.669
  282.090   13.388    0.496   93.971
  282.340   13.381    0.466   92.106
  282.590   13.365    0.464   97.574
  282.840   13.147    0.489   98.153
  283.090   12.930    0.524   98.105
  283.340   12.506    0.518   98.081
  283.590   12.077    0.480   98.049
  283.840   11.862    0.488  100.461
  284.090   11.647    0.485  105.318
  284.340   11.423    0.478  108.952
  284.590   11.414    0.516  107.698
  284.840   11.199    0.490  104.611
  285.090   11.183    0.492  100.293
  285.340   10.965    0.490   94.762
  285.590   10.539    0.489   88.008
  285.840   10.113    0.540   81.865
  286.090    9.901    0.545   75.112
  286.340   10.709    0.509   68.350
  286.590   12.543    0.468   64.041
  286.840   14.580    0.447   60.937
  287.090   15.593    0.458   60.310
  287.340   16.405    0.473   60.278
  287.590   17.005    0.474   61.469
  287.840   17.200    0.474   65.706
  288.090   16.979    0.457   68.729
  288.340   16.142    0.451   73.586
  288.590   15.517    0.457   77.220
  288.840   14.475    0.479   80.847
  289.090   13.850    0.467   83.267
  289.340   12.811    0.466   86.901
  289.590   11.564    0.470   88.702
  289.840   10.108    0.453   89.893
  290.090    9.486    0.452   96.582
  290.340    8.447    0.472  102.050
  290.590    7.611    0.507  103.851
  290.840    6.982    0.532  103.819
  291.090    6.348    0.551   98.899
  291.340    5.928    0.586   93.978
  291.590    5.501    0.624   84.764
  291.840    5.700    0.606   79.844
  292.090    6.919    0.572   75.542
  292.340    9.574    0.524   72.455
  292.590   11.200    0.497   66.916
  292.840   11.601    0.491   65.050
  293.090   11.999    0.504   65.010
  293.340   12.188    0.496   65.590
  293.590   12.384    0.496   66.780
  293.840   12.782    0.506   70.414
  294.090   13.786    0.522   70.993
  294.340   14.190    0.536   67.914
  294.590   14.379    0.523   66.644
  294.840   13.754    0.501   73.953
  295.090   12.715    0.492   82.483
  295.340   11.882    0.504   92.228
  295.590   11.048    0.520   91.577
  295.840   10.211    0.518   89.101
  296.090    9.583    0.529   87.228
  296.340   10.186    0.475   85.974
  296.590   11.405    0.447   86.553
  296.840   12.210    0.435   85.910
  297.090   12.200    0.424   84.045
  297.340   11.979    0.417   92.576
  297.590   11.758    0.457   91.933
  297.840   11.543    0.526   90.671
