~VERSION INFORMATION
 VERS.                 2.0:   CWLS LOG ASCII STANDARD -VERSION 2.0
 WRAP.                  NO:   ONE LINE PER DEPTH STEP
~WELL INFORMATION BLOCK
#MNEM.UNIT           DATA                    DESCRIPTION OF MNEMONIC
#---------    -------------------            -------------------------------
# Generated from Intellog Unique Number	CC_80_83/WELL/1050
LOC .         00/04-30-083-06W4/0            : Location     - LOCATION
UWI .         00/04-30-083-06W4/0            : Uwi          - UNIQUE WELL ID
ENTR.         DW                             : Entered      - ENTERED BY
SRVC.         SCHLUMBERGER                   : Scn          - SERVICE COMPANY
STRT.M        110                            : top_depth    - START DEPTH
STOP.M        364.75                         : bot_depth    - STOP DEPTH
STEP.M        0.25                           : increment    - STEP LENGTH
 NULL. -999.2500:NULL Value
~CURVE INFORMATION BLOCK
#MNEM UNIT       ERCB CURVE CODE    CURVE DESCRIPTION
#-----------   ------------------   ----------------------------------
DEPT.M        00 001 00 00         : DEPTH        - DEPTH
GR  .API      00 310 00 00         : GR           - GAMMA RAY
DPHI.V/V      00 890 00 00         : PHID         - DENSITY POROSITY (SANDSTONE)
NPHI.V/V      00 330 00 00         : PHIN         - NEUTRON POROSITY (SANDSTONE)
ILD .OHMM     00 120 00 00         : RESD         - DEEP RESISTIVITY (DIL)
~PARAMETER INFORMATION
#MNEM.UNIT           DATA             DESCRIPTION OF MNEMONIC
#---------         -----------     ------------------------------
GL  .M        561.95               : gl           - GROUND LEVEL ELEVATION
EREF.M        566.5                : kb           - ELEVATION OF DEPTH REFERENCE
DATM.M        566.5                : datum        - DATUM ELEVATION
TDD .M        408                  : tdd          - TOTAL DEPTH DRILLER
RUN .         ONE                  : Run          - RUN NUMBER
ENG .         BILL                 : Engineer     - RECORDING ENGINEER
WIT .         JIM                  : Witness      - WITNESSED BY
MUD .         GEL                  : Mud_type     - MUD TYPE
MATR.         SANDSTONE            : Logunit      - NEUTRON MATRIX
TMAX.C        20                   : BHT          - MAXIMUM RECORDED TEMPERATURE
BHTD.M        407                  : BHTDEP       - MAXIMUM RECORDED TEMPERATURE
MATR.         1                    : LOGUNIT      - NEUTRON MATRIX
RMT .C        25                   : MDTP         - TEMPERATURE OF MUD
NEUT.         1                    : NEUTRON      - NEUTRON TYPE
RESI.         0                    : RESIST       - RESISTIVITY TYPE
RMC .OHMM     0.25                 : RMC          - RESISTIVITY OF MUD CAKE
RMF .OHMM     0.25                 : RMF          - RESISTIVITY OF MUD FILTRATE
SUFT.C        15                   : SUFT         - SURFACE TEMPERATURE
~A  DEPTH       GR     PHID     PHIN     RESD
# ...
  197.000   45.276    0.317    0.397   28.455
  197.250   44.203    0.342    0.393   27.577
  197.500   44.133    0.350    0.396   27.314
  197.750   46.393    0.333    0.399   27.674
  198.000   51.024    0.336    0.415   28.171
  198.250   55.005    0.361    0.438   28.541
  198.500   55.763    0.362    0.439   28.525
  198.750   55.594    0.363    0.440   28.497
  199.000   51.825    0.357    0.439   28.710
  199.250   46.816    0.350    0.439   27.766
  199.500   42.677    0.347    0.434   26.856
  199.750   42.347    0.342    0.423   27.009
  200.000   47.898    0.336    0.417   27.018
  200.250   51.710    0.342    0.418   27.930
  200.500   53.902    0.348    0.417   28.126
  200.750   55.647    0.345    0.417   28.159
  201.000   53.851    0.338    0.411   27.791
  201.250   48.086    0.329    0.397   27.000
  201.500   43.752    0.324    0.392   27.084
  201.750   42.163    0.325    0.390   27.087
  202.000   41.025    0.317    0.397   27.335
  202.250   43.333    0.323    0.399   28.214
  202.500   46.410    0.331    0.396   28.750
  202.750   47.006    0.325    0.397   28.746
  203.000   48.113    0.330    0.402   28.715
  203.250   49.156    0.334    0.404   26.707
  203.500   50.013    0.333    0.400   24.152
  203.750   49.279    0.327    0.394   22.770
  204.000   47.507    0.322    0.388   22.488
  204.250   46.107    0.319    0.392   22.609
  204.500   45.167    0.326    0.407   22.985
  204.750   45.486    0.346    0.406   23.087
  205.000   47.708    0.344    0.404   22.243
  205.250   50.397    0.329    0.411   21.142
  205.500   51.447    0.321    0.420   21.213
  205.750   50.464    0.323    0.425   22.416
  206.000   49.540    0.328    0.422   23.471
  206.250   50.945    0.332    0.417   24.626
  206.500   53.110    0.335    0.412   25.539
  206.750   54.541    0.334    0.419   26.108
  207.000   52.349    0.303    0.414   26.354
  207.250   47.662    0.249    0.381   26.273
  207.500   46.580    0.225    0.376   25.839
  207.750   49.121    0.243    0.439   25.049
  208.000   50.801    0.325    0.450   24.390
  208.250   50.771    0.362    0.437   23.101
  208.500   51.463    0.347    0.432   22.023
  208.750   52.946    0.338    0.419   21.814
  209.000   52.193    0.320    0.417   21.080
  209.250   49.224    0.296    0.432   19.791
  209.500   46.054    0.294    0.447   19.029
  209.750   43.257    0.301    0.429   18.572
  210.000   41.220    0.306    0.397   17.842
  210.250   43.616    0.311    0.384   17.597
  210.500   49.224    0.318    0.396   18.529
  210.750   50.810    0.331    0.435   18.261
  211.000   80.131    0.316    0.501   15.204
  211.250   97.581    0.303    0.525   11.990
  211.500   92.056    0.308    0.515    7.762
  211.750   86.863    0.310    0.514    3.364
  212.000   83.577    0.304    0.510    3.138
  212.250   84.709    0.302    0.514    3.264
  212.500   83.432    0.309    0.535    3.319
  212.750   81.395    0.321    0.547    3.532
  213.000   79.841    0.320    0.534    3.864
  213.250   77.789    0.306    0.507    4.236
  213.500   75.129    0.299    0.482    4.660
  213.750   70.546    0.300    0.472    5.292
  214.000   72.556    0.291    0.507    5.809
  214.250   76.909    0.276    0.530    6.101
  214.500   81.667    0.281    0.534    6.177
  214.750   85.006    0.300    0.538    5.317
  215.000   82.564    0.298    0.527    3.342
  215.250   82.844    0.292    0.521    2.555
  215.500   84.853    0.294    0.522    2.525
  215.750   89.199    0.292    0.537    2.661
  216.000   92.363    0.286    0.548    3.128
  216.250   86.618    0.293    0.534    3.758
  216.500   72.913    0.317    0.507    3.956
  216.750   64.155    0.332    0.484    4.041
  217.000   55.422    0.347    0.469    4.082
  217.250   54.032    0.357    0.463    5.739
  217.500   58.797    0.369    0.462   10.477
  217.750   60.790    0.379    0.463   15.724
  218.000   58.915    0.369    0.459   18.043
  218.250   54.783    0.374    0.458   20.258
  218.500   52.305    0.395    0.478   21.058
  218.750   52.954    0.374    0.471   20.772
  219.000   54.644    0.346    0.453   20.599
  219.250   55.407    0.358    0.451   20.586
  219.500   55.341    0.368    0.439   20.245
  219.750   54.321    0.367    0.425   19.932
  220.000   53.917    0.362    0.426   19.644
  220.250   55.008    0.364    0.432   19.313
  220.500   58.067    0.355    0.424   19.138
  220.750   60.381    0.359    0.430   19.180
  221.000   59.108    0.326    0.416   19.181
  221.250   56.584    0.045    0.213   19.595
  221.500   43.835   -0.033    0.132   21.355
  221.750   39.205    0.055    0.149   18.470
  222.000   44.795    0.115    0.134   42.398
  222.250   48.934    0.156    0.199   80.090
  222.500   52.465    0.244    0.413   71.280
  222.750   54.699    0.315    0.446   59.880
  223.000   55.185    0.345    0.451   49.765
  223.250   54.382    0.345    0.473   35.905
  223.500   53.505    0.348    0.475   23.207
  223.750   54.076    0.358    0.462   17.146
  224.000   56.243    0.356    0.451   15.685
  224.250   57.834    0.358    0.463   15.809
  224.500   58.906    0.361    0.473   17.054
  224.750   57.328    0.365    0.467   17.984
  225.000   53.552    0.363    0.457   18.457
  225.250   51.292    0.349    0.455   19.036
  225.500   52.064    0.341    0.462   19.311
  225.750   53.030    0.350    0.480   19.547
  226.000   54.901    0.355    0.493   20.507
  226.250   56.835    0.356    0.490   20.902
  226.500   57.959    0.357    0.486   20.931
  226.750   56.277    0.354    0.483   21.285
  227.000   51.565    0.352    0.468   21.253
  227.250   50.831    0.353    0.466   21.460
  227.500   51.367    0.360    0.468   23.035
  227.750   52.111    0.359    0.462   24.694
  228.000   53.406    0.355    0.450   26.502
  228.250   55.024    0.354    0.454   28.466
  228.500   56.544    0.352    0.475   29.269
  228.750   57.218    0.353    0.466   29.854
  229.000   56.283    0.355    0.471   29.026
  229.250   53.526    0.358    0.469   26.747
  229.500   50.907    0.356    0.453   24.420
  229.750   50.692    0.354    0.449   22.646
  230.000   52.964    0.362    0.455   20.957
  230.250   56.148    0.357    0.457   19.945
  230.500   57.971    0.353    0.448   19.510
  230.750   59.530    0.353    0.451   19.481
  231.000   60.588    0.350    0.458   19.370
  231.250   60.293    0.343    0.454   19.078
  231.500   59.807    0.336    0.446   19.124
  231.750   59.408    0.329    0.435   19.415
  232.000   57.982    0.328    0.435   19.783
  232.250   56.977    0.328    0.459   19.879
  232.500   56.664    0.331    0.460   19.941
  232.750   56.078    0.338    0.442   19.768
  233.000   55.631    0.342    0.459   18.813
  233.250   56.131    0.336    0.444   18.203
  233.500   56.626    0.331    0.434   17.888
  233.750   57.506    0.331    0.442   17.724
  234.000   58.389    0.332    0.452   17.989
  234.250   58.885    0.332    0.459   18.604
  234.500   59.398    0.330    0.468   18.854
  234.750   58.953    0.329    0.464   18.568
  235.000   58.341    0.329    0.454   18.480
  235.250   58.186    0.325    0.457   18.609
  235.500   58.224    0.320    0.467   19.201
  235.750   58.299    0.317    0.461   19.532
  236.000   58.879    0.312    0.440   18.549
  236.250   60.292    0.310    0.419   18.191
  236.500   62.833    0.314    0.416   18.423
  236.750   64.756    0.318    0.421   18.738
  237.000   64.930    0.324    0.425   19.061
  237.250   64.416    0.329    0.436   19.310
  237.500   65.090    0.329    0.458   19.297
  237.750   66.480    0.326    0.470   19.316
  238.000   63.912    0.322    0.464   19.141
  238.250   62.247    0.317    0.450   18.578
  238.500   63.011    0.314    0.437   18.205
  238.750   63.377    0.319    0.433   18.288
  239.000   63.967    0.324    0.445   18.284
  239.250   66.016    0.325    0.455   18.282
  239.500   67.504    0.323    0.462   18.324
  239.750   67.526    0.308    0.466   18.174
  240.000   66.777    0.298    0.468   17.824
  240.250   65.586    0.299    0.469   17.651
