~VERSION INFORMATION
 VERS.                 2.0:   CWLS LOG ASCII STANDARD -VERSION 2.0
 WRAP.                  NO:   ONE LINE PER DEPTH STEP
~WELL INFORMATION BLOCK
#MNEM.UNIT           DATA                    DESCRIPTION OF MNEMONIC
#---------    -------------------            -------------------------------
# Generated from Intellog Unique Number	CW_76_78/WELL/2571
WELL.         07-07-078-23W4                 : Well_name    - WELL
LOC .         00/07-07-078-23W4/0            : Location     - LOCATION
UWI .         00/07-07-078-23W4/0            : Uwi          - UNIQUE WELL ID
ENTR.         MAX                            : Entered      - ENTERED BY
SRVC.         WESTERN ATLAS                  : Scn          - SERVICE COMPANY
STRT.M        290                            : top_depth    - START DEPTH
STOP.M        562                            : bot_depth    - STOP DEPTH
STEP.M        0.25                           : increment    - STEP LENGTH
 NULL. -999.2500:NULL Value
~CURVE INFORMATION BLOCK
#MNEM UNIT       ERCB CURVE CODE    CURVE DESCRIPTION
#-----------   ------------------   ----------------------------------
DEPT.M        00 001 00 00         : DEPTH        - DEPTH
ILD .OHMM     00 120 00 00         : RESD         - DEEP RESISTIVITY (DIL)
NPHI.V/V      00 330 00 00         : PHIN         - NEUTRON POROSITY (SANDSTONE)
DPHI.V/V      00 890 00 00         : PHID         - DENSITY POROSITY (SANDSTONE)
CALI.MM       00 280 01 00         : CAL          - CALIPER
GR  .API      00 310 00 00         : GR           - GAMMA RAY
~PARAMETER INFORMATION
#MNEM.UNIT           DATA             DESCRIPTION OF MNEMONIC
#---------         -----------     ------------------------------
GL  .M        601.9                : gl           - GROUND LEVEL ELEVATION
EREF.M        606                  : kb           - ELEVATION OF DEPTH REFERENCE
DATM.M        601.9                : datum        - DATUM ELEVATION
TDD .M        566                  : tdd          - TOTAL DEPTH DRILLER
RUN .         ONE                  : Run          - RUN NUMBER
ENG .         BILL                 : Engineer     - RECORDING ENGINEER
WIT .         JIM                  : Witness      - WITNESSED BY
MUD .         GEL                  : Mud_type     - MUD TYPE
MATR.         SANDSTONE            : Logunit      - NEUTRON MATRIX
TMAX.C        27                   : BHT          - MAXIMUM RECORDED TEMPERATURE
BHTD.M        566                  : BHTDEP       - MAXIMUM RECORDED TEMPERATURE
RMT .C        20                   : MDTP         - TEMPERATURE OF MUD
MUDD.KG/M     1110                 : MWT          - MUD DENSITY
NEUT.         1                    : NEUTRON      - NEUTRON TYPE
RESI.         0                    : RESIST       - RESISTIVITY TYPE
RM  .OHMM     5                    : RM           - RESISTIVITY OF MUD
RMC .OHMM     5.5                  : RMC          - RESISTIVITY OF MUD CAKE
RMF .OHMM     4.8                  : RMF          - RESISTIVITY OF MUD FILTRATE
SUFT.C        -20                  : SUFT         - SURFACE TEMPERATURE
~A  DEPTH     RESD     PHIN     PHID      CAL       GR
# ...
  363.000    8.500    0.368    0.302  207.135   85.565
  363.250    8.498    0.386    0.289  207.117   82.868
  363.500    8.495    0.395    0.279  207.088   80.467
  363.750    8.417    0.389    0.292  207.067   79.860
  364.000    8.339    0.369    0.308  207.044   84.616
  364.250    8.188    0.364    0.310  207.014   84.600
  364.500    7.681    0.357    0.305  206.997   79.219
  364.750    7.076    0.359    0.290  205.976   76.220
  365.000    6.519    0.374    0.272  206.450   78.893
  365.250    5.738    0.398    0.260  206.429   89.314
  365.500    5.191    0.420    0.260  207.399   91.685
  365.750    4.915    0.434    0.288  210.854   94.352
  366.000    4.446    0.450    0.433  216.294   91.060
  366.250    4.059    0.483    0.463  218.261   85.978
  366.500    3.773    0.496    0.485  212.771   79.703
  366.750    3.572    0.484    0.477  206.779   82.670
  367.000    3.382    0.482    0.476  205.270   93.389
  367.250    3.231    0.479    0.389  206.235  102.319
  367.500    3.143    0.459    0.308  208.693  102.007
  367.750    3.058    0.421    0.389  209.666  102.589
  368.000    3.002    0.412    0.377  213.124  105.556
  368.250    2.974    0.415    0.333  219.063  104.348
  368.500    2.974    0.412    0.324  226.490   99.862
  368.750    3.000    0.408    0.305  225.970   99.549
  369.000    3.083    0.402    0.301  225.946  105.498
  369.250    3.139    0.393    0.288  226.420  102.502
  369.500    3.167    0.390    0.251  227.890  103.977
  369.750    3.167    0.404    0.264  232.332  107.543
  370.000    3.165    0.414    0.282  229.827  104.547
  370.250    3.136    0.409    0.289  225.828  105.129
  370.500    3.079    0.407    0.289  223.817  103.326
  370.750    3.050    0.407    0.260  223.791  103.608
  371.000    3.134    0.421    0.287  221.777  105.979
  371.250    3.339    0.417    0.291  222.753  107.454
  371.500    3.623    0.411    0.281  220.736  105.057
  371.750    3.932    0.413    0.260  218.231  102.359
  372.000    4.227    0.409    0.243  215.226  101.747
  372.250    4.463    0.400    0.230  213.214   99.346
  372.500    4.586    0.415    0.238  211.697   98.739
  372.750    4.341    0.417    0.242  211.697   96.933
  373.000    4.000    0.407    0.241  210.653   93.641
  373.250    3.585    0.393    0.214  209.642   90.643
  373.500    3.585    0.401    0.227  209.612   93.911
  373.750    3.519    0.415    0.235  209.595   98.965
  374.000    3.519    0.416    0.253  213.544  105.806
  374.250    3.681    0.407    0.264  212.026   99.533
  374.500    3.994    0.385    0.245  210.515   92.064
  374.750    4.577    0.384    0.250  210.491   95.327
  375.000    4.833    0.411    0.285  209.971   93.524
  375.250    5.057    0.398    0.309  209.448   92.319
  375.500    5.794    0.392    0.247  208.427   90.516
  375.750    6.640    0.386    0.242  207.910   87.817
  376.000    7.139    0.382    0.257  207.392   85.418
  376.250    7.676    0.377    0.280  206.869   83.019
  376.500    8.031    0.371    0.299  206.845   84.199
  376.750    7.673    0.368    0.319  207.316   81.499
  377.000    7.264    0.367    0.319  207.316   81.187
  377.250    6.753    0.373    0.220  207.260   83.858
  377.500    6.393    0.367    0.199  207.248   88.612
  377.750    6.220    0.369    0.219  206.722   79.356
  378.000    6.162    0.364    0.246  206.207   78.447
  378.250    6.105    0.379    0.334  205.687   80.519
  378.500    6.104    0.384    0.324  205.660   80.506
  378.750    6.215    0.388    0.305  205.631   93.907
  379.000    6.157    0.400    0.293  205.613   96.578
  379.250    6.101    0.387    0.255  205.587  101.036
  379.500    6.099    0.377    0.217  205.563  101.914
  379.750    6.043    0.371    0.203  205.545  101.602
  380.000    6.097    0.358    0.198  205.519  101.291
  380.250    6.095    0.361    0.218  206.486  100.979
  380.500    6.263    0.367    0.227  206.465   99.772
  380.750    6.734    0.383    0.236  206.433   97.668
  381.000    7.373    0.385    0.268  206.415  103.320
  381.250    9.861    0.356    0.259  206.392   88.399
  381.500   10.996    0.348    0.220  205.868   80.631
  381.750   12.831    0.338    0.128  204.857   78.828
  382.000   12.946    0.332    0.180  203.840   77.325
  382.250   11.926    0.335    0.217  203.316   80.889
  382.500   10.789    0.331    0.228  203.296   81.767
  382.750    9.411    0.347    0.237  203.263   85.033
  383.000    8.591    0.373    0.240  203.240   93.368
  383.250    8.435    0.369    0.241  203.713   88.582
  383.500    9.320    0.347    0.229  204.686   85.587
  383.750   10.392    0.322    0.191  205.160   82.293
  384.000   10.678    0.257    0.035  206.130   84.962
  384.250   10.201    0.294    0.065  206.109   90.016
  384.500    8.274    0.343    0.114  205.083   99.839
  384.750    7.417    0.344    0.172  204.072   98.632
  385.000    6.771    0.346    0.222  203.551   98.022
  385.250    6.648    0.366    0.215  203.525   95.028
  385.500    6.647    0.365    0.214  204.498   95.607
  385.750    6.644    0.360    0.221  205.468   97.385
  386.000    6.644    0.362    0.216  206.935  100.352
  386.250    6.642    0.362    0.220  207.900  106.299
  386.500    6.641    0.364    0.215  208.376  105.093
  386.750    6.641    0.365    0.202  208.355  104.780
  387.000    6.638    0.363    0.191  208.332  102.974
  387.250    6.577    0.359    0.191  208.805  101.473
  387.500    6.576    0.357    0.186  208.776  102.349
  387.750    6.576    0.354    0.189  208.755  100.252
  388.000    6.573    0.352    0.208  208.235   99.343
  388.250    6.573    0.366    0.215  207.714   99.327
  388.500    6.511    0.379    0.210  207.691   98.717
  388.750    6.509    0.379    0.215  207.170  100.492
  389.000    6.508    0.375    0.225  206.650   99.579
  389.250    6.566    0.359    0.227  206.620   96.289
  389.500    6.505    0.357    0.216  206.603   89.416
  389.750    6.445    0.356    0.222  206.579   88.808
  390.000    6.385    0.353    0.227  206.056   87.601
  390.250    6.326    0.343    0.201  204.544   89.374
  390.500    6.211    0.351    0.192  204.518   92.641
  390.750    5.988    0.350    0.190  206.973   98.586
  391.000    5.879    0.359    0.178  208.446   98.576
  391.250    5.719    0.363    0.175  209.413  100.049
  391.500    5.565    0.348    0.168  208.396  100.036
  391.750    5.364    0.349    0.163  205.885  100.318
  392.000    5.315    0.353    0.187  205.370  101.499
  392.250    5.314    0.350    0.216  207.831  103.273
  392.500    5.314    0.335    0.218  208.799  105.643
  392.750    5.409    0.337    0.235  207.781  102.053
  393.000    5.923    0.353    0.219  205.267   90.411
  393.250    6.485    0.358    0.192  203.759   84.134
  393.500    7.037    0.340    0.176  202.245   86.503
  393.750    7.363    0.339    0.264  200.233   90.065
  394.000    7.917    0.332    0.292  200.707   88.862
  394.250    8.668    0.319    0.299  201.674   79.305
  394.500    9.236    0.300    0.245  201.157   75.415
  394.750    9.751    0.274    0.140  200.633   74.209
  395.000    9.929    0.259    0.097  201.107   75.089
  395.250   10.017    0.273    0.111  203.570   77.460
  395.500    9.835    0.291    0.134  206.031   80.425
  395.750    9.395    0.296    0.158  203.021   83.693
  396.000    9.058    0.298    0.191  202.503   88.151
  396.250    9.139    0.279    0.187  205.461   79.489
  396.500    9.221    0.280    0.127  205.437   77.688
  396.750    8.971    0.310    0.196  205.414   86.618
  397.000    8.416    0.335    0.246  205.384   95.842
  397.250    7.895    0.333    0.247  204.867   95.534
  397.500    7.474    0.332    0.232  203.847   95.221
  397.750    7.141    0.329    0.214  203.332   95.802
  398.000    6.884    0.325    0.213  202.809   94.595
  398.250    6.946    0.317    0.215  202.785   95.475
  398.500    7.072    0.309    0.232  202.265   99.637
  398.750    7.200    0.315    0.280  202.738  100.219
  399.000    7.264    0.341    0.299  202.714   86.785
  399.250    7.740    0.335    0.304  202.685   89.158
