~VERSION INFORMATION
 VERS.                 2.0:   CWLS LOG ASCII STANDARD -VERSION 2.0
 WRAP.                  NO:   ONE LINE PER DEPTH STEP
~WELL INFORMATION BLOCK
#MNEM.UNIT           DATA                    DESCRIPTION OF MNEMONIC
#---------    -------------------            -------------------------------
# Generated from Intellog Unique Number	CN_94_101/WELL/3416
WELL.         PACIFIC PETROLEUM LTD.         : Well_name    - WELL
LOC .         00/07-06-095-21W4/0            : Location     - LOCATION
UWI .         00/07-06-095-21W4/0            : Uwi          - UNIQUE WELL ID
ENTR.         JOETTE                         : Entered      - ENTERED BY
SRVC.         COMPUTALOG                     : Scn          - SERVICE COMPANY
DATE.         07\27\92                       : Date         - LOG DATE
STRT.M        360                            : top_depth    - START DEPTH
STOP.M        505                            : bot_depth    - STOP DEPTH
STEP.M        0.25                           : increment    - STEP LENGTH
 NULL. -999.2500:NULL Value
~CURVE INFORMATION BLOCK
#MNEM UNIT       ERCB CURVE CODE    CURVE DESCRIPTION
#-----------   ------------------   ----------------------------------
DEPT.M        00 001 00 00         : DEPTH        - DEPTH
ILD .OHMM     00 120 00 00         : RESD         - DEEP RESISTIVITY (DIL)
GR  .API      00 310 00 00         : GR           - GAMMA RAY
NPHI.V/V      00 330 00 00         : PHIN         - NEUTRON POROSITY (SANDSTONE)
DPHI.V/V      00 890 00 00         : PHID         - DENSITY POROSITY (SANDSTONE)
~PARAMETER INFORMATION
#MNEM.UNIT           DATA             DESCRIPTION OF MNEMONIC
#---------         -----------     ------------------------------
GL  .M        807                  : gl           - GROUND LEVEL ELEVATION
EREF.M        810                  : kb           - ELEVATION OF DEPTH REFERENCE
DATM.M        810                  : datum        - DATUM ELEVATION
TDD .M        504.9                : tdd          - TOTAL DEPTH DRILLER
RUN .         ONE                  : Run          - RUN NUMBER
ENG .         JO                   : Engineer     - RECORDING ENGINEER
WIT .         TIM                  : Witness      - WITNESSED BY
MUD .         GEL                  : Mud_type     - MUD TYPE
MATR.         SANDSTONE            : Logunit      - NEUTRON MATRIX
TMAX.C        22                   : BHT          - MAXIMUM RECORDED TEMPERATURE
BHTD.M        504.9                : BHTDEP       - MAXIMUM RECORDED TEMPERATURE
RMT .C        12.2                 : MDTP         - TEMPERATURE OF MUD
MUDD.KG/M     1120                 : MWT          - MUD DENSITY
NEUT.         1                    : NEUTRON      - NEUTRON TYPE
RESI.         0                    : RESIST       - RESISTIVITY TYPE
RM  .OHMM     3.3                  : RM           - RESISTIVITY OF MUD
RMC .OHMM     3.3                  : RMC          - RESISTIVITY OF MUD CAKE
RMF .OHMM     2.2                  : RMF          - RESISTIVITY OF MUD FILTRATE
SUFT.C        4                    : SUFT         - SURFACE TEMPERATURE
~A  DEPTH     RESD       GR     PHIN     PHID
# ...
  447.000    7.777   66.437    0.364    0.194
  447.250    8.077   61.045    0.375    0.202
  447.500    9.220   57.456    0.406    0.219
  447.750    9.227   59.973    0.416    0.196
  448.000    8.733   61.883    0.384    0.177
  448.250    8.109   58.294    0.368    0.165
  448.500    7.391   54.705    0.382    0.178
  448.750    8.759   59.651    0.387    0.205
  449.000    8.605   63.990    0.393    0.219
  449.250    8.297   61.633    0.409    0.213
  449.500    8.000   59.883    0.395    0.185
  449.750    7.859   63.579    0.435    0.180
  450.000    8.014   66.685    0.428    0.190
  450.250    8.652   69.810    0.423    0.208
  450.500    8.986   66.828    0.423    0.227
  450.750    9.881   54.150    0.418    0.233
  451.000   10.660   50.579    0.411    0.240
  451.250   11.078   47.008    0.403    0.256
  451.500   11.091   46.472    0.405    0.271
  451.750   10.891   47.150    0.410    0.283
  452.000    9.747   47.846    0.399    0.276
  452.250    9.219   47.917    0.390    0.267
  452.500    8.404   49.203    0.401    0.264
  452.750    7.518   51.685    0.419    0.260
  453.000    6.984   54.809    0.410    0.249
  453.250    6.609   55.470    0.417    0.256
  453.500    6.997   55.541    0.461    0.269
  453.750    8.134   54.416    0.503    0.280
  454.000   10.387   53.273    0.524    0.294
  454.250   13.521   50.916    0.451    0.287
  454.500   16.626   48.541    0.415    0.289
  454.750   22.457   44.970    0.396    0.307
  455.000   27.109   42.041    0.373    0.319
  455.250   21.674   42.702    0.400    0.306
  455.500   19.030   43.362    0.422    0.290
  455.750   16.708   44.040    0.440    0.292
  456.000   15.811   45.326    0.444    0.291
  456.250   16.129   47.861    0.480    0.280
  456.500   17.401   45.468    0.426    0.277
  456.750   17.414   37.058    0.417    0.285
  457.000   16.790   37.129    0.412    0.285
  457.250   14.742   39.022    0.415    0.273
  457.500   12.703   42.129    0.434    0.258
  457.750   10.746   47.057    0.457    0.231
  458.000    9.980   51.395    0.494    0.201
  458.250    9.620   50.860    0.468    0.198
  458.500    9.103   50.324    0.460    0.222
  458.750    8.943   50.395    0.466    0.245
  459.000    8.956   52.306    0.474    0.267
  459.250    9.130   55.394    0.435    0.272
  459.500    9.855   54.876    0.431    0.261
  459.750   10.239   52.484    0.448    0.254
  460.000   10.841   47.091    0.420    0.251
  460.250   11.479   45.341    0.364    0.195
  460.500   11.932   44.805    0.324    0.163
  460.750   12.169   45.483    0.329    0.163
  461.000   12.184   44.358    0.321    0.157
  461.250   11.970   41.394    0.302    0.142
  461.500   11.541   42.680    0.303    0.166
  461.750   11.122   45.161    0.361    0.231
  462.000    9.950   53.143    0.390    0.226
  462.250    9.415   56.267    0.411    0.217
  462.500    9.078   56.339    0.436    0.204
  462.750    9.087   58.231    0.398    0.186
  463.000    8.929   63.766    0.342    0.189
  463.250    8.936   65.052    0.329    0.209
  463.500    8.947   65.141    0.353    0.226
  463.750    8.954   64.605    0.370    0.224
  464.000    8.800   65.890    0.382    0.217
  464.250    8.805   67.783    0.388    0.212
  464.500    8.491   68.444    0.391    0.213
  464.750    8.342   66.122    0.397    0.204
  465.000    7.896   64.944    0.406    0.198
  465.250    7.753   61.390    0.401    0.195
  465.500    7.476   62.068    0.391    0.207
  465.750    7.208   64.550    0.391    0.217
  466.000    7.217   67.657    0.391    0.212
  466.250    7.224   69.549    0.389    0.207
  466.500    7.368   69.014    0.398    0.200
  466.750    7.949   66.656    0.394    0.178
  467.000    8.577   61.871    0.400    0.191
  467.250    8.911   56.478    0.390    0.200
  467.500    9.260   57.764    0.385    0.189
  467.750    9.626   64.513    0.405    0.183
  468.000    9.817   74.941    0.365    0.195
  468.250   10.013   75.619    0.333    0.196
  468.500   10.210   78.101    0.339    0.195
  468.750   10.413   74.530    0.340    0.209
  469.000   10.620   69.744    0.330    0.204
  469.250   10.834   63.137    0.316    0.196
  469.500   11.050   58.352    0.310    0.195
  469.750   11.486   55.977    0.314    0.218
  470.000   11.936   62.744    0.337    0.218
  470.250   12.403   68.886    0.355    0.218
  470.500   12.416   64.725    0.351    0.220
  470.750   11.314   62.351    0.344    0.229
  471.000   11.542   61.208    0.338    0.224
  471.250   11.992   64.314    0.334    0.213
  471.500   12.703   66.207    0.333    0.208
  471.750   12.950   65.671    0.334    0.201
  472.000   12.966   62.100    0.348    0.198
  472.250   12.738   59.153    0.357    0.196
  472.500   12.053   61.028    0.349    0.194
  472.750   11.619   60.492    0.338    0.190
  473.000   10.793   56.314    0.332    0.196
  473.250   10.214   51.546    0.334    0.191
  473.500    9.668   54.653    0.358    0.185
  473.750    9.493   59.581    0.384    0.203
  474.000    8.816   65.134    0.409    0.201
  474.250    8.501   62.170    0.387    0.196
  474.500    8.200   61.027    0.363    0.188
  474.750    8.204   65.348    0.367    0.166
  475.000    8.212   67.847    0.377    0.175
  475.250    8.378   68.543    0.388    0.188
  475.500    8.871   68.579    0.396    0.202
  475.750    9.393   72.293    0.401    0.205
  476.000   10.136   80.274    0.385    0.198
  476.250   10.335   72.436    0.353    0.198
  476.500   10.543   60.365    0.329    0.195
  476.750   10.551   59.847    0.318    0.191
  477.000   10.764   62.346    0.315    0.195
  477.250   10.772   64.846    0.321    0.202
  477.500   10.782   67.346    0.337    0.208
  477.750   10.595   68.649    0.355    0.211
  478.000   10.409   69.917    0.360    0.215
  478.250   10.228   71.202    0.353    0.207
  478.500   10.233   67.024    0.342    0.208
  478.750   10.058   65.274    0.337    0.189
  479.000   10.063   67.773    0.348    0.185
  479.250   10.073   73.326    0.357    0.190
  479.500   10.088   77.022    0.362    0.191
  479.750   10.093   83.807    0.361    0.186
  480.000   10.105   77.772    0.363    0.181
  480.250   10.113   72.986    0.354    0.179
  480.500   10.125   74.879    0.352    0.183
  480.750    9.947   73.129    0.376    0.188
  481.000    9.593   69.575    0.367    0.192
  481.250    9.422   67.825    0.355    0.195
  481.500    8.590   67.290    0.354    0.195
  481.750    8.761   68.557    0.363    0.199
  482.000    9.105   75.342    0.372    0.205
  482.250    9.640   76.038    0.370    0.206
  482.500   10.018   74.860    0.357    0.164
  482.750    9.129   75.538    0.291    0.134
  483.000    7.867   78.038    0.282    0.116
  483.250    6.653   76.895    0.266    0.159
  483.500    5.952   66.627    0.288    0.165
  483.750    5.847   63.074    0.341    0.210
  484.000    6.310   66.181    0.366    0.238
  484.250    6.679   73.537    0.408    0.241
  484.500    7.342   82.108    0.459    0.235
  484.750    7.921   80.983    0.483    0.230
  485.000    8.233   77.394    0.425    0.229
  485.250    8.556   73.233    0.388    0.218
  485.500    8.564   68.430    0.384    0.204
  485.750    8.573   58.180    0.394    0.224
  486.000    8.266   58.252    0.403    0.226
  486.250    7.822   63.787    0.398    0.192
  486.500    7.402   62.644    0.380    0.176
  486.750    7.273   56.644    0.386    0.178
  487.000    7.149   60.358    0.398    0.201
  487.250    7.151   66.500    0.417    0.196
  487.500    7.295   67.178    0.408    0.187
  487.750    7.300   64.232    0.400    0.188
  488.000    7.586   64.892    0.402    0.202
  488.250    7.885   63.142    0.406    0.210
  488.500    8.194   68.071    0.407    0.204
  488.750    8.676   77.266    0.406    0.196
  489.000    9.361   73.106    0.405    0.189
  489.250    9.725   68.302    0.401    0.182
  489.500    9.921   65.945    0.394    0.147
  489.750   10.505   69.070    0.389    0.151
  490.000   10.916   72.176    0.373    0.168
  490.250   11.131   72.873    0.353    0.181
