~VERSION INFORMATION
 VERS.                 2.0:   CWLS LOG ASCII STANDARD -VERSION 2.0
 WRAP.                  NO:   ONE LINE PER DEPTH STEP
~WELL INFORMATION BLOCK
#MNEM.UNIT           DATA                    DESCRIPTION OF MNEMONIC
#---------    -------------------            -------------------------------
# Generated from Intellog Unique Number	CS_77_79/WELL/919
WELL.         NOVALTA WINEFRED               : Well_name    - WELL
LOC .         00/08-17-078-03W4/0            : Location     - LOCATION
UWI .         00/08-17-078-03W4/0            : Uwi          - UNIQUE WELL ID
ENTR.         JHS                            : Entered      - ENTERED BY
SRVC.         SCHLUMBERGER                   : Scn          - SERVICE COMPANY
STRT.M        150                            : top_depth    - START DEPTH
STOP.M        430                            : bot_depth    - STOP DEPTH
STEP.M        0.25                           : increment    - STEP LENGTH
 NULL. -999.2500:NULL Value
~CURVE INFORMATION BLOCK
#MNEM UNIT       ERCB CURVE CODE    CURVE DESCRIPTION
#-----------   ------------------   ----------------------------------
DEPT.M        00 001 00 00         : DEPTH        - DEPTH
DPHI.V/V      00 890 00 00         : PHID         - DENSITY POROSITY (LIMESTONE)
NPHI.V/V      00 330 00 00         : PHIN         - NEUTRON POROSITY (LIMESTONE)
GR  .API      00 310 00 00         : GR           - GAMMA RAY
ILD .OHMM     00 120 00 00         : RESD         - DEEP RESISTIVITY (DIL)
RHOB.KG/M3    00 350 00 00         : DENS         - BULK DENSITY
~PARAMETER INFORMATION
#MNEM.UNIT           DATA             DESCRIPTION OF MNEMONIC
#---------         -----------     ------------------------------
GL  .M        567                  : gl           - GROUND LEVEL ELEVATION
EREF.M        570                  : kb           - ELEVATION OF DEPTH REFERENCE
DATM.M        570                  : datum        - DATUM ELEVATION
TDD .M        428                  : tdd          - TOTAL DEPTH DRILLER
RUN .         ONE                  : Run          - RUN NUMBER
ENG .         BILL                 : Engineer     - RECORDING ENGINEER
WIT .         JIM                  : Witness      - WITNESSED BY
MUD .         GEL                  : Mud_type     - MUD TYPE
MATR.         LIMESTONE            : Logunit      - NEUTRON MATRIX
TMAX.C        25                   : BHT          - MAXIMUM RECORDED TEMPERATURE
BHTD.M        428                  : BHTDEP       - MAXIMUM RECORDED TEMPERATURE
MATR.         1                    : LOGUNIT      - NEUTRON MATRIX
RMT .C        25                   : MDTP         - TEMPERATURE OF MUD
NEUT.         1                    : NEUTRON      - NEUTRON TYPE
RESI.         0                    : RESIST       - RESISTIVITY TYPE
RMC .OHMM     0.25                 : RMC          - RESISTIVITY OF MUD CAKE
RMF .OHMM     0.25                 : RMF          - RESISTIVITY OF MUD FILTRATE
SUFT.C        15                   : SUFT         - SURFACE TEMPERATURE
~A  DEPTH     PHID     PHIN       GR     RESD     DENS
  150.000    0.264    0.460  108.687    4.048    0.000
  150.250    0.268    0.488  111.705    4.052    0.000
  150.500    0.257    0.512  109.860    4.056    0.000
  150.750    0.253    0.516  108.024    4.060    0.000
  151.000    0.256    0.497  108.610    4.064    0.000
  151.250    0.258    0.472  111.627    4.068    0.000
  151.500    0.258    0.477  111.001    3.990    0.000
  151.750    0.256    0.486  110.373    3.995    0.000
  152.000    0.253    0.486  109.138    3.997    0.000
  152.250    0.257    0.464  107.299    3.922    0.000
  152.500    0.262    0.469  107.279    3.926    0.000
  152.750    0.268    0.491  114.548    3.849    0.000
  153.000    0.274    0.485  115.742    3.853    0.000
  153.250    0.279    0.463  111.475    3.778    0.000
  153.500    0.274    0.467  104.773    3.782    0.000
  153.750    0.276    0.480  104.149    3.709    0.000
  154.000    0.284    0.490  101.701    3.637    0.000
  154.250    0.286    0.513  105.933    3.567    0.000
  154.500    0.283    0.528  106.518    3.497    0.000
  154.750    0.296    0.519  102.854    3.361    0.000
  155.000    0.298    0.508  105.269    3.296    0.000
  155.250    0.284    0.522  110.710    3.298    0.000
  155.500    0.288    0.542  108.267    3.234    0.000
  155.750    0.290    0.524  103.996    3.238    0.000
  156.000    0.282    0.495  106.405    3.242    0.000
  156.250    0.277    0.503  105.780    3.246    0.000
  156.500    0.279    0.513  105.149    3.249    0.000
  156.750    0.283    0.497  108.775    3.319    0.000
  157.000    0.283    0.482  111.791    3.322    0.000
  157.250    0.281    0.484  113.596    3.326    0.000
  157.500    0.277    0.488  114.184    3.262    0.000
  157.750    0.276    0.493  112.345    3.198    0.000
  158.000    0.283    0.501  111.716    3.137    0.000
  158.250    0.293    0.508  114.124    3.140    0.000
  158.500    0.300    0.512  112.890    3.143    0.000
  158.750    0.300    0.499  108.017    3.146    0.000
  159.000    0.295    0.470  100.709    3.150    0.000
  159.250    0.292    0.451  104.942    3.153    0.000
  159.500    0.293    0.451  110.385    3.156    0.000
  159.750    0.288    0.476  109.757    3.160    0.000
  160.000    0.276    0.488  107.311    3.162    0.000
  160.250    0.259    0.494  104.866    3.231    0.000
  160.500    0.248    0.501  101.203    3.302    0.000
  160.750    0.236    0.493   93.899    3.374    0.000
  161.000    0.245    0.477   98.737    3.520    0.000
  161.250    0.261    0.486  103.575    3.597    0.000
  161.500    0.256    0.490  104.765    3.600    0.000
  161.750    0.244    0.474  104.143    3.604    0.000
  162.000    0.250    0.485  108.375    3.607    0.000
  162.250    0.249    0.499  105.317    3.611    0.000
  162.500    0.240    0.492  102.872    3.541    0.000
  162.750    0.246    0.495  105.887    3.619    0.000
  163.000    0.256    0.510  111.329    3.622    0.000
  163.250    0.257    0.520  111.919    3.626    0.000
  163.500    0.251    0.502  111.292    3.705    0.000
  163.750    0.244    0.489  116.133    3.865    0.000
  164.000    0.238    0.503  119.758    3.949    0.000
  164.250    0.227    0.509  116.095    4.120    0.000
  164.500    0.221    0.488  113.035    4.209    0.000
  164.750    0.225    0.478  115.447    4.213    0.000
  165.000    0.232    0.480  119.679    4.216    0.000
  165.250    0.239    0.477  119.660    4.135    0.000
  165.500    0.243    0.472  114.785    4.139    0.000
  165.750    0.246    0.472  111.732    4.060    0.000
  166.000    0.250    0.474  111.710    4.063    0.000
  166.250    0.248    0.496  110.476    3.986    0.000
  166.500    0.240    0.522  106.207    4.243    0.000
  166.750    0.220    0.517   98.294    4.517    0.000
  167.000    0.135    0.430   86.740    5.012    0.000
  167.250    0.113    0.382   80.040    5.446    0.000
  167.500    0.181    0.367   95.203    5.681    0.000
  167.750    0.222    0.396  106.720    6.175    0.000
  168.000    0.239    0.419  106.091    6.055    0.000
  168.250    0.246    0.446  100.611    5.698    0.000
  168.500    0.259    0.480   93.305    5.824    0.000
  168.750    0.281    0.451   85.997    6.200    0.000
  169.000    0.392    0.468   80.515    6.738    0.000
  169.250    0.428    0.505   81.708    7.322    0.000
  169.500    0.394    0.498   93.835    7.798    0.000
  169.750    0.258    0.439  104.746    7.968    0.000
  170.000    0.222    0.416  110.188    7.976    0.000
  170.250    0.210    0.416  106.524    7.661    0.000
  170.500    0.206    0.422  101.650    7.361    0.000
  170.750    0.214    0.426   96.167    7.839    0.000
  171.000    0.223    0.416   89.470    8.517    0.000
  171.250    0.258    0.391   83.379    9.448    0.000
  171.500    0.257    0.373   82.146   10.482    0.000
  171.750    0.236    0.378   91.838   11.162    0.000
  172.000    0.230    0.421   91.212   11.884    0.000
  172.250    0.265    0.437   82.085   12.919    0.000
  172.500    0.308    0.409   75.387   13.750    0.000
  172.750    0.315    0.395   72.941   14.640    0.000
  173.000    0.307    0.395   72.316   15.590    0.000
  173.250    0.284    0.395   82.009   15.607    0.000
  173.500    0.265    0.392   91.705   15.624    0.000
  173.750    0.249    0.394   95.332   15.960    0.000
  174.000    0.256    0.390   86.811   17.350    0.000
  174.250    0.291    0.396   77.077   18.851    0.000
  174.500    0.296    0.402   75.235   21.795    0.000
  174.750    0.277    0.349   69.145   25.194    0.000
  175.000    0.237    0.328   62.444   27.950    0.000
  175.250    0.223    0.350   67.887   27.409    0.000
  175.500    0.255    0.366   77.585   25.796    0.000
  175.750    0.276    0.371   80.599   24.781    0.000
  176.000    0.281    0.352   80.586   23.331    0.000
  176.250    0.282    0.333   84.209   23.350    0.000
  176.500    0.277    0.333   85.403   23.371    0.000
  176.750    0.274    0.355   81.740   24.887    0.000
  177.000    0.271    0.376   79.295   25.426    0.000
  177.250    0.287    0.395   89.598   25.449    0.000
  177.500    0.311    0.404   95.041   25.479    0.000
  177.750    0.294    0.405   92.591   24.987    0.000
  178.000    0.288    0.406   91.962   25.529    0.000
  178.250    0.288    0.375   91.950   25.555    0.000
  178.500    0.292    0.362   99.216   25.582    0.000
  178.750    0.291    0.379  103.448   25.092    0.000
  179.000    0.290    0.399   98.568   24.107    0.000
  179.250    0.300    0.428   94.909   23.154    0.000
  179.500    0.294    0.433   97.926   21.352    0.000
  179.750    0.274    0.426  111.265   20.512    0.000
  180.000    0.257    0.437  120.354   20.116    0.000
  180.250    0.255    0.403  114.263   20.554    0.000
  180.500    0.256    0.368  105.132   20.574    0.000
  180.750    0.255    0.349  102.684   21.026    0.000
  181.000    0.246    0.352  104.490   21.483    0.000
  181.250    0.257    0.369   98.398   21.953    0.000
  181.500    0.280    0.380   81.986   22.898    0.000
  181.750    0.296    0.377   71.643   22.922    0.000
  182.000    0.302    0.368   69.196   22.021    0.000
  182.250    0.284    0.388   89.214   19.486    0.000
  182.500    0.256    0.410  110.446   17.600    0.000
  182.750    0.249    0.426  107.392   16.226    0.000
  183.000    0.239    0.408  100.693   14.960    0.000
  183.250    0.224    0.407  101.883   13.239    0.000
  183.500    0.205    0.430  106.120   12.458    0.000
  183.750    0.190    0.449  112.168   11.252    0.000
  184.000    0.190    0.456  113.972    9.959    0.000
  184.250    0.214    0.441  117.600    9.567    0.000
  184.500    0.223    0.428  120.009    9.775    0.000
  184.750    0.224    0.426  119.382   10.195    0.000
  185.000    0.237    0.434  110.255   11.544    0.000
  185.250    0.269    0.410   99.308   14.196    0.000
  185.500    0.302    0.380   91.395   17.454    0.000
  185.750    0.315    0.372   84.088   21.023    0.000
  186.000    0.321    0.382   85.282   23.804    0.000
  186.250    0.322    0.398   93.763   26.409    0.000
