~VERSION INFORMATION
 VERS.                 2.0:   CWLS LOG ASCII STANDARD -VERSION 2.0
 WRAP.                  NO:   ONE LINE PER DEPTH STEP
~WELL INFORMATION BLOCK
#MNEM.UNIT           DATA                    DESCRIPTION OF MNEMONIC
#---------    -------------------            -------------------------------
# Generated from Intellog Unique Number	CS_67_68/WELL/774
WELL.         MERLAND EXPLORATION            : Well_name    - WELL
LOC .         00/07-20-068-10W4/0            : Location     - LOCATION
UWI .         00/07-20-068-10W4/0            : Uwi          - UNIQUE WELL ID
ENTR.         SP                             : Entered      - ENTERED BY
SRVC.         SCHLUMBERGER                   : Scn          - SERVICE COMPANY
STRT.M        375                            : top_depth    - START DEPTH
STOP.M        615                            : bot_depth    - STOP DEPTH
STEP.M        0.25                           : increment    - STEP LENGTH
 NULL. -999.2500:NULL Value
~CURVE INFORMATION BLOCK
#MNEM UNIT       ERCB CURVE CODE    CURVE DESCRIPTION
#-----------   ------------------   ----------------------------------
DEPT.M        00 001 00 00         : DEPTH        - DEPTH
ILD .OHMM     00 120 00 00         : RESD         - DEEP RESISTIVITY (DIL)
DPHI.V/V      00 890 00 00         : PHID         - DENSITY POROSITY (LIMESTONE)
NPHI.V/V      00 330 00 00         : PHIN         - NEUTRON POROSITY (LIMESTONE)
GR  .API      00 310 00 00         : GR           - GAMMA RAY
~PARAMETER INFORMATION
#MNEM.UNIT           DATA             DESCRIPTION OF MNEMONIC
#---------         -----------     ------------------------------
GL  .M        690.3                : gl           - GROUND LEVEL ELEVATION
EREF.M        693.05               : kb           - ELEVATION OF DEPTH REFERENCE
DATM.M        690.3                : datum        - DATUM ELEVATION
TDD .M        616                  : tdd          - TOTAL DEPTH DRILLER
RUN .         ONE                  : Run          - RUN NUMBER
ENG .         BILL                 : Engineer     - RECORDING ENGINEER
WIT .         JIM                  : Witness      - WITNESSED BY
MUD .         GEL                  : Mud_type     - MUD TYPE
MATR.         LIMESTONE            : Logunit      - NEUTRON MATRIX
TMAX.C        26                   : BHT          - MAXIMUM RECORDED TEMPERATURE
BHTD.M        616                  : BHTDEP       - MAXIMUM RECORDED TEMPERATURE
MATR.         1                    : LOGUNIT      - NEUTRON MATRIX
RMT .C        25                   : MDTP         - TEMPERATURE OF MUD
NEUT.         1                    : NEUTRON      - NEUTRON TYPE
RESI.         0                    : RESIST       - RESISTIVITY TYPE
RMC .OHMM     0.25                 : RMC          - RESISTIVITY OF MUD CAKE
RMF .OHMM     0.25                 : RMF          - RESISTIVITY OF MUD FILTRATE
SUFT.C        15                   : SUFT         - SURFACE TEMPERATURE
~A  DEPTH     RESD     PHID     PHIN       GR
  375.000    2.231    0.254    0.553  111.288
  375.250    2.189    0.255    0.565  110.138
  375.500    2.188    0.245    0.577  110.144
  375.750    2.196    0.247    0.573  110.883
  376.000    2.208    0.255    0.557  110.767
  376.250    2.261    0.256    0.545  110.470
  376.500    2.324    0.257    0.537  110.050
  376.750    2.393    0.246    0.519  110.726
  377.000    2.424    0.252    0.510  113.715
  377.250    2.432    0.259    0.514  113.844
  377.500    2.405    0.243    0.526  112.695
  377.750    2.373    0.230    0.543  111.119
  378.000    2.333    0.223    0.552  111.247
  378.250    2.320    0.223    0.561  108.087
  378.500    2.311    0.241    0.549  101.093
  378.750    2.323    0.248    0.529   93.064
  379.000    2.361    0.251    0.519  102.446
  379.250    2.405    0.244    0.510  104.157
  379.500    2.495    0.235    0.522   99.537
  379.750    2.598    0.232    0.528   95.892
  380.000    2.696    0.236    0.538   96.080
  380.250    2.776    0.242    0.548   99.680
  380.500    2.838    0.248    0.557  101.817
  380.750    2.885    0.198    0.562  102.066
  381.000    2.900    0.139    0.563  100.187
  381.250    2.862    0.093    0.556   98.792
  381.500    2.867    0.045    0.559   99.469
  381.750    2.925    0.150    0.554  104.712
  382.000    2.990    0.221    0.542  109.284
  382.250    3.017    0.234    0.535  110.873
  382.500    2.977    0.239    0.546  109.785
  382.750    2.911    0.229    0.552  109.609
  383.000    2.836    0.223    0.536  110.164
  383.250    2.783    0.230    0.529  111.144
  383.500    2.767    0.222    0.539  112.002
  383.750    2.787    0.227    0.552  110.609
  384.000    2.848    0.227    0.566  105.808
  384.250    2.917    0.222    0.537  102.709
  384.500    2.960    0.223    0.524  101.680
  384.750    2.970    0.214    0.510  106.923
  385.000    2.981    0.217    0.511  110.216
  385.250    2.985    0.226    0.524  110.345
  385.500    2.968    0.221    0.539  108.342
  385.750    2.951    0.232    0.527  104.087
  386.000    2.934    0.249    0.526   96.911
  386.250    2.890    0.244    0.517   92.290
  386.500    2.873    0.248    0.508   98.203
  386.750    2.846    0.248    0.503  104.358
  387.000    2.834    0.235    0.511  104.852
  387.250    2.818    0.222    0.524  106.563
  387.500    2.817    0.206    0.534  106.813
  387.750    2.848    0.179    0.510  100.916
  388.000    2.982    0.121    0.495   97.390
  388.250    3.158    0.144    0.513   93.379
  388.500    3.608    0.238    0.529   87.237
  388.750    4.091    0.250    0.465   77.930
  389.000    4.787    0.252    0.444   67.830
  389.250    5.261    0.245    0.423   59.253
  389.500    5.878    0.287    0.405   51.223
  389.750    6.459    0.310    0.392   41.124
  390.000    6.553    0.306    0.384   35.530
  390.250    6.491    0.299    0.382   32.918
  390.500    6.430    0.294    0.385   31.829
  390.750    6.524    0.288    0.385   31.714
  391.000    6.694    0.304    0.380   33.121
  391.250    6.830    0.320    0.374   36.416
  391.500    6.943    0.301    0.365   40.501
  391.750    6.903    0.279    0.357   52.136
  392.000    6.787    0.258    0.351   61.091
  392.250    6.526    0.241    0.372   72.544
  392.500    6.310    0.229    0.391   81.500
  392.750    6.090    0.238    0.400   88.265
  393.000    5.933    0.227    0.411   92.167
  393.250    5.844    0.235    0.405   98.383
  393.500    5.714    0.226    0.400   97.355
  393.750    5.566    0.214    0.411   89.874
  394.000    5.503    0.211    0.419  103.578
  394.250    5.482    0.203    0.423  113.204
  394.500    5.521    0.190    0.431  113.880
  394.750    5.644    0.186    0.432  110.721
  395.000    5.833    0.185    0.444  110.546
  395.250    6.007    0.213    0.434  109.760
  395.500    6.268    0.230    0.427  104.653
  395.750    6.661    0.241    0.429   98.328
  396.000    7.027    0.230    0.441   88.351
  396.250    7.454    0.259    0.434   81.417
  396.500    7.719    0.287    0.440   77.163
  396.750    7.746    0.311    0.450   76.196
  397.000    7.490    0.324    0.460   78.576
  397.250    7.337    0.320    0.493   80.227
  397.500    7.321    0.212    0.439   81.633
  397.750    7.360    0.154    0.397   82.919
  398.000    7.345    0.223    0.393   83.656
  398.250    7.289    0.228    0.403   82.933
  398.500    7.233    0.235    0.411   81.417
  398.750    7.164    0.270    0.413   79.171
  399.000    7.123    0.265    0.398   77.533
  399.250    7.081    0.263    0.392   77.602
  399.500    7.053    0.249    0.383   79.739
  399.750    7.026    0.212    0.388   85.834
  400.000    7.024    0.201    0.396   85.657
  400.250    7.048    0.241    0.400   72.149
  400.500    7.033    0.265    0.390   61.928
  400.750    7.045    0.288    0.377   54.142
  401.000    6.990    0.295    0.369   47.026
  401.250    6.936    0.283    0.365   49.285
  401.500    6.896    0.296    0.365   41.012
  401.750    6.882    0.306    0.372   47.350
  402.000    6.881    0.285    0.374   51.619
  402.250    6.879    0.273    0.382   54.486
  402.500    6.941    0.291    0.391   56.624
  402.750    6.952    0.298    0.394   55.230
  403.000    6.912    0.288    0.401   57.977
  403.250    6.834    0.277    0.406   56.401
  403.500    6.756    0.271    0.398   52.207
  403.750    6.742    0.299    0.395   51.544
  404.000    6.778    0.297    0.400   51.977
  404.250    6.826    0.296    0.411   53.140
  404.500    6.913    0.304    0.417   54.426
  404.750    6.950    0.299    0.404   55.284
  405.000    7.013    0.310    0.394   57.667
  405.250    7.051    0.295    0.389   59.011
  405.500    7.102    0.289    0.401   61.089
  405.750    7.139    0.299    0.395   63.590
  406.000    7.151    0.314    0.414   66.824
  406.250    7.188    0.325    0.429   68.535
  406.500    7.200    0.323    0.443   66.472
  406.750    7.225    0.306    0.436   61.486
  407.000    7.263    0.294    0.412   56.320
  407.250    7.260    0.291    0.388   53.098
  407.500    7.246    0.300    0.377   50.244
  407.750    7.177    0.292    0.382   50.981
  408.000    7.136    0.304    0.389   55.797
  408.250    7.068    0.300    0.390   61.587
  408.500    6.936    0.309    0.398   64.578
  408.750    6.846    0.317    0.403   60.809
  409.000    6.768    0.331    0.406   59.781
  409.250    6.728    0.331    0.420   60.275
  409.500    6.702    0.332    0.418   61.865
  409.750    6.700    0.324    0.424   69.177
  410.000    6.736    0.322    0.429   82.151
  410.250    6.747    0.312    0.402   91.107
  410.500    6.782    0.284    0.425   97.627
  410.750    6.844    0.254    0.440   90.573
  411.000    6.919    0.227    0.431   78.342
  411.250    6.956    0.261    0.422   68.547
  411.500    6.980    0.240    0.409   60.640
  411.750    6.978    0.227    0.401   54.193
  412.000    6.963    0.297    0.394   49.451
  412.250    6.974    0.295    0.384   49.032
  412.500    7.011    0.294    0.380   52.997
  412.750    7.049    0.307    0.387   56.351
  413.000    7.073    0.310    0.390   59.525
  413.250    7.084    0.316    0.377   61.295
  413.500    7.082    0.309    0.371   62.519
  413.750    7.080    0.304    0.384   62.222
  414.000    7.051    0.300    0.391   59.916
  414.250    7.050    0.307    0.387   58.096
  414.500    7.062    0.286    0.390   56.824
  414.750    7.073    0.285    0.397   53.969
  415.000    7.071    0.302    0.394   50.567
  415.250    7.069    0.306    0.387   55.079
  415.500    7.067    0.293    0.379   56.668
  415.750    7.079    0.285    0.373   47.909
  416.000    7.116    0.293    0.368   45.297
  416.250    7.141    0.303    0.365   48.227
  416.500    7.166    0.302    0.361   48.963
  416.750    7.204    0.297    0.360   50.189
  417.000    7.202    0.295    0.368   50.803
  417.250    7.227    0.297    0.375   51.418
  417.500    7.211    0.302    0.380   51.851
  417.750    7.223    0.293    0.372   51.006
  418.000    7.221    0.290    0.365   49.734
  418.250    7.192    0.291    0.361   47.915
