~VERSION INFORMATION
 VERS.                 2.0:   CWLS LOG ASCII STANDARD -VERSION 2.0
 WRAP.                  NO:   ONE LINE PER DEPTH STEP
~WELL INFORMATION BLOCK
#MNEM.UNIT           DATA                    DESCRIPTION OF MNEMONIC
#---------    -------------------            -------------------------------
# Generated from Intellog Unique Number	CW_79_81/WELL/185
WELL.         01-27-079-23W4                 : Well_name    - WELL
LOC .         00/01-27-079-23W4/0            : Location     - LOCATION
UWI .         00/01-27-079-23W4/0            : Uwi          - UNIQUE WELL ID
ENTR.         MAX                            : Entered      - ENTERED BY
SRVC.         COMPUTALOG                     : Scn          - SERVICE COMPANY
STRT.M        225                            : top_depth    - START DEPTH
STOP.M        465                            : bot_depth    - STOP DEPTH
STEP.M        0.25                           : increment    - STEP LENGTH
 NULL. -999.2500:NULL Value
~CURVE INFORMATION BLOCK
#MNEM UNIT       ERCB CURVE CODE    CURVE DESCRIPTION
#-----------   ------------------   ----------------------------------
DEPT.M        00 001 00 00         : DEPTH        - DEPTH
GR  .API      00 310 00 00         : GR           - GAMMA RAY
ILD .OHMM     00 120 00 00         : RESD         - DEEP RESISTIVITY (DIL)
NPHI.V/V      00 330 00 00         : PHIN         - NEUTRON POROSITY (SANDSTONE)
DPHI.V/V      00 890 00 00         : PHID         - DENSITY POROSITY (SANDSTONE)
CALI.MM       00 280 01 00         : CAL          - CALIPER
~PARAMETER INFORMATION
#MNEM.UNIT           DATA             DESCRIPTION OF MNEMONIC
#---------         -----------     ------------------------------
GL  .M        563.6                : gl           - GROUND LEVEL ELEVATION
EREF.M        568.6                : kb           - ELEVATION OF DEPTH REFERENCE
DATM.M        563.6                : datum        - DATUM ELEVATION
TDD .M        580                  : tdd          - TOTAL DEPTH DRILLER
RUN .         ONE                  : Run          - RUN NUMBER
ENG .         BILL                 : Engineer     - RECORDING ENGINEER
WIT .         JIM                  : Witness      - WITNESSED BY
MUD .         GEL                  : Mud_type     - MUD TYPE
MATR.         SANDSTONE            : Logunit      - NEUTRON MATRIX
TMAX.C        28                   : BHT          - MAXIMUM RECORDED TEMPERATURE
BHTD.M        580                  : BHTDEP       - MAXIMUM RECORDED TEMPERATURE
RMT .C        15.6                 : MDTP         - TEMPERATURE OF MUD
MUDD.KG/M     1180                 : MWT          - MUD DENSITY
NEUT.         1                    : NEUTRON      - NEUTRON TYPE
RESI.         0                    : RESIST       - RESISTIVITY TYPE
RM  .OHMM     6.3                  : RM           - RESISTIVITY OF MUD
RMC .OHMM     4.7                  : RMC          - RESISTIVITY OF MUD CAKE
RMF .OHMM     7                    : RMF          - RESISTIVITY OF MUD FILTRATE
SUFT.C        -10                  : SUFT         - SURFACE TEMPERATURE
~A  DEPTH       GR     RESD     PHIN     PHID      CAL
# ...
  407.500   86.028   12.022    0.422    0.159  240.939
  407.750   86.336   11.592    0.425    0.164  241.943
  408.000   91.934   11.382    0.421    0.159  242.947
  408.250   93.420   11.075    0.414    0.142  244.444
  408.500   88.143   10.875    0.401    0.133  244.958
  408.750   86.395   10.679    0.395    0.149  245.962
  409.000   92.289   10.391    0.388    0.141  246.476
  409.250   92.302   10.296    0.382    0.143  246.500
  409.500   88.497   10.391    0.371    0.153  247.507
  409.750   86.747   10.976    0.371    0.161  248.018
  410.000   85.880   12.025    0.394    0.176  249.028
  410.250   85.012   13.540    0.398    0.176  249.545
  410.500   83.851   13.540    0.397    0.161  250.059
  410.750   82.987   13.417    0.403    0.154  250.077
  411.000   82.706   12.703    0.412    0.143  250.597
  411.250   85.072   11.701    0.421    0.148  250.621
  411.500   88.908   11.282    0.423    0.160  250.645
  411.750   94.804   10.585    0.414    0.164  250.667
  412.000  101.579   10.205    0.399    0.161  249.227
  412.250   99.830    9.840    0.375    0.156  248.268
  412.500   87.206    9.840    0.366    0.120  246.335
  412.750   80.753   10.022    0.370    0.125  244.890
  413.000   91.938   10.490    0.366    0.142  243.934
  413.250   98.126   11.080    0.365    0.138  243.468
  413.500  100.786   11.811    0.368    0.153  243.002
  413.750   99.922   12.250    0.369    0.159  243.026
  414.000   97.877   12.591    0.358    0.144  243.050
  414.250   89.662   13.299    0.343    0.130  242.587
  414.500   83.501   14.307    0.326    0.105  242.125
  414.750   78.812   15.390    0.313    0.091  241.659
  415.000   77.065   19.158    0.304    0.106  241.190
  415.250   77.079   20.422    0.308    0.121  239.747
  415.500   77.096   21.969    0.340    0.134  237.814
  415.750   80.342   21.182    0.356    0.146  236.369
  416.000   84.766   20.424    0.384    0.140  235.410
  416.250   86.544   18.643    0.385    0.134  234.947
  416.500   87.150   17.331    0.379    0.140  233.994
  416.750   87.753   16.408    0.366    0.135  234.012
  417.000   88.355   15.820    0.358    0.125  232.572
  417.250   88.662   15.821    0.365    0.125  231.614
  417.500   88.974   16.113    0.383    0.146  230.171
  417.750   87.516   17.176    0.383    0.178  228.232
  418.000   78.712   18.142    0.368    0.207  225.317
  418.250   66.968   19.695    0.352    0.224  222.410
  418.500   55.517   21.381    0.336    0.240  221.448
  418.750   46.125   23.212    0.324    0.265  221.475
  419.000   38.202   23.425    0.317    0.278  221.496
  419.250   33.807   23.857    0.308    0.288  221.520
  419.500   31.176   24.520    0.305    0.290  220.568
  419.750   31.780   25.201    0.302    0.290  220.592
  420.000   32.088   26.138    0.301    0.290  221.109
  420.250   31.809   27.609    0.304    0.290  221.133
  420.500   30.649   28.898    0.307    0.292  221.647
  420.750   29.782   29.164    0.310    0.294  221.674
  421.000   29.504   29.165    0.315    0.295  221.698
  421.250   29.518   29.165    0.322    0.294  220.255
  421.500   29.825   29.166    0.335    0.293  217.827
  421.750   30.135   29.704    0.340    0.291  214.424
  422.000   31.030   30.808    0.337    0.284  214.938
  422.250   31.048   32.543    0.331    0.284  215.452
  422.500   30.767   34.374    0.328    0.287  215.473
  422.750   31.665   36.978    0.329    0.283  215.990
  423.000   34.323   38.705    0.332    0.280  216.018
  423.250   36.108   39.780    0.338    0.280  215.555
  423.500   36.706   41.260    0.339    0.278  215.083
  423.750   37.896   42.406    0.338    0.275  215.107
  424.000   39.088   42.406    0.335    0.270  215.137
  424.250   39.690   42.407    0.334    0.264  214.668
  424.500   41.175   41.263    0.335    0.266  213.225
  424.750   41.485   38.711    0.336    0.272  214.229
  425.000   43.851   35.987    0.348    0.270  216.703
  425.250   47.099   33.761    0.350    0.260  216.243
  425.500   47.411   30.818    0.346    0.249  215.282
  425.750   47.128   27.876    0.343    0.252  215.306
  426.000   48.908   24.985    0.347    0.252  215.330
  426.250   52.449   23.872    0.356    0.245  215.847
  426.500   54.816   23.228    0.363    0.245  215.874
  426.750   56.597   22.601    0.360    0.245  216.385
  427.000   56.317   21.792    0.347    0.236  216.409
  427.250   53.983   20.820    0.338    0.219  219.373
  427.500   54.290   19.532    0.321    0.163  221.850
  427.750   63.416   17.668    0.305    0.105  224.323
  428.000   72.543   15.550    0.310    0.105  227.287
  428.250   84.612   13.438    0.345    0.141  228.784
  428.500   89.036   11.827    0.357    0.157  229.791
  428.750   85.229   11.095    0.357    0.157  229.815
  429.000   75.837   10.995    0.353    0.170  229.836
  429.250   71.739   11.404    0.356    0.206  227.901
  429.500   66.460   12.723    0.356    0.222  225.968
  429.750   59.125   16.883    0.355    0.235  223.548
  430.000   56.204   20.825    0.359    0.242  223.076
  430.250   56.803   23.448    0.360    0.239  223.594
  430.500   59.171   27.887    0.355    0.225  224.594
  430.750   61.537   27.635    0.350    0.188  225.115
  431.000   73.310   20.451    0.359    0.164  225.626
  431.250   82.144   15.413    0.373    0.152  226.140
  431.500   89.803   14.726    0.373    0.155  225.190
  431.750   86.878   15.135    0.360    0.191  222.764
  432.000   63.083   15.987    0.367    0.222  220.825
  432.250   54.864   19.187    0.371    0.251  218.403
  432.500   49.295   19.901    0.367    0.260  216.954
  432.750   49.014   21.605    0.372    0.256  215.998
  433.000   48.444   24.549    0.376    0.251  215.042
  433.250   48.164   26.408    0.371    0.250  214.580
  433.500   48.471   27.642    0.360    0.249  214.114
  433.750   49.955   27.895    0.353    0.251  214.141
  434.000   52.913   27.643    0.351    0.258  214.162
  434.250   53.221   27.392    0.365    0.266  214.189
  434.500   52.060   27.144    0.360    0.269  214.216
  434.750   51.780   26.898    0.342    0.271  214.237
  435.000   51.795   27.394    0.341    0.268  215.244
  435.250   51.811   27.899    0.345    0.254  215.758
  435.500   52.118   28.155    0.354    0.251  216.272
  435.750   53.896   28.674    0.363    0.242  217.279
  436.000   56.556   28.675    0.365    0.234  218.770
  436.250   58.628   28.676    0.360    0.235  220.760
  436.500   60.410   28.158    0.350    0.236  221.764
  436.750   61.895   27.398    0.357    0.234  222.765
  437.000   61.027   26.659    0.366    0.234  223.772
  437.250   62.807   25.940    0.352    0.233  225.269
  437.500   65.467   25.471    0.346    0.227  226.763
  437.750   65.188   25.471    0.341    0.218  228.254
  438.000   64.612   25.473    0.339    0.203  230.731
  438.250   66.100   25.473    0.335    0.193  232.715
  438.500   67.585   25.474    0.332    0.191  234.209
  438.750   68.773   24.787    0.338    0.207  235.216
  439.000   71.141   24.118    0.348    0.210  236.710
  439.250   70.860   23.682    0.345    0.208  238.693
  439.500   69.993   23.254    0.340    0.183  240.674
  439.750   70.009   23.044    0.333    0.141  242.664
  440.000   69.435   23.044    0.316    0.104  244.155
  440.250   63.276   23.045    0.315    0.068  242.219
  440.500   63.291   20.282    0.322    0.126  241.757
  440.750   75.656   15.854    0.362    0.161  241.784
  441.000   90.073   12.168    0.390    0.192  241.811
  441.250  100.086    8.603    0.429    0.197  241.339
  441.500   99.218    7.435    0.432    0.196  241.366
  441.750   92.764    7.169    0.420    0.202  241.393
  442.000   85.433    7.435    0.412    0.185  241.910
  442.250   78.682    7.782    0.414    0.155  242.424
  442.500   75.463    8.296    0.429    0.153  242.932
  442.750   69.602    8.763    0.460    0.229  243.936
  443.000   71.672    9.341    0.480    0.285  244.943
  443.250   74.042    9.601    0.477    0.323  244.967
  443.500   74.054    9.777    0.481    0.325  244.991
  443.750   79.946   10.234    0.477    0.316  245.015
