~VERSION INFORMATION
 VERS.                 2.0:   CWLS LOG ASCII STANDARD -VERSION 2.0
 WRAP.                  NO:   ONE LINE PER DEPTH STEP
~WELL INFORMATION BLOCK
#MNEM.UNIT           DATA                    DESCRIPTION OF MNEMONIC
#---------    -------------------            -------------------------------
# Generated from Intellog Unique Number	CW_82_90/WELL/3427
WELL.         TEXEX CORN                     : Well_name    - WELL
LOC .         00/07-14-089-25W4/0            : Location     - LOCATION
UWI .         00/07-14-089-25W4/0            : Uwi          - UNIQUE WELL ID
ENTR.         MAX                            : Entered      - ENTERED BY
SRVC.         SCHLUMBERGER                   : Scn          - SERVICE COMPANY
STRT.M        167.64                         : top_depth    - START DEPTH
STOP.M        337.14                         : bot_depth    - STOP DEPTH
STEP.M        0.25                           : increment    - STEP LENGTH
 NULL. -999.2500:NULL Value
~CURVE INFORMATION BLOCK
#MNEM UNIT       ERCB CURVE CODE    CURVE DESCRIPTION
#-----------   ------------------   ----------------------------------
DEPT.M        00 001 00 00         : DEPTH        - DEPTH
ILD .OHMM     00 120 00 00         : RESD         - DEEP RESISTIVITY (DIL)
NPHI.V/V      00 330 00 00         : PHIN         - NEUTRON POROSITY (SANDSTONE)
DPHI.V/V      00 890 00 00         : PHID         - DENSITY POROSITY (SANDSTONE)
CALI.MM       00 280 01 00         : CAL          - CALIPER
GR  .API      00 310 00 00         : GR           - GAMMA RAY
~PARAMETER INFORMATION
#MNEM.UNIT           DATA             DESCRIPTION OF MNEMONIC
#---------         -----------     ------------------------------
GL  .M        597.713              : gl           - GROUND LEVEL ELEVATION
EREF.M        601.066              : kb           - ELEVATION OF DEPTH REFERENCE
DATM.M        597.713              : datum        - DATUM ELEVATION
TDD .M        338.633              : tdd          - TOTAL DEPTH DRILLER
RUN .         ONE                  : Run          - RUN NUMBER
ENG .         BILL                 : Engineer     - RECORDING ENGINEER
WIT .         JIM                  : Witness      - WITNESSED BY
MUD .         GEL                  : Mud_type     - MUD TYPE
MATR.         SANDSTONE            : Logunit      - NEUTRON MATRIX
TMAX.C        22.7778              : BHT          - MAXIMUM RECORDED TEMPERATURE
BHTD.M        338.633              : BHTDEP       - MAXIMUM RECORDED TEMPERATURE
MATR.         1                    : LOGUNIT      - NEUTRON MATRIX
RMT .C        17.7778              : MDTP         - TEMPERATURE OF MUD
NEUT.         1                    : NEUTRON      - NEUTRON TYPE
RESI.         0                    : RESIST       - RESISTIVITY TYPE
RMC .OHMM     4.42                 : RMC          - RESISTIVITY OF MUD CAKE
RMF .OHMM     2.42                 : RMF          - RESISTIVITY OF MUD FILTRATE
SUFT.C        -26.1111             : SUFT         - SURFACE TEMPERATURE
~A  DEPTH     RESD     PHIN     PHID      CAL       GR
# ...
  277.140    4.789    0.467    0.219  222.727   98.618
  277.390    4.624    0.447    0.226  222.292   96.622
  277.640    4.308    0.464    0.244  219.391   97.818
  277.890    3.942    0.482    0.227  219.459  100.492
  278.140    3.739    0.525    0.221  219.520  102.569
  278.390    3.452    0.523    0.228  218.598  108.457
  278.640    3.303    0.513    0.222  218.156  109.077
  278.890    3.105    0.523    0.222  217.737  109.410
  279.140    3.222    0.545    0.218  216.313  109.450
  279.390    3.435    0.550    0.237  216.388  111.239
  279.640    3.661    0.539    0.246  215.946  107.471
  279.890    4.011    0.514    0.252  222.934  101.663
  280.140    4.314    0.492    0.264  217.064   92.640
  280.390    4.556    0.477    0.257  217.611   90.635
  280.640    4.728    0.467    0.244  231.039   90.382
  280.890    4.777    0.470    0.231  241.003   90.706
  281.140    4.695    0.492    0.237  227.704   93.088
  281.390    4.454    0.488    0.240  212.432   96.050
  281.640    4.039    0.476    0.232  213.482   98.716
  281.890    3.597    0.487    0.195  215.035  101.377
  282.140    3.321    0.513    0.172  216.092  104.928
  282.390    3.295    0.526    0.118  216.640  108.767
  282.640    3.182    0.540    0.178  216.700  112.016
  282.890    3.073    0.556    0.205  218.260  110.007
  283.140    3.020    0.552    0.187  219.797  107.417
  283.390    2.970    0.581    0.174  214.910  110.375
  283.640    2.894    0.594    0.219  214.490  114.793
  283.890    2.871    0.580    0.203  217.017  117.760
  284.140    2.874    0.573    0.197  220.549  116.923
  284.390    2.929    0.564    0.211  221.614  118.703
  284.640    3.095    0.549    0.219  221.179  121.090
  284.890    3.299    0.533    0.213  219.755  119.364
  285.140    3.548    0.515    0.203  217.829  113.852
  285.390    4.029    0.498    0.231  217.912  108.920
  285.640    4.411    0.483    0.239  217.957  104.572
  285.890    5.053    0.470    0.235  217.545   99.348
  286.140    5.685    0.465    0.225  218.093   93.832
  286.390    6.812    0.463    0.206  220.125   86.270
  286.640    7.803    0.328    0.175  221.182   78.708
  286.890    8.700    0.300    0.152  219.263   76.991
  287.140    9.700    0.319    0.074  218.836   80.829
  287.390    9.887    0.361    0.115  216.438   85.837
  287.640    9.128    0.427    0.195  214.999   90.840
  287.890    8.057    0.454    0.249  213.095   96.437
  288.140    7.048    0.481    0.283  213.642  100.271
  288.390    6.625    0.472    0.282  214.707  100.891
  288.640    6.173    0.469    0.262  215.255  100.931
  288.890    6.068    0.457    0.254  214.828  100.679
  289.140    5.807    0.470    0.245  213.899  102.472
  289.390    5.172    0.484    0.228  212.977  106.307
  289.640    4.648    0.487    0.196  213.037  111.602
  289.890    4.330    0.495    0.166  213.600  118.655
  290.140    3.963    0.522    0.184  216.135  125.120
  290.390    3.691    0.532    0.211  217.687  127.497
  290.640    3.597    0.541    0.245  217.762  127.830
  290.890    3.732    0.522    0.236  217.815  126.112
  291.140    3.907    0.523    0.225  217.875  122.353
  291.390    4.204    0.505    0.225  217.943  117.125
  291.640    4.481    0.481    0.225  218.506  112.777
  291.890    4.734    0.472    0.226  219.556  108.726
  292.140    5.001    0.458    0.227  223.072  105.840
  292.390    5.143    0.447    0.229  225.119  104.122
  292.640    4.879    0.462    0.232  218.762  109.422
  292.890    4.668    0.490    0.234  217.826  114.718
  293.140    4.271    0.522    0.237  217.901  122.067
  293.390    3.944    0.525    0.228  217.459  124.733
  293.640    3.843    0.511    0.225  216.537  124.481
  293.890    3.813    0.504    0.225  215.616  122.183
  294.140    3.816    0.497    0.231  215.676  117.836
  294.390    4.106    0.490    0.243  215.729  114.073
  294.640    4.415    0.479    0.275  215.789  109.721
  294.890    4.836    0.470    0.267  215.857  103.620
  295.140    5.344    0.465    0.247  215.917   95.766
  295.390    5.446    0.463    0.195  215.978   93.765
  295.640    5.213    0.472    0.188  216.061   97.010
  295.890    4.855    0.485    0.256  215.619  105.817
  296.140    4.209    0.510    0.259  215.184  108.195
  296.390    3.750    0.528    0.243  215.739  111.449
  296.640    3.493    0.541    0.251  216.302  112.073
  296.890    3.083    0.546    0.270  215.875  111.525
  297.140    2.673    0.554    0.270  215.943  111.560
  297.390    2.581    0.579    0.261  216.003  116.271
  297.640    2.678    0.583    0.249  216.064  122.744
  297.890    2.881    0.550    0.235  215.629  118.392
  298.140    3.213    0.523    0.227  217.181  112.584
  298.390    3.455    0.476    0.212  223.179  107.652
  298.640    3.958    0.468    0.211  219.776  105.354
  298.890    4.334    0.489    0.220  214.896  104.513
  299.140    4.579    0.497    0.204  219.410  104.850
  299.390    4.710    0.484    0.197  229.381  106.639
  299.640    4.844    0.477    0.220  233.887  110.766
  299.890    5.025    0.468    0.242  237.921  111.678
  300.140    5.261    0.450    0.234  238.963  108.504
  300.390    5.712    0.446    0.223  225.169  105.617
  300.640    5.873    0.480    0.201  217.807   99.516
  300.890    5.986    0.518    0.269  225.297  100.725
  301.140    5.992    0.505    0.316  238.733   99.300
  301.390    5.945    0.494    0.324  244.228   95.537
  301.640    5.897    0.466    0.305  231.926   90.902
  301.890    5.851    0.448    0.279  218.619   86.550
  302.140    5.649    0.455    0.280  216.228   81.034
  302.390    5.406    0.463    0.267  216.281   77.859
  302.640    5.317    0.464    0.250  216.341   76.726
  302.890    5.370    0.468    0.188  215.914   79.392
  303.140    5.472    0.474    0.263  215.967   84.112
  303.390    5.528    0.478    0.285  216.042   90.288
  303.640    4.749    0.481    0.269  216.103   94.702
  303.890    4.081    0.503    0.258  215.668  101.468
  304.140    3.871    0.529    0.244  215.241  107.640
  304.390    3.574    0.543    0.236  215.309  109.730
  304.640    3.420    0.552    0.241  215.377  107.135
  304.890    3.243    0.560    0.246  215.438  103.368
  305.140    3.218    0.542    0.247  215.505  103.403
  305.390    3.400    0.518    0.247  215.551  101.110
  305.640    3.690    0.490    0.255  215.619   96.174
  305.890    4.041    0.482    0.284  215.192   91.826
  306.140    4.465    0.478    0.297  215.260   90.113
  306.390    4.979    0.476    0.302  214.833   91.610
  306.640    5.307    0.473    0.286  214.391   96.618
  306.890    5.557    0.465    0.260  214.451   98.415
  307.140    5.715    0.452    0.230  214.016   97.282
  307.390    5.824    0.455    0.191  215.576   93.222
  307.640    5.991    0.465    0.152  216.124   89.167
  307.890    5.997    0.472    0.196  217.174   89.499
  308.140    6.003    0.481    0.193  220.218   92.169
  308.390    6.118    0.488    0.184  220.279   94.538
  308.640    6.069    0.486    0.196  220.834   95.464
  308.890    5.914    0.469    0.190  220.909   93.153
  309.140    6.192    0.427    0.168  220.467   86.176
  309.390    8.642    0.330    0.107  218.556   82.421
  309.640   10.734    0.309    0.060  215.145   81.576
  309.890   11.757    0.362    0.102  215.708   83.954
  310.140   11.250    0.444    0.142  217.747   88.665
  310.390    9.930    0.472    0.174  217.830   97.471
  310.640    8.609    0.496    0.195  219.360   98.096
  310.890    7.009    0.490    0.193  221.909  100.766
  311.140    6.243    0.483    0.182  221.970  104.308
  311.390    5.975    0.476    0.173  223.012  107.558
  311.640    5.822    0.468    0.172  224.070  109.059
  311.890    5.724    0.446    0.183  224.137  107.926
  312.140    5.781    0.427    0.188  224.700  107.089
  312.390    5.999    0.414    0.181  226.237  106.540
  312.640    6.337    0.420    0.191  226.305  105.991
  312.890    6.756    0.437    0.179  223.404  105.159
  313.140    7.138    0.436    0.177  224.454  104.026
  313.390    7.474    0.426    0.174  222.048  101.729
