~VERSION INFORMATION
 VERS.                 2.0:   CWLS LOG ASCII STANDARD -VERSION 2.0
 WRAP.                  NO:   ONE LINE PER DEPTH STEP
~WELL INFORMATION BLOCK
#MNEM.UNIT           DATA                    DESCRIPTION OF MNEMONIC
#---------    -------------------            -------------------------------
# Generated from Intellog Unique Number	CS_73_76/WELL/1043
WELL.         BOW VALLEY EXPLORATION         : Well_name    - WELL
LOC .         00/06-18-076-13W4/0            : Location     - LOCATION
UWI .         00/06-18-076-13W4/0            : Uwi          - UNIQUE WELL ID
ENTR.         SP                             : Entered      - ENTERED BY
SRVC.         SCHLUMBERGER                   : Scn          - SERVICE COMPANY
STRT.M        300                            : top_depth    - START DEPTH
STOP.M        540                            : bot_depth    - STOP DEPTH
STEP.M        0.25                           : increment    - STEP LENGTH
 NULL. -999.2500:NULL Value
~CURVE INFORMATION BLOCK
#MNEM UNIT       ERCB CURVE CODE    CURVE DESCRIPTION
#-----------   ------------------   ----------------------------------
DEPT.M        00 001 00 00         : DEPTH        - DEPTH
ILD .OHMM     00 120 00 00         : RESD         - DEEP RESISTIVITY (DIL)
DPHI.V/V      00 890 00 00         : PHID         - DENSITY POROSITY (LIMESTONE)
NPHI.V/V      00 330 00 00         : PHIN         - NEUTRON POROSITY (LIMESTONE)
GR  .API      00 310 00 00         : GR           - GAMMA RAY
~PARAMETER INFORMATION
#MNEM.UNIT           DATA             DESCRIPTION OF MNEMONIC
#---------         -----------     ------------------------------
GL  .M        674.43               : gl           - GROUND LEVEL ELEVATION
EREF.M        677.88               : kb           - ELEVATION OF DEPTH REFERENCE
DATM.M        674.43               : datum        - DATUM ELEVATION
TDD .M        547                  : tdd          - TOTAL DEPTH DRILLER
RUN .         ONE                  : Run          - RUN NUMBER
ENG .         BILL                 : Engineer     - RECORDING ENGINEER
WIT .         JIM                  : Witness      - WITNESSED BY
MUD .         GEL                  : Mud_type     - MUD TYPE
MATR.         LIMESTONE            : Logunit      - NEUTRON MATRIX
TMAX.C        23                   : BHT          - MAXIMUM RECORDED TEMPERATURE
BHTD.M        547                  : BHTDEP       - MAXIMUM RECORDED TEMPERATURE
MATR.         1                    : LOGUNIT      - NEUTRON MATRIX
RMT .C        25                   : MDTP         - TEMPERATURE OF MUD
NEUT.         1                    : NEUTRON      - NEUTRON TYPE
RESI.         0                    : RESIST       - RESISTIVITY TYPE
RMC .OHMM     0.25                 : RMC          - RESISTIVITY OF MUD CAKE
RMF .OHMM     0.25                 : RMF          - RESISTIVITY OF MUD FILTRATE
SUFT.C        15                   : SUFT         - SURFACE TEMPERATURE
~A  DEPTH     RESD     PHID     PHIN       GR
  300.000    2.962    0.212    0.530  102.246
  300.250    2.961    0.200    0.524  101.024
  300.500    2.852    0.171    0.512  100.416
  300.750    2.852    0.174    0.517  103.480
  301.000    2.905    0.225    0.515  105.320
  301.250    3.190    0.239    0.511  104.098
  301.500    3.568    0.251    0.502  104.101
  301.750    3.704    0.255    0.496  105.941
  302.000    3.845    0.228    0.495  109.005
  302.250    3.917    0.218    0.496  110.232
  302.500    3.844    0.224    0.498  110.848
  302.750    3.633    0.224    0.506  110.239
  303.000    3.499    0.220    0.525  109.017
  303.250    3.246    0.226    0.537  108.409
  303.500    3.127    0.224    0.509  112.697
  303.750    3.126    0.228    0.508  110.864
  304.000    3.369    0.225    0.519  111.478
  304.250    3.432    0.224    0.520  111.482
  304.500    3.630    0.210    0.519  110.260
  304.750    3.768    0.225    0.485  107.202
  305.000    3.767    0.228    0.491  107.205
  305.250    3.628    0.231    0.515  111.494
  305.500    3.494    0.230    0.528  116.395
  305.750    3.494    0.219    0.541  118.847
  306.000    3.365    0.198    0.547  118.237
  306.250    3.241    0.235    0.546  114.567
  306.500    3.180    0.239    0.537  112.733
  306.750    3.180    0.229    0.528  110.900
  307.000    3.301    0.218    0.518  108.455
  307.250    3.363    0.221    0.507  107.845
  307.500    3.556    0.224    0.493  107.235
  307.750    3.692    0.225    0.479  109.075
  308.000    3.904    0.236    0.464  107.855
  308.250    3.978    0.237    0.460  107.245
  308.500    3.977    0.232    0.483  106.636
  308.750    3.621    0.226    0.501  104.803
  309.000    3.359    0.232    0.510  104.805
  309.250    3.359    0.241    0.502  101.746
  309.500    3.975    0.250    0.483   98.076
  309.750    4.703    0.292    0.444   91.957
  310.000    5.361    0.312    0.444   90.735
  310.250    6.344    0.302    0.458   87.677
  310.500    7.941    0.281    0.436   85.843
  310.750    9.755    0.287    0.420   89.520
  311.000   10.711    0.274    0.414   87.686
  311.250   11.327    0.262    0.420   84.016
  311.500   11.759    0.185    0.431   82.182
  311.750   11.757    0.164    0.379   80.961
  312.000   11.113    0.202    0.393   84.637
  312.250   10.309    0.251    0.406   89.539
  312.500    9.746    0.254    0.402   94.440
  312.750    9.041    0.247    0.400   98.730
  313.000    8.708    0.230    0.416  100.569
  313.250    8.545    0.251    0.422  102.408
  313.500    8.544    0.254    0.407  100.575
  313.750    9.381    0.254    0.421   98.128
  314.000   10.109    0.273    0.428   92.008
  314.250   10.893    0.295    0.432   88.338
  314.500   11.098    0.302    0.424   82.832
  314.750   11.306    0.304    0.411   79.773
  315.000   10.687    0.291    0.405   78.552
  315.250    9.914    0.271    0.412   84.065
  315.500    9.198    0.225    0.407   95.700
  315.750    8.533    0.214    0.405  103.051
  316.000    7.484    0.215    0.407  111.625
  316.250    6.688    0.220    0.408  113.465
  316.500    6.322    0.210    0.405  113.468
  316.750    6.089    0.213    0.413  116.533
  317.000    6.203    0.226    0.426  115.923
  317.250    6.811    0.242    0.424  112.252
  317.500    8.059    0.271    0.444  109.806
  317.750    9.360    0.319    0.453  100.014
  318.000   10.086    0.335    0.430   92.058
  318.250   11.283    0.319    0.419   87.163
  318.500   12.159    0.315    0.419   86.554
  318.750   12.621    0.307    0.407   89.007
  319.000   12.857    0.307    0.404   89.008
  319.250   12.856    0.302    0.412   87.176
  319.500   12.855    0.303    0.422   86.566
  319.750   12.852    0.309    0.432   85.956
  320.000   12.851    0.313    0.445   90.859
  320.250   12.610    0.303    0.456   92.697
  320.500   12.375    0.305    0.445   96.374
  320.750   12.374    0.309    0.444  101.888
  321.000   12.372    0.291    0.446  104.952
  321.250   12.140    0.288    0.443  108.016
  321.500   11.914    0.283    0.435  106.182
  321.750   11.912    0.248    0.435  104.961
  322.000   11.690    0.225    0.435  103.128
  322.250   11.688    0.209    0.428  101.294
  322.500   11.470    0.195    0.400   98.848
  322.750   11.255    0.198    0.392   95.177
  323.000   11.045    0.248    0.402   86.608
  323.250   11.252    0.266    0.390   75.591
  323.500   11.463    0.266    0.373   70.696
  323.750   11.678    0.249    0.378   74.373
  324.000   11.677    0.243    0.384   74.988
  324.250   11.037    0.203    0.392   80.503
  324.500    9.324    0.209    0.401   82.341
  324.750    8.178    0.206    0.409  100.712
  325.000    7.446    0.220    0.431  106.837
  325.250    6.780    0.218    0.445  111.739
  325.500    6.173    0.200    0.450  116.639
  325.750    5.727    0.178    0.458  120.929
  326.000    5.516    0.177    0.468  123.993
  326.250    5.312    0.176    0.488  125.832
  326.500    5.021    0.163    0.505  131.957
  326.750    4.928    0.125    0.518  133.797
  327.000    4.927    0.106    0.529  128.903
  327.250    5.114    0.153    0.507  126.457
  327.500    5.210    0.188    0.485  127.072
  327.750    5.113    0.173    0.484  127.075
  328.000    5.112    0.183    0.493  127.690
  328.250    4.655    0.194    0.509  130.755
  328.500    4.238    0.189    0.523  132.594
  328.750    4.082    0.183    0.533  132.597
  329.000    3.717    0.188    0.535  131.376
  329.250    3.384    0.208    0.535  131.379
  329.500    3.081    0.218    0.539  131.995
  329.750    3.198    0.210    0.533  131.998
  330.000    4.919    0.212    0.484  132.612
  330.250    6.392    0.244    0.456  134.452
  330.500    8.463    0.256    0.434  129.558
  330.750    9.467    0.262    0.418  121.602
  331.000   10.013    0.261    0.418  120.380
  331.250   10.589    0.249    0.430  122.832
  331.500   10.789    0.249    0.439  123.447
  331.750   10.990    0.249    0.447  122.226
  332.000   10.989    0.267    0.444  114.882
  332.250   10.988    0.286    0.442  107.538
  332.500   11.194    0.300    0.452  100.194
  332.750   11.192    0.295    0.448   92.850
  333.000   10.580    0.290    0.442   92.241
  333.250    9.279    0.282    0.442   97.754
  333.500    7.987    0.270    0.447  108.777
  333.750    7.550    0.241    0.463  124.699
  334.000    7.691    0.217    0.480  132.661
  334.250    8.135    0.214    0.480  134.502
  334.500    9.100    0.208    0.447  131.444
  334.750    9.992    0.232    0.431  127.772
  335.000   10.567    0.259    0.420  122.878
  335.250   10.969    0.252    0.419  111.860
  335.500   10.764    0.254    0.425  115.538
  335.750   10.175    0.257    0.432  116.764
  336.000    9.618    0.265    0.434  117.992
  336.250    9.091    0.263    0.427  111.873
  336.500    8.922    0.250    0.420  108.814
  336.750    8.755    0.243    0.429  111.879
  337.000    8.591    0.228    0.437  114.943
  337.250    8.918    0.235    0.445  121.069
  337.500    9.085    0.241    0.440  126.583
  337.750    9.083    0.241    0.430  125.973
  338.000    9.083    0.239    0.414  122.302
  338.250    9.081    0.231    0.438  122.306
  338.500    9.426    0.242    0.453  122.309
  338.750   10.158    0.249    0.462  117.413
  339.000   10.743    0.280    0.454  103.947
  339.250   11.362    0.299    0.448   83.134
  339.500   11.794    0.302    0.443   78.851
  339.750   12.242    0.305    0.422   81.305
  340.000   11.791    0.298    0.409   82.532
  340.250   10.536    0.290    0.421   83.758
  340.500    9.960    0.284    0.424   86.211
  340.750    8.573    0.269    0.427   88.662
  341.000    7.662    0.231    0.429  100.298
  341.250    7.242    0.229    0.424  108.873
  341.500    7.517    0.218    0.425  105.815
  341.750    8.254    0.247    0.433   99.695
  342.000    9.233    0.280    0.422   92.351
  342.250    9.584    0.297    0.420   84.395
  342.500    9.231    0.295    0.419   77.663
  342.750    8.096    0.301    0.408   70.931
  343.000    7.372    0.285    0.416   78.282
  343.250    6.712    0.273    0.425   84.407
