~VERSION INFORMATION
 VERS.                 2.0:   CWLS LOG ASCII STANDARD -VERSION 2.0
 WRAP.                  NO:   ONE LINE PER DEPTH STEP
~WELL INFORMATION BLOCK
#MNEM.UNIT           DATA                    DESCRIPTION OF MNEMONIC
#---------    -------------------            -------------------------------
# Generated from Intellog Unique Number	CS_73_76/WELL/702
WELL.         AMOCO AEC IPIATIK              : Well_name    - WELL
LOC .         00/07-03-073-06W4/0            : Location     - LOCATION
UWI .         00/07-03-073-06W4/0            : Uwi          - UNIQUE WELL ID
ENTR.         SP                             : Entered      - ENTERED BY
SRVC.         SCHLUMBERGER                   : Scn          - SERVICE COMPANY
STRT.M        315                            : top_depth    - START DEPTH
STOP.M        560                            : bot_depth    - STOP DEPTH
STEP.M        0.25                           : increment    - STEP LENGTH
 NULL. -999.2500:NULL Value
~CURVE INFORMATION BLOCK
#MNEM UNIT       ERCB CURVE CODE    CURVE DESCRIPTION
#-----------   ------------------   ----------------------------------
DEPT.M        00 001 00 00         : DEPTH        - DEPTH
ILD .OHMM     00 120 00 00         : RESD         - DEEP RESISTIVITY (DIL)
DPHI.V/V      00 890 00 00         : PHID         - DENSITY POROSITY (LIMESTONE)
NPHI.V/V      00 330 00 00         : PHIN         - NEUTRON POROSITY (LIMESTONE)
GR  .API      00 310 00 00         : GR           - GAMMA RAY
~PARAMETER INFORMATION
#MNEM.UNIT           DATA             DESCRIPTION OF MNEMONIC
#---------         -----------     ------------------------------
GL  .M        703.68               : gl           - GROUND LEVEL ELEVATION
EREF.M        702.89               : kb           - ELEVATION OF DEPTH REFERENCE
DATM.M        703.68               : datum        - DATUM ELEVATION
TDD .M        578                  : tdd          - TOTAL DEPTH DRILLER
RUN .         ONE                  : Run          - RUN NUMBER
ENG .         BILL                 : Engineer     - RECORDING ENGINEER
WIT .         JIM                  : Witness      - WITNESSED BY
MUD .         GEL                  : Mud_type     - MUD TYPE
MATR.         LIMESTONE            : Logunit      - NEUTRON MATRIX
TMAX.C        17                   : BHT          - MAXIMUM RECORDED TEMPERATURE
BHTD.M        578                  : BHTDEP       - MAXIMUM RECORDED TEMPERATURE
MATR.         1                    : LOGUNIT      - NEUTRON MATRIX
RMT .C        25                   : MDTP         - TEMPERATURE OF MUD
NEUT.         1                    : NEUTRON      - NEUTRON TYPE
RESI.         0                    : RESIST       - RESISTIVITY TYPE
RMC .OHMM     0.25                 : RMC          - RESISTIVITY OF MUD CAKE
RMF .OHMM     0.25                 : RMF          - RESISTIVITY OF MUD FILTRATE
SUFT.C        15                   : SUFT         - SURFACE TEMPERATURE
~A  DEPTH     RESD     PHID     PHIN       GR
# ...
  489.000   45.274    0.247    0.358   50.843
  489.250   47.812    0.215    0.270   50.238
  489.500   48.683    0.223    0.282   50.237
  489.750   49.552    0.263    0.338   52.051
  490.000   45.133    0.300    0.389   55.074
  490.250   41.882    0.323    0.426   56.888
  490.500   38.866    0.316    0.465   56.887
  490.750   37.428    0.306    0.483   56.281
  491.000   36.712    0.333    0.488   56.281
  491.250   37.373    0.342    0.479   56.884
  491.500   37.343    0.322    0.479   56.279
  491.750   40.933    0.292    0.465   54.463
  492.000   42.443    0.265    0.409   54.463
  492.250   44.014    0.292    0.385   56.276
  492.500   43.977    0.339    0.433   58.090
  492.750   42.349    0.357    0.465   59.299
  493.000   40.775    0.342    0.488   58.693
  493.250   40.002    0.328    0.504   57.483
  493.500   38.518    0.328    0.492   57.482
  493.750   37.788    0.337    0.480   58.086
  494.000   36.380    0.331    0.481   58.690
  494.250   36.355    0.328    0.481   57.479
  494.500   37.005    0.337    0.477   56.874
  494.750   36.959    0.297    0.460   56.873
  495.000   31.853    0.257    0.442   56.872
  495.250   30.685    0.211    0.424   55.057
  495.500   29.007    0.182    0.405   55.056
  495.750   27.418    0.259    0.402   55.055
  496.000   25.434    0.297    0.440   56.264
  496.250   24.954    0.319    0.459   58.078
  496.500   23.152    0.328    0.467   59.287
  496.750   21.887    0.332    0.475   59.891
  497.000   20.691    0.321    0.479   61.704
  497.250   19.197    0.315    0.464   62.308
  497.500   17.810    0.314    0.467   62.307
  497.750   17.156    0.311    0.491   61.097
  498.000   16.216    0.308    0.492   60.491
  498.250   15.046    0.296    0.457   59.281
  498.500   14.488    0.286    0.430   58.675
  498.750   13.950    0.267    0.402   61.699
  499.000   13.433    0.275    0.391   65.931
  499.250   13.424    0.302    0.393   68.350
  499.500   13.414    0.288    0.407   69.559
  499.750   13.656    0.280    0.428   70.768
  500.000   13.121    0.269    0.406   58.433
  500.250   12.645    0.252    0.393   62.044
  500.500   11.743    0.247    0.418   66.258
  500.750   14.134    0.276    0.429   68.064
  501.000   17.328    0.299    0.434   57.820
  501.250   21.245    0.319    0.445   50.589
  501.500   22.461    0.336    0.435   46.370
  501.750   22.882    0.349    0.423   40.946
  502.000   24.191    0.321    0.411   44.557
  502.250   28.058    0.300    0.412   48.772
  502.500   30.782    0.285    0.432   54.793
  502.750   33.151    0.301    0.439   55.393
  503.000   36.371    0.306    0.426   52.981
  503.250   37.053    0.297    0.433   54.785
  503.500   37.055    0.296    0.431   55.386
  503.750   35.055    0.291    0.432   54.781
  504.000   28.596    0.296    0.439   60.199
  504.250   24.661    0.297    0.438   60.800
  504.500   30.235    0.303    0.433   58.990
  504.750   37.763    0.325    0.439   58.385
  505.000   50.791    0.326    0.425   59.587
  505.250   62.273    0.311    0.413   62.596
  505.500   68.319    0.303    0.413   65.004
  505.750   72.226    0.297    0.399   68.616
  506.000   77.786    0.297    0.393   69.216
  506.250   85.343    0.307    0.398   64.996
  506.500   86.942    0.308    0.421   61.380
  506.750   88.573    0.315    0.437   55.955
  507.000   82.255    0.316    0.428   53.544
  507.250   70.934    0.299    0.413   51.132
  507.500   63.479    0.293    0.404   49.925
  507.750   64.670    0.289    0.407   51.127
  508.000   57.873    0.287    0.410   50.521
  508.250   37.803    0.302    0.392   51.724
  508.500   29.717    0.293    0.376   56.540
  508.750   26.593    0.275    0.362   61.959
  509.000   25.158    0.264    0.378   64.969
  509.250   24.698    0.289    0.401   68.582
  509.500   26.600    0.309    0.423   66.169
  509.750   28.647    0.320    0.421   64.962
  510.000   33.225    0.314    0.429   66.767
  510.250   35.782    0.303    0.426   68.572
  510.500   34.483    0.289    0.413   72.785
  510.750   26.122    0.274    0.403   74.590
  511.000   18.038    0.260    0.392   76.395
  511.250   13.413    0.245    0.372   78.200
  511.500   10.741    0.223    0.369   82.414
  511.750    8.926    0.243    0.383   86.026
  512.000    7.697    0.240    0.382   91.445
  512.250    6.762    0.217    0.386   97.466
  512.500    6.164    0.208    0.401  100.476
  512.750    5.941    0.228    0.396  102.281
  513.000    5.620    0.223    0.394  102.881
  513.250    5.517    0.216    0.396   98.059
  513.500    5.416    0.253    0.390   84.804
  513.750    5.417    0.258    0.353   77.573
  514.000    5.220    0.246    0.341   78.775
  514.250    5.125    0.233    0.361   87.808
  514.500    5.031    0.198    0.383   96.842
  514.750    5.126    0.187    0.408   99.249
  515.000    6.169    0.213    0.421   92.017
  515.250    7.705    0.227    0.413   79.967
  515.500    8.936    0.247    0.398   72.736
  515.750   10.558    0.272    0.389   60.083
  516.000   11.583    0.286    0.382   51.647
  516.250   12.021    0.280    0.386   58.270
  516.500    9.989    0.267    0.390   65.496
  516.750    9.277    0.264    0.400   67.904
  517.000    8.149    0.274    0.405   69.106
  517.250    7.159    0.263    0.389   67.899
  517.500    6.773    0.235    0.391   72.112
  517.750    6.900    0.221    0.411   72.713
  518.000    8.152    0.252    0.412   61.266
  518.250    8.618    0.281    0.380   52.227
  518.500    9.455    0.288    0.365   55.235
  518.750    9.996    0.280    0.381   57.644
  519.000   10.374    0.286    0.387   61.255
  519.250   10.766    0.278    0.386   62.457
  519.500   10.376    0.285    0.386   61.852
  519.750    9.459    0.294    0.380   58.236
  520.000    8.465    0.274    0.373   60.041
  520.250    7.717    0.257    0.374   70.881
  520.500    7.035    0.226    0.385   78.108
  520.750    6.533    0.248    0.394   80.515
  521.000    6.296    0.285    0.376   64.850
  521.250    5.847    0.265    0.367   69.666
  521.500    5.531    0.227    0.365   79.303
  521.750    5.137    0.201    0.408   93.757
  522.000    4.770    0.180    0.444  101.586
  522.250    5.234    0.179    0.460  108.210
  522.500    5.533    0.174    0.459  111.219
  522.750    5.849    0.163    0.448  112.422
  523.000    6.784    0.184    0.442  111.215
  523.250    7.307    0.190    0.439  103.380
  523.500    7.869    0.184    0.426  100.366
  523.750    8.319    0.189    0.413   93.737
  524.000    8.795    0.189    0.400   89.518
  524.250    8.960    0.196    0.391   88.311
  524.500    8.476    0.200    0.386   88.911
  524.750    8.477    0.208    0.387   88.909
  525.000    8.322    0.226    0.385   84.689
  525.250    8.170    0.225    0.390   82.276
  525.500    8.170    0.219    0.400   81.069
  525.750    8.171    0.225    0.406   78.658
  526.000    8.172    0.246    0.424   76.245
  526.250    8.173    0.268    0.438   79.255
  526.500    8.326    0.279    0.452   82.867
  526.750    8.327    0.254    0.462   90.092
  527.000    8.483    0.245    0.476   93.102
  527.250    8.483    0.233    0.482   94.305
  527.500    8.176    0.218    0.460   93.701
  527.750    7.735    0.211    0.419   90.083
  528.000    7.454    0.196    0.397   83.454
  528.250    6.548    0.190    0.389   79.235
  528.500    5.752    0.235    0.388   72.606
  528.750    5.053    0.284    0.391   66.580
  529.000    4.358    0.293    0.389   62.361
  529.250    3.973    0.302    0.391   61.153
  529.500    3.689    0.304    0.377   69.584
  529.750    3.490    0.308    0.391   80.424
  530.000    3.759    0.308    0.400   84.639
  530.250    4.124    0.297    0.385   90.058
  530.500    4.441    0.285    0.377   95.478
  530.750    5.151    0.200    0.390  102.704
  531.000    5.446    0.171    0.424  106.918
  531.250    5.865    0.172    0.449  104.506
  531.500    5.975    0.188    0.450   98.479
  531.750    6.087    0.192    0.466   95.465
  532.000    5.866    0.213    0.473   91.849
  532.250    5.759    0.230    0.458   94.858
