~VERSION INFORMATION
 VERS.                 2.0:   CWLS LOG ASCII STANDARD -VERSION 2.0
 WRAP.                  NO:   ONE LINE PER DEPTH STEP
~WELL INFORMATION BLOCK
#MNEM.UNIT           DATA                    DESCRIPTION OF MNEMONIC
#---------    -------------------            -------------------------------
# Generated from Intellog Unique Number	CW_70_72/WELL/877
NULL.         -999.25                        : NULL_VALUE
WELL.         SUNDANCE MCMORAN SMITH 07-08   : Well_name    - WELL              
LOC .         07-08-072-24W4                 : Location     - LOCATION          
UWI .         00/07-08-072-24W4/0            : Uwi          - UNIQUE WELL ID    
ENTR.         JAYE                           : Entered      - ENTERED BY        
SRVC.         SCHLUMBERGER                   : Scn          - SERVICE COMPANY   
DATE.         24 JAN 73                      : Date         - LOG DATE          
STRT.M        329.184                        : top_depth    - START DEPTH       
STOP.M        535.434                        : bot_depth    - STOP DEPTH        
STEP.M        0.25                           : increment    - STEP LENGTH       
~CURVE INFORMATION BLOCK
#MNEM UNIT       ERCB CURVE CODE    CURVE DESCRIPTION
#-----------   ------------------   ----------------------------------
DEPT.M        00 001 00 00         : DEPTH        - DEPTH                       
DPHI.V/V      00 890 00 00         : PHID         - DENSITY POROSITY (SANDSTONE)
NPHI.V/V      00 330 00 00         : PHIN         - NEUTRON POROSITY (SANDSTONE)
GR  .API      00 310 00 00         : GR           - GAMMA RAY                   
CALI.MM       00 280 01 00         : CAL          - CALIPER                     
ILD .OHMM     00 120 00 00         : RESD         - DEEP RESISTIVITY (DIL)      
~PARAMETER INFORMATION       
#MNEM.UNIT           DATA             DESCRIPTION OF MNEMONIC
#---------         -----------     ------------------------------
GL  .M        560.222              : gl           - GROUND LEVEL ELEVATION      
EREF.M        562.661              : kb           - ELEVATION OF DEPTH REFERENCE
DATM.M        560.222              : datum        - DATUM ELEVATION             
TDD .M        544.068              : tdd          - TOTAL DEPTH DRILLER         
RUN .         ONE                  : Run          - RUN NUMBER                  
MATR.         SANDSTONE            : Logunit      - NEUTRON MATRIX              
TMAX.C        23.3333              : BHT          - MAXIMUM RECORDED TEMPERATURE
BHTD.M        543.763              : BHTDEP       - MAXIMUM RECORDED TEMPERATURE
RMT .C        21.1111              : MDTP         - TEMPERATURE OF MUD          
MUDD.KG/M     0                    : MWT          - MUD DENSITY                 
NEUT.         1                    : NEUTRON      - NEUTRON TYPE                
RESI.         0                    : RESIST       - RESISTIVITY TYPE            
RM  .OHMM     3.82                 : RM           - RESISTIVITY OF MUD          
RMC .OHMM     0                    : RMC          - RESISTIVITY OF MUD CAKE     
RMF .OHMM     2.92                 : RMF          - RESISTIVITY OF MUD FILTRATE 
SUFT.C        -17.7778             : SUFT         - SURFACE TEMPERATURE         
~A  DEPTH     PHID     PHIN       GR      CAL     RESD
# ...
  511.684    0.127    0.407  114.074  174.188    4.759
  511.934    0.150    0.414  113.841  173.796    4.816
  512.184    0.140    0.432  113.182  173.195    5.020
  512.434    0.118    0.453  112.281  172.697    5.222
  512.684    0.121    0.381  106.823  172.302    5.462
  512.934    0.110    0.356  108.413  172.317    5.756
  513.184    0.114    0.346  109.030  172.131    5.977
  513.434    0.086    0.361  109.284  172.352    6.015
  513.684    0.094    0.373  107.715  172.882    5.890
  513.934    0.116    0.367  102.499  173.620    5.724
  514.184    0.112    0.366   97.285  173.636    5.564
  514.434    0.104    0.361   90.430  172.625    5.429
  514.684    0.113    0.351   81.023  169.041    5.393
  514.934    0.141    0.340   71.252  164.840    5.399
  515.184    0.162    0.326   60.205  163.108    5.514
  515.434    0.180    0.313   55.416  162.715    5.747
  515.684    0.168    0.304   58.403  163.041    6.011
  515.934    0.158    0.298   67.769  163.880    6.242
  516.184    0.166    0.293   77.195  164.927    6.364
  516.434    0.165    0.284   88.566  165.870    6.393
  516.684    0.143    0.295  121.190  166.811    6.398
  516.934    0.139    0.318  100.251  167.756    6.346
  517.184    0.132    0.351  112.897  168.287    6.180
  517.434    0.122    0.387  116.918  168.820    5.929
  517.684    0.106    0.372  120.816  169.454    5.690
  517.934    0.101    0.348  123.194  169.986    5.654
  518.184    0.103    0.388  128.976  170.413    5.806
  518.434    0.106    0.397  127.163  170.736    6.152
  518.684    0.101    0.379  114.051  171.269    6.627
  518.934    0.118    0.330  109.809  171.699    7.073
  519.184    0.117    0.323  110.426  171.819    7.619
  519.434    0.108    0.333  107.399  171.629    8.330
  519.684    0.098    0.330  105.282  170.925    8.907
  519.934    0.092    0.325  107.844  164.461    9.047
  520.184    0.084    0.316  110.587  162.319    8.777
  520.434    0.085    0.305  116.065  165.216    8.331
  520.684    0.090    0.336  125.006  169.758    7.906
  520.934    0.097    0.362  133.278  171.525    7.545
  521.184    0.104    0.370  131.770  171.132    7.135
  521.434    0.122    0.360  121.937  170.735    6.871
  521.684    0.122    0.335  120.793  170.446    6.727
  521.934    0.112    0.340  128.216  170.460    6.586
  522.184    0.109    0.361  130.291  170.376    6.415
  522.434    0.107    0.367  128.053  170.085    6.350
  522.684    0.105    0.364  126.910  169.794    6.298
  522.934    0.099    0.361  123.092  169.500    6.247
  523.184    0.103    0.361  118.363  169.311    6.228
  523.434    0.108    0.365  116.672  169.124    6.246
  523.684    0.115    0.372  119.416  169.144    6.274
  523.934    0.120    0.377  120.823  169.157    6.293
  524.184    0.129    0.381  118.526  169.276    6.322
  524.434    0.120    0.384  115.863  169.602    6.305
  524.684    0.110    0.382  111.072  169.310    6.264
  524.934    0.134    0.376  103.124  169.224    6.316
  525.184    0.138    0.367   96.269  168.831    6.510
  525.434    0.184    0.341   88.320  163.394    6.736
  525.684    0.189    0.345  103.640  163.926    7.071
  525.934    0.206    0.388  115.679  167.133    7.961
  526.184    0.245    0.452  122.675  170.647    8.995
  526.434    0.312    0.489  104.217  168.091    9.906
  526.684    0.593    0.550   74.276  162.348   10.437
  526.934    0.491    0.595   56.729  161.852   10.739
  527.184    0.433    0.623   45.986  161.662   10.949
  527.434    0.430    0.641   39.981  161.679   11.285
  527.684    0.495    0.628   41.207  162.007   11.696
  527.934    0.606    0.610   49.418  162.022   12.739
  528.184    0.614    0.593   61.275  162.144   13.301
  528.434    0.534    0.576   88.137  162.158   12.811
  528.684    0.398    0.558  111.476  162.693   12.292
  528.934    0.211    0.434  143.563  162.913   11.708
  529.184    0.163    0.411  170.487  163.344   11.113
  529.434    0.134    0.385  182.829  163.667   10.721
  529.684    0.109    0.367  196.144  164.302   10.458
  529.934    0.099    0.379  211.949  165.141   10.278
  530.184    0.098    0.427  222.105  165.673   10.102
  530.434    0.111    0.467  226.732  165.896    9.963
  530.684    0.105    0.472  225.892  165.913    9.809
  530.934    0.101    0.472  224.262  165.621    9.657
  531.184    0.107    0.465  220.140  165.021    9.387
  531.434    0.110    0.450  210.734  164.729    9.225
  531.684    0.108    0.438  201.813  164.437    9.183
  531.934    0.119    0.430  192.833  163.943    9.157
  532.184    0.126    0.438  185.916  163.650    9.049
  532.434    0.120    0.449  179.244  163.360    8.892
  532.684    0.123    0.478  172.450  163.068    8.240
  532.934    0.120    0.485  166.202  163.184    7.552
  533.184    0.110    0.384  159.773  163.102    6.611
  533.434    0.100    0.345  155.894  163.013    6.003
  533.684    0.092    0.332  149.221  162.824    5.353
  533.934    0.100    0.318  164.298  162.533    5.015
  534.184    0.093    0.325  188.306  162.549    4.699
  534.434    0.070    0.395  194.270  162.259    4.419
  534.684    0.070    0.493  183.283  161.864    4.382
  534.934    0.051    0.527  172.236  161.471    4.363
  535.184    0.069    0.493  155.721  161.177    4.415
  535.434    0.098    0.467  120.009  161.091    4.635
