~VERSION INFORMATION
 VERS.                 2.0:   CWLS LOG ASCII STANDARD -VERSION 2.0
 WRAP.                  NO:   ONE LINE PER DEPTH STEP
~WELL INFORMATION BLOCK
#MNEM.UNIT           DATA                    DESCRIPTION OF MNEMONIC
#---------    -------------------            -------------------------------
# Generated from Intellog Unique Number	CN_91_93/WELL/2999
WELL.         PARAMOUNT RESOURCES LTD.       : Well_name    - WELL
LOC .         00/07-36-093-19W4/0            : Location     - LOCATION
UWI .         00/07-36-093-19W4/0            : Uwi          - UNIQUE WELL ID
ENTR.         JOETTE                         : Entered      - ENTERED BY
SRVC.         COMPUTALOG                     : Scn          - SERVICE COMPANY
DATE.         04/07/92                       : Date         - LOG DATE
STRT.M        110                            : top_depth    - START DEPTH
STOP.M        241                            : bot_depth    - STOP DEPTH
STEP.M        0.25                           : increment    - STEP LENGTH
 NULL. -999.2500:NULL Value
~CURVE INFORMATION BLOCK
#MNEM UNIT       ERCB CURVE CODE    CURVE DESCRIPTION
#-----------   ------------------   ----------------------------------
DEPT.M        00 001 00 00         : DEPTH        - DEPTH
CALI.MM       00 280 01 00         : CAL          - CALIPER
GR  .API      00 310 00 00         : GR           - GAMMA RAY
NPHI.V/V      00 330 00 00         : PHIN         - NEUTRON POROSITY (SANDSTONE)
DPHI.V/V      00 890 00 00         : PHID         - DENSITY POROSITY (SANDSTONE)
ILD .OHMM     00 120 00 00         : RESD         - DEEP RESISTIVITY (DIL)
~PARAMETER INFORMATION
#MNEM.UNIT           DATA             DESCRIPTION OF MNEMONIC
#---------         -----------     ------------------------------
GL  .M        521.1                : gl           - GROUND LEVEL ELEVATION
EREF.M        524.6                : kb           - ELEVATION OF DEPTH REFERENCE
DATM.M        524.6                : datum        - DATUM ELEVATION
TDD .M        240.8                : tdd          - TOTAL DEPTH DRILLER
RUN .         ONE                  : Run          - RUN NUMBER
ENG .         JO                   : Engineer     - RECORDING ENGINEER
WIT .         TIM                  : Witness      - WITNESSED BY
MUD .         GEL                  : Mud_type     - MUD TYPE
MATR.         SANDSTONE            : Logunit      - NEUTRON MATRIX
TMAX.C        25                   : BHT          - MAXIMUM RECORDED TEMPERATURE
BHTD.M        240.8                : BHTDEP       - MAXIMUM RECORDED TEMPERATURE
RMT .C        15.5                 : MDTP         - TEMPERATURE OF MUD
MUDD.KG/M     1110                 : MWT          - MUD DENSITY
NEUT.         1                    : NEUTRON      - NEUTRON TYPE
RESI.         0                    : RESIST       - RESISTIVITY TYPE
RM  .OHMM     3                    : RM           - RESISTIVITY OF MUD
RMC .OHMM     3                    : RMC          - RESISTIVITY OF MUD CAKE
RMF .OHMM     3                    : RMF          - RESISTIVITY OF MUD FILTRATE
SUFT.C        4                    : SUFT         - SURFACE TEMPERATURE
~A  DEPTH      CAL       GR     PHIN     PHID     RESD
# ...
  183.000  166.638   98.264    0.243    0.165   14.340
  183.250  165.738   99.195    0.285    0.208   13.225
  183.500  164.848   97.472    0.327    0.214   10.836
  183.750  163.958   96.638    0.352    0.212   10.558
  184.000  163.958   96.987    0.378    0.212   10.099
  184.250  163.608   97.623    0.397    0.227   10.099
  184.500  161.748   95.318    0.391    0.230    9.859
  184.750  161.328   96.249    0.387    0.229    9.689
  185.000  162.389  107.776    0.387    0.211    9.689
  185.250  165.421  110.177    0.386    0.204    9.717
  185.500  168.923  108.466    0.391    0.202    9.643
  185.750  170.484  109.691    0.397    0.178    9.653
  186.000  169.094  111.505    0.401    0.163    9.493
  186.250  166.743  110.965    0.403    0.173    9.493
  186.500  165.333  106.600    0.400    0.203    9.520
  186.750  163.953  102.537    0.383    0.212    9.619
  187.000  163.053  102.885    0.362    0.221    9.544
  187.250  162.643  104.686    0.355    0.222    9.049
  187.500  163.214  107.676    0.379    0.209    8.656
  187.750  164.295  110.090    0.399    0.201    8.592
  188.000  164.365  109.544    0.409    0.186    8.681
  188.250  163.945   94.584    0.398    0.162    9.185
  188.500  163.535   87.866    0.383    0.104    9.363
  188.750  163.616   85.561    0.400    0.052    9.378
  189.000  164.697   97.676    0.404    0.152    9.052
  189.250  166.248  103.019    0.413    0.187    8.350
  189.500  166.819  101.303    0.409    0.207    7.361
  189.750  166.459   99.586    0.386    0.216    7.040
  190.000  165.509   96.110    0.363    0.223    6.798
  190.250  162.648   93.505    0.377    0.229    6.212
  190.500  160.777  100.325    0.395    0.237    4.907
  190.750  159.857  106.851    0.440    0.253    4.526
  191.000  159.948  111.017    0.470    0.259    4.175
  191.250  160.518  108.418    0.475    0.233    4.106
  191.500  162.090   97.877    0.418    0.229    4.186
  191.750  162.651   94.978    0.378    0.240    4.428
  192.000  162.721   91.202    0.340    0.243    4.903
  192.250  162.811   88.014    0.331    0.215    6.000
  192.500  163.382   91.010    0.335    0.167    8.195
  192.750  164.954  102.831    0.341    0.167    9.242
  193.000  166.975  109.069    0.365    0.194    8.603
  193.250  169.027  107.928    0.390    0.205    7.720
  193.500  169.617  105.041    0.405    0.208    6.743
  193.750  168.697  107.142    0.417    0.206    6.509
  194.000  167.317  107.797    0.424    0.197    6.518
  194.250  166.407  106.068    0.441    0.194    6.833
  194.500  165.027  105.534    0.392    0.169    8.137
  194.750  164.607   84.685    0.345    0.136    8.307
  195.000  165.177   75.909    0.307    0.101    8.699
  195.250  166.248   88.330    0.298    0.025    9.988
  195.500  166.339   94.843    0.306    0.160   12.805
  195.750  166.480   98.121    0.319    0.180   12.931
  196.000  166.020   99.346    0.327    0.191   13.430
  196.250  166.080   96.747    0.326    0.127   13.452
  196.500  166.731   86.500    0.301    0.069   13.346
  196.750  166.761   83.606    0.291   -0.004   12.772
  197.000  166.832   94.839    0.305    0.078   12.556
  197.250  166.832  102.241    0.320    0.138   12.345
  197.500  167.003  104.072    0.331    0.172   12.345
  197.750  167.553  103.526    0.346    0.175   12.159
  198.000  167.154  103.281    0.352    0.188   12.061
  198.250  167.244  100.675    0.358    0.195   12.061
  198.500  167.315  105.436    0.366    0.200   11.983
  198.750  167.315  106.967    0.372    0.200   11.983
  199.000  166.985  107.004    0.374    0.187   12.024
  199.250  167.076  107.946    0.368    0.184   12.144
  199.500  167.076  109.459    0.352    0.185   12.272
  199.750  166.756  110.972    0.340    0.182   12.862
  200.000  166.837  108.962    0.349    0.176   13.982
  200.250  166.837   94.896    0.336    0.162   15.339
  200.500  167.038   90.232    0.297    0.154   18.270
  200.750  167.078   82.626    0.261    0.072   18.821
  201.000  166.658   71.790    0.238   -0.021   21.593
  201.250  165.758   82.428    0.230    0.013   22.632
  201.500  164.368   90.431    0.255    0.051   24.165
  201.750  162.518   97.852    0.284    0.117   20.158
  202.000  162.518   99.941    0.308    0.198   17.282
  202.250  161.708  105.290    0.326    0.225   14.292
  202.500  159.817  101.814    0.341    0.221   13.798
  202.750  157.927   95.385    0.350    0.209   13.563
  203.000  156.056   91.603    0.337    0.224   13.963
  203.250  155.136   87.539    0.320    0.244   14.632
  203.500  154.726   85.528    0.316    0.257   18.412
  203.750  155.807   87.636    0.311    0.232   18.945
  204.000  159.810   86.796    0.293    0.197   18.945
  204.250  164.303   76.548    0.260    0.110   22.819
  204.500  164.863   72.478    0.246    0.037   23.464
  204.750  163.973   71.356    0.237    0.005   24.148
  205.000  162.583   74.346    0.251   -0.011   19.963
  205.250  162.234   81.754    0.274    0.047   18.081
  205.500  161.273   84.450    0.302    0.119   14.028
  205.750  160.373   86.269    0.352    0.213   13.178
  206.000  159.473   88.371    0.368    0.213   12.839
  206.250  159.574   91.066    0.376    0.214   12.852
  206.500  160.205   86.996    0.348    0.191   13.849
  206.750  160.725   77.632    0.331    0.147   15.052
  207.000  160.725   73.556    0.319    0.080   15.352
  207.250  161.877   83.023    0.323    0.090   11.907
  207.500  163.898   95.444    0.368    0.131   10.396
  207.750  164.529  100.193    0.393    0.172    9.502
  208.000  165.040  103.777    0.410    0.191    9.502
  208.250  166.101  106.773    0.419    0.202    9.190
  208.500  166.201  109.469    0.425    0.198    9.200
  208.750  166.272  110.393    0.423    0.191    9.381
  209.000  166.352  108.983    0.420    0.192    9.308
  209.250  166.433  107.554    0.411    0.195    9.236
  209.500  166.523  109.079    0.400    0.194    9.169
  209.750  167.574  106.486    0.403    0.191    9.095
  210.000  169.626  104.463    0.417    0.177    9.026
  210.250  170.687  100.387    0.422    0.153    8.956
  210.500  170.767   97.500    0.426    0.114    8.896
  210.750  169.867  104.902    0.426    0.109    8.818
  211.000  168.487  116.735    0.419    0.173    8.591
  211.250  168.087  119.419    0.419    0.190    8.146
  211.500  168.087  119.479    0.426    0.196    7.792
  211.750  167.737  118.639    0.431    0.192    7.322
  212.000  167.828  116.640    0.440    0.180    7.263
  212.250  167.908  115.206    0.439    0.179    7.207
  212.500  168.489  113.195    0.412    0.185    7.284
  212.750  169.560  110.301    0.407    0.187    7.565
  213.000  169.560  108.002    0.416    0.174    7.785
  213.250  169.701  108.933    0.416    0.177    8.013
  213.500  170.772  111.623    0.408    0.186    7.879
  213.750  170.853  112.266    0.401    0.183    7.469
  214.000  169.953  103.483    0.394    0.162    6.704
  214.250  168.072   83.817    0.390    0.138    5.643
  214.500  165.711   74.446    0.378    0.077    3.994
  214.750  164.821   71.258    0.375    0.027    3.787
  215.000  164.391   83.667    0.376    0.010    4.043
  215.250  164.472   96.082    0.377    0.132    4.517
  215.500  164.472  119.375    0.396    0.153    5.581
  215.750  166.144  125.901    0.418    0.164    6.647
  216.000  167.665  128.008    0.436    0.146    6.902
  216.250  168.246  125.115    0.449    0.149    6.849
  216.500  168.326  123.693    0.437    0.163    6.375
  216.750  168.406  123.159    0.433    0.165    5.127
  217.000  168.007  119.377    0.442    0.166    4.357
  217.250  168.148  112.371    0.444    0.162    4.284
  217.500  167.677  114.178    0.435    0.107    4.251
  217.750  167.677  115.992    0.427    0.120    4.375
  218.000  167.388  115.470    0.421    0.167    4.670
  218.250  166.928  114.329    0.417    0.177    5.076
  218.500  166.518  114.083    0.417    0.167    5.621
  218.750  166.518  114.720    0.424    0.168    6.056
  219.000  166.689  114.768    0.443    0.164    6.289
  219.250  166.280  113.064    0.443    0.153    6.299
