~VERSION INFORMATION
 VERS.                 2.0:   CWLS LOG ASCII STANDARD -VERSION 2.0
 WRAP.                  NO:   ONE LINE PER DEPTH STEP
~WELL INFORMATION BLOCK
#MNEM.UNIT           DATA                    DESCRIPTION OF MNEMONIC
#---------    -------------------            -------------------------------
# Generated from Intellog Unique Number	CS_77_79/WELL/2978
WELL.         CDNOXY VINEFRED                : Well_name    - WELL
LOC .         00/06-03-077-03W4/0            : Location     - LOCATION
UWI .         00/06-03-077-03W4/0            : Uwi          - UNIQUE WELL ID
ENTR.         TIM                            : Entered      - ENTERED BY
SRVC.         SCHLUMBERGER                   : Scn          - SERVICE COMPANY
STRT.M        210                            : top_depth    - START DEPTH
STOP.M        485                            : bot_depth    - STOP DEPTH
STEP.M        0.25                           : increment    - STEP LENGTH
 NULL. -999.2500:NULL Value
~CURVE INFORMATION BLOCK
#MNEM UNIT       ERCB CURVE CODE    CURVE DESCRIPTION
#-----------   ------------------   ----------------------------------
DEPT.M        00 001 00 00         : DEPTH        - DEPTH
GR  .API      00 310 00 00         : GR           - GAMMA RAY
NPHI.V/V      00 330 00 00         : PHIN         - NEUTRON POROSITY (DOLOMITE)
DPHI.V/V      00 890 00 00         : PHID         - DENSITY POROSITY (DOLOMITE)
ILD .OHMM     00 120 00 00         : RESD         - DEEP RESISTIVITY (DIL)
~PARAMETER INFORMATION
#MNEM.UNIT           DATA             DESCRIPTION OF MNEMONIC
#---------         -----------     ------------------------------
GL  .M        587.4                : gl           - GROUND LEVEL ELEVATION
EREF.M        590.4                : kb           - ELEVATION OF DEPTH REFERENCE
DATM.M        590.4                : datum        - DATUM ELEVATION
TDD .M        492.2                : tdd          - TOTAL DEPTH DRILLER
RUN .         ONE                  : Run          - RUN NUMBER
ENG .         BILL                 : Engineer     - RECORDING ENGINEER
WIT .         JIM                  : Witness      - WITNESSED BY
MUD .         GEL                  : Mud_type     - MUD TYPE
MATR.         DOLOMITE             : Logunit      - NEUTRON MATRIX
TMAX.C        20                   : BHT          - MAXIMUM RECORDED TEMPERATURE
BHTD.M        492                  : BHTDEP       - MAXIMUM RECORDED TEMPERATURE
MATR.         1                    : LOGUNIT      - NEUTRON MATRIX
RMT .C        20                   : MDTP         - TEMPERATURE OF MUD
NEUT.         1                    : NEUTRON      - NEUTRON TYPE
RESI.         4.33                 : RESIST       - RESISTIVITY TYPE
RMC .OHMM     3.65                 : RMC          - RESISTIVITY OF MUD CAKE
RMF .OHMM     3.62                 : RMF          - RESISTIVITY OF MUD FILTRATE
SUFT.C        15                   : SUFT         - SURFACE TEMPERATURE
~A  DEPTH       GR     PHIN     PHID     RESD
# ...
  253.500   64.378    0.379    0.347   19.026
  253.750   68.066    0.383    0.344   19.397
  254.000   74.824    0.392    0.347   19.774
  254.250   72.370    0.399    0.353   19.779
  254.500   68.688    0.405    0.357   19.790
  254.750   66.235    0.403    0.355   19.799
  255.000   67.467    0.399    0.353   18.380
  255.250   69.311    0.390    0.351   17.382
  255.500   73.613    0.386    0.349   15.545
  255.750   80.371    0.388    0.349   14.977
  256.000   92.042    0.397    0.346   13.905
  256.250   90.818    0.407    0.340   13.400
  256.500   88.364    0.420    0.331   13.405
  256.750   85.296    0.433    0.321   13.161
  257.000   98.809    0.443    0.325   13.168
  257.250  105.567    0.438    0.321   12.928
  257.500  114.781    0.424    0.286   12.698
  257.750  119.697    0.407    0.280   12.465
  258.000  123.385    0.403    0.264   11.791
  258.250  125.844    0.399    0.247   11.361
  258.500  129.533    0.391    0.241   10.748
  258.750  130.763    0.376    0.248   10.553
  259.000  130.765    0.361    0.247   10.171
  259.250  128.312    0.388    0.244   10.173
  259.500  123.402    0.396    0.238    9.989
  259.750  126.477    0.402    0.240   10.183
  260.000  130.777    0.405    0.246   10.186
  260.250  129.552    0.413    0.253   10.384
  260.500  127.713    0.436    0.262   10.584
  260.750  123.418    0.443    0.276   11.415
  261.000  120.964    0.435    0.291   11.853
  261.250  119.739    0.414    0.292   12.781
  261.500  117.899    0.398    0.291   13.530
  261.750  116.060    0.388    0.288   13.534
  262.000  114.220    0.391    0.288   13.542
  262.250  111.152    0.392    0.291   13.545
  262.500  112.998    0.393    0.293   13.551
  262.750  116.687    0.392    0.288   13.307
  263.000  119.146    0.397    0.286   13.065
  263.250  122.832    0.408    0.281   12.830
  263.500  127.134    0.416    0.272   12.597
  263.750  125.294    0.408    0.264   12.601
  264.000  113.629    0.386    0.247   12.608
  264.250  103.807    0.395    0.233   12.854
  264.500   87.229    0.409    0.248   12.860
  264.750   80.477    0.410    0.277   13.107
  265.000   94.604    0.387    0.287   13.873
  265.250  106.889    0.392    0.283   14.407
  265.500   93.381    0.393    0.289   15.833
  265.750   89.700    0.394    0.298   16.441
  266.000   98.915    0.393    0.325   17.399
  266.250  105.059    0.387    0.341   18.415
  266.500  106.290    0.397    0.361   18.415
  266.750  102.608    0.421    0.361   18.089
  267.000   97.698    0.436    0.360   18.435
  267.250   94.630    0.448    0.358   18.794
  267.500   90.949    0.450    0.355   19.158
  267.750   88.497    0.423    0.354   19.169
  268.000   87.884    0.410    0.348   19.178
  268.250   90.343    0.408    0.343   18.483
  268.500   94.646    0.406    0.336   18.487
  268.750   94.648    0.404    0.328   18.152
  269.000   93.422    0.400    0.322   17.823
  269.250   92.812    0.398    0.314   17.831
  269.500   94.043    0.395    0.308   17.511
  269.750   97.731    0.388    0.293   17.193
  270.000   99.576    0.389    0.280   17.203
  270.250  100.193    0.412    0.263   17.209
  270.500  102.039    0.423    0.258   17.215
  270.750  101.427    0.439    0.249   17.550
  271.000   86.077    0.448    0.237   18.230
  271.250   79.939    0.422    0.254   18.581
  271.500   77.485    0.395    0.277   18.589
  271.750   79.331    0.378    0.269   17.916
  272.000   81.176    0.376    0.258   16.944
  272.250   82.407    0.381    0.259   16.637
  272.500   76.883    0.382    0.264   16.645
  272.750   73.816    0.375    0.266   16.654
  273.000   73.819    0.366    0.271   16.660
  273.250   75.664    0.364    0.277   16.666
  273.500   76.281    0.368    0.282   16.666
  273.750   67.686    0.377    0.290   17.646
  274.000   61.548    0.388    0.284   19.029
  274.250   59.709    0.401    0.284   19.398
  274.500   59.712    0.404    0.290   19.773
  274.750   59.715    0.399    0.299   19.785
  275.000   59.718    0.396    0.305   19.789
  275.250   59.721    0.390    0.315   19.431
  275.500   60.339    0.390    0.316   18.729
  275.750   60.340    0.390    0.316   18.386
  276.000   60.958    0.390    0.316   18.057
  276.250   62.190    0.389    0.315   18.061
  276.500   63.420    0.385    0.314   18.069
  276.750   67.108    0.381    0.310   18.079
  277.000   73.251    0.381    0.305   18.427
  277.250   72.026    0.388    0.306   18.435
  277.500   59.747    0.401    0.312   18.796
  277.750   49.310    0.395    0.335   18.458
  278.000   49.313    0.387    0.350   18.119
  278.250   61.598    0.388    0.372   17.463
  278.500   75.111    0.412    0.376   17.147
  278.750   76.343    0.478    0.340   16.838
  279.000   72.046    0.455    0.338   17.160
  279.250   65.908    0.437    0.349   17.494
  279.500   57.314    0.429    0.356   18.170
  279.750   61.616    0.421    0.354   18.874
  280.000   62.233    0.413    0.354   18.878
  280.250   58.552    0.407    0.356   19.610
  280.500   56.712    0.402    0.360   19.994
  280.750   53.645    0.402    0.361   20.379
  281.000   50.577    0.401    0.361   20.386
  281.250   49.351    0.401    0.361   20.395
  281.500   45.056    0.405    0.361   20.406
  281.750   42.602    0.415    0.362   20.413
  282.000   45.061    0.426    0.365   20.422
  282.250   49.977    0.430    0.370   20.431
  282.500   49.980    0.430    0.374   20.443
  282.750   47.526    0.428    0.376   20.452
  283.000   48.145    0.423    0.371   20.461
  283.250   49.375    0.413    0.362   20.470
  283.500   51.834    0.407    0.293   20.102
  283.750   54.294    0.405    0.310   19.738
  284.000   55.525    0.402    0.351   19.380
  284.250   57.370    0.400    0.374   19.029
  284.500   62.287    0.407    0.371   18.340
  284.750   64.131    0.416    0.366   17.672
  285.000   69.046    0.416    0.324   16.405
  285.250   73.962    0.413    0.312   15.513
  285.500   79.492    0.416    0.301   13.872
  285.750   87.478    0.422    0.290   12.877
  286.000   97.922    0.432    0.268   11.731
  286.250  102.223    0.440    0.251   10.687
  286.500  101.612    0.445    0.263   10.298
  286.750  100.386    0.439    0.273    9.384
  287.000  100.389    0.443    0.271    9.041
  287.250  100.393    0.445    0.263    8.552
  287.500   99.781    0.440    0.260    8.240
  287.750   99.171    0.435    0.256    7.942
  288.000   99.173    0.424    0.256    7.799
  288.250   98.561    0.423    0.257    8.254
  288.500   98.564    0.428    0.265    8.898
  288.750   97.339    0.439    0.273   10.536
  289.000   93.043    0.451    0.341   12.476
  289.250   81.378    0.445    0.350   12.250
  289.500   67.871    0.421    0.346   11.160
  289.750   69.717    0.400    0.340    9.793
  290.000   75.861    0.393    0.325    8.594
  290.250   80.777    0.400    0.294    7.402
  290.500   80.779    0.449    0.274    6.744
  290.750   74.028    0.479    0.273    6.377
  291.000   75.872    0.439    0.297    6.625
  291.250   94.298    0.424    0.297    6.880
  291.500  104.127    0.445    0.294    7.703
  291.750  102.903    0.464    0.294    8.305
  292.000  101.676    0.479    0.304    9.651
  292.250   97.996    0.480    0.308   10.804
  292.500   96.155    0.449    0.318   11.870
  292.750   88.175    0.441    0.318   12.329
  293.000   84.494    0.427    0.312   12.105
  293.250   96.778    0.406    0.299   10.824
  293.500  102.922    0.396    0.285    9.860
  293.750  108.452    0.391    0.274    9.153
  294.000  106.612    0.402    0.279    9.330
  294.250  101.703    0.424    0.285   11.049
  294.500   90.038    0.430    0.329   13.330
  294.750   78.372    0.436    0.339   15.786
  295.000   76.533    0.442    0.342   17.022
  295.250   72.238    0.436    0.340   17.027
  295.500   67.327    0.427    0.339   16.413
  295.750   67.944    0.409    0.340   15.521
  296.000   74.090    0.413    0.342   14.140
  296.250   76.549    0.428    0.338   12.643
  296.500   77.166    0.436    0.331   11.304
  296.750   77.169    0.424    0.314    9.920
