~VERSION INFORMATION
 VERS.                 2.0:   CWLS LOG ASCII STANDARD -VERSION 2.0
 WRAP.                  NO:   ONE LINE PER DEPTH STEP
~WELL INFORMATION BLOCK
#MNEM.UNIT           DATA                    DESCRIPTION OF MNEMONIC
#---------    -------------------            -------------------------------
# Generated from Intellog Unique Number	CS_71_72/WELL/806
WELL.         MAYNARD ET AL LOGAN            : Well_name    - WELL
LOC .         00/07-09-072-13W4/0            : Location     - LOCATION
UWI .         00/07-09-072-13W4/0            : Uwi          - UNIQUE WELL ID
ENTR.         SP                             : Entered      - ENTERED BY
SRVC.         SCHLUMBERGER                   : Scn          - SERVICE COMPANY
STRT.M        300                            : top_depth    - START DEPTH
STOP.M        535                            : bot_depth    - STOP DEPTH
STEP.M        0.25                           : increment    - STEP LENGTH
 NULL. -999.2500:NULL Value
~CURVE INFORMATION BLOCK
#MNEM UNIT       ERCB CURVE CODE    CURVE DESCRIPTION
#-----------   ------------------   ----------------------------------
DEPT.M        00 001 00 00         : DEPTH        - DEPTH
ILD .OHMM     00 120 00 00         : RESD         - DEEP RESISTIVITY (DIL)
DPHI.V/V      00 890 00 00         : PHID         - DENSITY POROSITY (LIMESTONE)
NPHI.V/V      00 330 00 00         : PHIN         - NEUTRON POROSITY (LIMESTONE)
GR  .API      00 310 00 00         : GR           - GAMMA RAY
~PARAMETER INFORMATION
#MNEM.UNIT           DATA             DESCRIPTION OF MNEMONIC
#---------         -----------     ------------------------------
GL  .M        632.57               : gl           - GROUND LEVEL ELEVATION
EREF.M        636.97               : kb           - ELEVATION OF DEPTH REFERENCE
DATM.M        632.57               : datum        - DATUM ELEVATION
TDD .M        545                  : tdd          - TOTAL DEPTH DRILLER
RUN .         ONE                  : Run          - RUN NUMBER
ENG .         BILL                 : Engineer     - RECORDING ENGINEER
WIT .         JIM                  : Witness      - WITNESSED BY
MUD .         GEL                  : Mud_type     - MUD TYPE
MATR.         LIMESTONE            : Logunit      - NEUTRON MATRIX
TMAX.C        23                   : BHT          - MAXIMUM RECORDED TEMPERATURE
BHTD.M        5456                 : BHTDEP       - MAXIMUM RECORDED TEMPERATURE
MATR.         1                    : LOGUNIT      - NEUTRON MATRIX
RMT .C        25                   : MDTP         - TEMPERATURE OF MUD
NEUT.         1                    : NEUTRON      - NEUTRON TYPE
RESI.         0                    : RESIST       - RESISTIVITY TYPE
RMC .OHMM     0.25                 : RMC          - RESISTIVITY OF MUD CAKE
RMF .OHMM     0.25                 : RMF          - RESISTIVITY OF MUD FILTRATE
SUFT.C        15                   : SUFT         - SURFACE TEMPERATURE
~A  DEPTH     RESD     PHID     PHIN       GR
  300.000    2.983    0.257    0.500   95.965
  300.250    2.982    0.258    0.506   94.748
  300.500    2.981    0.260    0.511   92.925
  300.750    3.060    0.260    0.494   94.094
  301.000    3.059    0.257    0.486   98.258
  301.250    3.057    0.256    0.499  102.440
  301.500    3.057    0.260    0.518  106.013
  301.750    3.055    0.266    0.529  106.582
  302.000    3.054    0.268    0.539  106.566
  302.250    2.972    0.265    0.553  109.533
  302.500    2.970    0.253    0.580  107.700
  302.750    2.969    0.244    0.540  105.877
  303.000    3.049    0.246    0.551  104.662
  303.250    3.048    0.254    0.581  102.234
  303.500    3.126    0.264    0.562  100.404
  303.750    3.206    0.271    0.532   99.780
  304.000    3.286    0.265    0.519  103.341
  304.250    3.445    0.258    0.548  104.524
  304.500    3.606    0.251    0.535  105.700
  304.750    3.846    0.247    0.498  105.673
  305.000    4.007    0.252    0.480  103.846
  305.250    4.247    0.215    0.442  100.817
  305.500    4.568    0.202    0.459   99.599
  305.750    4.648    0.206    0.473  100.164
  306.000    4.647    0.197    0.482  101.945
  306.250    4.645    0.220    0.494  104.310
  306.500    4.402    0.236    0.504  105.494
  306.750    4.240    0.238    0.488  104.869
  307.000    3.996    0.248    0.476  102.440
  307.250    3.834    0.265    0.474  102.414
  307.500    3.671    0.278    0.481  103.580
  307.750    3.670    0.266    0.486  104.156
  308.000    3.346    0.259    0.506  104.129
  308.250    3.345    0.256    0.517  104.110
  308.500    3.263    0.253    0.532  104.083
  308.750    3.262    0.243    0.544  105.251
  309.000    3.261    0.245    0.503  104.031
  309.250    3.340    0.235    0.476   99.201
  309.500    3.419    0.236    0.460   96.181
  309.750    3.499    0.244    0.441   91.953
  310.000    3.578    0.231    0.428   91.324
  310.250    3.496    0.223    0.425   93.103
  310.500    3.494    0.244    0.426   94.269
  310.750    3.493    0.252    0.431   94.852
  311.000    3.492    0.275    0.442   93.626
  311.250    3.572    0.296    0.448   78.600
  311.500    4.054    0.279    0.420   65.975
  311.750    4.618    0.297    0.398   56.349
  312.000    5.423    0.312    0.384   47.931
  312.250    5.986    0.330    0.361   38.904
  312.500    6.469    0.345    0.341   48.473
  312.750    6.951    0.372    0.343   58.043
  313.000    6.950    0.358    0.349   63.414
  313.250    6.707    0.349    0.363   65.194
  313.500    6.463    0.344    0.386   65.771
  313.750    6.382    0.345    0.393   60.346
  314.000    6.138    0.345    0.398   59.109
  314.250    5.976    0.343    0.398   62.087
  314.500    6.055    0.342    0.397   66.858
  314.750    6.215    0.340    0.392   71.036
  315.000    6.455    0.329    0.391   77.607
  315.250    6.616    0.312    0.389   84.777
  315.500    6.937    0.294    0.394   90.745
  315.750    7.016    0.282    0.396   94.923
  316.000    7.016    0.273    0.398   97.289
  316.250    6.933    0.274    0.401   98.475
  316.500    6.932    0.282    0.405  102.046
  316.750    6.850    0.276    0.409  101.416
  317.000    6.688    0.272    0.410  106.189
  317.250    6.525    0.268    0.395  105.567
  317.500    6.363    0.261    0.390  101.336
  317.750    6.119    0.252    0.389  103.711
  318.000    6.038    0.248    0.403  103.081
  318.250    5.794    0.244    0.417  103.064
  318.500    5.793    0.250    0.426  104.826
  318.750    5.872    0.267    0.436  100.608
  319.000    6.033    0.290    0.448   92.788
  319.250    6.192    0.315    0.431   82.558
  319.500    6.514    0.329    0.412   80.740
  319.750    6.835    0.342    0.399   81.309
  320.000    7.156    0.354    0.395   83.068
  320.250    7.317    0.333    0.391   82.458
  320.500    7.638    0.302    0.385   76.426
  320.750    7.798    0.287    0.382   75.805
  321.000    7.877    0.265    0.380   78.165
  321.250    7.876    0.257    0.385   78.754
  321.500    7.713    0.270    0.386   76.330
  321.750    7.470    0.286    0.390   69.099
  322.000    7.308    0.305    0.392   64.875
  322.250    7.064    0.318    0.402   61.247
  322.500    6.901    0.332    0.413   59.420
  322.750    6.901    0.344    0.418   58.799
  323.000    6.980    0.355    0.426   60.572
  323.250    7.059    0.365    0.412   62.950
  323.500    7.380    0.348    0.401   65.310
  323.750    7.541    0.328    0.401   64.698
  324.000    7.701    0.320    0.397   62.866
  324.250    7.780    0.321    0.397   61.630
  324.500    7.537    0.327    0.397   60.412
  324.750    7.293    0.338    0.397   59.195
  325.000    7.131    0.342    0.396   57.360
  325.250    6.807    0.342    0.396   56.736
  325.500    6.564    0.334    0.394   57.313
  325.750    6.401    0.331    0.405   62.074
  326.000    6.320    0.330    0.413   62.661
  326.250    6.238    0.327    0.422   63.837
  326.500    6.236    0.323    0.429   63.807
  326.750    6.234    0.315    0.415   63.183
  327.000    6.233    0.305    0.411   63.149
  327.250    6.152    0.300    0.408   63.724
  327.500    5.989    0.318    0.409   64.303
  327.750    5.908    0.333    0.414   66.072
  328.000    5.584    0.343    0.422   68.446
  328.250    5.260    0.357    0.432   72.015
  328.500    4.936    0.367    0.457   74.388
  328.750    4.612    0.377    0.474   74.958
  329.000    4.450    0.365    0.427   74.345
  329.250    4.449    0.345    0.420   73.718
  329.500    4.770    0.336    0.415   72.492
  329.750    5.091    0.324    0.423   70.660
  330.000    5.574    0.309    0.435   68.237
  330.250    6.056    0.303    0.437   67.016
  330.500    6.378    0.300    0.423   65.789
  330.750    6.618    0.305    0.417   69.962
  331.000    6.859    0.299    0.417   73.534
  331.250    7.099    0.295    0.428   77.109
  331.500    7.098    0.301    0.434   80.674
  331.750    7.258    0.304    0.436   84.847
  332.000    7.338    0.271    0.429   87.229
  332.250    7.337    0.254    0.423   91.995
  332.500    7.254    0.238    0.417   94.374
  332.750    7.092    0.222    0.412  100.334
  333.000    6.526    0.236    0.411  102.718
  333.250    6.121    0.231    0.419  108.091
  333.500    5.717    0.228    0.434  112.866
  333.750    5.313    0.215    0.449  117.032
  334.000    4.828    0.205    0.448  118.212
  334.250    4.665    0.188    0.455  118.177
  334.500    4.744    0.170    0.473  116.356
  334.750    4.985    0.170    0.498  117.534
  335.000    5.387    0.200    0.508  119.306
  335.250    5.870    0.226    0.478  118.680
  335.500    6.433    0.245    0.431  116.253
  335.750    6.996    0.265    0.413  112.631
  336.000    7.318    0.290    0.405  106.596
  336.250    7.800    0.262    0.400  104.167
  336.500    8.121    0.255    0.394  102.345
  336.750    8.443    0.262    0.389  101.727
  337.000    8.522    0.280    0.387   99.896
  337.250    8.440    0.297    0.389   98.076
  337.500    8.116    0.307    0.392   91.441
  337.750    7.873    0.320    0.394   89.027
  338.000    7.549    0.333    0.389   84.200
  338.250    7.306    0.329    0.385   89.566
  338.500    7.143    0.321    0.387   96.742
  338.750    7.062    0.295    0.398  105.710
  339.000    7.141    0.270    0.409  109.282
  339.250    7.140    0.271    0.414  111.060
  339.500    7.299    0.295    0.419  107.436
  339.750    7.379    0.306    0.417  101.409
  340.000    7.620    0.317    0.414   95.380
  340.250    7.941    0.328    0.409   91.762
  340.500    8.101    0.322    0.406   87.530
  340.750    8.261    0.308    0.402   86.309
  341.000    8.421    0.282    0.400   91.077
  341.250    8.501    0.255    0.404   94.654
  341.500    8.338    0.246    0.406  100.625
  341.750    8.095    0.240    0.402  106.593
  342.000    7.932    0.233    0.399  110.763
  342.250    7.608    0.237    0.402  111.946
  342.500    7.365    0.253    0.413  113.718
  342.750    7.202    0.265    0.430  117.292
  343.000    7.121    0.278    0.442  119.670
  343.250    7.281    0.283    0.435  112.437
