~VERSION INFORMATION
 VERS.                 2.0:   CWLS LOG ASCII STANDARD -VERSION 2.0
 WRAP.                  NO:   ONE LINE PER DEPTH STEP
~WELL INFORMATION BLOCK
#MNEM.UNIT           DATA                    DESCRIPTION OF MNEMONIC
#---------    -------------------            -------------------------------
# Generated from Intellog Unique Number	CW_73_75/WELL/2728
WELL.         ALLIED ET AL CALL 06-21        : Well_name    - WELL
LOC .         00/06-21-073-20W4/0            : Location     - LOCATION
UWI .         00/06-21-073-20W4/0            : Uwi          - UNIQUE WELL ID
ENTR.         JAYE                           : Entered      - ENTERED BY
SRVC.         SCHLUMBERGER                   : Scn          - SERVICE COMPANY
DATE.         22 JAN 74                      : Date         - LOG DATE
STRT.M        411.48                         : top_depth    - START DEPTH
STOP.M        615.73                         : bot_depth    - STOP DEPTH
STEP.M        0.25                           : increment    - STEP LENGTH
 NULL. -999.2500:NULL Value
~CURVE INFORMATION BLOCK
#MNEM UNIT       ERCB CURVE CODE    CURVE DESCRIPTION
#-----------   ------------------   ----------------------------------
DEPT.M        00 001 00 00         : DEPTH        - DEPTH
ILD .OHMM     00 120 00 00         : RESD         - DEEP RESISTIVITY (DIL)
NPHI.V/V      00 330 00 00         : PHIN         - NEUTRON POROSITY (SANDSTONE)
DPHI.V/V      00 890 00 00         : PHID         - DENSITY POROSITY (SANDSTONE)
GR  .API      00 310 00 00         : GR           - GAMMA RAY
CALI.MM       00 280 01 00         : CAL          - CALIPER
~PARAMETER INFORMATION
#MNEM.UNIT           DATA             DESCRIPTION OF MNEMONIC
#---------         -----------     ------------------------------
GL  .M        708.508              : gl           - GROUND LEVEL ELEVATION
EREF.M        711.556              : kb           - ELEVATION OF DEPTH REFERENCE
DATM.M        708.508              : datum        - DATUM ELEVATION
TDD .M        621.792              : tdd          - TOTAL DEPTH DRILLER
RUN .         ONE                  : Run          - RUN NUMBER
ENG .         CONNELLY             : Engineer     - RECORDING ENGINEER
WIT .         CONNELLY             : Witness      - WITNESSED BY
BASE.         EDM                  : Branch       - HOME BASE OF LOGGING UNIT
MUD .         CAUSTIC GEL          : Mud_type     - MUD TYPE
MATR.         SANDSTONE            : Logunit      - NEUTRON MATRIX
TMAX.C        21.1111              : BHT          - MAXIMUM RECORDED TEMPERATURE
BHTD.M        622.097              : BHTDEP       - MAXIMUM RECORDED TEMPERATURE
RMT .C        20                   : MDTP         - TEMPERATURE OF MUD
MUDD.KG/M     1140                 : MWT          - MUD DENSITY
NEUT.         1                    : NEUTRON      - NEUTRON TYPE
RESI.         0                    : RESIST       - RESISTIVITY TYPE
RM  .OHMM     2.83                 : RM           - RESISTIVITY OF MUD
RMC .OHMM     0                    : RMC          - RESISTIVITY OF MUD CAKE
RMF .OHMM     2.86                 : RMF          - RESISTIVITY OF MUD FILTRATE
SUFT.C        -17.7778             : SUFT         - SURFACE TEMPERATURE
~A  DEPTH     RESD     PHIN     PHID       GR      CAL
# ...
  520.980    3.554    0.492    0.322   64.795  157.249
  521.230    3.629    0.507    0.307   64.373  157.055
  521.480    3.744    0.500    0.296   65.240  156.961
  521.730    3.860    0.519    0.309   65.124  156.975
  521.980    3.935    0.517    0.292   64.273  157.196
  522.230    3.935    0.525    0.274   64.649  157.520
  522.480    4.007    0.551    0.262   65.454  158.365
  522.730    4.241    0.536    0.263   66.382  159.624
  522.980    4.357    0.525    0.257   68.046  161.091
  523.230    4.431    0.513    0.254   70.568  162.871
  523.480    4.427    0.518    0.260   76.650  164.026
  523.730    4.423    0.569    0.254   79.970  164.660
  523.980    4.380    0.536    0.242   78.934  164.570
  524.230    4.217    0.528    0.235   78.759  164.686
  524.480    3.936    0.526    0.249   80.484  164.180
  524.730    3.693    0.522    0.241   83.314  164.297
  524.980    3.490    0.510    0.228   77.984  165.660
  525.230    3.169    0.498    0.219   76.949  167.230
  525.480    3.124    0.492    0.233   78.858  167.972
  525.730    3.200    0.530    0.251   81.135  168.400
  525.980    3.315    0.577    0.241   85.069  168.934
  526.230    3.471    0.656    0.231   91.457  169.360
  526.480    3.705    0.636    0.244   92.507  169.580
  526.730    3.939    0.605    0.236   88.713  169.493
  526.980    4.054    0.547    0.225   86.449  169.608
  527.230    3.971    0.521    0.220   86.211  169.411
  527.480    3.849    0.515    0.223   86.403  168.386
  527.730    3.566    0.520    0.229   84.447  167.152
  527.980    3.403    0.528    0.237   85.130  166.229
  528.230    3.200    0.527    0.231   88.941  166.555
  528.480    3.078    0.513    0.219   90.667  166.879
  528.730    2.994    0.531    0.216   93.496  167.309
  528.980    3.030    0.533    0.216   92.216  167.216
  529.230    3.066    0.535    0.202   91.548  167.334
  529.480    3.101    0.532    0.206   91.617  167.452
  529.730    3.177    0.519    0.211   91.870  167.462
  529.980    3.412    0.501    0.205   92.491  167.372
  530.230    3.805    0.522    0.201   98.510  167.074
  530.480    4.357    0.538    0.199   96.924  166.566
  530.730    4.829    0.561    0.209   88.772  165.643
  530.980    5.063    0.547    0.223   82.031  163.994
  531.230    5.099    0.506    0.210   77.805  163.803
  531.480    4.977    0.491    0.198   80.205  163.811
  531.730    4.773    0.486    0.217   84.569  163.931
  531.980    4.730    0.495    0.221   81.447  163.942
  532.230    4.806    0.546    0.233   84.829  163.747
  532.480    5.080    0.510    0.227   85.696  163.447
  532.730    5.235    0.485    0.213   85.642  162.839
  532.980    5.390    0.479    0.208   88.103  162.643
  533.230    5.505    0.487    0.215   87.130  162.863
  533.480    5.541    0.518    0.213   87.873  163.916
  533.730    5.497    0.534    0.199   83.341  166.110
  533.980    5.414    0.409    0.178   77.704  167.162
  534.230    5.291    0.380    0.144   72.742  167.279
  534.480    5.088    0.426    0.178   78.149  166.980
  534.730    4.965    0.459    0.218   89.076  166.162
  534.980    4.762    0.480    0.214   89.760  165.343
  535.230    4.639    0.493    0.208   87.313  164.214
  535.480    4.556    0.495    0.204   85.603  163.084
  535.730    4.512    0.464    0.220   88.003  162.163
  535.980    4.509    0.471    0.227   86.477  161.032
  536.230    4.509    0.505    0.226   84.951  160.733
  536.480    4.460    0.532    0.216   84.958  160.954
  536.730    4.377    0.520    0.201   87.359  161.693
  536.980    4.333    0.485    0.211   87.427  162.849
  537.230    4.250    0.478    0.226   85.472  165.458
  537.480    4.206    0.495    0.221   84.804  167.341
  537.730    4.163    0.484    0.210   84.751  168.186
  537.980    4.119    0.469    0.200   84.820  168.509
  538.230    4.115    0.449    0.220   86.791  168.524
  538.480    4.112    0.458    0.212   88.577  167.912
  538.730    4.187    0.481    0.216   88.340  166.783
  538.980    4.580    0.476    0.212   86.752  165.340
  539.230    5.013    0.498    0.207   83.324  164.418
  539.480    5.486    0.522    0.241   79.834  160.379
  539.730    6.118    0.526    0.242   77.512  159.666
  539.980    6.710    0.506    0.242   76.168  158.642
  540.230    7.818    0.461    0.250   72.986  158.133
  540.480    8.529    0.491    0.242   68.515  158.249
  540.730    8.923    0.450    0.220   62.266  158.679
  540.980    7.767    0.402    0.187   53.868  158.794
  541.230    6.929    0.281    0.121   48.783  158.808
  541.480    5.574    0.248    0.081   40.815  158.923
  541.730    5.054    0.233    0.063   43.093  158.938
  541.980    4.612    0.246    0.188   49.849  159.159
  542.230    4.688    0.325    0.258   55.379  159.277
  542.480    4.803    0.467    0.317   58.760  159.185
  542.730    4.998    0.626    0.353   56.007  159.198
  542.980    5.152    0.630    0.361   60.186  159.211
  543.230    5.070    0.586    0.311   61.421  159.432
  543.480    4.867    0.510    0.283   60.754  159.759
  543.730    4.624    0.437    0.251   59.596  159.663
  543.980    4.303    0.375    0.214   57.394  159.781
  544.230    4.100    0.334    0.175   56.973  159.896
  544.480    3.977    0.339    0.252   59.803  159.809
  544.730    4.013    0.415    0.285   61.712  159.718
  544.980    4.168    0.474    0.286   63.191  159.525
  545.230    4.244    0.496    0.283   65.347  159.533
  545.480    4.397    0.505    0.285   66.213  159.342
  545.730    4.473    0.494    0.281   63.337  159.558
  545.980    4.508    0.502    0.272   65.124  159.572
  546.230    4.506    0.482    0.267   68.874  159.586
  546.480    4.302    0.445    0.260   66.550  159.806
  546.730    4.378    0.452    0.258   63.552  160.131
  546.980    4.572    0.493    0.267   65.154  160.248
  547.230    4.689    0.475    0.270   66.020  160.262
  547.480    4.963    0.453    0.276   67.133  160.171
  547.730    5.276    0.483    0.284   67.140  160.182
  547.980    5.471    0.500    0.269   66.718  160.192
  548.230    5.506    0.465    0.245   66.419  160.413
  548.480    5.304    0.418    0.226   64.341  160.841
  548.730    4.503    0.403    0.205   62.140  161.583
  548.980    4.006    0.383    0.180   62.638  162.217
  549.230    3.781    0.368    0.154   68.903  162.854
  549.480    3.598    0.386    0.158   77.131  163.490
  549.730    3.415    0.441    0.219   86.403  164.126
  549.980    3.346    0.471    0.224   93.650  165.282
  550.230    3.317    0.509    0.196   97.829  166.647
  550.480    3.291    0.503    0.221   90.843  167.283
  550.730    3.261    0.486    0.234   89.685  167.713
  550.980    3.273    0.474    0.222   90.000  168.139
  551.230    3.247    0.510    0.227   89.761  168.568
  551.480    3.256    0.555    0.236   89.217  168.893
  551.730    3.266    0.521    0.237   88.182  169.217
  551.980    3.318    0.544    0.216   89.416  169.438
  552.230    3.446    0.600    0.226   93.105  169.657
  552.480    3.613    0.618    0.233   93.848  170.087
  552.730    3.858    0.587    0.212   92.875  170.412
  552.980    4.183    0.587    0.235   96.072  170.526
  553.230    4.430    0.575    0.237   94.976  170.853
  553.480    4.636    0.561    0.223   92.959  170.656
  553.730    4.842    0.553    0.190   90.757  170.460
  553.980    5.090    0.546    0.204   88.802  170.163
  554.230    5.217    0.524    0.229   85.987  170.176
  554.480    5.229    0.529    0.214   85.689  169.774
  554.730    5.202    0.516    0.207   86.432  169.681
  554.980    5.094    0.513    0.200   84.783  169.594
  555.230    4.987    0.507    0.186   84.116  169.501
  555.480    4.843    0.482    0.176   87.498  169.514
  555.730    4.775    0.461    0.189   88.365  169.423
  555.980    4.746    0.467    0.208   89.231  169.332
  556.230    4.718    0.473    0.206   91.631  169.343
  556.480    4.733    0.497    0.193   88.081  169.254
  556.730    4.780    0.459    0.189   88.333  169.160
  556.980    4.792    0.501    0.186   95.886  169.174
  557.230    4.762    0.524    0.193   89.330  169.394
