~VERSION INFORMATION
 VERS.                 2.0:   CWLS LOG ASCII STANDARD -VERSION 2.0
 WRAP.                  NO:   ONE LINE PER DEPTH STEP
~WELL INFORMATION BLOCK
#MNEM.UNIT           DATA                    DESCRIPTION OF MNEMONIC
#---------    -------------------            -------------------------------
# Generated from Intellog Unique Number	CW_76_78/WELL/194
WELL.         06-17-077-25W4                 : Well_name    - WELL
LOC .         00/06-17-077-25W4/0            : Location     - LOCATION
UWI .         00/06-17-077-25W4/0            : Uwi          - UNIQUE WELL ID
ENTR.         JJ                             : Entered      - ENTERED BY
SRVC.         WESTERN ATLAS                  : Scn          - SERVICE COMPANY
DATE.         5 JAN 71                       : Date         - LOG DATE
STRT.M        536.448                        : top_depth    - START DEPTH
STOP.M        664.448                        : bot_depth    - STOP DEPTH
STEP.M        0.25                           : increment    - STEP LENGTH
 NULL. -999.2500:NULL Value
~CURVE INFORMATION BLOCK
#MNEM UNIT       ERCB CURVE CODE    CURVE DESCRIPTION
#-----------   ------------------   ----------------------------------
DEPT.M        00 001 00 00         : DEPTH        - DEPTH
NPHI.V/V      00 330 00 00         : PHIN         - NEUTRON POROSITY (SANDSTONE)
GR  .API      00 310 00 00         : GR           - GAMMA RAY
CALI.MM       00 280 01 00         : CAL          - CALIPER
DELT.US/F     00 520 00 00         : DELT         - SONIC TRAVEL TIME
ILD .OHMM     00 120 00 00         : RESD         - DEEP RESISTIVITY (DIL)
~PARAMETER INFORMATION
#MNEM.UNIT           DATA             DESCRIPTION OF MNEMONIC
#---------         -----------     ------------------------------
GL  .M        722.376              : gl           - GROUND LEVEL ELEVATION
EREF.M        726.338              : kb           - ELEVATION OF DEPTH REFERENCE
DATM.M        722.376              : datum        - DATUM ELEVATION
TDD .M        664.464              : tdd          - TOTAL DEPTH DRILLER
RUN .         ONE                  : Run          - RUN NUMBER
ENG .         HALLSTROM            : Engineer     - RECORDING ENGINEER
WIT .         KVILL                : Witness      - WITNESSED BY
BASE.         R.D.                 : Branch       - HOME BASE OF LOGGING UNIT
MUD .         GEL-CHEM             : Mud_type     - MUD TYPE
MATR.         SANDSTONE            : Logunit      - NEUTRON MATRIX
TMAX.C        30                   : BHT          - MAXIMUM RECORDED TEMPERATURE
BHTD.M        664.464              : BHTDEP       - MAXIMUM RECORDED TEMPERATURE
RMT .C        16.1111              : MDTP         - TEMPERATURE OF MUD
MUDD.KG/M     1116                 : MWT          - MUD DENSITY
NEUT.         1                    : NEUTRON      - NEUTRON TYPE
RESI.         0                    : RESIST       - RESISTIVITY TYPE
RM  .OHMM     7                    : RM           - RESISTIVITY OF MUD
RMC .OHMM     3.9                  : RMC          - RESISTIVITY OF MUD CAKE
RMF .OHMM     7                    : RMF          - RESISTIVITY OF MUD FILTRATE
SUFT.C        5                    : SUFT         - SURFACE TEMPERATURE
~A  DEPTH     PHIN       GR      CAL     DELT     RESD
# ...
  609.448    0.291   46.265  224.402  335.510   14.047
  609.698    0.294   34.936  218.392  333.777   19.350
  609.948    0.295   28.341  216.312  329.093   37.527
  610.198    0.298   24.331  215.572  339.908   46.328
  610.448    0.301   21.787  215.351  345.205   49.411
  610.698    0.304   20.071  215.540  340.774   45.198
  610.948    0.300   19.088  215.939  334.186   46.293
  611.198    0.296   19.080  216.440  335.150   59.118
  611.448    0.293   18.487  216.426  340.512   67.134
  611.698    0.289   20.919  216.410  343.314   66.934
  611.948    0.281   19.888  216.290  337.902   70.942
  612.198    0.275   20.515  216.068  340.440   73.748
  612.448    0.281   21.776  215.951  344.228   70.541
  612.698    0.283   21.915  216.035  342.557   25.195
  612.948    0.282   22.054  216.644  342.998   24.927
  613.198    0.287   21.998  217.350  345.469   24.698
  613.448    0.290   21.014  217.436  347.878   24.460
  613.698    0.290   19.886  217.629  349.299   24.062
  613.948    0.290   19.193  217.714  347.041   23.103
  614.198    0.288   19.382  217.699  347.148   20.924
  614.448    0.285   20.057  217.582  349.885   17.323
  614.698    0.283   20.733  217.667  356.036   13.733
  614.948    0.281   21.264  217.759  348.062   10.023
  615.198    0.279   22.623  218.152  342.653    7.243
  615.448    0.276   23.201  218.448  337.699    6.174
  615.698    0.280   23.584  218.434  338.005    5.646
  615.948    0.284   22.747  218.312  348.625    5.178
  616.198    0.283   21.813  218.197  343.543    4.750
  616.448    0.280   21.950  218.486  337.144    4.592
  616.698    0.282   22.139  218.475  334.103    4.514
  616.948    0.283   22.181  218.253  334.012    4.505
  617.198    0.283   22.711  217.927  344.105    4.547
  617.448    0.287   23.532  217.602  346.512    4.569
  617.698    0.287   24.207  217.273  349.314    4.601
  617.948    0.285   24.299  216.950  354.677    4.623
  618.198    0.280   24.438  216.109  353.206    4.625
  618.448    0.280   24.527  215.577  353.185    4.587
  618.698    0.287   24.813  215.146  360.519    4.588
  618.948    0.294   25.489  215.235  351.363    4.560
  619.198    0.296   27.776  215.425  334.851    4.512
  619.448    0.290   31.917  215.927  341.329    4.414
  619.698    0.282   31.324  216.429  338.481    4.246
  619.948    0.277   33.171  217.756  334.974    4.118
  620.198    0.278   31.700  218.773  326.477    3.999
  620.448    0.287   26.032  219.583  317.975    3.771
  620.698    0.296   19.679  220.083  315.591    3.483
  620.948    0.299   18.647  220.996  323.909    3.314
  621.198    0.313   18.883  222.322  330.387    3.136
  621.448    0.325   19.511  221.795  331.944    3.018
  621.698    0.345   20.138  209.075  331.650    2.961
  621.948    0.320   20.813  200.175  331.104    3.012
  622.198    0.307   21.392  206.875  330.359    3.114
  622.448    0.309   21.482  218.118  331.781    3.266
  622.698    0.305   21.571  221.921  334.517    3.378
  622.948    0.299   22.053  221.698  333.764    3.420
  623.198    0.291   23.070  220.963  332.824    3.422
  623.448    0.289   24.527  220.324  332.999    3.394
  623.698    0.295   25.350  219.689  335.604    3.345
  623.948    0.297   25.634  219.364  334.596    3.257
  624.198    0.297   26.554  218.934  338.578    3.219
  624.448    0.299   27.572  218.922  340.987    3.221
  624.698    0.301   28.736  218.803  341.029    3.223
  624.948    0.305   29.998  218.685  344.225    3.245
  625.198    0.312   30.966  218.566  344.129    3.307
  625.448    0.316   31.740  218.343  343.915    3.359
  625.698    0.315   32.514  218.120  342.971    3.441
  625.948    0.312   33.337  218.206  342.421    3.562
  626.198    0.297   35.135  218.501  339.441    3.725
  626.448    0.294   36.884  218.695  336.261    3.756
  626.698    0.291   38.048  218.676  342.019    3.848
  626.948    0.285   39.261  218.454  342.781    3.920
  627.198    0.277   43.450  218.338  342.959    4.012
  627.448    0.267   45.980  217.289  342.475    4.154
  627.698    0.257   48.218  217.067  339.431    4.416
  627.948    0.245   49.723  217.258  328.107    4.858
  628.198    0.225   49.765  218.070  335.836    5.821
  628.448    0.210   48.196  221.050  340.277    7.594
  628.698    0.221   47.944  225.475  295.252   11.418
  628.948    0.248   52.964  221.432  278.544    9.258
  629.198    0.265   59.349  217.181  247.707    7.379
  629.448    0.275   64.222  219.232  285.920    6.190
  629.698    0.284   69.778  224.275  287.473    5.492
  629.948    0.282   76.262  227.775  313.923    5.034
  630.198    0.286   79.915  231.580  326.973    4.846
  630.448    0.284   78.150  230.944  330.692    4.817
  630.698    0.286   73.605  231.344  336.254    4.789
  630.948    0.277   71.450  232.567  329.201    4.791
  631.198    0.263   69.051  232.551  349.675    4.853
  631.448    0.261   66.653  230.058  346.231    4.915
  631.698    0.258   63.229  228.076  325.189    5.167
  631.948    0.256   57.708  227.650  326.017    5.819
  632.198    0.243   49.013  225.050  339.792    6.932
  632.448    0.252   41.198  221.419  346.667    8.134
  632.698    0.257   41.532  220.267  313.401   11.478
  632.948    0.259   44.160  220.668  307.793   13.011
  633.198    0.260   46.494  223.441  321.762   11.952
  633.448    0.262   48.925  226.318  325.541   11.133
  633.698    0.265   50.139  228.366  327.167   10.535
  633.948    0.268   51.109  228.764  332.136   10.657
  634.198    0.270   52.760  228.643  331.518   11.029
  634.448    0.277   51.876  228.525  327.160   10.481
  634.698    0.290   50.792  228.614  312.948    8.321
  634.948    0.301   53.128  228.803  306.617    5.361
  635.198    0.312   55.123  228.892  319.731    4.243
  635.448    0.307   56.237  229.292  347.696    4.024
  635.698    0.311   54.815  228.864  369.614    4.076
  635.948    0.349   18.207  224.922  352.707    4.768
  636.198    0.386   16.247  217.676  357.872    6.872
  636.448    0.397   30.929  219.414  344.710    9.585
  636.698    0.395   38.194  222.293  342.514   12.379
  636.948    0.392   45.848  225.171  384.672    9.629
  637.198    0.393   55.113  224.122  413.356    6.419
  637.448    0.397   60.669  222.763  433.305    4.680
  637.698    0.398   66.273  224.605  405.754    4.071
  637.948    0.399   70.902  227.584  396.137    3.733
  638.198    0.399   70.895  229.533  402.484    3.555
  638.448    0.396   69.082  229.826  400.095    3.497
  638.698    0.396   70.685  228.572  397.840    3.348
  638.948    0.399   79.804  225.046  410.428    3.130
  639.198    0.399   79.456  223.170  426.633    2.742
  639.448    0.397   74.568  223.879  420.698    2.464
  639.698    0.363   73.633  227.165  405.038    2.355
  639.948    0.345   74.504  230.559  394.829    2.357
  640.198    0.330   77.278  231.166  396.319    2.450
  640.448    0.321   80.882  221.230  407.201    2.521
  640.698    0.309   74.482  217.599  395.680    2.694
  640.948    0.316   70.082  223.474  375.224    2.936
  641.198    0.318   70.856  228.625  348.659    3.328
  641.448    0.316   72.850  231.294  315.592    3.699
  641.698    0.309   75.623  230.245  348.874    4.012
  641.948    0.303   78.641  227.958  352.657    3.923
  642.198    0.298   81.270  225.567  349.945    3.485
  642.448    0.293   79.653  223.795  371.535    3.167
  642.698    0.279   72.617  222.952  385.698    3.329
  642.948    0.272   66.315  226.964  394.745    3.991
  643.198    0.287   66.941  229.117  378.754    4.743
  643.448    0.289   71.033  230.239  344.503    5.255
  643.698    0.286   74.345  230.223  314.589    5.528
  643.948    0.281   75.362  229.482  340.120    5.169
  644.198    0.274   66.717  229.157  356.981    4.531
  644.448    0.267   62.902  229.762  338.561    4.493
  644.698    0.257   66.019  230.162  353.321    4.985
  644.948    0.247   66.890  231.178  374.121    5.537
  645.198    0.238   65.467  231.573  347.423    5.269
  645.448    0.219   64.045  231.769  343.921    5.111
  645.698    0.207   61.449  231.649  348.756    5.233
