~VERSION INFORMATION
 VERS.                 2.0:   CWLS LOG ASCII STANDARD -VERSION 2.0
 WRAP.                  NO:   ONE LINE PER DEPTH STEP
~WELL INFORMATION BLOCK
#MNEM.UNIT           DATA                    DESCRIPTION OF MNEMONIC
#---------    -------------------            -------------------------------
# Generated from Intellog Unique Number	CX_WELLS/WELL/2894
WELL.         NOVALTA NEWBY                  : Well_name    - WELL
LOC .         00/05-22-082-04W4/0            : Location     - LOCATION
UWI .         00/05-22-082-04W400            : Uwi          - UNIQUE WELL ID
ENTR.         T                              : Entered      - ENTERED BY
SRVC.         SCHLUMBERGER                   : Scn          - SERVICE COMPANY
STRT.M        90                             : top_depth    - START DEPTH
STOP.M        260                            : bot_depth    - STOP DEPTH
STEP.M        0.25                           : increment    - STEP LENGTH
 NULL. -999.2500:NULL Value
~CURVE INFORMATION BLOCK
#MNEM UNIT       ERCB CURVE CODE    CURVE DESCRIPTION
#-----------   ------------------   ----------------------------------
DEPT.M        00 001 00 00         : DEPTH        - DEPTH
GR  .API      00 310 00 00         : GR           - GAMMA RAY
NPHI.V/V      00 330 00 00         : PHIN         - NEUTRON POROSITY (SANDSTONE)
DPHI.V/V      00 890 00 00         : PHID         - DENSITY POROSITY (SANDSTONE)
ILD .OHMM     00 120 00 00         : RESD         - DEEP RESISTIVITY (OTHER)
~PARAMETER INFORMATION
#MNEM.UNIT           DATA             DESCRIPTION OF MNEMONIC
#---------         -----------     ------------------------------
GL  .M        456.56               : gl           - GROUND LEVEL ELEVATION
EREF.M        460.2                : kb           - ELEVATION OF DEPTH REFERENCE
DATM.M        460.2                : datum        - DATUM ELEVATION
TDD .M        284                  : tdd          - TOTAL DEPTH DRILLER
RUN .         ONE                  : Run          - RUN NUMBER
ENG .         BILL                 : Engineer     - RECORDING ENGINEER
WIT .         JIM                  : Witness      - WITNESSED BY
MUD .         GEL                  : Mud_type     - MUD TYPE
MATR.         SANDSTONE            : Logunit      - NEUTRON MATRIX
TMAX.C        24                   : BHT          - MAXIMUM RECORDED TEMPERATURE
BHTD.M        284                  : BHTDEP       - MAXIMUM RECORDED TEMPERATURE
MATR.         1                    : LOGUNIT      - NEUTRON MATRIX
RMT .C        19                   : MDTP         - TEMPERATURE OF MUD
NEUT.         1                    : NEUTRON      - NEUTRON TYPE
RESI.         3.4                  : RESIST       - RESISTIVITY TYPE
RMC .OHMM     2                    : RMC          - RESISTIVITY OF MUD CAKE
RMF .OHMM     3.5                  : RMF          - RESISTIVITY OF MUD FILTRATE
SUFT.C        4                    : SUFT         - SURFACE TEMPERATURE
~A  DEPTH       GR     PHIN     PHID     RESD
# ...
  177.000   81.894    0.491    0.249    2.964
  177.250   80.659    0.481    0.229    3.521
  177.500   80.665    0.472    0.224    3.874
  177.750   81.294    0.460    0.217    4.104
  178.000   81.921    0.447    0.217    4.106
  178.250   83.171    0.435    0.223    4.031
  178.500   83.798    0.436    0.234    3.957
  178.750   85.048    0.460    0.241    3.740
  179.000   88.787    0.467    0.248    3.671
  179.250   88.792    0.479    0.253    3.534
  179.500   88.799    0.485    0.259    3.404
  179.750   87.564    0.477    0.253    3.342
  180.000   86.327    0.473    0.251    3.343
  180.250   85.712    0.480    0.251    3.345
  180.500   85.717    0.488    0.253    3.347
  180.750   85.725    0.491    0.257    3.349
  181.000   85.730    0.492    0.259    3.350
  181.250   86.358    0.492    0.256    3.351
  181.500   86.992    0.494    0.249    3.354
  181.750   86.995    0.495    0.243    3.355
  182.000   87.622    0.497    0.238    3.356
  182.250   88.251    0.499    0.238    3.358
  182.500   88.879    0.505    0.238    3.360
  182.750   90.131    0.507    0.237    3.361
  183.000   90.138    0.499    0.237    3.428
  183.250   90.144    0.491    0.236    3.496
  183.500   90.153    0.501    0.232    3.633
  183.750   88.912    0.498    0.231    3.705
  184.000   85.810    0.480    0.230    3.925
  184.250   82.708    0.472    0.228    4.158
  184.500   81.471    0.461    0.228    4.239
  184.750   83.965    0.459    0.226    4.324
  185.000   86.459    0.464    0.225    4.325
  185.250   87.086    0.462    0.220    4.411
  185.500   86.471    0.437    0.217    4.585
  185.750   85.234    0.433    0.202    4.765
  186.000   82.753    0.391    0.186    4.951
  186.250   81.517    0.383    0.167    5.449
  186.500   81.523    0.385    0.162    5.772
  186.750   80.288    0.380    0.185    6.475
  187.000   77.808    0.294    0.210    7.125
  187.250   75.326    0.259    0.241    7.992
  187.500   70.358    0.229    0.352    8.963
  187.750   66.013    0.202    0.406    9.864
  188.000   61.667    0.175    0.415   10.252
  188.250   56.700    0.167    0.415   10.862
  188.500   56.086    0.162    0.414   10.866
  188.750   56.093    0.159    0.419   10.873
  189.000   55.474    0.156    0.425   10.471
  189.250   54.237    0.153    0.425   10.083
  189.500   53.624    0.156    0.418    9.173
  189.750   54.251    0.163    0.411    8.504
  190.000   54.884    0.169    0.403    8.036
  190.250   55.510    0.175    0.400    7.450
  190.500   56.136    0.181    0.396    6.777
  190.750   57.388    0.206    0.390    6.165
  191.000   59.259    0.279    0.377    5.715
  191.250   62.996    0.360    0.358    5.197
  191.500   66.733    0.362    0.337    4.551
  191.750   66.120    0.367    0.325    3.985
  192.000   64.883    0.376    0.313    3.359
  192.250   64.268    0.384    0.303    3.055
  192.500   65.518    0.409    0.291    2.887
  192.750   66.767    0.433    0.283    2.834
  193.000   68.639    0.442    0.273    2.782
  193.250   70.511    0.434    0.271    2.837
  193.500   71.763    0.423    0.272    2.893
  193.750   73.013    0.404    0.274    3.007
  194.000   74.886    0.403    0.267    3.309
  194.250   75.513    0.407    0.255    3.439
  194.500   76.763    0.403    0.236    3.784
  194.750   78.635    0.397    0.216    4.165
  195.000   78.635    0.388    0.198    4.329
  195.250   79.267    0.376    0.190    4.500
  195.500   81.143    0.369    0.190    4.501
  195.750   82.390    0.374    0.191    4.503
  196.000   84.883    0.382    0.190    4.338
  196.250   87.377    0.389    0.186    4.177
  196.500   88.006    0.412    0.184    3.872
  196.750   83.660    0.416    0.194    3.590
  197.000   71.231    0.398    0.217    3.328
  197.250   68.129    0.374    0.245    3.145
  197.500   61.296    0.365    0.261    2.972
  197.750   60.059    0.395    0.256    2.918
  198.000   70.636    0.396    0.232    2.975
  198.250   74.374    0.386    0.225    3.034
  198.500   74.380    0.371    0.219    3.153
  198.750   75.630    0.358    0.215    3.340
  199.000   76.881    0.366    0.209    3.472
  199.250   75.644    0.393    0.213    3.608
  199.500   73.167    0.393    0.222    3.750
  199.750   72.549    0.381    0.225    3.898
  200.000   71.313    0.367    0.222    3.974
  200.250   71.942    0.362    0.218    4.131
  200.500   74.436    0.356    0.213    4.294
  200.750   75.687    0.349    0.206    4.296
  201.000   76.313    0.359    0.200    4.217
  201.250   76.939    0.382    0.197    4.061
  201.500   76.946    0.386    0.196    3.911
  201.750   76.954    0.390    0.196    3.766
  202.000   78.205    0.391    0.199    3.492
  202.250   79.455    0.391    0.201    3.428
  202.500   80.083    0.384    0.206    3.239
  202.750   77.601    0.374    0.214    3.061
  203.000   73.256    0.375    0.221    3.004
  203.250   66.423    0.380    0.241    2.786
  203.500   59.590    0.375    0.245    2.583
  203.750   62.084    0.356    0.256    2.395
  204.000   71.417    0.362    0.243    2.442
  204.250   80.750    0.372    0.213    2.899
  204.500   85.731    0.381    0.193    3.646
  204.750   88.848    0.384    0.183    3.936
  205.000   86.990    0.386    0.190    4.015
  205.250   85.753    0.387    0.195    4.016
  205.500   90.734    0.390    0.195    4.018
  205.750   93.848    0.398    0.194    4.021
  206.000   96.963    0.424    0.194    4.023
  206.250   95.728    0.435    0.194    4.024
  206.500   95.111    0.446    0.194    4.026
  206.750   93.253    0.450    0.194    4.029
  207.000   91.394    0.440    0.194    4.030
  207.250   90.156    0.421    0.195    4.033
  207.500   88.922    0.415    0.199    4.034
  207.750   90.794    0.410    0.200    4.036
  208.000   91.419    0.402    0.201    4.038
  208.250   92.048    0.396    0.199    4.040
  208.500   92.054    0.401    0.200    3.967
  208.750   92.683    0.407    0.203    3.968
  209.000   95.798    0.428    0.205    3.895
  209.250   95.187    0.432    0.206    3.897
  209.500   93.326    0.434    0.205    3.825
  209.750   92.088    0.423    0.202    3.755
  210.000   90.229    0.412    0.202    3.686
  210.250   89.616    0.405    0.202    3.619
  210.500   90.243    0.403    0.195    3.485
  210.750   90.871    0.415    0.189    3.421
  211.000   90.258    0.430    0.195    3.294
  211.250   87.154    0.435    0.205    2.885
  211.500   81.566    0.412    0.218    2.624
  211.750   77.841    0.401    0.250    2.170
  212.000   72.253    0.389    0.300    1.864
  212.250   69.148    0.380    0.312    1.830
  212.500   64.804    0.371    0.312    2.014
  212.750   69.161    0.372    0.285    2.437
  213.000   79.738    0.405    0.242    2.786
  213.250   89.693    0.428    0.219    3.185
  213.500   89.700    0.439    0.198    3.440
  213.750   87.222    0.444    0.189    3.507
  214.000   85.982    0.433    0.212    3.509
  214.250   85.989    0.423    0.210    3.578
  214.500   89.105    0.423    0.203    3.580
  214.750   87.248    0.428    0.180    3.581
  215.000   85.387    0.429    0.186    3.516
  215.250   82.285    0.428    0.192    3.259
  215.500   81.670    0.423    0.200    2.965
  215.750   82.299    0.407    0.213    2.802
  216.000   84.171    0.386    0.223    2.857
  216.250   89.151    0.369    0.227    2.913
  216.500   92.269    0.375    0.222    2.915
  216.750   87.923    0.386    0.205    2.807
  217.000   83.576    0.369    0.202    2.554
  217.250   77.365    0.370    0.226    2.413
  217.500   71.154    0.374    0.238    2.195
  217.750   62.454    0.381    0.252    2.035
  218.000   59.353    0.383    0.262    1.886
  218.250   59.360    0.387    0.263    1.782
  218.500   57.502    0.378    0.265    1.685
  218.750   55.643    0.370    0.269    1.653
  219.000   53.164    0.370    0.275    1.623
  219.250   51.924    0.365    0.278    1.563
  219.500   48.824    0.364    0.283    1.506
  219.750   45.721    0.368    0.293    1.478
  220.000   43.863    0.373    0.300    1.424
  220.250   45.738    0.377    0.311    1.397
