~VERSION INFORMATION
 VERS.                 2.0:   CWLS LOG ASCII STANDARD -VERSION 2.0
 WRAP.                  NO:   ONE LINE PER DEPTH STEP
~WELL INFORMATION BLOCK
#MNEM.UNIT           DATA                    DESCRIPTION OF MNEMONIC
#---------    -------------------            -------------------------------
# Generated from Intellog Unique Number	CC_84_87/WELL/1056
NULL.         -999.25                        : NULL_VALUE
WELL.         PETROREP ET AL HOUSE           : Well_name    - WELL              
LOC .         04-30-084-14W4                 : Location     - LOCATION          
UWI .         00/04-30-084-14W400            : Uwi          - UNIQUE WELL ID    
ENTR.         JHS                            : Entered      - ENTERED BY        
SRVC.         COMPUTALOG                     : Scn          - SERVICE COMPANY   
DATE.         18 JAN 85                      : Date         - LOG DATE
STRT.M        100                            : top_depth    - START DEPTH       
STOP.M        265.001                        : bot_depth    - STOP DEPTH        
STEP.M        0.3                            : increment    - STEP LENGTH       
~CURVE INFORMATION BLOCK
#MNEM UNIT       ERCB CURVE CODE    CURVE DESCRIPTION
#-----------   ------------------   ----------------------------------
DEPT.M        00 001 00 00         : DEPTH        - DEPTH                       
DPHI.V/V      00 890 00 00         : PHID         - DENSITY POROSITY (LIMESTONE)
NPHI.V/V      00 330 00 00         : PHIN         - NEUTRON POROSITY (LIMESTONE)
GR  .API      00 310 00 00         : GR           - GAMMA RAY                   
ILD .OHMM     00 120 00 00         : RESD         - DEEP RESISTIVITY (DIL)      
~PARAMETER INFORMATION       
#MNEM.UNIT           DATA             DESCRIPTION OF MNEMONIC
#---------         -----------     ------------------------------
GL  .M        541.57               : gl           - GROUND LEVEL ELEVATION      
EREF.M        545.67               : kb           - ELEVATION OF DEPTH REFERENCE
DATM.M        545.67               : datum        - DATUM ELEVATION             
TDD .M        272                  : tdd          - TOTAL DEPTH DRILLER         
RUN .         ONE                  : Run          - RUN NUMBER                  
ENG .         BILL                 : Engineer     - RECORDING ENGINEER          
WIT .         JIM                  : Witness      - WITNESSED BY                
MUD .         GEL                  : Mud_type     - MUD TYPE                    
MATR.         LIMESTONE            : Logunit      - NEUTRON MATRIX              
TMAX.C        12                   : BHT          - MAXIMUM RECORDED TEMPERATURE
BHTD.M        272                  : BHTDEP       - MAXIMUM RECORDED TEMPERATURE
MATR.         1                    : LOGUNIT      - NEUTRON MATRIX              
RMT .C        25                   : MDTP         - TEMPERATURE OF MUD          
NEUT.         1                    : NEUTRON      - NEUTRON TYPE                
RESI.         0                    : RESIST       - RESISTIVITY TYPE            
RMC .OHMM     0.25                 : RMC          - RESISTIVITY OF MUD CAKE     
RMF .OHMM     0.25                 : RMF          - RESISTIVITY OF MUD FILTRATE 
SUFT.C        15                   : SUFT         - SURFACE TEMPERATURE         
~A  DEPTH     PHID     PHIN       GR     RESD
# ...
  204.401    0.302    0.443   70.894    9.784
  204.701    0.303    0.422   72.814    9.076
  205.001    0.288    0.447   78.490    8.740
  205.301    0.294    0.447   77.294    8.415
  205.601    0.307    0.428   72.968    8.255
  205.901    0.289    0.423   76.145    8.727
  206.201    0.271    0.433   85.580    8.402
  206.501    0.276    0.447   85.002    7.941
  206.801    0.299    0.445   78.173    7.504
  207.101    0.304    0.425   72.613    7.362
  207.401    0.285    0.434   72.026    7.360
  207.701    0.285    0.437   73.340    7.780
  208.001    0.301    0.413   76.509    8.224
  208.301    0.289    0.405   83.431    8.221
  208.601    0.274    0.426   81.605    7.914
  208.901    0.285    0.443   77.284    7.621
  209.201    0.281    0.435   77.959    7.476
  209.501    0.287    0.440   81.136    7.473
  209.801    0.297    0.468   78.688    7.609
  210.101    0.297    0.446   77.496    7.750
  210.401    0.284    0.438   78.791    7.747
  210.701    0.274    0.446   80.711    7.890
  211.001    0.279    0.424   80.768    7.885
  211.301    0.267    0.420   83.941    7.882
  211.601    0.259    0.456   92.114    7.732
  211.901    0.252    0.487   99.040    7.445
  212.201    0.250    0.503  102.867    6.653
  212.501    0.256    0.485  100.399    5.416
  212.801    0.259    0.455   92.952    4.931
  213.101    0.253    0.434   89.247    5.021
  213.401    0.257    0.421   87.429    6.397
  213.701    0.257    0.414   91.857    7.424
  214.001    0.250    0.429   97.524    7.283
  214.301    0.234    0.468  105.078    6.883
  214.601    0.237    0.464  103.252    6.267
  214.901    0.248    0.454  100.178    5.922
  215.201    0.249    0.454  100.238    5.703
  215.501    0.242    0.475   99.031    5.700
  215.801    0.210    0.474  100.954    5.698
  216.101    0.219    0.468  106.007    5.695
  216.401    0.228    0.466  107.310    5.587
  216.701    0.229    0.465  106.734    5.481
  217.001    0.224    0.446  101.786    5.582
  217.301    0.219    0.429  101.835    6.012
  217.601    0.225    0.416  101.262    6.848
  217.901    0.224    0.407   97.561    7.799
  218.201    0.233    0.408   98.867    8.559
  218.501    0.252    0.421  102.671    9.047
  218.801    0.248    0.430  103.351    9.214
  219.101    0.242    0.430  102.154    8.872
  219.401    0.252    0.416  100.942    8.704
  219.701    0.253    0.416   97.872    8.699
  220.001    0.242    0.441   99.169    8.696
  220.301    0.232    0.450  104.221    8.218
  220.601    0.235    0.440  104.897    7.913
  220.901    0.253    0.422   96.197    7.909
  221.201    0.273    0.423   94.379    8.054
  221.501    0.270    0.420   91.925    8.514
  221.801    0.278    0.395   86.987    8.835
  222.101    0.311    0.360   85.790    9.515
  222.401    0.313    0.354   85.206   10.248
  222.701    0.299    0.407   82.757   10.436
  223.001    0.278    0.389   80.933   10.628
  223.301    0.293    0.383   81.613   10.623
  223.601    0.281    0.407   83.541   10.228
  223.901    0.259    0.438   86.707    9.847
  224.201    0.250    0.447   87.384    9.308
  224.501    0.280    0.439   83.065    9.132
  224.801    0.315    0.427   80.620    8.630
  225.101    0.316    0.433   78.162    8.625
  225.401    0.301    0.425   72.594    8.621
  225.701    0.296    0.426   73.896    8.618
  226.001    0.289    0.442   76.439    8.614
  226.301    0.274    0.456   80.246    8.772
  226.601    0.251    0.460   82.791    8.605
  226.901    0.253    0.455   80.975    8.286
  227.201    0.286    0.442   78.524    8.130
  227.501    0.296    0.426   75.453    8.125
  227.801    0.297    0.412   75.499    8.431
  228.101    0.289    0.407   76.802    8.911
  228.401    0.281    0.413   79.356    9.075
  228.701    0.278    0.422   81.274    8.904
  229.001    0.278    0.412   86.330    8.259
  229.301    0.273    0.414   88.878    7.951
  229.601    0.267    0.418   88.306    7.948
  229.901    0.259    0.409   84.608    8.095
  230.201    0.264    0.408   81.534    8.398
  230.501    0.260    0.406   83.461    8.552
  230.801    0.241    0.403   81.007    8.548
  231.101    0.250    0.410   81.056    8.545
  231.401    0.248    0.437   89.241    8.076
  231.701    0.239    0.448   86.165    7.632
  232.001    0.228    0.426   82.468    6.949
  232.301    0.214    0.411   87.513    6.446
  232.601    0.228    0.424   96.312    5.868
  232.901    0.263    0.489  102.621    5.147
  233.201    0.271    0.505  100.169    4.431
  233.501    0.270    0.501   98.982    3.675
  233.801    0.272    0.499  102.144    3.473
  234.101    0.256    0.481  107.193    3.472
  234.401    0.235    0.459  106.000    3.535
  234.701    0.222    0.447  101.053    3.952
  235.001    0.231    0.432   96.097    4.851
  235.301    0.221    0.410   86.170    6.913
  235.601    0.181    0.407   86.838    8.485
  235.901    0.254    0.417   88.749   13.028
  236.201    0.254    0.421   90.690   14.840
  236.501    0.243    0.419   91.360   14.288
  236.801    0.229    0.406   93.914   13.008
  237.101    0.233    0.421   97.083   12.067
  237.401    0.218    0.431   95.889   10.987
  237.701    0.199    0.421   97.204   10.003
  238.001    0.210    0.406   98.484    8.938
  238.301    0.241    0.416   89.784    8.449
  238.601    0.273    0.433   66.085    7.691
  238.901    0.298    0.407   51.136    7.269
  239.201    0.313    0.416   44.943    8.127
  239.501    0.311    0.408   47.493   10.951
  239.801    0.309    0.401   51.288   15.900
  240.101    0.310    0.395   53.217   18.801
  240.401    0.303    0.386   50.144   18.791
  240.701    0.294    0.381   50.826   17.759
  241.001    0.295    0.386   52.745   16.473
  241.301    0.297    0.403   52.792   15.281
  241.601    0.294    0.440   55.971   12.911
  241.901    0.287    0.438   63.522   11.116
  242.201    0.286    0.432   67.327    9.218
  242.501    0.283    0.439   66.130    8.711
  242.801    0.277    0.432   65.550    8.872
  243.101    0.265    0.416   73.102    8.868
  243.401    0.237    0.408   84.402    8.074
  243.701    0.230    0.403   89.451    7.081
  244.001    0.238    0.439   88.258    5.764
  244.301    0.260    0.469   92.064    4.780
  244.601    0.271    0.480   98.981    3.891
  244.901    0.256    0.474   98.412    3.288
  245.201    0.235    0.461   94.087    3.050
  245.501    0.247    0.456   96.016    3.048
  245.801    0.273    0.462   99.196    3.163
  246.101    0.265    0.485   97.999    3.343
  246.401    0.248    0.480   96.167    3.534
  246.701    0.217    0.450   91.215    3.533
  247.001    0.199    0.460   90.641    3.402
  247.301    0.252    0.472  101.315    3.275
  247.602    0.261    0.472  110.120    3.274
  247.902    0.262    0.487  109.540    3.272
  248.202    0.260    0.484  107.098    3.395
  248.502    0.250    0.472  101.518    3.656
  248.802    0.235    0.380   89.070    4.165
  249.102    0.247    0.371   80.370    5.612
  249.402    0.286    0.363   76.054    7.562
  249.702    0.306    0.306   67.972   10.979
  250.002    0.401    0.297   44.897   13.729
  250.302    0.385    0.334   38.075   16.540
  250.602    0.354    0.379   41.889   34.239
  250.902    0.347    0.406   48.803   39.733
  251.202    0.341    0.397   51.360   38.983
  251.502    0.327    0.381   54.539   34.191
  251.802    0.304    0.375   60.831   26.808
  252.102    0.290    0.415   66.505   21.823
  252.402    0.295    0.405   60.931   19.501
  252.702    0.283    0.381   61.612   20.234
  253.002    0.265    0.354   65.416   19.848
  253.302    0.265    0.371   68.590   18.757
  253.602    0.259    0.367   68.637   17.400
  253.902    0.248    0.351   70.567   15.263
  254.202    0.238    0.348   74.995   12.423
  254.502    0.234    0.373   83.164   10.303
  254.802    0.240    0.387   93.216    8.543
  255.102    0.247    0.392   91.392    8.075
  255.402    0.249    0.398   93.956    7.923
  255.702    0.260    0.408   98.998    8.068
  256.002    0.312    0.392  102.175    9.189
  256.302    0.324    0.358  105.345   11.071
