~VERSION INFORMATION
 VERS.                 2.0:   CWLS LOG ASCII STANDARD -VERSION 2.0
 WRAP.                  NO:   ONE LINE PER DEPTH STEP
~WELL INFORMATION BLOCK
#MNEM.UNIT           DATA                    DESCRIPTION OF MNEMONIC
#---------    -------------------            -------------------------------
# Generated from Intellog Unique Number	CC_80_83/WELL/1183
NULL.         -999.25                        : NULL_VALUE
WELL.         PARA ET AL GRANOR              : Well_name    - WELL
LOC .         07-14-083-18W4                 : Location     - LOCATION          
UWI .         00/07-14-083-18W400            : Uwi          - UNIQUE WELL ID    
ENTR.         DW                             : Entered      - ENTERED BY        
SRVC.         COMPUTALOG                     : Scn          - SERVICE COMPANY   
DATE.         19 JAN 83                      : Date         - LOG DATE
STRT.M        105                            : top_depth    - START DEPTH       
STOP.M        294.9                          : bot_depth    - STOP DEPTH        
STEP.M        0.3                            : increment    - STEP LENGTH       
~CURVE INFORMATION BLOCK
#MNEM UNIT       ERCB CURVE CODE    CURVE DESCRIPTION
#-----------   ------------------   ----------------------------------
DEPT.M        00 001 00 00         : DEPTH        - DEPTH                       
DPHI.V/V      00 890 00 00         : PHID         - DENSITY POROSITY (LIMESTONE)
NPHI.V/V      00 330 00 00         : PHIN         - NEUTRON POROSITY (LIMESTONE)
GR  .API      00 310 00 00         : GR           - GAMMA RAY                   
ILD .OHMM     00 120 00 00         : RESD         - DEEP RESISTIVITY (DIL)      
~PARAMETER INFORMATION       
#MNEM.UNIT           DATA             DESCRIPTION OF MNEMONIC
#---------         -----------     ------------------------------
GL  .M        552.71               : gl           - GROUND LEVEL ELEVATION      
EREF.M        555.71               : kb           - ELEVATION OF DEPTH REFERENCE
DATM.M        555.71               : datum        - DATUM ELEVATION             
TDD .M        298                  : tdd          - TOTAL DEPTH DRILLER         
RUN .         ONE                  : Run          - RUN NUMBER                  
ENG .         BILL                 : Engineer     - RECORDING ENGINEER          
WIT .         JIM                  : Witness      - WITNESSED BY                
MUD .         GEL                  : Mud_type     - MUD TYPE                    
MATR.         LIMESTONE            : Logunit      - NEUTRON MATRIX              
TMAX.C        23                   : BHT          - MAXIMUM RECORDED TEMPERATURE
BHTD.M        298                  : BHTDEP       - MAXIMUM RECORDED TEMPERATURE
MATR.         1                    : LOGUNIT      - NEUTRON MATRIX              
RMT .C        25                   : MDTP         - TEMPERATURE OF MUD          
NEUT.         1                    : NEUTRON      - NEUTRON TYPE                
RESI.         0                    : RESIST       - RESISTIVITY TYPE            
RMC .OHMM     0.25                 : RMC          - RESISTIVITY OF MUD CAKE     
RMF .OHMM     0.25                 : RMF          - RESISTIVITY OF MUD FILTRATE 
SUFT.C        15                   : SUFT         - SURFACE TEMPERATURE         
~A  DEPTH     PHID     PHIN       GR     RESD
# ...
  261.601    0.256    0.359  103.536   13.010
  261.901    0.263    0.365  104.175   13.780
  262.201    0.251    0.368  102.919   13.778
  262.501    0.161    0.348   95.963   13.776
  262.801    0.194    0.325   87.112   13.774
  263.101    0.249    0.341   89.652   13.511
  263.401    0.242    0.358   90.923   13.252
  263.701    0.271    0.368   90.301   14.308
  264.001    0.289    0.386   88.407   17.668
  264.301    0.277    0.380   77.655   20.996
  264.601    0.151    0.262   64.371   26.429
  264.901    0.041    0.150   55.517   27.991
  265.201    0.031    0.148   52.359   27.988
  265.501    0.117    0.205   54.899   24.467
  265.801    0.171    0.297   65.034   20.193
  266.101    0.225    0.324   77.069   16.989
  266.401    0.238    0.337   80.877   14.020
  266.701    0.262    0.352   82.150   13.491
  267.001    0.279    0.371   83.423   12.735
  267.301    0.290    0.388   86.595   12.254
  267.601    0.284    0.390   91.670   12.020
  267.901    0.272    0.394   92.941   12.251
  268.201    0.270    0.396   92.317   12.488
  268.501    0.268    0.396   82.198   14.280
  268.801    0.215    0.379   79.673   16.331
  269.101    0.194    0.293   80.315   16.329
  269.401    0.227    0.323   89.184   15.414
  269.701    0.252    0.357   97.420   13.736
  270.001    0.261    0.382   98.695   12.241
  270.301    0.262    0.401   94.904   10.701
  270.601    0.265    0.397   89.849   10.497
  270.901    0.267    0.380   89.224   10.296
  271.201    0.270    0.371   91.130   10.099
  271.501    0.244    0.384   93.671    9.718
  271.801    0.248    0.392   93.046    9.531
  272.101    0.254    0.394   91.156    9.530
  272.401    0.258    0.398   91.163    9.529
  272.701    0.256    0.401   90.537    9.713
  273.001    0.242    0.391   88.646    9.899
  273.301    0.207    0.378   85.489    9.710
  273.601    0.187    0.368   87.397    9.525
  273.901    0.219    0.380   94.367    8.991
  274.201    0.243    0.405  103.236    8.167
  274.501    0.242    0.420  107.675    7.563
  274.801    0.240    0.435  107.684    7.139
  275.101    0.244    0.443  107.058    6.241
  275.401    0.244    0.410  109.598    5.779
  275.701    0.235    0.396  116.569    5.561
  276.001    0.250    0.402  116.578    5.455
  276.301    0.257    0.408  113.419    5.454
  276.601    0.238    0.413  114.062    5.559
  276.901    0.240    0.416  115.967    5.888
  277.201    0.240    0.420  115.975    6.734
  277.501    0.201    0.421  100.792    9.329
  277.801    0.126    0.378   77.380   15.660
  278.101    0.087    0.290   84.983   17.909
  278.401    0.214    0.343   97.651   18.607
  278.701    0.249    0.354  103.988   18.251
  279.001    0.238    0.364  109.694   17.561
  279.301    0.246    0.374  110.335   17.226
  279.601    0.251    0.382  106.544   16.576
  279.901    0.246    0.384  104.020   16.574
  280.201    0.239    0.377  106.560   16.572
  280.501    0.236    0.344  108.467   17.218
  280.801    0.251    0.319   90.753   18.236
  281.101    0.284    0.313   67.973   18.947
  281.401    0.305    0.329   50.892   19.685
  281.701    0.320    0.330   45.202   19.683
  282.000    0.324    0.293   45.844   20.847
  282.300    0.318    0.298   48.386   21.248
  282.600    0.318    0.333   49.658   21.245
  282.900    0.319    0.345   49.665   20.840
  283.200    0.325    0.334   48.408   20.053
  283.500    0.320    0.329   50.949   18.569
  283.800    0.318    0.343   55.386   17.195
  284.100    0.318    0.349   61.090   15.323
  284.400    0.321    0.344   76.922   13.141
  284.700    0.313    0.370  135.164   11.711
  285.000    0.291    0.386  104.788   10.043
  285.300    0.269    0.364   97.835    9.123
  285.600    0.237    0.359  106.704    8.130
  285.900    0.221    0.359  111.777    7.529
  286.200    0.232    0.359  114.318    6.839
  286.500    0.244    0.360  114.958    6.095
  286.800    0.255    0.368  116.863    5.128
  287.100    0.262    0.376  117.506    4.569
  287.400    0.269    0.399  118.779    4.231
  287.700    0.264    0.413  119.420    4.071
  288.000    0.248    0.415  116.263    4.230
  288.300    0.233    0.446  108.043    4.480
  288.600    0.198    0.415  102.353    5.124
  288.900    0.208    0.376  102.995    5.639
  289.200    0.237    0.379  115.028    5.426
  289.500    0.258    0.404  125.797    4.478
  289.800    0.268    0.423  128.337    3.841
  290.100    0.268    0.441  126.446    3.840
  290.400    0.255    0.449  126.454    4.392
  290.700    0.237    0.416  125.199    5.635
  291.000    0.243    0.377  123.937    7.807
  291.300    0.258    0.359  122.048   10.212
  291.600    0.266    0.351  121.424   11.025
  291.900    0.243    0.338  122.066   11.455
  292.200    0.219    0.351  122.707   12.607
  292.500    0.293    0.362  122.712   14.143
  292.800    0.323    0.350  123.986   18.148
  293.100    0.343    0.333  125.263   23.738
  293.400    0.343    0.331  125.268   25.629
  293.700    0.302    0.331  123.377   25.139
  294.000    0.276    0.330  111.357   15.860
  294.300    0.271    0.333   48.702    6.688
  294.600    0.293    0.348   36.683    6.313
  294.900    0.296    0.350   27.198    6.192
