~VERSION INFORMATION
 VERS.                 2.0:   CWLS LOG ASCII STANDARD -VERSION 2.0
 WRAP.                  NO:   ONE LINE PER DEPTH STEP
~WELL INFORMATION BLOCK
#MNEM.UNIT           DATA                    DESCRIPTION OF MNEMONIC
#---------    -------------------            -------------------------------
# Generated from Intellog Unique Number	CS_77_79/WELL/897
WELL.         KANDEX CAN-SUP THORNBURY       : Well_name    - WELL
LOC .         00/07-14-078-13W4/0            : Location     - LOCATION
UWI .         00/07-14-078-13W4/0            : Uwi          - UNIQUE WELL ID
ENTR.         JHS                            : Entered      - ENTERED BY
SRVC.         SCHLUMBERGER                   : Scn          - SERVICE COMPANY
STRT.M        259.080                        : top_depth    - START DEPTH
STOP.M        487.330                        : bot_depth    - STOP DEPTH
STEP.M        0.25                           : increment    - STEP LENGTH
 NULL. -999.2500:NULL Value
~CURVE INFORMATION BLOCK
#MNEM UNIT       ERCB CURVE CODE    CURVE DESCRIPTION
#-----------   ------------------   ----------------------------------
DEPT.M        00 001 00 00         : DEPTH        - DEPTH
RHOB.KG/M3    00 350 00 00         : DENS         - BULK DENSITY
GR  .API      00 310 00 00         : GR           - GAMMA RAY
DPHI.V/V      00 890 00 00         : PHID         - DENSITY POROSITY (SANDSTONE)
NPHI.V/V      00 330 00 00         : PHIN         - NEUTRON POROSITY (SANDSTONE)
ILD .OHMM     00 120 00 00         : RESD         - DEEP RESISTIVITY (DIL)
~PARAMETER INFORMATION
#MNEM.UNIT           DATA             DESCRIPTION OF MNEMONIC
#---------         -----------     ------------------------------
GL  .M        681.533              : gl           - GROUND LEVEL ELEVATION
EREF.M        684.886              : kb           - ELEVATION OF DEPTH REFERENCE
DATM.M        684.886              : datum        - DATUM ELEVATION
TDD .M        492.252              : tdd          - TOTAL DEPTH DRILLER
RUN .         ONE                  : Run          - RUN NUMBER
ENG .         BILL                 : Engineer     - RECORDING ENGINEER
WIT .         JIM                  : Witness      - WITNESSED BY
MUD .         GEL                  : Mud_type     - MUD TYPE
MATR.         SANDSTONE            : Logunit      - NEUTRON MATRIX
TMAX.C        21.1111              : BHT          - MAXIMUM RECORDED TEMPERATURE
BHTD.M        492.252              : BHTDEP       - MAXIMUM RECORDED TEMPERATURE
MATR.         1                    : LOGUNIT      - NEUTRON MATRIX
RMT .C        25                   : MDTP         - TEMPERATURE OF MUD
NEUT.         1                    : NEUTRON      - NEUTRON TYPE
RESI.         0                    : RESIST       - RESISTIVITY TYPE
RMC .OHMM     0.25                 : RMC          - RESISTIVITY OF MUD CAKE
RMF .OHMM     0.25                 : RMF          - RESISTIVITY OF MUD FILTRATE
SUFT.C        15                   : SUFT         - SURFACE TEMPERATURE
~A  DEPTH     DENS       GR     PHID     PHIN     RESD
# ...
  295.580    0.000  132.168    0.218    0.538    3.728
  295.830    0.000  132.787    0.217    0.534    3.448
  296.080    0.000  130.157    0.221    0.541    3.393
  296.330    0.000  128.372    0.232    0.566    3.599
  296.580    0.000  128.141    0.245    0.566    4.302
  296.830    0.000  129.223    0.237    0.542    5.537
  297.080    0.000  123.238    0.249    0.505    7.058
  297.330    0.000  115.314    0.273    0.471    8.675
  297.580    0.000  112.568    0.278    0.453   10.239
  297.830    0.000  114.557    0.284    0.445   11.238
  298.080    0.000  115.409    0.267    0.445   11.749
  298.330    0.000  113.614    0.277    0.458   11.770
  298.580    0.000  108.593    0.259    0.471   11.458
  298.830    0.000  104.690    0.261    0.483   10.472
  299.080    0.000  102.227    0.269    0.492    8.752
  299.330    0.000  108.588    0.255    0.502    7.280
  299.580    0.000  119.938    0.231    0.517    6.062
  299.830    0.000  132.231    0.205    0.534    5.722
  300.080    0.000  130.682    0.193    0.512    5.913
  300.330    0.000  128.178    0.189    0.503    6.774
  300.580    0.000  129.955    0.218    0.475    7.446
  300.830    0.000  123.766    0.235    0.442    8.558
  301.080    0.000  114.873    0.249    0.429   10.101
  301.330    0.000  110.827    0.246    0.432   11.055
  301.580    0.000  108.660    0.244    0.456   11.578
  301.830    0.000  111.980    0.256    0.476   11.982
  302.080    0.000  106.325    0.276    0.488   12.089
  302.330    0.000   95.709    0.298    0.489   11.948
  302.580    0.000   98.169    0.301    0.452   11.331
  302.830    0.000  105.257    0.272    0.446   11.013
  303.080    0.000  109.634    0.247    0.456   10.672
  303.330    0.000  113.974    0.236    0.476   10.644
  303.580    0.000  115.560    0.255    0.452   10.637
  303.830    0.000  116.300    0.253    0.447   10.821
  304.080    0.000  114.303    0.255    0.452   11.337
  304.330    0.000  111.515    0.265    0.460   11.892
  304.580    0.000  100.697    0.269    0.462   12.405
  304.830    0.000   89.428    0.283    0.471   12.907
  305.080    0.000   82.879    0.299    0.485   13.312
  305.330    0.000   78.722    0.299    0.483   13.518
  305.580    0.000   77.740    0.306    0.468   13.349
  305.830    0.000   82.604    0.323    0.467   12.554
  306.080    0.000   91.142    0.294    0.448   11.579
  306.330    0.000  101.195    0.240    0.432   10.476
  306.580    0.000  109.407    0.215    0.443    9.546
  306.830    0.000  112.275    0.224    0.458    8.407
  307.080    0.000  114.435    0.235    0.478    7.144
  307.330    0.000  117.413    0.217    0.491    6.391
  307.580    0.000  121.222    0.201    0.480    5.691
  307.830    0.000  123.181    0.210    0.484    5.467
  308.080    0.000  122.017    0.228    0.511    5.761
  308.330    0.000  113.481    0.234    0.527    6.866
  308.580    0.000  102.131    0.271    0.522    8.413
  308.830    0.000   97.130    0.286    0.501    9.846
  309.080    0.000   94.862    0.266    0.497   11.239
  309.330    0.000   91.389    0.245    0.486   11.865
  309.580    0.000   88.661    0.224    0.478   11.832
  309.830    0.000   90.074    0.204    0.472   10.794
  310.080    0.000   95.227    0.213    0.472    9.923
  310.330    0.000   98.344    0.241    0.485    9.226
  310.580    0.000   99.331    0.257    0.501    8.502
  310.830    0.000   99.710    0.245    0.517    8.155
  311.080    0.000  100.042    0.254    0.526    7.846
  311.330    0.000  101.632    0.263    0.510    7.599
  311.580    0.000  105.395    0.240    0.489    7.590
  311.830    0.000  113.948    0.236    0.497    7.587
  312.080    0.000  114.444    0.244    0.490    7.821
  312.330    0.000  111.299    0.248    0.481    8.163
  312.580    0.000  101.725    0.258    0.479    8.523
  312.830    0.000   96.383    0.277    0.484    9.220
  313.080    0.000   92.310    0.295    0.477   10.314
  313.330    0.000   89.731    0.290    0.455   10.866
  313.580    0.000   87.892    0.285    0.434   11.101
  313.830    0.000   89.362    0.274    0.430   11.089
  314.080    0.000   88.754    0.284    0.436   11.111
  314.330    0.000   84.469    0.300    0.452   10.884
  314.580    0.000   84.969    0.307    0.464   10.931
  314.830    0.000   84.998    0.307    0.482   11.002
  315.080    0.000   82.502    0.293    0.487   10.224
  315.330    0.000   80.548    0.292    0.479    9.531
  315.580    0.000   83.359    0.309    0.466    8.674
  315.830    0.000   87.686    0.280    0.474    8.308
  316.080    0.000   89.814    0.254    0.488    8.110
  316.330    0.000   88.496    0.267    0.494    8.617
  316.580    0.000   83.069    0.293    0.527    9.752
  316.830    0.000   72.372    0.353    0.548   11.273
  317.080    0.000   60.243    0.356    0.599   14.252
  317.330    0.000   55.592    0.297    0.455   17.393
  317.580    0.000   57.137    0.292    0.441   20.244
  317.830    0.000   57.972    0.312    0.446   21.568
  318.080    0.000   57.943    0.328    0.461   22.426
  318.330    0.000   55.925    0.331    0.453   23.194
  318.580    0.000   53.718    0.334    0.441   23.393
  318.830    0.000   53.071    0.331    0.445   24.181
  319.080    0.000   52.208    0.339    0.448   25.308
  319.330    0.000   48.744    0.349    0.445   26.335
  319.580    0.000   45.779    0.338    0.451   28.090
  319.830    0.000   46.068    0.333    0.458   28.905
  320.080    0.000   47.864    0.332    0.441   30.405
  320.330    0.000   48.215    0.341    0.444   30.866
  320.580    0.000   48.854    0.338    0.455   30.848
  320.830    0.000   49.465    0.337    0.454   31.502
  321.080    0.000   48.914    0.331    0.445   31.003
  321.330    0.000   48.110    0.318    0.428   30.396
  321.580    0.000   49.597    0.311    0.416   29.809
  321.830    0.000   49.666    0.310    0.413   28.986
  322.080    0.000   48.258    0.332    0.423   27.393
  322.330    0.000   47.734    0.351    0.432   25.267
  322.580    0.000   47.722    0.326    0.415   23.493
  322.830    0.000   48.619    0.334    0.411   21.979
  323.080    0.000   48.995    0.345    0.423   20.646
  323.330    0.000   49.679    0.362    0.435   19.765
  323.580    0.000   49.542    0.359    0.450   19.411
  323.830    0.000   49.065    0.345    0.465   18.463
  324.080    0.000   48.130    0.323    0.444   18.285
  324.330    0.000   47.143    0.319    0.429   18.090
  324.580    0.000   46.224    0.315    0.425   18.069
  324.830    0.000   44.670    0.325    0.423   18.260
  325.080    0.000   44.788    0.293    0.417   18.884
  325.330    0.000   44.255    0.297    0.407   20.061
  325.580    0.000   42.293    0.287    0.379   21.802
  325.830    0.000   41.158    0.242    0.346   23.618
  326.080    0.000   40.095    0.209    0.307   24.939
  326.330    0.000   38.993    0.208    0.306   24.398
  326.580    0.000   40.497    0.235    0.360   24.181
  326.830    0.000   43.313    0.284    0.388   22.288
  327.080    0.000   43.774    0.331    0.412   20.945
  327.330    0.000   47.022    0.344    0.428   18.773
  327.580    0.000   49.250    0.342    0.440   17.296
  327.830    0.000   50.627    0.337    0.454   15.976
  328.080    0.000   53.416    0.352    0.475   15.307
  328.330    0.000   52.098    0.369    0.503   14.774
  328.580    0.000   49.295    0.361    0.483   14.622
  328.830    0.000   48.964    0.365    0.472   14.626
  329.080    0.000   51.853    0.371    0.473   14.639
  329.330    0.000   53.063    0.367    0.465   14.646
  329.580    0.000   53.182    0.369    0.456   14.661
  329.830    0.000   51.636    0.357    0.470   14.712
  330.080    0.000   50.714    0.350    0.494   14.954
  330.330    0.000   49.716    0.362    0.496   14.957
  330.580    0.000   48.728    0.367    0.480   14.965
  330.830    0.000   47.908    0.359    0.484   14.974
  331.080    0.000   54.936    0.371    0.490   15.005
  331.330    0.000   54.177    0.369    0.477   14.704
  331.580    0.000   54.879    0.354    0.477   14.550
  331.830    0.000   57.495    0.356    0.465   14.161
