~VERSION INFORMATION
 VERS.                 2.0:   CWLS LOG ASCII STANDARD -VERSION 2.0
 WRAP.                  NO:   ONE LINE PER DEPTH STEP
~WELL INFORMATION BLOCK
#MNEM.UNIT           DATA                    DESCRIPTION OF MNEMONIC
#---------    -------------------            -------------------------------
# Generated from Intellog Unique Number	CW_73_75/WELL/528
LOC .         00/06-04-075-24W4/0            : Location     - LOCATION
UWI .         00/06-04-075-24W4/0            : Uwi          - UNIQUE WELL ID
ENTR.         JAYE                           : Entered      - ENTERED BY
SRVC.         SCHLUMBERGER                   : Scn          - SERVICE COMPANY
DATE.         26 FEB 75                      : Date         - LOG DATE
STRT.M        438.912                        : top_depth    - START DEPTH
STOP.M        640.162                        : bot_depth    - STOP DEPTH
STEP.M        0.25                           : increment    - STEP LENGTH
 NULL. -999.2500:NULL Value
~CURVE INFORMATION BLOCK
#MNEM UNIT       ERCB CURVE CODE    CURVE DESCRIPTION
#-----------   ------------------   ----------------------------------
DEPT.M        00 001 00 00         : DEPTH        - DEPTH
ILD .OHMM     00 120 00 00         : RESD         - DEEP RESISTIVITY (DIL)
NPHI.V/V      00 330 00 00         : PHIN         - NEUTRON POROSITY (SANDSTONE)
DPHI.V/V      00 890 00 00         : PHID         - DENSITY POROSITY (SANDSTONE)
GR  .API      00 310 00 00         : GR           - GAMMA RAY
CALI.MM       00 280 01 00         : CAL          - CALIPER
~PARAMETER INFORMATION
#MNEM.UNIT           DATA             DESCRIPTION OF MNEMONIC
#---------         -----------     ------------------------------
GL  .M        718.322              : gl           - GROUND LEVEL ELEVATION
EREF.M        723.199              : kb           - ELEVATION OF DEPTH REFERENCE
DATM.M        718.322              : datum        - DATUM ELEVATION
TDD .M        640.385              : tdd          - TOTAL DEPTH DRILLER
RUN .         ONE                  : Run          - RUN NUMBER
ENG .         FETTERLEY            : Engineer     - RECORDING ENGINEER
WIT .         HARDMAN              : Witness      - WITNESSED BY
BASE.         EDM                  : Branch       - HOME BASE OF LOGGING UNIT
MUD .         GEL CHEM             : Mud_type     - MUD TYPE
MATR.         SANDSTONE            : Logunit      - NEUTRON MATRIX
TMAX.C        26.6667              : BHT          - MAXIMUM RECORDED TEMPERATURE
BHTD.M        641.604              : BHTDEP       - MAXIMUM RECORDED TEMPERATURE
RMT .C        15.5556              : MDTP         - TEMPERATURE OF MUD
MUDD.KG/M     1020                 : MWT          - MUD DENSITY
NEUT.         1                    : NEUTRON      - NEUTRON TYPE
RESI.         0                    : RESIST       - RESISTIVITY TYPE
RM  .OHMM     7.78                 : RM           - RESISTIVITY OF MUD
RMC .OHMM     0                    : RMC          - RESISTIVITY OF MUD CAKE
RMF .OHMM     5.63                 : RMF          - RESISTIVITY OF MUD FILTRATE
SUFT.C        -17.7778             : SUFT         - SURFACE TEMPERATURE
~A  DEPTH     RESD     PHIN     PHID       GR      CAL
  438.912    2.760    0.537    0.271   98.468  218.839
  439.162    2.818    0.547    0.252   99.338  219.093
  439.412    2.851    0.554    0.233  100.026  220.667
  439.662    2.874    0.546    0.265   99.330  222.749
  439.912    2.902    0.554    0.254   96.043  225.660
  440.162    2.899    0.538    0.233   96.250  226.925
  440.412    2.874    0.505    0.220   97.964  229.929
  440.662    2.818    0.524    0.212   96.186  233.749
  440.912    2.733    0.538    0.232   92.715  238.087
  441.162    2.541    0.546    0.246   89.849  241.397
  441.412    2.341    0.556    0.262   90.600  243.173
  441.662    2.225    0.584    0.281   88.759  244.541
  441.912    2.182    0.615    0.296   85.349  243.364
  442.162    2.192    0.622    0.319   81.522  236.780
  442.412    2.317    0.558    0.333   76.974  232.023
  442.662    2.589    0.564    0.347   73.982  226.158
  442.912    3.159    0.533    0.320   67.862  223.444
  443.162    3.925    0.432    0.268   61.741  222.364
  443.412    6.260    0.449    0.232   57.550  222.412
  443.662    8.573    0.477    0.319   56.069  223.485
  443.912    9.972    0.490    0.310   59.532  224.235
  444.162   10.680    0.466    0.292   57.572  224.693
  444.412   11.065    0.478    0.283   57.054  224.741
  444.662   10.831    0.486    0.304   56.842  224.477
  444.912   10.220    0.470    0.318   56.747  224.329
  445.162    9.520    0.474    0.318   57.079  223.750
  445.412    8.564    0.478    0.313   57.225  224.610
  445.662    7.846    0.455    0.315   57.429  225.581
  445.912    6.917    0.461    0.309   58.299  225.620
  446.162    6.396    0.486    0.326   59.411  223.219
  446.412    6.579    0.506    0.351   57.811  217.964
  446.662    6.982    0.532    0.378   52.836  214.533
  446.912    7.168    0.505    0.361   49.670  210.706
  447.162    7.265    0.494    0.315   50.423  209.929
  447.412    7.137    0.477    0.316   53.762  211.000
  447.662    6.588    0.469    0.331   57.347  216.044
  447.912    6.036    0.457    0.316   60.387  221.086
  448.162    5.410    0.443    0.308   63.303  225.826
  448.412    4.866    0.447    0.320   70.019  229.545
  448.662    4.386    0.468    0.301   77.216  233.572
  448.912    3.727    0.497    0.265   85.139  236.981
  449.162    3.292    0.523    0.306   90.527  249.169
  449.412    3.106    0.560    0.324   95.555  261.257
  449.662    3.260    0.554    0.368   95.103  263.653
  449.912    3.648    0.520    0.344   93.201  258.898
  450.162    4.228    0.485    0.321   90.212  252.007
  450.412    4.663    0.454    0.285   86.986  238.784
  450.662    5.162    0.446    0.248   82.431  221.588
  450.912    5.377    0.432    0.280   74.987  220.713
  451.162    5.531    0.433    0.295   77.007  225.760
  451.412    5.586    0.453    0.269   77.874  228.864
  451.662    5.620    0.488    0.265   78.022  229.113
  451.912    5.655    0.532    0.262   76.239  225.690
  452.162    5.658    0.560    0.287   73.194  220.019
  452.412    5.735    0.497    0.295   70.326  216.905
  452.662    5.813    0.467    0.283   69.269  215.520
  452.912    5.957    0.449    0.273   69.057  215.669
  453.162    6.049    0.470    0.265   66.010  216.631
  453.412    6.154    0.496    0.332   63.022  216.985
  453.662    6.260    0.481    0.334   59.314  217.538
  453.912    6.427    0.447    0.304   57.651  219.116
  454.162    6.599    0.460    0.274   58.040  220.382
  454.412    6.675    0.486    0.248   60.902  222.883
  454.662    6.754    0.477    0.232   63.821  223.841
  454.912    6.696    0.462    0.287   66.138  224.194
  455.162    6.591    0.468    0.293   67.730  223.123
  455.412    6.559    0.465    0.292   67.454  222.038
  455.662    6.624    0.456    0.282   64.771  220.962
  455.912    6.763    0.451    0.263   62.869  219.691
  456.162    6.930    0.468    0.274   61.813  218.613
  456.412    7.116    0.479    0.302   61.659  217.839
  456.662    7.266    0.487    0.310   61.321  217.271
  456.912    7.324    0.474    0.297   61.050  217.004
  457.162    7.355    0.461    0.298   61.738  216.954
  457.412    7.305    0.466    0.307   63.757  217.102
  457.662    7.008    0.466    0.311   66.493  217.354
  457.912    6.674    0.451    0.300   70.799  217.806
  458.162    6.460    0.438    0.272   75.583  218.771
  458.412    6.185    0.432    0.245   82.180  219.624
  458.662    5.890    0.424    0.234   88.174  221.308
  458.912    5.692    0.417    0.219   89.946  222.877
  459.162    5.634    0.419    0.229   91.604  224.455
  459.412    5.636    0.412    0.236   93.373  225.938
  459.662    5.745    0.399    0.225   93.460  226.893
  459.912    6.074    0.388    0.202   87.827  227.859
  460.162    6.340    0.390    0.212   76.881  227.900
  460.412    6.545    0.397    0.199   66.972  227.440
  460.662    6.489    0.392    0.227   61.810  226.464
  460.912    6.270    0.392    0.258   51.895  225.999
  461.162    6.048    0.405    0.294   43.605  224.921
  461.412    6.008    0.416    0.317   44.114  223.748
  461.662    6.179    0.431    0.323   49.565  223.173
  461.912    6.828    0.427    0.314   50.797  222.710
  462.162    7.325    0.427    0.295   51.247  222.042
  462.412    8.006    0.436    0.261   53.505  221.174
  462.662    8.417    0.443    0.270   58.167  221.212
  462.912    8.705    0.447    0.283   63.197  221.465
  463.162    8.275    0.439    0.301   69.915  222.024
  463.412    7.750    0.433    0.300   74.822  223.188
  463.662    7.127    0.427    0.291   81.118  225.178
  463.912    6.602    0.437    0.269   83.373  226.848
  464.162    6.287    0.454    0.254   83.640  229.551
  464.412    5.921    0.453    0.268   81.078  233.169
  464.662    5.546    0.445    0.273   80.201  236.780
  464.912    5.194    0.467    0.277   80.406  238.050
  465.162    4.681    0.455    0.307   82.360  226.873
  465.412    4.235    0.464    0.292   85.462  224.678
  465.662    3.830    0.531    0.279   88.442  228.087
  465.912    3.383    0.580    0.301   90.938  237.619
  466.162    2.907    0.605    0.319   93.677  251.442
  466.412    2.698    0.562    0.338   96.474  253.935
  466.662    2.626    0.537    0.320   99.517  251.329
  466.912    2.618    0.516    0.273  102.132  245.968
  467.162    2.610    0.521    0.255  104.209  244.485
  467.412    2.612    0.548    0.322  105.560  249.117
  467.662    2.633    0.577    0.280  107.636  256.204
  467.912    2.703    0.604    0.351  106.698  244.311
  468.162    2.873    0.552    0.395  104.199  253.741
  468.412    3.192    0.532    0.396  100.605  264.811
  468.662    3.586    0.498    0.331   96.176  264.045
  468.912    4.118    0.494    0.289   95.118  246.837
  469.162    4.533    0.504    0.272   96.769  237.293
  469.412    4.766    0.477    0.281  100.715  241.013
  469.662    4.805    0.457    0.292  105.321  237.180
  469.912    4.643    0.451    0.270  107.396  231.719
  470.162    4.512    0.482    0.304  106.337  236.658
  470.412    4.589    0.521    0.332  103.594  255.375
  470.662    4.844    0.465    0.307   99.403  244.910
  470.912    5.235    0.436    0.268   92.739  228.531
  471.162    5.555    0.416    0.221   81.498  221.740
  471.412    5.917    0.426    0.205   79.294  223.625
  471.662    6.052    0.466    0.206   85.046  225.093
  471.912    6.145    0.496    0.247   87.906  225.750
  472.162    6.486    0.508    0.314   84.438  225.796
  472.412    6.933    0.486    0.316   80.184  225.548
  472.662    7.535    0.466    0.304   75.874  225.278
  472.912    8.371    0.459    0.316   72.346  225.115
  473.162    9.318    0.469    0.328   70.746  224.957
  473.412    9.340    0.482    0.323   69.989  225.003
  473.662    9.025    0.475    0.315   70.558  225.046
  473.912    8.642    0.460    0.305   71.430  225.516
  474.162    7.832    0.447    0.290   72.719  226.166
  474.412    6.930    0.439    0.273   74.797  226.628
  474.662    6.143    0.446    0.256   76.812  227.479
  474.912    5.288    0.425    0.237   78.826  227.829
  475.162    4.731    0.442    0.286   81.084  228.484
