~VERSION INFORMATION
 VERS.                 2.0:   CWLS LOG ASCII STANDARD -VERSION 2.0
 WRAP.                  NO:   ONE LINE PER DEPTH STEP
~WELL INFORMATION BLOCK
#MNEM.UNIT           DATA                    DESCRIPTION OF MNEMONIC
#---------    -------------------            -------------------------------
# Generated from Intellog Unique Number	CS_73_76/WELL/2167
WELL.         BOW VALLEY INDUSTRIES LTD.     : Well_name    - WELL
LOC .         00/06-23-074-17W4/0            : Location     - LOCATION
UWI .         00/06-23-074-17W4/0            : Uwi          - UNIQUE WELL ID
ENTR.         SP                             : Entered      - ENTERED BY
SRVC.         SCHLUMBERGER                   : Scn          - SERVICE COMPANY
STRT.M        240.792                        : top_depth    - START DEPTH
STOP.M        426.542                        : bot_depth    - STOP DEPTH
STEP.M        0.25                           : increment    - STEP LENGTH
 NULL. -999.2500:NULL Value
~CURVE INFORMATION BLOCK
#MNEM UNIT       ERCB CURVE CODE    CURVE DESCRIPTION
#-----------   ------------------   ----------------------------------
DEPT.M        00 001 00 00         : DEPTH        - DEPTH
GR  .API      00 310 00 00         : GR           - GAMMA RAY
DPHI.V/V      00 890 00 00         : PHID         - DENSITY POROSITY (SANDSTONE)
NPHI.V/V      00 330 00 00         : PHIN         - NEUTRON POROSITY (SANDSTONE)
ILD .OHMM     00 120 00 00         : RESD         - DEEP RESISTIVITY (DIL)
~PARAMETER INFORMATION
#MNEM.UNIT           DATA             DESCRIPTION OF MNEMONIC
#---------         -----------     ------------------------------
GL  .M        590.398              : gl           - GROUND LEVEL ELEVATION
EREF.M        592.836              : kb           - ELEVATION OF DEPTH REFERENCE
DATM.M        590.398              : datum        - DATUM ELEVATION
TDD .M        429.768              : tdd          - TOTAL DEPTH DRILLER
RUN .         ONE                  : Run          - RUN NUMBER
ENG .         BILL                 : Engineer     - RECORDING ENGINEER
WIT .         JIM                  : Witness      - WITNESSED BY
MUD .         GEL                  : Mud_type     - MUD TYPE
MATR.         SANDSTONE            : Logunit      - NEUTRON MATRIX
TMAX.C        20.5556              : BHT          - MAXIMUM RECORDED TEMPERATURE
BHTD.M        429.158              : BHTDEP       - MAXIMUM RECORDED TEMPERATURE
MATR.         1                    : LOGUNIT      - NEUTRON MATRIX
RMT .C        25                   : MDTP         - TEMPERATURE OF MUD
NEUT.         1                    : NEUTRON      - NEUTRON TYPE
RESI.         0                    : RESIST       - RESISTIVITY TYPE
RMC .OHMM     0.25                 : RMC          - RESISTIVITY OF MUD CAKE
RMF .OHMM     0.25                 : RMF          - RESISTIVITY OF MUD FILTRATE
SUFT.C        15                   : SUFT         - SURFACE TEMPERATURE
~A  DEPTH       GR     PHID     PHIN     RESD
# ...
  284.292   93.913    0.284    0.490    8.245
  284.542   97.454    0.277    0.492    8.417
  284.792   99.814    0.273    0.486    8.799
  285.042   93.363    0.271    0.474    9.170
  285.292   90.130    0.264    0.465    9.385
  285.542   86.933    0.272    0.457    9.560
  285.792   89.951    0.258    0.445    9.790
  286.042   91.890    0.251    0.458   10.080
  286.292   90.016    0.265    0.471   10.280
  286.542   88.092    0.265    0.474   10.493
  286.792   86.195    0.251    0.488   10.467
  287.042   83.680    0.239    0.476   10.371
  287.292   83.459    0.249    0.485   10.242
  287.542   84.675    0.262    0.490    9.463
  287.792   87.868    0.279    0.494    8.744
  288.042   90.207    0.286    0.505    7.920
  288.292   92.522    0.298    0.512    7.425
  288.542   96.485    0.286    0.504    7.090
  288.792  100.921    0.249    0.486    6.980
  289.042  103.047    0.210    0.476    7.356
  289.292   95.824    0.222    0.470    7.696
  289.542   88.843    0.262    0.477    8.192
  289.792   80.959    0.250    0.495    8.701
  290.042   69.805    0.254    0.503    9.239
  290.292   59.147    0.305    0.486    9.833
  290.542   54.699    0.336    0.470   10.244
  290.792   51.784    0.325    0.456   10.445
  291.042   49.745    0.321    0.444   10.452
  291.292   48.633    0.331    0.446   10.472
  291.542   48.273    0.321    0.450   10.440
  291.792   47.884    0.315    0.458   11.760
  292.042   47.701    0.318    0.466   11.671
  292.292   47.706    0.325    0.467   11.660
  292.542   48.109    0.331    0.457   11.658
  292.792   47.656    0.337    0.453   11.654
  293.042   47.294    0.343    0.449   11.671
  293.292   45.824    0.339    0.448   11.418
  293.542   45.946    0.335    0.452   11.436
  293.792   45.414    0.335    0.439   11.457
  294.042   46.167    0.341    0.433   11.206
  294.292   47.794    0.334    0.435   11.226
  294.542   48.709    0.334    0.439   11.078
  294.792   50.599    0.342    0.455   11.023
  295.042   51.957    0.341    0.460   11.015
  295.292   52.996    0.343    0.462   11.015
  295.542   53.178    0.356    0.454   11.022
  295.792   53.200    0.361    0.443   10.827
  296.042   53.223    0.357    0.436   10.808
  296.292   53.295    0.345    0.432   10.781
  296.542   53.792    0.343    0.425   10.599
  296.792   54.453    0.338    0.424   10.605
  297.042   55.102    0.336    0.431   10.607
  297.292   55.654    0.344    0.436   10.455
  297.542   55.483    0.347    0.441   10.394
  297.792   54.452    0.339    0.440   10.599
  298.042   53.827    0.347    0.444   10.386
  298.292   53.879    0.350    0.447   10.401
  298.542   53.847    0.349    0.457   10.402
  298.792   54.264    0.353    0.461   10.401
  299.042   53.296    0.364    0.445   10.406
  299.292   52.328    0.370    0.436   10.229
  299.542   50.763    0.371    0.454   10.215
  299.792   51.559    0.363    0.463   10.222
  300.042   51.082    0.359    0.473   10.400
  300.292   50.235    0.364    0.467   10.379
  300.542   50.958    0.369    0.468   10.592
  300.792   52.722    0.346    0.469   10.935
  301.042   55.695    0.336    0.464   11.017
  301.292   52.269    0.348    0.469   11.384
  301.542   47.594    0.352    0.440   11.514
  301.792   43.221    0.336    0.427   11.589
  302.042   42.416    0.324    0.404   11.591
  302.292   45.356    0.307    0.383   11.499
  302.542   48.330    0.314    0.410   11.158
  302.792   50.364    0.336    0.425   11.169
  303.042   50.382    0.349    0.437   11.153
  303.292   50.362    0.349    0.445   11.399
  303.542   50.264    0.357    0.456   11.568
  303.792   50.624    0.353    0.458   11.803
  304.042   51.038    0.342    0.441   12.015
  304.292   50.284    0.336    0.457   12.007
  304.542   49.103    0.339    0.473   12.010
  304.792   48.081    0.345    0.480   12.008
  305.042   48.075    0.340    0.484   12.000
  305.292   48.074    0.342    0.482   11.965
  305.542   48.092    0.337    0.469   11.777
  305.792   48.256    0.344    0.459   11.780
  306.042   46.123    0.333    0.444   11.780
  306.292   45.251    0.319    0.447   11.784
  306.542   44.235    0.323    0.464   11.865
  306.792   43.945    0.338    0.464   11.992
  307.042   44.563    0.338    0.463   11.993
  307.292   44.572    0.345    0.448   11.991
  307.542   43.950    0.336    0.433   11.989
  307.792   42.931    0.331    0.430   11.987
  308.042   42.789    0.340    0.439   11.985
  308.292   42.236    0.344    0.442   11.983
  308.542   41.575    0.338    0.459   11.982
  308.792   40.856    0.338    0.455   11.980
  309.042   39.886    0.348    0.437   11.973
  309.292   38.872    0.346    0.433   11.877
  309.542   38.611    0.342    0.434   11.759
  309.792   38.193    0.329    0.437   11.755
  310.042   37.368    0.321    0.445   11.770
  310.292   37.419    0.334    0.451   11.534
  310.542   37.015    0.335    0.468   11.539
  310.792   36.888    0.335    0.476   11.533
  311.042   36.265    0.336    0.471   11.531
  311.292   36.278    0.335    0.470   11.529
  311.542   36.376    0.345    0.468   11.528
  311.792   36.836    0.351    0.469   11.526
  312.042   37.484    0.355    0.468   11.526
  312.292   38.170    0.360    0.461   11.528
  312.542   39.208    0.348    0.456   11.347
  312.792   39.483    0.348    0.456   11.302
  313.042   40.536    0.339    0.457   11.536
  313.292   41.533    0.329    0.454   11.723
  313.542   42.561    0.334    0.464   12.045
  313.792   42.918    0.344    0.470   12.166
  314.042   42.523    0.336    0.476   11.898
  314.292   42.214    0.330    0.475   11.459
  314.542   41.720    0.342    0.469   11.110
  314.792   41.324    0.346    0.459   10.783
  315.042   41.703    0.349    0.466   10.486
  315.292   41.664    0.352    0.471   10.327
  315.542   41.993    0.356    0.472   10.320
  315.792   43.085    0.364    0.467   10.097
  316.042   45.026    0.364    0.458   10.110
  316.292   47.606    0.354    0.465   10.120
  316.542   47.155    0.353    0.468    9.915
  316.792   44.161    0.355    0.473    9.939
  317.042   42.321    0.356    0.480    9.713
  317.292   42.428    0.362    0.479    9.739
  317.542   42.798    0.368    0.477    9.559
  317.792   44.133    0.374    0.475    9.369
  318.042   46.613    0.354    0.472    9.223
  318.292   47.569    0.354    0.466    9.208
  318.542   48.541    0.365    0.476    9.198
  318.792   49.942    0.365    0.485    9.344
  319.042   52.582    0.366    0.492    9.367
  319.292   55.919    0.352    0.496    9.371
  319.542   60.303    0.349    0.490    9.350
  319.792   65.498    0.360    0.478    9.547
  320.042   68.301    0.354    0.468    9.717
  320.292   68.737    0.347    0.479    9.712
  320.542   66.516    0.341    0.484    9.717
  320.792   67.089    0.347    0.480    9.705
  321.042   68.742    0.333    0.476    9.909
  321.292   69.661    0.333    0.489    9.893
  321.542   70.636    0.333    0.500    9.877
  321.792   71.402    0.337    0.487   10.150
  322.042   71.364    0.341    0.501   10.690
  322.292   71.323    0.340    0.492   11.463
  322.542   72.271    0.338    0.477   13.179
  322.792   72.582    0.330    0.477   15.145
  323.042   65.166    0.334    0.488   17.122
  323.292   55.363    0.131    0.470   18.242
  323.542   49.887    0.099    0.304   19.146
  323.792   46.817    0.059    0.230   18.242
  324.042   54.547    0.032    0.223   15.582
  324.292   62.671    0.035    0.243   13.632
  324.542   67.127    0.046    0.296   11.896
  324.792   69.268    0.243    0.381   11.133
  325.042   70.250    0.288    0.451   10.435
  325.292   71.268    0.297    0.497   10.347
  325.542   75.443    0.295    0.492   10.239
  325.792   82.192    0.285    0.490   10.228
  326.042   84.635    0.264    0.497   10.162
  326.292   79.857    0.227    0.497   10.044
  326.542   76.022    0.195    0.504    9.485
  326.792   81.074    0.241    0.505    8.581
  327.042   85.255    0.269    0.510    8.219
  327.292   83.694    0.294    0.516    7.962
  327.542   81.488    0.330    0.497    7.930
