~VERSION INFORMATION
 VERS.                 2.0:   CWLS LOG ASCII STANDARD -VERSION 2.0
 WRAP.                  NO:   ONE LINE PER DEPTH STEP
~WELL INFORMATION BLOCK
#MNEM.UNIT           DATA                    DESCRIPTION OF MNEMONIC
#---------    -------------------            -------------------------------
# Generated from Intellog Unique Number	CW_73_75/WELL/3518
WELL.         PINNACLE RT AL NARTINHILL      : Well_name    - WELL
LOC .         00/03-05-075-02W5/0            : Location     - LOCATION
UWI .         00/03-05-075-02W5/0            : Uwi          - UNIQUE WELL ID
ENTR.         TIM                            : Entered      - ENTERED BY
SRVC.         SCHLUMBERGER                   : Scn          - SERVICE COMPANY
DATE.         05/25/92                       : Date         - LOG DATE
STRT.M        405                            : top_depth    - START DEPTH
STOP.M        650                            : bot_depth    - STOP DEPTH
STEP.M        0.25                           : increment    - STEP LENGTH
 NULL. -999.2500:NULL Value
~CURVE INFORMATION BLOCK
#MNEM UNIT       ERCB CURVE CODE    CURVE DESCRIPTION
#-----------   ------------------   ----------------------------------
DEPT.M        00 001 00 00         : DEPTH        - DEPTH
ILD .OHMM     00 120 00 00         : RESD         - DEEP RESISTIVITY (DIL)
DPHI.V/V      00 890 00 00         : PHID         - DENSITY POROSITY (SANDSTONE)
NPHI.V/V      00 330 00 00         : PHIN         - NEUTRON POROSITY (SANDSTONE)
GR  .API      00 310 00 00         : GR           - GAMMA RAY
~PARAMETER INFORMATION
#MNEM.UNIT           DATA             DESCRIPTION OF MNEMONIC
#---------         -----------     ------------------------------
GL  .M        702                  : gl           - GROUND LEVEL ELEVATION
EREF.M        706                  : kb           - ELEVATION OF DEPTH REFERENCE
DATM.M        706                  : datum        - DATUM ELEVATION
TDD .M        659                  : tdd          - TOTAL DEPTH DRILLER
RUN .         ONE                  : Run          - RUN NUMBER
ENG .         BILL                 : Engineer     - RECORDING ENGINEER
WIT .         JIM                  : Witness      - WITNESSED BY
MUD .         GEL                  : Mud_type     - MUD TYPE
MATR.         SANDSTONE            : Logunit      - NEUTRON MATRIX
TMAX.C        36                   : BHT          - MAXIMUM RECORDED TEMPERATURE
BHTD.M        658                  : BHTDEP       - MAXIMUM RECORDED TEMPERATURE
RMT .C        16                   : MDTP         - TEMPERATURE OF MUD
MUDD.KG/M     1045                 : MWT          - MUD DENSITY
NEUT.         1                    : NEUTRON      - NEUTRON TYPE
RESI.         0                    : RESIST       - RESISTIVITY TYPE
RM  .OHMM     9.2                  : RM           - RESISTIVITY OF MUD
RMC .OHMM     6.78                 : RMC          - RESISTIVITY OF MUD CAKE
RMF .OHMM     7.28                 : RMF          - RESISTIVITY OF MUD FILTRATE
SUFT.C        4                    : SUFT         - SURFACE TEMPERATURE
~A  DEPTH     RESD     PHID     PHIN       GR
  405.000    2.916    0.220    0.464   96.847
  405.250    2.910    0.215    0.462   96.169
  405.500    3.009    0.212    0.461   93.088
  405.750    3.173    0.214    0.450   92.410
  406.000    3.281    0.217    0.445   96.472
  406.250    3.338    0.217    0.457  103.483
  406.500    3.265    0.217    0.496  102.805
  406.750    3.198    0.228    0.507  100.336
  407.000    3.069    0.233    0.519  107.347
  407.250    2.951    0.234    0.512  108.438
  407.500    2.833    0.237    0.478   98.303
  407.750    2.825    0.224    0.469   96.991
  408.000    2.870    0.224    0.442   97.493
  408.250    2.918    0.227    0.428   97.449
  408.500    2.962    0.221    0.450   99.130
  408.750    3.009    0.219    0.466  104.327
  409.000    3.001    0.228    0.483  102.492
  409.250    3.164    0.238    0.488   91.767
  409.500    3.732    0.262    0.333   70.427
  409.750    4.485    0.275    0.326   53.214
  410.000    5.189    0.290    0.322   35.958
  410.250    5.890    0.277    0.322   37.639
  410.500    6.096    0.254    0.339   35.192
  410.750    5.857    0.239    0.356   32.178
  411.000    5.631    0.233    0.370   30.320
  411.250    5.213    0.249    0.378   32.002
  411.500    4.477    0.299    0.374   37.811
  411.750    4.298    0.299    0.375   51.898
  412.000    4.289    0.292    0.418   58.886
  412.250    4.439    0.281    0.441   64.718
  412.500    4.768    0.269    0.452   61.069
  412.750    5.215    0.264    0.431   46.216
  413.000    5.702    0.272    0.394   40.820
  413.250    5.801    0.268    0.357   38.351
  413.500    6.117    0.259    0.336   32.956
  413.750    6.214    0.252    0.323   28.128
  414.000    6.197    0.262    0.340   30.421
  414.250    6.065    0.277    0.355   36.797
  414.500    5.716    0.296    0.349   37.889
  414.750    5.496    0.307    0.346   37.801
  415.000    5.183    0.307    0.353   38.324
  415.250    4.888    0.279    0.355   38.826
  415.500    4.604    0.274    0.360   43.456
  415.750    4.510    0.252    0.383   54.594
  416.000    4.333    0.258    0.399   58.612
  416.250    4.083    0.258    0.393   55.598
  416.500    3.848    0.249    0.391   56.099
  416.750    3.703    0.235    0.406   68.985
  417.000    3.492    0.226    0.431   78.355
  417.250    3.355    0.213    0.441   80.013
  417.500    3.343    0.218    0.413   80.515
  417.750    3.334    0.222    0.410   80.427
  418.000    3.203    0.215    0.401   82.108
  418.250    3.135    0.202    0.405   83.811
  418.500    3.069    0.191    0.430   83.723
  418.750    3.061    0.229    0.441   79.507
  419.000    3.109    0.241    0.451   73.478
  419.250    3.098    0.241    0.436   73.389
  419.500    3.092    0.238    0.440   75.093
  419.750    3.083    0.239    0.441   76.162
  420.000    3.191    0.233    0.429   81.993
  420.250    3.182    0.238    0.442   87.234
  420.500    2.946    0.246    0.441   89.461
  420.750    2.826    0.240    0.424   88.828
  421.000    2.980    0.229    0.412   82.230
  421.250    3.082    0.220    0.411   75.655
  421.500    3.078    0.202    0.428   74.956
  421.750    3.012    0.186    0.453   76.047
  422.000    2.949    0.201    0.452   77.138
  422.250    2.833    0.214    0.409   80.021
  422.500    2.932    0.192    0.374   75.760
  422.750    3.147    0.191    0.365   71.566
  423.000    3.257    0.213    0.389   65.537
  423.250    3.127    0.232    0.413   72.570
  423.500    3.063    0.248    0.437   75.430
  423.750    2.887    0.253    0.406   72.371
  424.000    2.830    0.253    0.419   74.075
  424.250    2.717    0.228    0.444   74.554
  424.500    2.709    0.210    0.449   74.466
  424.750    2.700    0.211    0.454   79.118
  425.000    2.796    0.220    0.456   76.671
  425.250    2.944    0.231    0.438   70.074
  425.500    2.995    0.236    0.424   69.396
  425.750    3.043    0.247    0.426   74.004
  426.000    3.030    0.252    0.452   76.864
  426.250    2.968    0.251    0.449   76.208
  426.500    2.962    0.253    0.434   73.761
  426.750    2.895    0.261    0.419   73.061
  427.000    2.836    0.260    0.426   76.512
  427.250    2.830    0.253    0.437   74.065
  427.500    2.822    0.241    0.424   69.281
  427.750    2.920    0.244    0.356   46.739
  428.000    3.196    0.222    0.345   40.164
  428.250    3.433    0.207    0.415   45.383
  428.500    3.620    0.243    0.442   57.680
  428.750    3.609    0.249    0.431   64.100
  429.000    3.466    0.256    0.426   66.939
  429.250    3.392    0.250    0.448   68.052
  429.500    3.323    0.250    0.440   74.451
  429.750    3.192    0.255    0.416   66.697
  430.000    3.009    0.260    0.393   59.488
  430.250    3.000    0.258    0.429   66.499
  430.500    2.992    0.247    0.438   69.971
  430.750    2.983    0.250    0.433   68.703
  431.000    2.973    0.271    0.440   76.281
  431.250    3.022    0.284    0.475   83.860
  431.500    3.014    0.266    0.485   82.002
  431.750    2.948    0.252    0.499   77.786
  432.000    2.942    0.247    0.512   81.826
  432.250    2.825    0.261    0.508   83.485
  432.500    2.716    0.251    0.494   84.599
  432.750    2.559    0.242    0.485   81.540
  433.000    2.326    0.234    0.490   81.430
  433.250    2.235    0.226    0.508   81.975
  433.500    2.187    0.226    0.508   82.477
  433.750    2.100    0.223    0.499   88.286
  434.000    1.982    0.219    0.500   88.198
  434.250    2.013    0.216    0.515   87.520
  434.500    2.123    0.215    0.553   89.769
  434.750    2.157    0.215    0.569   92.062
  435.000    2.151    0.215    0.548   94.311
  435.250    2.143    0.218    0.510   95.402
  435.500    2.137    0.218    0.493   95.336
  435.750    2.133    0.217    0.499   91.688
  436.000    2.167    0.215    0.514   89.219
  436.250    2.242    0.208    0.501   85.614
  436.500    2.319    0.212    0.487   83.167
  436.750    2.313    0.218    0.496   82.489
  437.000    2.262    0.230    0.500   82.401
  437.250    2.214    0.239    0.502   87.031
  437.500    2.208    0.229    0.508   90.459
  437.750    2.203    0.227    0.531   89.192
  438.000    2.280    0.230    0.485   86.155
  438.250    2.404    0.203    0.470   81.939
  438.500    2.579    0.160    0.472   84.210
  438.750    2.717    0.202    0.474   87.048
  439.000    2.764    0.219    0.467   83.444
  439.250    2.810    0.228    0.447   80.997
  439.500    2.700    0.211    0.435   80.886
  439.750    2.643    0.197    0.426   84.359
  440.000    2.685    0.220    0.432   80.710
  440.250    2.779    0.225    0.453   77.674
  440.500    2.823    0.228    0.457   75.816
  440.750    2.815    0.233    0.430   72.757
  441.000    2.860    0.246    0.383   69.743
  441.250    3.072    0.258    0.380   66.094
  441.500    3.121    0.263    0.442   68.977
  441.750    3.053    0.265    0.456   75.944
  442.000    2.826    0.265    0.486   76.445
  442.250    2.570    0.290    0.510   78.126
  442.500    2.247    0.255    0.533   78.016
  442.750    2.119    0.231    0.527   77.360
  443.000    1.998    0.237    0.517   77.862
  443.250    1.993    0.259    0.501   80.133
  443.500    2.026    0.288    0.470   81.836
  443.750    2.257    0.298    0.423   79.978
  444.000    2.470    0.273    0.394   73.381
  444.250    2.753    0.246    0.401   67.396
  444.500    3.015    0.323    0.486   62.568
  444.750    3.237    0.321    0.468   55.403
  445.000    3.290    0.326    0.450   51.755
  445.250    3.343    0.331    0.447   52.824
  445.500    3.524    0.314    0.439   53.326
  445.750    3.932    0.295    0.463   50.901
  446.000    4.546    0.300    0.454   46.663
  446.250    5.164    0.271    0.404   44.238
  446.500    5.979    0.237    0.378   42.904
  446.750    6.786    0.200    0.335   42.860
  447.000    7.160    0.213    0.359   42.750
  447.250    7.549    0.299    0.430   43.252
  447.500    6.605    0.313    0.426   45.544
  447.750    6.006    0.342    0.400   49.562
  448.000    5.458    0.352    0.392   50.086
  448.250    5.144    0.355    0.393   46.460
