~VERSION INFORMATION
 VERS.                 2.0:   CWLS LOG ASCII STANDARD -VERSION 2.0
 WRAP.                  NO:   ONE LINE PER DEPTH STEP
~WELL INFORMATION BLOCK
#MNEM.UNIT           DATA                    DESCRIPTION OF MNEMONIC
#---------    -------------------            -------------------------------
# Generated from Intellog Unique Number	CS_71_72/WELL/818
WELL.         BOW VALLEY INDUSTRIES          : Well_name    - WELL
LOC .         00/07-25-071-18W4/0            : Location     - LOCATION
UWI .         00/07-25-071-18W4/0            : Uwi          - UNIQUE WELL ID
ENTR.         SP                             : Entered      - ENTERED BY
SRVC.         SCHLUMBERGER                   : Scn          - SERVICE COMPANY
STRT.M        289.56                         : top_depth    - START DEPTH
STOP.M        460.06                         : bot_depth    - STOP DEPTH
STEP.M        0.25                           : increment    - STEP LENGTH
 NULL. -999.2500:NULL Value
~CURVE INFORMATION BLOCK
#MNEM UNIT       ERCB CURVE CODE    CURVE DESCRIPTION
#-----------   ------------------   ----------------------------------
DEPT.M        00 001 00 00         : DEPTH        - DEPTH
GR  .API      00 310 00 00         : GR           - GAMMA RAY
DPHI.V/V      00 890 00 00         : PHID         - DENSITY POROSITY (SANDSTONE)
NPHI.V/V      00 330 00 00         : PHIN         - NEUTRON POROSITY (SANDSTONE)
ILD .OHMM     00 120 00 00         : RESD         - DEEP RESISTIVITY (DIL)
~PARAMETER INFORMATION
#MNEM.UNIT           DATA             DESCRIPTION OF MNEMONIC
#---------         -----------     ------------------------------
GL  .M        590.245              : gl           - GROUND LEVEL ELEVATION
EREF.M        592.836              : kb           - ELEVATION OF DEPTH REFERENCE
DATM.M        590.245              : datum        - DATUM ELEVATION
TDD .M        487.68               : tdd          - TOTAL DEPTH DRILLER
RUN .         ONE                  : Run          - RUN NUMBER
ENG .         BILL                 : Engineer     - RECORDING ENGINEER
WIT .         JIM                  : Witness      - WITNESSED BY
MUD .         GEL                  : Mud_type     - MUD TYPE
MATR.         SANDSTONE            : Logunit      - NEUTRON MATRIX
TMAX.C        11.6667              : BHT          - MAXIMUM RECORDED TEMPERATURE
BHTD.M        487.68               : BHTDEP       - MAXIMUM RECORDED TEMPERATURE
MATR.         1                    : LOGUNIT      - NEUTRON MATRIX
RMT .C        25                   : MDTP         - TEMPERATURE OF MUD
NEUT.         1                    : NEUTRON      - NEUTRON TYPE
RESI.         0                    : RESIST       - RESISTIVITY TYPE
RMC .OHMM     0.25                 : RMC          - RESISTIVITY OF MUD CAKE
RMF .OHMM     0.25                 : RMF          - RESISTIVITY OF MUD FILTRATE
SUFT.C        15                   : SUFT         - SURFACE TEMPERATURE
~A  DEPTH       GR     PHID     PHIN     RESD
# ...
  420.060   77.008    0.217    0.393    5.518
  420.310   78.009    0.212    0.396    5.306
  420.560   81.740    0.223    0.400    4.953
  420.810   86.832    0.239    0.418    4.611
  421.060   92.924    0.225    0.432    4.145
  421.310   97.848    0.208    0.455    3.805
  421.560  103.364    0.198    0.475    3.606
  421.810  105.015    0.219    0.505    3.541
  422.060  101.970    0.223    0.485    3.507
  422.310  101.605    0.222    0.476    3.529
  422.560  102.378    0.217    0.478    3.578
  422.810  102.751    0.211    0.480    3.606
  423.060  102.105    0.212    0.487    3.575
  423.310  101.880    0.214    0.497    3.492
  423.560  103.529    0.223    0.504    3.436
  423.810  105.241    0.232    0.492    3.395
  424.060  105.757    0.221    0.478    3.399
  424.310  104.201    0.209    0.471    3.416
  424.560  102.733    0.203    0.479    3.498
  424.810  102.212    0.195    0.488    3.582
  425.060  102.386    0.187    0.461    3.697
  425.310  104.821    0.175    0.443    3.803
  425.560  106.633    0.168    0.428    3.930
  425.810  108.545    0.166    0.421    4.086
  426.060  109.657    0.161    0.417    4.256
  426.310  109.120    0.153    0.419    4.428
  426.560  108.239    0.159    0.425    4.681
  426.810  107.716    0.164    0.429    4.930
  427.060  107.310    0.160    0.427    5.254
  427.310  106.153    0.156    0.418    5.508
  427.560  103.061    0.151    0.400    5.875
  427.810   97.050    0.154    0.379    6.479
  428.060   86.372    0.151    0.357    7.427
  428.310   81.001    0.079    0.355    8.487
  428.560   73.943    0.062    0.359    9.484
  428.810   71.314    0.050    0.307   10.329
  429.060   74.732    0.080    0.291   11.319
  429.310   75.456    0.079    0.282   12.167
  429.560   73.244    0.076    0.279   12.595
  429.810   70.421    0.087    0.289   12.496
  430.060   77.612    0.099    0.313   11.179
  430.310   83.895    0.115    0.330    9.607
  430.560   92.573    0.122    0.349    7.939
  430.810   96.066    0.147    0.372    7.064
  431.060   96.362    0.164    0.392    6.446
  431.310   96.142    0.157    0.401    6.017
  431.560   97.819    0.148    0.403    5.799
  431.810   98.620    0.148    0.402    5.810
  432.060   98.017    0.161    0.401    5.926
  432.310   96.807    0.171    0.399    6.004
  432.560   98.724    0.171    0.400    5.953
  432.810  100.452    0.166    0.405    6.016
  433.060   99.838    0.164    0.410    6.123
  433.310   97.258    0.168    0.413    6.228
  433.560   95.266    0.145    0.413    6.311
  433.810   96.509    0.135    0.413    6.374
  434.060   97.974    0.124    0.414    6.426
  434.310   97.932    0.125    0.413    6.457
  434.560   96.400    0.135    0.405    6.512
  434.810   95.140    0.141    0.402    6.641
  435.060   94.083    0.140    0.401    6.740
  435.310   93.734    0.130    0.404    6.907
  435.560   94.039    0.117    0.408    7.007
  435.810   96.060    0.117    0.390    7.009
  436.060   98.481    0.130    0.377    6.738
  436.310  102.271    0.160    0.379    6.357
  436.560  104.228    0.168    0.389    6.057
  436.810  105.873    0.166    0.386    5.889
  437.060  104.978    0.175    0.376    5.899
  437.310  101.682    0.179    0.369    5.988
  437.560  103.043    0.178    0.365    6.098
  437.810  104.337    0.175    0.365    6.196
  438.060  104.006    0.149    0.361    6.287
  438.310  102.103    0.131    0.358    6.424
  438.560   99.387    0.118    0.371    6.441
  438.810   92.244    0.128    0.380    6.352
  439.060   91.498    0.139    0.387    6.257
  439.310   91.106    0.145    0.389    6.076
  439.560   91.552    0.148    0.391    5.866
  439.810   92.503    0.152    0.394    5.431
  440.060   95.007    0.154    0.401    4.726
  440.310  100.413    0.167    0.408    3.969
  440.560  106.853    0.178    0.426    3.151
  440.810  109.184    0.191    0.443    2.515
  441.060  109.674    0.200    0.477    2.232
  441.310  106.907    0.198    0.500    2.100
  441.560  102.833    0.193    0.510    2.300
  441.810   98.034    0.181    0.490    2.848
  442.060   93.507    0.158    0.439    3.515
  442.310   88.736    0.122    0.399    4.273
  442.560   85.651    0.105    0.378    5.011
  442.810   89.672    0.091    0.378    5.798
  443.060   95.953    0.112    0.381    6.152
  443.310   99.272    0.127    0.384    5.948
  443.560   96.823    0.136    0.386    5.669
  443.810   91.422    0.141    0.388    5.508
  444.060   97.075    0.146    0.391    5.465
  444.310   99.156    0.146    0.391    5.560
  444.560   93.419    0.135    0.390    5.778
  444.810   85.756    0.146    0.368    6.373
  445.060   78.197    0.075    0.344    6.855
  445.310   75.202    0.079    0.341    7.510
  445.560   75.345    0.082    0.335    8.029
  445.810   76.477    0.073    0.328    8.469
  446.060   79.034    0.077    0.324    7.346
  446.310   84.568    0.084    0.334    6.427
  446.560   90.883    0.093    0.361    5.598
  446.810   95.135    0.117    0.393    4.731
  447.060  100.684    0.132    0.413    4.132
  447.310  105.137    0.135    0.427    3.594
  447.560  106.999    0.147    0.436    3.321
  447.810  106.683    0.161    0.444    3.219
  448.060  105.384    0.172    0.454    3.221
  448.310  104.472    0.164    0.449    3.402
  448.560  101.746    0.142    0.421    3.705
  448.810  100.236    0.104    0.404    4.179
  449.060   99.232    0.076    0.392    4.455
  449.310  102.845    0.063    0.401    4.882
  449.560  106.711    0.130    0.431    4.865
  449.810  109.459    0.134    0.428    4.521
  450.060  110.594    0.123    0.425    4.376
  450.310  108.318    0.120    0.430    4.374
  450.560  105.293    0.147    0.434    4.457
  450.810  103.116    0.134    0.413    4.617
  451.060  103.656    0.145    0.400    4.717
  451.310  103.781    0.157    0.396    4.911
  451.560  104.929    0.156    0.394    5.066
  451.810  107.255    0.150    0.398    5.258
  452.060  107.392    0.128    0.409    5.413
  452.310  102.601    0.104    0.420    5.461
  452.560   97.485    0.097    0.388    5.306
  452.810   98.490    0.090    0.376    5.027
  453.060  104.268    0.111    0.399    4.787
  453.310  108.935    0.137    0.427    4.549
  453.560  112.735    0.140    0.447    4.414
  453.810  112.639    0.136    0.423    4.650
  454.060  106.072    0.145    0.396    5.486
  454.310   96.002    0.148    0.374    6.619
  454.560   84.108    0.148    0.356    7.971
  454.810   76.137    0.146    0.337    9.117
  455.060   70.911    0.166    0.317   10.361
  455.310   69.089    0.183    0.297   11.469
  455.560   68.076    0.184    0.285   12.687
  455.810   73.055    0.189    0.283   13.688
  456.060   74.549    0.215    0.291   14.495
  456.310   73.355    0.274    0.299   15.074
  456.560   75.871    0.305    0.305   15.543
  456.810   80.702    0.288    0.309   15.799
  457.060   85.492    0.273    0.313   17.276
  457.310   90.798    0.268    0.331   23.198
  457.560   93.941    0.263    0.337   27.585
  457.810   53.129    0.231    0.335   32.746
  458.060   40.022    0.163    0.305   39.601
  458.310   33.061    0.075    0.259   44.799
  458.560   30.398    0.044    0.248   47.202
  458.810   30.171    0.036    0.259   44.907
  459.060   30.667    0.033    0.266   41.426
  459.310   29.204    0.037    0.252   43.049
  459.560   28.296    0.025    0.240   48.316
  459.810   27.609    0.018    0.238   52.749
  460.060   26.982    0.018    0.243   55.717
