~VERSION INFORMATION
 VERS.                 2.0:   CWLS LOG ASCII STANDARD -VERSION 2.0
 WRAP.                  NO:   ONE LINE PER DEPTH STEP
~WELL INFORMATION BLOCK
#MNEM.UNIT           DATA                    DESCRIPTION OF MNEMONIC
#---------    -------------------            -------------------------------
# Generated from Intellog Unique Number	CS_77_79/WELL/920
WELL.         CANADIAN WORLDWIDE ENERGY      : Well_name    - WELL
LOC .         00/08-20-077-05W4/0            : Location     - LOCATION
UWI .         00/08-20-077-05W4/0            : Uwi          - UNIQUE WELL ID
ENTR.         SP                             : Entered      - ENTERED BY
SRVC.         SCHLUMBERGER                   : Scn          - SERVICE COMPANY
STRT.M        155.250                        : top_depth    - START DEPTH
STOP.M        408.000                        : bot_depth    - STOP DEPTH
STEP.M        0.25                           : increment    - STEP LENGTH
 NULL. -999.2500:NULL Value
~CURVE INFORMATION BLOCK
#MNEM UNIT       ERCB CURVE CODE    CURVE DESCRIPTION
#-----------   ------------------   ----------------------------------
DEPT.M        00 001 00 00         : DEPTH        - DEPTH
ILD .OHMM     00 120 00 00         : RESD         - DEEP RESISTIVITY (DIL)
DPHI.V/V      00 890 00 00         : PHID         - DENSITY POROSITY (SANDSTONE)
NPHI.V/V      00 330 00 00         : PHIN         - NEUTRON POROSITY (SANDSTONE)
GR  .API      00 310 00 00         : GR           - GAMMA RAY
~PARAMETER INFORMATION
#MNEM.UNIT           DATA             DESCRIPTION OF MNEMONIC
#---------         -----------     ------------------------------
GL  .M        570.1                : gl           - GROUND LEVEL ELEVATION
EREF.M        574                  : kb           - ELEVATION OF DEPTH REFERENCE
DATM.M        570.1                : datum        - DATUM ELEVATION
TDD .M        415                  : tdd          - TOTAL DEPTH DRILLER
RUN .         ONE                  : Run          - RUN NUMBER
ENG .         BILL                 : Engineer     - RECORDING ENGINEER
WIT .         JIM                  : Witness      - WITNESSED BY
MUD .         GEL                  : Mud_type     - MUD TYPE
MATR.         SANDSTONE            : Logunit      - NEUTRON MATRIX
TMAX.C        20                   : BHT          - MAXIMUM RECORDED TEMPERATURE
BHTD.M        415                  : BHTDEP       - MAXIMUM RECORDED TEMPERATURE
MATR.         1                    : LOGUNIT      - NEUTRON MATRIX
RMT .C        25                   : MDTP         - TEMPERATURE OF MUD
NEUT.         1                    : NEUTRON      - NEUTRON TYPE
RESI.         0                    : RESIST       - RESISTIVITY TYPE
RMC .OHMM     0.25                 : RMC          - RESISTIVITY OF MUD CAKE
RMF .OHMM     0.25                 : RMF          - RESISTIVITY OF MUD FILTRATE
SUFT.C        15                   : SUFT         - SURFACE TEMPERATURE
~A  DEPTH     RESD     PHID     PHIN       GR
  155.250    2.759    0.311    0.487   99.206
  155.500    2.762    0.309    0.489  100.451
  155.750    2.764    0.294    0.432  101.694
  156.000    2.766    0.285    0.425  104.780
  156.250    2.769    0.276    0.448  104.800
  156.500    2.772    0.275    0.454  102.982
  156.750    2.774    0.270    0.470  104.848
  157.000    2.726    0.268    0.482  103.639
  157.250    2.728    0.270    0.492   97.548
  157.500    2.731    0.274    0.492   94.502
  157.750    2.733    0.279    0.475   96.371
  158.000    2.840    0.279    0.477   97.611
  158.250    2.896    0.276    0.489  102.528
  158.500    2.954    0.272    0.497  107.465
  158.750    2.956    0.265    0.487  107.477
  159.000    2.904    0.246    0.490  107.491
  159.250    2.963    0.250    0.485  108.127
  159.500    2.966    0.260    0.458  106.310
  159.750    3.025    0.261    0.478  106.334
  160.000    3.027    0.255    0.494  108.198
  160.250    3.088    0.247    0.506  109.437
  160.500    3.090    0.241    0.510  107.625
  160.750    3.152    0.251    0.489  103.973
  161.000    3.155    0.257    0.441  110.118
  161.250    3.098    0.248    0.441  109.534
  161.500    3.282    0.236    0.431  106.499
  161.750    3.347    0.238    0.418  104.674
  162.000    3.414    0.235    0.424  102.248
  162.250    3.482    0.229    0.432   99.825
  162.500    3.551    0.230    0.433   99.851
  162.750    3.488    0.237    0.434  105.991
  163.000    3.491    0.247    0.453  110.299
  163.250    3.560    0.253    0.465  112.153
  163.500    3.771    0.246    0.478  107.281
  163.750    4.305    0.242    0.483  104.243
  164.000    4.822    0.246    0.483  110.385
  164.250    5.503    0.250    0.482  102.456
  164.500    6.165    0.258    0.342   95.737
  164.750    7.306    0.159    0.280   42.500
  165.000   10.447    0.121    0.278   32.726
  165.250   15.509    0.233    0.278   26.021
  165.500   18.382    0.318    0.281   26.037
  165.750   15.540    0.346    0.288   27.288
  166.000   12.415    0.329    0.295   37.101
  166.250    8.380    0.293    0.304   53.038
  166.500    6.450    0.311    0.321   66.534
  166.750    5.767    0.308    0.341   78.186
  167.000    4.609    0.278    0.364   89.839
  167.250    4.122    0.219    0.389  103.939
  167.500    4.205    0.217    0.422  108.862
  167.750    4.536    0.226    0.447  102.152
  168.000    6.247    0.273    0.464   93.598
  168.250    7.687    0.314    0.453   63.012
  168.500    9.821    0.374    0.369   43.443
  168.750   12.312    0.441    0.354   39.184
  169.000   15.436    0.384    0.357   42.875
  169.250   17.294    0.342    0.360   49.025
  169.500   16.061    0.335    0.355   56.394
  169.750   14.911    0.332    0.350   65.596
  170.000   12.604    0.320    0.357   78.475
  170.250   11.273    0.309    0.362   85.843
  170.500   10.469    0.286    0.370   88.924
  170.750    9.908    0.275    0.374   98.744
  171.000    9.912    0.263    0.361   99.990
  171.250   10.109    0.243    0.347   96.337
  171.500   11.327    0.230    0.338   98.202
  171.750   12.219    0.239    0.334   96.992
  172.000   13.689    0.248    0.343   85.386
  172.250   13.705    0.247    0.352   81.737
  172.500   13.217    0.234    0.343   84.205
  172.750   13.226    0.196    0.336   88.514
  173.000   13.486    0.164    0.325   91.595
  173.250   14.283    0.238    0.337  100.191
  173.500   14.842    0.261    0.358  103.882
  173.750   15.724    0.270    0.363  102.681
  174.000   16.031    0.275    0.359   92.911
  174.250   16.346    0.277    0.340   90.482
  174.500   15.465    0.270    0.333   92.960
  174.750   14.094    0.267    0.328   92.975
  175.000   12.844    0.257    0.353   97.285
  175.250   11.488    0.218    0.363  104.654
  175.500   11.501    0.197    0.370  110.794
  175.750   12.404    0.203    0.360  117.551
  176.000   14.162    0.205    0.355  116.348
  176.250   15.571    0.215    0.350  112.085
  176.500   17.445    0.244    0.344   99.255
  176.750   18.821    0.268    0.319   87.032
  177.000   20.304    0.290    0.330   69.299
  177.250   21.906    0.313    0.340   50.344
  177.500   21.928    0.325    0.337   50.366
  177.750   22.787    0.340    0.337   53.452
  178.000   22.384    0.348    0.346   60.210
  178.250   20.399    0.358    0.356   69.411
  178.500   17.576    0.367    0.361   68.211
  178.750   15.423    0.364    0.367   68.843
  179.000   13.535    0.341    0.371   79.275
  179.250   11.443    0.292    0.377   93.991
  179.500    9.674    0.260    0.379   97.687
  179.750    8.653    0.243    0.380  100.766
  180.000    8.185    0.232    0.368  108.135
  180.250    7.747    0.220    0.353  108.160
  180.500    7.752    0.215    0.343  105.127
  180.750    7.759    0.219    0.354  103.918
  181.000    7.914    0.228    0.378  104.550
  181.250    8.223    0.224    0.402  108.249
  181.500    9.746    0.221    0.416  111.330
  181.750   11.550    0.234    0.400  105.844
  182.000   13.435    0.270    0.376   83.825
  182.250   15.922    0.301    0.360   53.852
  182.500   17.504    0.340    0.360   48.974
  182.750   18.890    0.352    0.359   53.898
  183.000   19.273    0.345    0.351   58.819
  183.250   18.924    0.335    0.341   64.358
  183.500   17.572    0.336    0.334   66.824
  183.750   16.016    0.335    0.325   68.066
  184.000   14.593    0.324    0.320   69.925
  184.250   12.570    0.308    0.337   74.232
  184.500   10.627    0.300    0.353   83.439
  184.750    9.503    0.292    0.357   95.701
  185.000    8.498    0.274    0.376  112.254
  185.250    7.459    0.172    0.402  114.116
  185.500    6.926    0.138    0.423  111.691
  185.750    6.555    0.095    0.430  109.260
  186.000    6.319    0.126    0.418  118.465
  186.250    6.090    0.162    0.432  122.160
  186.500    5.657    0.159    0.443  116.062
  186.750    5.452    0.157    0.431  113.641
  187.000    5.064    0.163    0.395  115.492
  187.250    4.790    0.210    0.406  124.095
  187.500    4.533    0.218    0.420  126.555
  187.750    4.452    0.213    0.426  127.804
  188.000    4.540    0.202    0.426  121.703
  188.250    5.280    0.203    0.446  117.440
  188.500    7.005    0.247    0.459   92.974
  188.750    9.466    0.280    0.444   65.447
  189.000   14.053    0.311    0.411   56.291
  189.250   20.094    0.332    0.393   59.374
  189.500   23.818    0.339    0.364   63.679
  189.750   24.286    0.343    0.351   61.868
  190.000   23.420    0.353    0.351   58.216
  190.250   23.447    0.343    0.351   55.177
  190.500   23.462    0.336    0.345   52.749
  190.750   23.924    0.331    0.351   49.099
  191.000   24.401    0.340    0.361   46.062
  191.250   25.373    0.345    0.365   45.477
  191.500   25.873    0.344    0.361   51.619
  191.750   26.378    0.345    0.352   60.207
  192.000   27.413    0.360    0.355   63.289
  192.250   29.034    0.355    0.355   58.415
  192.500   30.184    0.350    0.353   55.377
  192.750   30.202    0.345    0.352   57.239
  193.000   30.808    0.338    0.353   63.989
  193.250   30.837    0.337    0.357   59.119
  193.500   30.854    0.345    0.362   53.629
  193.750   30.888    0.345    0.357   53.041
  194.000   30.930    0.341    0.353   59.184
  194.250   30.950    0.340    0.346   67.781
  194.500   30.396    0.335    0.342   67.799
  194.750   30.425    0.337    0.348   62.316
  195.000   29.884    0.341    0.354   63.562
  195.250   29.375    0.349    0.359   68.479
  195.500   28.846    0.358    0.361   78.297
  195.750   28.340    0.350    0.364   88.722
  196.000   27.826    0.331    0.367   93.644
  196.250   26.328    0.323    0.372   84.481
  196.500   24.920    0.311    0.374   69.198
  196.750   24.469    0.298    0.367   58.813
  197.000   23.161    0.297    0.365   56.388
  197.250   22.321    0.292    0.362   64.382
  197.500   21.524    0.288    0.363   66.842
  197.750   21.144    0.286    0.370   72.376
  198.000   20.768    0.290    0.375   79.132
  198.250   20.021    0.297    0.381   88.336
  198.500   19.673    0.302    0.393   95.091
