~VERSION INFORMATION
 VERS.                 2.0:   CWLS LOG ASCII STANDARD -VERSION 2.0
 WRAP.                  NO:   ONE LINE PER DEPTH STEP
~WELL INFORMATION BLOCK
#MNEM.UNIT           DATA                    DESCRIPTION OF MNEMONIC
#---------    -------------------            -------------------------------
# Generated from Intellog Unique Number	CS_73_76/WELL/608
WELL.         CAVALIER ENERGY INC.           : Well_name    - WELL
LOC .         00/06-06-073-14W4/0            : Location     - LOCATION
UWI .         00/06-06-073-14W4/0            : Uwi          - UNIQUE WELL ID
ENTR.         SP                             : Entered      - ENTERED BY
SRVC.         SCHLUMBERGER                   : Scn          - SERVICE COMPANY
STRT.M        283.464                        : top_depth    - START DEPTH
STOP.M        464.964                        : bot_depth    - STOP DEPTH
STEP.M        0.25                           : increment    - STEP LENGTH
 NULL. -999.2500:NULL Value
~CURVE INFORMATION BLOCK
#MNEM UNIT       ERCB CURVE CODE    CURVE DESCRIPTION
#-----------   ------------------   ----------------------------------
DEPT.M        00 001 00 00         : DEPTH        - DEPTH
GR  .API      00 310 00 00         : GR           - GAMMA RAY
DPHI.V/V      00 890 00 00         : PHID         - DENSITY POROSITY (SANDSTONE)
NPHI.V/V      00 330 00 00         : PHIN         - NEUTRON POROSITY (SANDSTONE)
ILD .OHMM     00 120 00 00         : RESD         - DEEP RESISTIVITY (DIL)
~PARAMETER INFORMATION
#MNEM.UNIT           DATA             DESCRIPTION OF MNEMONIC
#---------         -----------     ------------------------------
GL  .M        606.552              : gl           - GROUND LEVEL ELEVATION
EREF.M        609.6                : kb           - ELEVATION OF DEPTH REFERENCE
DATM.M        606.552              : datum        - DATUM ELEVATION
TDD .M        479.146              : tdd          - TOTAL DEPTH DRILLER
RUN .         ONE                  : Run          - RUN NUMBER
ENG .         BILL                 : Engineer     - RECORDING ENGINEER
WIT .         JIM                  : Witness      - WITNESSED BY
MUD .         GEL                  : Mud_type     - MUD TYPE
MATR.         SANDSTONE            : Logunit      - NEUTRON MATRIX
TMAX.C        18.8889              : BHT          - MAXIMUM RECORDED TEMPERATURE
BHTD.M        573.024              : BHTDEP       - MAXIMUM RECORDED TEMPERATURE
MATR.         1                    : LOGUNIT      - NEUTRON MATRIX
RMT .C        25                   : MDTP         - TEMPERATURE OF MUD
NEUT.         1                    : NEUTRON      - NEUTRON TYPE
RESI.         0                    : RESIST       - RESISTIVITY TYPE
RMC .OHMM     0.25                 : RMC          - RESISTIVITY OF MUD CAKE
RMF .OHMM     0.25                 : RMF          - RESISTIVITY OF MUD FILTRATE
SUFT.C        15                   : SUFT         - SURFACE TEMPERATURE
~A  DEPTH       GR     PHID     PHIN     RESD
# ...
  413.964  107.115    0.270    0.438    5.660
  414.214  107.484    0.285    0.446    5.616
  414.464  109.093    0.291    0.457    5.397
  414.714  111.213    0.271    0.454    5.272
  414.964  108.468    0.268    0.435    5.213
  415.214  105.131    0.268    0.454    5.083
  415.464  106.536    0.275    0.469    5.045
  415.714  109.504    0.286    0.476    4.969
  415.964  111.357    0.300    0.484    5.001
  416.214  108.862    0.299    0.470    5.050
  416.464  109.005    0.293    0.463    5.134
  416.714  111.900    0.291    0.459    5.132
  416.964  113.924    0.303    0.461    5.051
  417.214  114.427    0.298    0.451    4.921
  417.464  117.687    0.282    0.450    4.793
  417.714  117.328    0.271    0.474    4.587
  417.964  116.210    0.284    0.486    4.456
  418.214  115.980    0.297    0.482    4.222
  418.464  115.861    0.299    0.483    4.024
  418.714  117.312    0.299    0.500    3.883
  418.964  117.900    0.311    0.499    3.935
  419.214  118.701    0.302    0.451    4.239
  419.464  106.952    0.262    0.420    4.734
  419.714  101.712    0.214    0.412    5.754
  419.964   95.372    0.213    0.415    6.996
  420.214   95.369    0.287    0.419    8.362
  420.464  100.353    0.315    0.422    9.357
  420.714   97.832    0.288    0.406   10.088
  420.964   91.596    0.253    0.379    9.969
  421.214   90.428    0.256    0.384    9.445
  421.464   92.979    0.318    0.430    8.645
  421.714   93.151    0.321    0.448    7.932
  421.964   92.678    0.302    0.448    7.349
  422.214   92.856    0.288    0.441    6.818
  422.464   93.249    0.281    0.440    6.205
  422.714   95.561    0.288    0.458    5.838
  422.964   97.335    0.314    0.459    5.876
  423.214   97.618    0.319    0.454    5.981
  423.464   98.957    0.310    0.453    6.147
  423.714   99.665    0.292    0.448    6.229
  423.964  101.907    0.302    0.453    6.219
  424.214  103.028    0.296    0.453    6.227
  424.464  104.152    0.292    0.445    6.132
  424.714  106.747    0.294    0.437    6.146
  424.964  107.602    0.298    0.448    6.049
  425.214  103.253    0.312    0.454    6.056
  425.464  102.629    0.314    0.455    6.119
  425.714  104.179    0.324    0.466    6.160
  425.964  105.383    0.321    0.468    6.214
  426.214  106.841    0.306    0.462    6.259
  426.464  107.809    0.289    0.459    6.373
  426.714  106.759    0.263    0.462    6.444
  426.964  103.632    0.244    0.457    6.608
  427.214  102.236    0.243    0.456    6.983
  427.464  101.684    0.238    0.466    7.585
  427.714  102.337    0.202    0.442    7.689
  427.964  104.650    0.185    0.416    6.956
  428.214  107.836    0.250    0.443    6.317
  428.464  111.525    0.244    0.469    5.815
  428.714  115.713    0.232    0.470    5.563
  428.964  119.574    0.222    0.462    5.340
  429.214  120.690    0.236    0.459    5.438
  429.464  120.666    0.229    0.442    5.645
  429.714  119.813    0.222    0.431    5.850
  429.964  121.233    0.234    0.441    6.055
  430.214  123.312    0.240    0.452    6.118
  430.464  122.736    0.235    0.462    6.172
  430.714  121.105    0.249    0.472    6.115
  430.964  121.720    0.264    0.463    6.116
  431.214  124.311    0.252    0.436    6.209
  431.464  125.166    0.251    0.423    6.200
  431.714  123.546    0.253    0.422    6.207
  431.964  121.849    0.232    0.425    6.115
  432.214  116.443    0.210    0.438    6.037
  432.464  109.172    0.234    0.438    5.918
  432.714  104.867    0.221    0.427    5.711
  432.964  107.059    0.189    0.430    5.643
  433.214  111.236    0.217    0.440    5.561
  433.464  113.374    0.244    0.447    5.145
  433.714  111.729    0.246    0.434    4.499
  433.964  110.867    0.254    0.436    3.837
  434.214  113.296    0.264    0.461    3.376
  434.464  114.914    0.288    0.486    2.928
  434.714  114.817    0.295    0.527    2.553
  434.964  116.272    0.275    0.516    2.298
  435.214  118.866    0.275    0.529    2.245
  435.464  122.773    0.280    0.524    2.223
  435.714  125.575    0.266    0.538    2.220
  435.964  125.808    0.263    0.515    2.264
  436.214  126.424    0.262    0.506    2.396
  436.464  124.574    0.255    0.501    2.596
  436.714  120.736    0.241    0.471    2.940
  436.964  117.713    0.240    0.427    3.293
  437.214  111.625    0.214    0.417    3.740
  437.464  112.817    0.221    0.428    4.337
  437.714  115.897    0.231    0.425    5.023
  437.964  115.987    0.248    0.415    5.340
  438.214  115.020    0.230    0.410    5.382
  438.464  112.643    0.210    0.398    5.388
  438.714  112.233    0.195    0.388    5.378
  438.964  112.111    0.224    0.397    5.466
  439.214  108.459    0.230    0.407    5.614
  439.464  106.071    0.223    0.418    5.861
  439.714  102.831    0.207    0.424    6.330
  439.964   97.497    0.187    0.388    6.918
  440.214   95.059    0.148    0.348    7.357
  440.464   97.636    0.118    0.323    7.892
  440.714  102.897    0.158    0.356    8.232
  440.964  105.922    0.166    0.378    7.837
  441.214  111.303    0.189    0.395    7.086
  441.464  115.472    0.228    0.417    6.021
  441.714  119.994    0.241    0.425    5.180
  441.964  122.996    0.233    0.438    4.507
  442.214  122.112    0.233    0.442    4.157
  442.464  125.743    0.249    0.445    4.028
  442.714  128.019    0.235    0.444    3.952
  442.964  128.508    0.217    0.440    3.902
  443.214  126.562    0.213    0.443    3.857
  443.464  125.630    0.233    0.447    3.785
  443.714  126.434    0.224    0.454    3.788
  443.964  128.936    0.213    0.465    3.287
  444.214  132.648    0.184    0.477    3.315
  444.464  127.195    0.163    0.487    3.316
  444.714  123.099    0.132    0.458    3.227
  444.964  118.683    0.115    0.443    3.180
  445.214  121.471    0.192    0.461    3.043
  445.464  130.078    0.224    0.450    2.913
  445.714  132.548    0.235    0.466    2.851
  445.964  133.701    0.246    0.481    3.193
  446.214  133.579    0.250    0.479    3.441
  446.464  130.071    0.238    0.463    3.875
  446.714  124.241    0.243    0.453    4.207
  446.964  124.417    0.233    0.437    4.552
  447.214  127.414    0.235    0.421    4.516
  447.464  137.748    0.244    0.447    4.152
  447.714  147.747    0.247    0.463    3.603
  447.964  154.397    0.249    0.475    3.403
  448.214  157.286    0.253    0.492    3.299
  448.464  157.918    0.238    0.495    3.373
  448.714  158.688    0.229    0.461    3.995
  448.964  158.005    0.219    0.433    4.741
  449.214  156.052    0.207    0.408    6.848
  449.464  149.029    0.197    0.366    8.909
  449.714  116.845    0.182    0.337   10.431
  449.964  100.647    0.171    0.308   12.377
  450.214   90.407    0.164    0.291   14.334
  450.464   80.788    0.232    0.309   16.634
  450.714   71.916    0.270    0.309   18.665
  450.964   71.374    0.290    0.311   19.086
  451.214   75.420    0.283    0.316   19.587
  451.464   77.276    0.244    0.324   20.346
  451.714   77.005    0.220    0.321   18.974
  451.964   77.341    0.201    0.295   21.597
  452.214   74.566    0.170    0.245   24.319
  452.464   78.247    0.169    0.242   26.822
  452.714   86.034    0.272    0.321   28.142
  452.964   90.553    0.309    0.379   28.351
  453.214   92.786    0.310    0.376   27.111
  453.464   98.120    0.286    0.369   25.186
  453.714  104.929    0.269    0.364   20.137
  453.964  109.576    0.258    0.367   18.239
  454.214  115.565    0.243    0.369   15.560
  454.464  121.636    0.220    0.371   13.264
  454.714  128.195    0.233    0.363   11.555
  454.964  131.727    0.250    0.359   10.034
  455.214  135.197    0.243    0.368    8.950
  455.464  142.249    0.233    0.381    8.330
  455.714  150.061    0.222    0.395    7.918
  455.964  153.493    0.215    0.411    7.794
  456.214  151.693    0.212    0.404    8.381
  456.464  144.864    0.236    0.407    9.809
  456.714  140.899    0.248    0.400   11.712
  456.964  136.831    0.242    0.392   13.715
  457.214  124.353    0.248    0.386   15.618
