~VERSION INFORMATION
 VERS.                 2.0:   CWLS LOG ASCII STANDARD -VERSION 2.0
 WRAP.                  NO:   ONE LINE PER DEPTH STEP
~WELL INFORMATION BLOCK
#MNEM.UNIT           DATA                    DESCRIPTION OF MNEMONIC
#---------    -------------------            -------------------------------
# Generated from Intellog Unique Number	CW_70_72/WELL/199
NULL.         -999.25                        : NULL_VALUE
WELL.         GULF NORCEN MITSUE 02-36       : Well_name    - WELL              
LOC .         02-36-072-04W5                 : Location     - LOCATION          
UWI .         00/02-36-072-04W5/0            : Uwi          - UNIQUE WELL ID    
ENTR.         JAYE                           : Entered      - ENTERED BY        
SRVC.         COMPUTALOG                     : Scn          - SERVICE COMPANY   
DATE.         20 JAN 83                      : Date         - LOG DATE          
STRT.M        375                            : top_depth    - START DEPTH       
STOP.M        580                            : bot_depth    - STOP DEPTH        
STEP.M        0.25                           : increment    - STEP LENGTH       
~CURVE INFORMATION BLOCK
#MNEM UNIT       ERCB CURVE CODE    CURVE DESCRIPTION
#-----------   ------------------   ----------------------------------
DEPT.M        00 001 00 00         : DEPTH        - DEPTH                       
DPHI.V/V      00 890 00 00         : PHID         - DENSITY POROSITY (SANDSTONE)
NPHI.V/V      00 330 00 00         : PHIN         - NEUTRON POROSITY (SANDSTONE)
GR  .API      00 310 00 00         : GR           - GAMMA RAY                   
CALI.MM       00 280 01 00         : CAL          - CALIPER                     
ILD .OHMM     00 120 00 00         : RESD         - DEEP RESISTIVITY (DIL)      
~PARAMETER INFORMATION       
#MNEM.UNIT           DATA             DESCRIPTION OF MNEMONIC
#---------         -----------     ------------------------------
GL  .M        588.1                : gl           - GROUND LEVEL ELEVATION      
EREF.M        592.9                : kb           - ELEVATION OF DEPTH REFERENCE
DATM.M        588.1                : datum        - DATUM ELEVATION             
TDD .M        1647                 : tdd          - TOTAL DEPTH DRILLER         
RUN .         ONE                  : Run          - RUN NUMBER                  
ENG .         AASLAND              : Engineer     - RECORDING ENGINEER          
WIT .         FITZGERALD           : Witness      - WITNESSED BY                
BASE.         EDM                  : Branch       - HOME BASE OF LOGGING UNIT   
MUD .         GEL CHEM             : Mud_type     - MUD TYPE                    
MATR.         SANDSTONE            : Logunit      - NEUTRON MATRIX              
TMAX.C        52                   : BHT          - MAXIMUM RECORDED TEMPERATURE
BHTD.M        1645.6               : BHTDEP       - MAXIMUM RECORDED TEMPERATURE
RMT .C        21                   : MDTP         - TEMPERATURE OF MUD          
MUDD.KG/M     1100                 : MWT          - MUD DENSITY                 
NEUT.         1                    : NEUTRON      - NEUTRON TYPE                
RESI.         0                    : RESIST       - RESISTIVITY TYPE            
RM  .OHMM     0.37                 : RM           - RESISTIVITY OF MUD          
RMC .OHMM     0.38                 : RMC          - RESISTIVITY OF MUD CAKE     
RMF .OHMM     0.34                 : RMF          - RESISTIVITY OF MUD FILTRATE 
SUFT.C        0                    : SUFT         - SURFACE TEMPERATURE         
~A  DEPTH     PHID     PHIN       GR      CAL     RESD
# ...
  484.500    0.076    0.227   46.936  286.460    8.542
  484.750    0.088    0.239   46.320  284.185    7.657
  485.000    0.148    0.321   46.833  271.062    6.968
  485.250    0.211    0.405   49.409  263.988    6.093
  485.500    0.244    0.408   51.548  263.381    5.556
  485.750    0.281    0.403   52.312  263.921    5.018
  486.000    0.279    0.403   53.574  263.000    4.708
  486.250    0.265    0.408   54.023  261.454    4.652
  486.500    0.255    0.424   50.655  260.223    4.613
  486.750    0.258    0.436   50.791  260.032    4.628
  487.000    0.278    0.432   52.431  259.112    4.714
  487.250    0.267    0.424   54.509  259.548    4.848
  487.500    0.253    0.411   55.582  269.476    5.013
  487.750    0.236    0.395   56.158  266.783    5.165
  488.000    0.227    0.384   56.230  261.169    5.142
  488.250    0.229    0.380   55.991  257.539    4.946
  488.500    0.241    0.385   55.376  256.099    4.723
  488.750    0.262    0.398   54.200  254.448    4.620
  489.000    0.284    0.414   53.397  253.530    4.444
  489.250    0.297    0.427   51.969  252.712    4.299
  489.500    0.297    0.444   51.230  251.690    4.152
  489.750    0.291    0.457   51.052  250.559    4.094
  490.000    0.281    0.450   52.255  248.909    4.044
  490.250    0.276    0.432   53.453  247.258    4.011
  490.500    0.274    0.423   54.403  245.711    4.244
  490.750    0.271    0.438   54.540  244.374    5.222
  491.000    0.259    0.449   54.426  244.498    6.687
  491.250    0.232    0.439   55.313  245.976    8.041
  491.500    0.157    0.414   55.074  249.646   10.008
  491.750    0.042    0.205   52.645  254.671   12.336
  492.000    0.005    0.167   49.778  258.444   14.554
  492.250   -0.014    0.147   48.098  250.745   15.818
  492.500   -0.015    0.135   45.919  248.574   16.483
  492.750   -0.018    0.122   44.116  250.678   16.725
  493.000   -0.028    0.125   42.313  246.420   16.809
  493.250   -0.039    0.130   40.759  244.876   16.702
  493.500   -0.037    0.132   39.331  248.336   16.252
  493.750   -0.034    0.131   38.904  251.066   14.965
  494.000   -0.026    0.130   39.980  245.140   14.012
  494.250   -0.018    0.133   39.366  247.245   12.584
  494.500   -0.009    0.142   39.377  250.914    9.590
  494.750    0.001    0.161   40.578  243.842    7.726
  495.000    0.014    0.174   42.341  244.593    6.478
  495.250    0.051    0.190   44.354  248.050    5.525
  495.500    0.121    0.213   46.869  252.242    4.740
  495.750    0.231    0.268   49.258  252.157    4.066
  496.000    0.279    0.344   51.522  237.676    3.624
  496.250    0.289    0.379   53.412  235.818    3.479
  496.500    0.279    0.397   53.548  237.922    3.450
  496.750    0.267    0.401   52.559  244.410    3.474
  497.000    0.251    0.412   52.882  240.463    3.505
  497.250    0.229    0.426   53.583  239.334    3.571
  497.500    0.212    0.461   54.344  239.773    3.630
  497.750    0.210    0.436   54.794  241.147    3.662
  498.000    0.236    0.435   52.493  245.548    3.702
  498.250    0.251    0.438   55.066  250.466    3.720
  498.500    0.258    0.436   60.146  250.902    3.746
  498.750    0.264    0.426   62.849  241.220    3.773
  499.000    0.261    0.414   61.421  242.805    3.785
  499.250    0.251    0.435   62.057  242.720    3.796
  499.500    0.241    0.446   63.822  241.489    3.794
  499.750    0.226    0.445   63.019  241.713    3.770
  500.000    0.230    0.435   61.778  242.149    3.774
  500.250    0.237    0.423   60.914  240.917    3.779
  500.500    0.243    0.421   60.174  240.518    3.805
  500.750    0.254    0.428   59.935  240.538    3.884
  501.000    0.257    0.429   59.883  240.243    3.926
  501.250    0.254    0.420   58.706  240.265    3.945
  501.500    0.250    0.410   58.907  240.489    3.935
  501.750    0.245    0.403   60.105  241.970    3.940
  502.000    0.231    0.388   62.932  246.263    3.914
  502.250    0.224    0.395   68.263  252.124    3.890
  502.500    0.230    0.410   68.463  252.663    3.872
  502.750    0.240    0.426   65.595  251.535    3.870
  503.000    0.242    0.444   63.166  244.460    3.883
  503.250    0.248    0.446   62.990  243.750    3.917
  503.500    0.254    0.437   63.939  245.646    3.951
  503.750    0.247    0.434   65.077  248.273    3.978
  504.000    0.233    0.432   65.715  250.169    3.999
  504.250    0.224    0.413   65.850  248.728    4.012
  504.500    0.238    0.424   63.296  249.478    4.039
  504.750    0.258    0.447   58.676  255.023    4.107
  505.000    0.267    0.459   57.812  250.350    4.175
  505.250    0.243    0.450   57.948  248.282    4.310
  505.500    0.228    0.425   58.459  248.407    4.440
  505.750    0.223    0.427   59.660  248.527    4.531
  506.000    0.233    0.435   60.985  249.902    4.633
  506.250    0.224    0.439   62.999  254.301    4.710
  506.500    0.201    0.439   65.388  261.309    4.816
  506.750    0.199    0.436   67.841  266.438    4.943
  507.000    0.217    0.428   69.666  253.003    5.171
  507.250    0.233    0.408   63.169  252.397    5.503
  507.500    0.242    0.402   59.926  255.230    6.015
  507.750    0.262    0.409   60.126  259.423    6.831
  508.000    0.296    0.411   60.012  258.710    7.537
  508.250    0.301    0.395   58.333  259.354    7.766
  508.500    0.285    0.359   61.974  265.634    7.543
  508.750    0.248    0.337   64.363  270.656    7.200
  509.000    0.232    0.349   66.128  261.914    6.704
  509.250    0.206    0.371   67.454  270.486    6.078
  509.500    0.196    0.404   68.841  281.249    5.165
  509.750    0.195    0.421   68.977  290.132    4.656
  510.000    0.198    0.426   66.298  287.753    4.514
  510.250    0.206    0.417   65.996  281.826    4.493
  510.500    0.219    0.406   66.946  278.611    4.647
  510.750    0.209    0.412   69.835  282.282    4.788
  511.000    0.193    0.408   71.287  288.454    4.989
  511.250    0.190    0.403   68.920  294.211    5.239
  511.500    0.196    0.407   67.554  295.378    5.523
  511.750    0.208    0.409   63.936  294.456    5.767
  512.000    0.217    0.405   62.821  294.057    5.875
  512.250    0.219    0.394   64.648  294.077    5.814
  512.500    0.205    0.376   66.097  294.095    5.530
  512.750    0.191    0.387   66.547  293.278    5.219
  513.000    0.184    0.403   66.747  292.883    5.165
  513.250    0.181    0.415   67.134  293.316    5.163
  513.500    0.179    0.421   67.520  295.003    5.188
  513.750    0.176    0.425   68.031  296.378    5.244
  514.000    0.171    0.412   68.606  294.521    5.292
  514.250    0.188    0.391   68.304  288.594    5.317
  514.500    0.184    0.395   66.438  278.494    5.458
  514.750    0.171    0.420   64.822  285.502    5.698
  515.000    0.160    0.436   65.772  292.301    6.217
  515.250    0.154    0.453   68.036  293.571    7.210
  515.500    0.143    0.435   70.050  294.321    8.125
  515.750    0.126    0.372   57.482  291.836    7.090
  516.000    0.108    0.354   51.360  289.039    6.404
  516.250    0.130    0.379   55.753  293.229    5.953
  516.500    0.156    0.411   62.086  299.924    5.639
  516.750    0.176    0.421   68.230  305.262    5.455
  517.000    0.185    0.428   66.363  310.080    5.208
  517.250    0.182    0.425   66.312  312.289    4.767
  517.500    0.181    0.413   66.637  312.308    4.406
  517.750    0.186    0.400   66.209  312.013    4.420
  518.000    0.258    0.387   65.534  312.344    4.562
  518.250    0.339    0.395   65.670  314.555    4.690
  518.500    0.335    0.452   64.866  318.849    4.815
  518.750    0.238    0.454   63.751  317.200    4.914
  519.000    0.228    0.441   65.453  309.395    4.967
  519.250    0.213    0.427   68.279  311.499    5.002
  519.500    0.198    0.411   69.793  312.460    5.027
  519.750    0.180    0.400   71.369  311.642    5.023
  520.000    0.173    0.404   75.135  312.496    4.991
  520.250    0.176    0.399   75.899  312.722    4.903
  520.500    0.183    0.408   72.841  312.430    4.770
  520.750    0.188    0.423   67.033  313.596    4.624
