~VERSION INFORMATION
 VERS.                 2.0:   CWLS LOG ASCII STANDARD -VERSION 2.0
 WRAP.                  NO:   ONE LINE PER DEPTH STEP
~WELL INFORMATION BLOCK
#MNEM.UNIT           DATA                    DESCRIPTION OF MNEMONIC
#---------    -------------------            -------------------------------
# Generated from Intellog Unique Number	CN_94_101/WELL/3208
NULL.         -999.25                        : NULL_VALUE
WELL.         NORTHSTAR ET AL ELLS           : Well_name    - WELL              
LOC .         05-09-095-16W4                 : Location     - LOCATION          
UWI .         00/05-09-095-16W400            : Uwi          - UNIQUE WELL ID    
ENTR.         JOETTE                         : Entered      - ENTERED BY        
SRVC.         HALLIBURTON                    : Scn          - SERVICE COMPANY   
DATE.         14 MAR 90                      : Date         - LOG DATE          
STRT.M        150                            : top_depth    - START DEPTH       
STOP.M        270                            : bot_depth    - STOP DEPTH        
STEP.M        0.25                           : increment    - STEP LENGTH       
~CURVE INFORMATION BLOCK
#MNEM UNIT       ERCB CURVE CODE    CURVE DESCRIPTION
#-----------   ------------------   ----------------------------------
DEPT.M        00 001 00 00         : DEPTH        - DEPTH                       
GR  .API      00 310 00 00         : GR           - GAMMA RAY                   
NPHI.V/V      00 330 00 00         : PHIN         - NEUTRON POROSITY (SANDSTONE)
DPHI.V/V      00 890 00 00         : PHID         - DENSITY POROSITY (SANDSTONE)
ILD .OHMM     00 120 00 00         : RESD         - DEEP RESISTIVITY (DIL)      
~PARAMETER INFORMATION       
#MNEM.UNIT           DATA             DESCRIPTION OF MNEMONIC
#---------         -----------     ------------------------------
GL  .M        534.8                : gl           - GROUND LEVEL ELEVATION      
EREF.M        538.4                : kb           - ELEVATION OF DEPTH REFERENCE
DATM.M        538.4                : datum        - DATUM ELEVATION             
TDD .M        283.5                : tdd          - TOTAL DEPTH DRILLER         
RUN .         ONE                  : Run          - RUN NUMBER                  
ENG .         JO                   : Engineer     - RECORDING ENGINEER          
WIT .         TIM                  : Witness      - WITNESSED BY                
MUD .         GEL                  : Mud_type     - MUD TYPE                    
MATR.         SANDSTONE            : Logunit      - NEUTRON MATRIX              
TMAX.C        35                   : BHT          - MAXIMUM RECORDED TEMPERATURE
BHTD.M        283.5                : BHTDEP       - MAXIMUM RECORDED TEMPERATURE
RMT .C        15                   : MDTP         - TEMPERATURE OF MUD          
MUDD.KG/M     1040                 : MWT          - MUD DENSITY                 
NEUT.         1                    : NEUTRON      - NEUTRON TYPE                
RESI.         0                    : RESIST       - RESISTIVITY TYPE            
RM  .OHMM     0.28                 : RM           - RESISTIVITY OF MUD          
RMC .OHMM     0.35                 : RMC          - RESISTIVITY OF MUD CAKE     
RMF .OHMM     0.3                  : RMF          - RESISTIVITY OF MUD FILTRATE 
SUFT.C        4                    : SUFT         - SURFACE TEMPERATURE         
~A  DEPTH       GR     PHIN     PHID     RESD
# ...
  237.000   36.881    0.421    0.331   70.808
  237.250   44.464    0.420    0.324   65.737
  237.500   46.753    0.427    0.327   63.330
  237.750   43.785    0.449    0.323   58.777
  238.000   39.620    0.465    0.322   55.586
  238.250   40.748    0.450    0.339   51.651
  238.500   43.060    0.444    0.352   42.214
  238.750   44.763    0.442    0.344   35.146
  239.000   44.717    0.445    0.332   30.346
  239.250   44.073    0.452    0.338   25.265
  239.500   44.050    0.454    0.345   27.125
  239.750   42.830    0.449    0.354   28.622
  240.000   41.611    0.445    0.359   30.201
  240.250   42.727    0.437    0.354   33.040
  240.500   43.268    0.431    0.349   36.146
  240.750   40.875    0.424    0.342   37.430
  241.000   39.068    0.412    0.337   37.397
  241.250   40.207    0.417    0.336   35.356
  241.500   43.095    0.426    0.336   32.843
  241.750   45.983    0.433    0.337   31.631
  242.000   46.513    0.441    0.336   31.584
  242.250   45.293    0.441    0.331   30.996
  242.500   45.247    0.433    0.323   29.852
  242.750   46.962    0.413    0.312   26.241
  243.000   47.525    0.388    0.306   23.497
  243.250   48.653    0.388    0.308   21.041
  243.500   44.488    0.387    0.315   19.540
  243.750   39.736    0.369    0.327   20.612
  244.000   36.181    0.360    0.328   23.385
  244.250   33.190    0.364    0.331   25.129
  244.500   31.395    0.377    0.338   26.979
  244.750   31.924    0.412    0.345   27.450
  245.000   33.052    0.414    0.353   27.426
  245.250   34.191    0.409    0.356   27.880
  245.500   35.318    0.405    0.356   28.375
  245.750   36.434    0.405    0.354   28.862
  246.000   37.562    0.406    0.351   28.299
  246.250   38.114    0.406    0.346   27.254
  246.500   36.872    0.408    0.345   25.775
  246.750   35.675    0.415    0.345   23.929
  247.000   36.803    0.420    0.346   23.059
  247.250   40.266    0.428    0.351   21.808
  247.500   40.830    0.432    0.356   20.618
  247.750   40.784    0.431    0.358   19.504
  248.000   39.553    0.428    0.349   18.113
  248.250   39.507    0.424    0.344   17.130
  248.500   39.461    0.408    0.346   16.497
  248.750   41.175    0.403    0.341   16.171
  249.000   42.315    0.419    0.335   16.156
  249.250   45.789    0.430    0.325   16.142
  249.500   46.330    0.428    0.318   16.123
  249.750   46.284    0.420    0.320   16.103
  250.000   48.585    0.410    0.331   15.789
  250.250   54.983    0.399    0.332   15.486
  250.500   55.535    0.376    0.332   15.193
  250.750   51.370    0.373    0.325   14.632
  251.000   50.737    0.375    0.298   14.347
  251.250   55.397    0.386    0.295   14.075
  251.500   60.045    0.400    0.294   14.050
  251.750   63.520    0.411    0.288   14.042
  252.000   59.355    0.416    0.285   14.541
  252.250   56.973    0.420    0.310   15.339
  252.500   52.233    0.421    0.325   16.478
  252.750   51.600    0.419    0.317   17.706
  253.000   55.052    0.410    0.312   20.077
  253.250   57.365    0.393    0.310   20.809
  253.500   54.972    0.366    0.298   21.951
  253.750   52.590    0.318    0.284   22.738
  254.000   47.251    0.306    0.249   23.114
  254.250   48.391    0.317    0.293   23.093
  254.500   51.865    0.406    0.309   23.080
  254.750   50.646    0.429    0.322   21.034
  255.000   48.253    0.436    0.333   19.886
  255.250   50.542    0.433    0.305   19.510
  255.500   49.910    0.414    0.291   19.129
  255.750   46.941    0.395    0.241   18.767
  256.000   43.961    0.407    0.239   18.412
  256.250   38.623    0.411    0.292   18.058
  256.500   35.643    0.408    0.317   18.706
  256.750   33.261    0.397    0.309   19.732
  257.000   30.281    0.346    0.284   21.204
  257.250   29.062    0.295    0.248   24.949
  257.500   24.908    0.269    0.221   31.564
  257.750   21.928    0.320    0.280   33.908
  258.000   19.524    0.382    0.320   33.867
  258.250   18.304    0.421    0.368   33.227
  258.500   17.671    0.431    0.365   32.000
  258.750   17.614    0.433    0.361   33.137
  259.000   19.328    0.431    0.347   41.948
  259.250   19.892    0.430    0.342   55.071
  259.500   22.193    0.429    0.345   56.016
  259.750   26.243    0.424    0.344   55.949
  260.000   27.969    0.415    0.341   64.644
  260.250   26.163    0.415    0.335   65.733
  260.500   23.770    0.422    0.336   65.674
  260.750   21.952    0.435    0.344   63.232
  261.000   23.666    0.445    0.356   60.898
  261.250   25.381    0.447    0.369   60.807
  261.500   25.933    0.453    0.374   66.542
  261.750   27.647    0.452    0.367   71.505
  262.000   31.697    0.445    0.356   76.791
  262.250   29.316    0.435    0.354   76.677
  262.500   25.738    0.425    0.357   75.249
  262.750   23.943    0.430    0.361   71.164
  263.000   23.897    0.420    0.363   66.067
  263.250   25.024    0.408    0.364   61.372
  263.500   24.967    0.409    0.362   55.965
  263.750   24.921    0.412    0.362   50.114
  264.000   24.875    0.414    0.362   42.490
  264.250   24.242    0.414    0.357   35.375
  264.500   24.196    0.415    0.353   30.535
  264.750   24.737    0.414    0.352   27.845
  265.000   27.038    0.409    0.347   25.399
  265.250   29.351    0.400    0.332   21.535
  265.500   35.173    0.301    0.264   26.278
  265.750   39.833    0.198    0.176   32.646
  266.000   45.068    0.190    0.127   33.196
  266.250   49.693    0.192    0.028   32.578
  266.500   49.670    0.197    0.002   30.800
  266.750   50.211    0.210    0.005   28.611
  267.000   53.087    0.226    0.020   26.091
  267.250   59.508    0.239    0.033   23.792
  267.500   65.329    0.249    0.043   21.298
  267.750   67.642    0.263    0.040   19.072
  268.000   69.357    0.276    0.042   17.711
  268.250   73.418    0.289    0.047   17.062
  268.500   78.653    0.299    0.053   16.131
  268.750   80.368    0.307    0.056   15.531
  269.000   79.723    0.314    0.061   15.238
  269.250   79.091    0.317    0.066   15.224
  269.500   79.045    0.315    0.073   14.931
  269.750   78.999    0.311    0.082   14.640
  270.000   78.366    0.309    0.088   14.363
