~VERSION INFORMATION
 VERS.                 2.0:   CWLS LOG ASCII STANDARD -VERSION 2.0
 WRAP.                  NO:   ONE LINE PER DEPTH STEP
~WELL INFORMATION BLOCK
#MNEM.UNIT           DATA                    DESCRIPTION OF MNEMONIC
#---------    -------------------            -------------------------------
# Generated from Intellog Unique Number	CS_73_76/WELL/3219
WELL.         BOW VALLEY INDUSTRIES          : Well_name    - WELL
LOC .         00/08-32-076-16W4/0            : Location     - LOCATION
UWI .         00/08-32-076-16W4/0            : Uwi          - UNIQUE WELL ID
ENTR.         SP                             : Entered      - ENTERED BY
SRVC.         SCHLUMBERGER                   : Scn          - SERVICE COMPANY
STRT.M        305                            : top_depth    - START DEPTH
STOP.M        555                            : bot_depth    - STOP DEPTH
STEP.M        0.25                           : increment    - STEP LENGTH
 NULL. -999.2500:NULL Value
~CURVE INFORMATION BLOCK
#MNEM UNIT       ERCB CURVE CODE    CURVE DESCRIPTION
#-----------   ------------------   ----------------------------------
DEPT.M        00 001 00 00         : DEPTH        - DEPTH
NPHI.V/V      00 330 00 00         : PHIN         - NEUTRON POROSITY (LIMESTONE)
DPHI.V/V      00 890 00 00         : PHID         - DENSITY POROSITY (LIMESTONE)
GR  .API      00 310 00 00         : GR           - GAMMA RAY
ILD .OHMM     00 120 00 00         : RESD         - DEEP RESISTIVITY (DIL)
~PARAMETER INFORMATION
#MNEM.UNIT           DATA             DESCRIPTION OF MNEMONIC
#---------         -----------     ------------------------------
GL  .M        680.5                : gl           - GROUND LEVEL ELEVATION
EREF.M        683.97               : kb           - ELEVATION OF DEPTH REFERENCE
DATM.M        680.5                : datum        - DATUM ELEVATION
TDD .M        642                  : tdd          - TOTAL DEPTH DRILLER
RUN .         ONE                  : Run          - RUN NUMBER
ENG .         BILL                 : Engineer     - RECORDING ENGINEER
WIT .         JIM                  : Witness      - WITNESSED BY
MUD .         GEL                  : Mud_type     - MUD TYPE
MATR.         LIMESTONE            : Logunit      - NEUTRON MATRIX
TMAX.C        17                   : BHT          - MAXIMUM RECORDED TEMPERATURE
BHTD.M        642                  : BHTDEP       - MAXIMUM RECORDED TEMPERATURE
MATR.         1                    : LOGUNIT      - NEUTRON MATRIX
RMT .C        25                   : MDTP         - TEMPERATURE OF MUD
NEUT.         1                    : NEUTRON      - NEUTRON TYPE
RESI.         0                    : RESIST       - RESISTIVITY TYPE
RMC .OHMM     0.25                 : RMC          - RESISTIVITY OF MUD CAKE
RMF .OHMM     0.25                 : RMF          - RESISTIVITY OF MUD FILTRATE
SUFT.C        15                   : SUFT         - SURFACE TEMPERATURE
~A  DEPTH     PHIN     PHID       GR     RESD
# ...
  522.500    0.386    0.274   57.454   19.617
  522.750    0.373    0.273   56.252   19.249
  523.000    0.347    0.278   51.341   19.620
  523.250    0.342    0.275   48.278   20.774
  523.500    0.342    0.274   45.219   22.850
  523.750    0.352    0.287   44.635   25.134
  524.000    0.361    0.289   46.516   26.111
  524.250    0.371    0.289   47.773   26.614
  524.500    0.376    0.289   47.185   27.129
  524.750    0.369    0.288   47.214   26.619
  525.000    0.359    0.285   48.477   26.119
  525.250    0.373    0.286   47.887   25.146
  525.500    0.384    0.286   45.447   23.753
  525.750    0.378    0.285   46.708   22.437
  526.000    0.363    0.281   49.827   21.194
  526.250    0.358    0.276   51.701   19.272
  526.500    0.365    0.271   51.112   17.861
  526.750    0.370    0.267   52.994   16.871
  527.000    0.373    0.256   53.638   15.936
  527.250    0.369    0.256   51.812   15.053
  527.500    0.363    0.266   53.086   13.951
  527.750    0.354    0.275   54.338   11.982
  528.000    0.350    0.278   52.515    9.537
  528.250    0.350    0.278   49.459    8.036
  528.500    0.351    0.271   48.252    7.170
  528.750    0.351    0.271   48.895    6.645
  529.000    0.354    0.267   50.778    6.277
  529.250    0.364    0.259   52.039    6.277
  529.500    0.385    0.258   53.916    6.278
  529.750    0.403    0.253   58.882    6.399
  530.000    0.402    0.246   60.764    6.160
  530.250    0.374    0.241   58.320    5.931
  530.500    0.362    0.243   54.032    5.602
  530.750    0.357    0.262   50.354    5.497
  531.000    0.351    0.278   47.919    5.603
  531.250    0.345    0.273   49.791    5.712
  531.500    0.354    0.261   52.908    5.822
  531.750    0.361    0.250   57.256    5.822
  532.000    0.354    0.237   59.752    5.934
  532.250    0.343    0.227   61.017    5.935
  532.500    0.328    0.225   61.047    6.050
  532.750    0.329    0.228   58.606    6.050
  533.000    0.335    0.228   56.777    6.051
  533.250    0.340    0.228   59.274    6.051
  533.500    0.339    0.225   62.391    6.052
  533.750    0.334    0.224   63.039    6.052
  534.000    0.332    0.226   63.062    6.053
  534.250    0.335    0.232   61.242    5.939
  534.500    0.349    0.241   59.421    5.940
  534.750    0.350    0.248   59.447    5.828
  535.000    0.356    0.247   60.086    5.719
  535.250    0.362    0.240   62.585    5.719
  535.500    0.365    0.235   65.081    5.720
  535.750    0.360    0.241   65.113    5.942
  536.000    0.345    0.232   63.902    6.173
  536.250    0.331    0.221   61.462    6.292
  536.500    0.310    0.203   55.935    6.414
  536.750    0.285    0.185   51.641    6.294
  537.000    0.284    0.171   49.819    5.945
  537.250    0.311    0.188   52.933    5.615
  537.500    0.335    0.238   49.266    4.915
  537.750    0.357    0.260   46.818    4.732
  538.000    0.359    0.261   49.312    4.556
  538.250    0.360    0.246   57.363    4.824
  538.500    0.364    0.233   66.038    5.206
  538.750    0.371    0.230   70.999    5.408
  539.000    0.363    0.223   75.347    5.837
  539.250    0.358    0.208   74.144    6.299
  539.500    0.356    0.187   76.639    6.544
  539.750    0.371    0.177   80.990    6.670
  540.000    0.379    0.172   84.724    6.421
  540.250    0.379    0.175   87.833    5.951
  540.500    0.382    0.177   94.033    5.622
  540.750    0.407    0.184  100.853    5.412
  541.000    0.405    0.174  105.199    5.413
  541.250    0.403    0.163  100.292    5.517
  541.500    0.394    0.153   98.465    5.623
  541.750    0.380    0.158   97.876    6.069
  542.000    0.389    0.151   98.521    6.305
  542.250    0.393    0.128   99.786    6.305
  542.500    0.393    0.133  103.516    6.187
  542.750    0.388    0.174  112.802    6.071
  543.000    0.379    0.174  110.361    5.957
  543.250    0.374    0.162  104.218    5.958
  543.500    0.371    0.155  103.011    5.958
  543.750    0.369    0.162  106.128    6.073
  544.000    0.370    0.167  104.919    6.190
  544.250    0.368    0.176  100.626    6.310
  544.500    0.383    0.168   94.480    6.431
  544.750    0.414    0.153   89.572    6.432
  545.000    0.419    0.116   92.686    6.433
  545.250    0.412    0.135  101.975    6.433
  545.500    0.397    0.153  105.085    6.434
  545.750    0.389    0.168  101.410    6.434
  546.000    0.392    0.167  100.826    6.684
  546.250    0.405    0.162  101.467    6.944
  546.500    0.395    0.154   98.411    7.494
  546.750    0.370    0.149   91.647    7.786
  547.000    0.350    0.147   92.293    7.936
  547.250    0.344    0.143   92.319    8.244
  547.500    0.334    0.139   86.793    8.245
  547.750    0.319    0.138   78.797    8.246
  548.000    0.303    0.154   67.096    8.247
  548.250    0.282    0.174   43.052    8.247
  548.500    0.273    0.176   39.379    8.092
  548.750    0.274    0.177   35.711    7.941
  549.000    0.270    0.196   32.648    7.941
  549.250    0.259    0.188   28.969    8.250
  549.500    0.209    0.109   24.676    8.903
  549.750    0.165    0.063   20.382    9.249
  550.000    0.145    0.001   16.709   13.794
  550.250    0.126    0.001   15.504   22.200
  550.500    0.125    0.007   15.530   35.054
  550.750    0.126    0.006   15.562   47.535
  551.000    0.135    0.012   15.584   59.735
  551.250    0.150    0.028   15.618   59.740
  551.500    0.173    0.048   15.024   60.892
  551.750    0.185    0.063   12.581   64.477
  552.000    0.192    0.071   11.993   66.982
  552.250    0.200    0.082   12.648   70.924
  552.500    0.209    0.091   12.678   73.682
  552.750    0.212    0.097   12.093   76.546
  553.000    0.216    0.095   12.114   79.523
  553.250    0.220    0.105   11.521   81.057
  553.500    0.225    0.111   10.930   84.209
  553.750    0.231    0.113   10.342   85.834
  554.000    0.236    0.108   10.366   89.172
  554.250    0.243    0.112   11.010   90.894
  554.500    0.257    0.118   10.422   89.187
  554.750    0.249    0.134   10.456   87.514
  555.000    0.234    0.133   10.495   85.872
