~VERSION INFORMATION
 VERS.                 2.0:   CWLS LOG ASCII STANDARD -VERSION 2.0
 WRAP.                  NO:   ONE LINE PER DEPTH STEP
~WELL INFORMATION BLOCK
#MNEM.UNIT           DATA                    DESCRIPTION OF MNEMONIC
#---------    -------------------            -------------------------------
# Generated from Intellog Unique Number	CS_73_76/WELL/2014
WELL.         EAGLE RESOURCES LTD.           : Well_name    - WELL
LOC .         00/08-22-076-18W4/0            : Location     - LOCATION
UWI .         00/08-22-076-18W4/0            : Uwi          - UNIQUE WELL ID
ENTR.         JO                             : Entered      - ENTERED BY
SRVC.         SCHLUMBERGER                   : Scn          - SERVICE COMPANY
DATE.         05/22/92                       : Date         - LOG DATE
STRT.M        200                            : top_depth    - START DEPTH
STOP.M        450                            : bot_depth    - STOP DEPTH
STEP.M        0.25                           : increment    - STEP LENGTH
 NULL. -999.2500:NULL Value
~CURVE INFORMATION BLOCK
#MNEM UNIT       ERCB CURVE CODE    CURVE DESCRIPTION
#-----------   ------------------   ----------------------------------
DEPT.M        00 001 00 00         : DEPTH        - DEPTH
GR  .API      00 310 00 00         : GR           - GAMMA RAY
NPHI.V/V      00 330 00 00         : PHIN         - NEUTRON POROSITY (SANDSTONE)
DPHI.V/V      00 890 00 00         : PHID         - DENSITY POROSITY (SANDSTONE)
ILD .OHMM     00 120 00 00         : RESD         - DEEP RESISTIVITY (DIL)
~PARAMETER INFORMATION
#MNEM.UNIT           DATA             DESCRIPTION OF MNEMONIC
#---------         -----------     ------------------------------
GL  .M        606.6                : gl           - GROUND LEVEL ELEVATION
EREF.M        610.2                : kb           - ELEVATION OF DEPTH REFERENCE
DATM.M        610.2                : datum        - DATUM ELEVATION
TDD .M        446                  : tdd          - TOTAL DEPTH DRILLER
RUN .         ONE                  : Run          - RUN NUMBER
ENG .         BILL                 : Engineer     - RECORDING ENGINEER
WIT .         JIM                  : Witness      - WITNESSED BY
MUD .         GEL                  : Mud_type     - MUD TYPE
MATR.         SANDSTONE            : Logunit      - NEUTRON MATRIX
TMAX.C        29                   : BHT          - MAXIMUM RECORDED TEMPERATURE
BHTD.M        446                  : BHTDEP       - MAXIMUM RECORDED TEMPERATURE
RMT .C        16.7                 : MDTP         - TEMPERATURE OF MUD
MUDD.KG/M     1100                 : MWT          - MUD DENSITY
NEUT.         1                    : NEUTRON      - NEUTRON TYPE
RESI.         0                    : RESIST       - RESISTIVITY TYPE
RM  .OHMM     3.6                  : RM           - RESISTIVITY OF MUD
RMC .OHMM     3.2                  : RMC          - RESISTIVITY OF MUD CAKE
RMF .OHMM     3.6                  : RMF          - RESISTIVITY OF MUD FILTRATE
SUFT.C        15                   : SUFT         - SURFACE TEMPERATURE
~A  DEPTH       GR     PHIN     PHID     RESD
# ...
  287.000   79.567    0.448    0.289    7.069
  287.250   74.445    0.459    0.312    8.710
  287.500   74.505    0.466    0.324   10.140
  287.750   74.564    0.460    0.331   13.466
  288.000   74.664    0.456    0.323   15.677
  288.250   74.161    0.462    0.322   17.590
  288.500   74.823    0.454    0.319   17.618
  288.750   76.649    0.461    0.299   16.078
  289.000   82.550    0.465    0.276   12.630
  289.250   93.130    0.446    0.277   11.102
  289.500   94.394    0.437    0.283    9.405
  289.750   92.124    0.443    0.288    8.583
  290.000   86.984    0.438    0.296    8.606
  290.250   85.879    0.422    0.297    8.620
  290.500   84.813    0.411    0.294    8.643
  290.750   83.728    0.411    0.289    8.653
  291.000   84.390    0.414    0.279    8.676
  291.250   86.778    0.406    0.266    8.533
  291.500   90.934    0.401    0.254    8.237
  291.750   96.273    0.399    0.257    7.804
  292.000   93.481    0.402    0.242    7.257
  292.250   92.356    0.438    0.239    6.622
  292.500   92.436    0.461    0.289    6.043
  292.750   95.446    0.469    0.315    5.722
  293.000   96.690    0.475    0.309    5.222
  293.250   95.585    0.481    0.317    5.332
  293.500   77.013    0.487    0.357    7.923
  293.750   63.701    0.478    0.380    8.720
  294.000   62.033    0.445    0.343   12.717
  294.250   61.531    0.404    0.325   13.744
  294.500   59.281    0.389    0.315   18.243
  294.750   57.032    0.387    0.321   26.591
  295.000   55.364    0.387    0.325   31.576
  295.250   54.279    0.395    0.332   36.059
  295.500   56.145    0.401    0.336   43.629
  295.750   56.767    0.412    0.337   48.042
  296.000   56.264    0.416    0.336   50.902
  296.250   55.179    0.415    0.336   52.931
  296.500   55.258    0.405    0.337   52.090
  296.750   57.687    0.397    0.340   52.202
  297.000   60.095    0.384    0.341   52.315
  297.250   60.194    0.381    0.341   54.430
  297.500   59.109    0.391    0.342   62.225
  297.750   58.004    0.401    0.343   71.097
  298.000   56.357    0.393    0.343   78.246
  298.250   55.834    0.391    0.349   86.115
  298.500   57.680    0.399    0.352   88.029
  298.750   58.904    0.394    0.346   86.489
  299.000   60.148    0.389    0.343   80.463
  299.250   58.481    0.392    0.344   74.775
  299.500   57.396    0.392    0.350   66.971
  299.750   58.057    0.385    0.352   63.483
  300.000   59.301    0.388    0.350   62.439
  300.250   55.887    0.395    0.347   62.541
  300.500   54.802    0.409    0.354   65.139
  300.750   57.230    0.419    0.353   66.479
  301.000   58.494    0.417    0.343   67.882
  301.250   58.574    0.401    0.337   63.118
  301.500   59.235    0.397    0.331   56.561
  301.750   59.315    0.403    0.336   53.528
  302.000   55.881    0.415    0.341   50.713
  302.250   57.125    0.440    0.348   53.790
  302.500   57.806    0.451    0.356   62.655
  302.750   56.139    0.446    0.362   71.549
  303.000   52.725    0.445    0.366   78.788
  303.250   51.640    0.447    0.369   80.495
  303.500   51.699    0.448    0.372   80.582
  303.750   51.779    0.445    0.370   79.301
  304.000   51.276    0.445    0.367   79.472
  304.250   50.813    0.442    0.362   79.688
  304.500   50.892    0.436    0.360   81.414
  304.750   52.156    0.428    0.358   81.547
  305.000   54.544    0.423    0.350   81.679
  305.250   54.624    0.429    0.346   80.380
  305.500   52.976    0.412    0.350   74.780
  305.750   52.474    0.408    0.348   72.147
  306.000   52.513    0.429    0.343   68.352
  306.250   52.593    0.438    0.344   64.722
  306.500   52.672    0.443    0.350   60.180
  306.750   53.354    0.443    0.351   53.957
  307.000   55.180    0.435    0.341   52.029
  307.250   54.697    0.430    0.336   51.174
  307.500   53.592    0.428    0.339   53.272
  307.750   53.089    0.424    0.345   56.473
  308.000   52.024    0.427    0.349   56.595
  308.250   52.123    0.415    0.343   56.718
  308.500   52.163    0.424    0.340   57.916
  308.750   52.262    0.438    0.341   59.170
  309.000   52.361    0.454    0.345   59.299
  309.250   51.819    0.470    0.347   58.324
  309.500   51.336    0.474    0.345   56.301
  309.750   50.833    0.459    0.342   56.454
  310.000   50.330    0.447    0.345   56.515
  310.250   50.992    0.433    0.350   59.944
  310.500   52.838    0.430    0.355   63.546
  310.750   53.519    0.435    0.361   64.888
  311.000   53.599    0.439    0.355   63.856
  311.250   53.638    0.437    0.346   60.530
  311.500   53.718    0.435    0.341   57.315
  311.750   53.797    0.432    0.342   53.293
  312.000   52.170    0.422    0.344   49.553
  312.250   52.229    0.417    0.349   46.100
  312.500   54.638    0.435    0.352   44.477
  312.750   59.957    0.444    0.352   42.934
  313.000   60.056    0.444    0.353   41.445
  313.250   58.951    0.435    0.349   39.286
  313.500   57.284    0.439    0.346   37.200
  313.750   57.403    0.447    0.349   35.224
  314.000   57.443    0.444    0.355   31.548
  314.250   57.522    0.442    0.345   27.731
  314.500   57.622    0.445    0.342   23.479
  314.750   58.283    0.442    0.347   19.880
  315.000   60.731    0.434    0.349   17.795
  315.250   61.353    0.422    0.348   15.352
  315.500   63.762    0.426    0.342   13.757
  315.750   65.005    0.429    0.338   12.554
  316.000   67.454    0.439    0.327   12.119
  316.250   70.464    0.444    0.313   11.919
  316.500   72.250    0.436    0.311   12.171
  316.750   78.754    0.425    0.311   12.428
  317.000   85.821    0.420    0.310   13.175
  317.250   77.166    0.427    0.302   13.967
  317.500   71.986    0.431    0.296   15.371
  317.750   65.078    0.434    0.294   17.247
  318.000   59.335    0.438    0.297   18.629
  318.250   55.921    0.277    0.266   21.285
  318.500   51.323    0.236   -0.008   23.425
  318.750   39.758    0.205   -0.034   27.817
  319.000   39.255    0.144   -0.044   27.877
  319.250   42.265    0.122   -0.027   25.907
  319.500   44.654    0.135    0.085   23.203
  319.750   56.398    0.173    0.226   20.395
  320.000   67.560    0.235    0.281   18.267
  320.250   68.803    0.315    0.315   16.057
  320.500   68.883    0.410    0.330   14.653
  320.750   68.962    0.426    0.333   13.617
  321.000   69.644    0.437    0.337   12.901
  321.250   70.908    0.443    0.338   12.929
  321.500   72.132    0.450    0.338   13.980
  321.750   71.047    0.477    0.337   14.820
  322.000   65.906    0.477    0.334   16.008
  322.250   64.199    0.468    0.257   17.608
  322.500   57.873    0.427    0.201   18.677
  322.750   56.226    0.350    0.162   16.417
  323.000   65.621    0.371    0.172   14.155
  323.250   68.651    0.404    0.240   12.218
  323.500   68.691    0.429    0.269   11.354
  323.750   68.771    0.447    0.298   10.563
  324.000   66.521    0.425    0.232   10.008
  324.250   61.943    0.403    0.255    9.838
  324.500   57.364    0.407    0.301    9.676
  324.750   53.368    0.423    0.319    9.697
  325.000   50.536    0.424    0.336    9.538
  325.250   47.704    0.417    0.344    9.559
  325.500   50.113    0.415    0.340    9.584
  325.750   50.192    0.408    0.337    9.610
  326.000   47.962    0.421    0.334    9.626
  326.250   47.479    0.437    0.331    9.647
  326.500   46.957    0.449    0.330    9.851
  326.750   47.036    0.444    0.329   10.059
  327.000   48.300    0.439    0.324   10.086
  327.250   50.086    0.436    0.323   10.102
  327.500   54.261    0.432    0.331   10.316
  327.750   56.087    0.426    0.337   10.349
  328.000   54.420    0.417    0.337   10.366
  328.250   51.608    0.410    0.332   10.201
  328.500   49.921    0.411    0.329   10.033
  328.750   47.129    0.413    0.329   10.050
  329.000   46.586    0.413    0.334    9.890
  329.250   47.850    0.410    0.337    9.906
  329.500   50.278    0.408    0.338    9.748
  329.750   50.900    0.411    0.341    9.764
  330.000   52.726    0.420    0.340    9.791
  330.250   55.737    0.428    0.335    9.807
