~VERSION INFORMATION
 VERS.                 2.0:   CWLS LOG ASCII STANDARD -VERSION 2.0
 WRAP.                  NO:   ONE LINE PER DEPTH STEP
~WELL INFORMATION BLOCK
#MNEM.UNIT           DATA                    DESCRIPTION OF MNEMONIC
#---------    -------------------            -------------------------------
# Generated from Intellog Unique Number	CS_69_70/WELL/818
WELL.         ET AL TWEEDIE                  : Well_name    - WELL
LOC .         00/07-07-069-13W4/0            : Location     - LOCATION
UWI .         00/07-07-069-13W4/0            : Uwi          - UNIQUE WELL ID
ENTR.         SP                             : Entered      - ENTERED BY
SRVC.         SCHLUMBERGER                   : Scn          - SERVICE COMPANY
STRT.M        243.84                         : top_depth    - START DEPTH
STOP.M        438.59                         : bot_depth    - STOP DEPTH
STEP.M        0.25                           : increment    - STEP LENGTH
 NULL. -999.2500:NULL Value
~CURVE INFORMATION BLOCK
#MNEM UNIT       ERCB CURVE CODE    CURVE DESCRIPTION
#-----------   ------------------   ----------------------------------
DEPT.M        00 001 00 00         : DEPTH        - DEPTH
GR  .API      00 310 00 00         : GR           - GAMMA RAY
DPHI.V/V      00 890 00 00         : PHID         - DENSITY POROSITY (SANDSTONE)
NPHI.V/V      00 330 00 00         : PHIN         - NEUTRON POROSITY (SANDSTONE)
ILD .OHMM     00 120 00 00         : RESD         - DEEP RESISTIVITY (DIL)
~PARAMETER INFORMATION
#MNEM.UNIT           DATA             DESCRIPTION OF MNEMONIC
#---------         -----------     ------------------------------
GL  .M        548.03               : gl           - GROUND LEVEL ELEVATION
EREF.M        551.078              : kb           - ELEVATION OF DEPTH REFERENCE
DATM.M        548.03               : datum        - DATUM ELEVATION
TDD .M        446.532              : tdd          - TOTAL DEPTH DRILLER
RUN .         ONE                  : Run          - RUN NUMBER
ENG .         BILL                 : Engineer     - RECORDING ENGINEER
WIT .         JIM                  : Witness      - WITNESSED BY
MUD .         GEL                  : Mud_type     - MUD TYPE
MATR.         SANDSTONE            : Logunit      - NEUTRON MATRIX
TMAX.C        21.1111              : BHT          - MAXIMUM RECORDED TEMPERATURE
BHTD.M        446.532              : BHTDEP       - MAXIMUM RECORDED TEMPERATURE
MATR.         1                    : LOGUNIT      - NEUTRON MATRIX
RMT .C        25                   : MDTP         - TEMPERATURE OF MUD
NEUT.         1                    : NEUTRON      - NEUTRON TYPE
RESI.         0                    : RESIST       - RESISTIVITY TYPE
RMC .OHMM     0.25                 : RMC          - RESISTIVITY OF MUD CAKE
RMF .OHMM     0.25                 : RMF          - RESISTIVITY OF MUD FILTRATE
SUFT.C        15                   : SUFT         - SURFACE TEMPERATURE
~A  DEPTH       GR     PHID     PHIN     RESD
# ...
  374.340   87.260    0.278    0.708    2.367
  374.590   89.178    0.264    0.711    2.457
  374.840   90.337    0.248    0.714    2.550
  375.090   90.428    0.236    0.716    2.630
  375.340   88.974    0.249    0.720    2.708
  375.590   85.857    0.258    0.721    2.778
  375.840   83.819    0.280    0.694    2.836
  376.090   84.371    0.294    0.666    2.848
  376.340   86.990    0.301    0.647    2.963
  376.590   90.487    0.291    0.634    2.938
  376.840   93.681    0.278    0.621    2.934
  377.090   96.794    0.267    0.604    2.964
  377.340   98.984    0.269    0.581    3.008
  377.590  100.354    0.264    0.560    3.094
  377.840  101.211    0.258    0.546    3.154
  378.090  102.240    0.260    0.566    3.150
  378.340  102.295    0.267    0.631    3.082
  378.590  101.775    0.273    0.693    2.951
  378.840   99.669    0.262    0.727    2.811
  379.090   98.906    0.272    0.730    2.690
  379.340  100.065    0.270    0.722    2.529
  379.590  101.462    0.258    0.683    2.467
  379.840  102.507    0.248    0.621    2.376
  380.090  103.547    0.250    0.627    2.295
  380.340  103.115    0.251    0.639    2.213
  380.590  101.219    0.243    0.650    2.135
  380.840   97.722    0.243    0.662    2.069
  381.090   93.933    0.251    0.675    2.015
  381.340   95.029    0.251    0.693    1.986
  381.590   96.923    0.233    0.715    1.994
  381.840   98.941    0.217    0.730    2.035
  382.090   98.092    0.221    0.740    2.140
  382.340   95.691    0.223    0.720    2.300
  382.590   92.398    0.206    0.676    2.476
  382.840   89.410    0.214    0.642    2.655
  383.090   86.678    0.228    0.612    2.842
  383.340   84.319    0.239    0.511    2.931
  383.590   82.265    0.247    0.461    3.042
  383.840   81.452    0.224    0.442    3.159
  384.090   81.730    0.179    0.421    3.306
  384.340   82.417    0.110    0.392    3.477
  384.590   83.479    0.106    0.366    3.653
  384.840   84.473    0.103    0.358    3.983
  385.090   85.107    0.135    0.393    4.385
  385.340   85.178    0.157    0.425    4.700
  385.590   84.819    0.182    0.438    4.896
  385.840   80.747    0.190    0.417    4.966
  386.090   77.160    0.180    0.369    4.793
  386.340   81.458    0.169    0.348    4.698
  386.590   87.042    0.156    0.384    4.710
  386.840   90.946    0.192    0.419    4.817
  387.090   92.939    0.220    0.446    4.874
  387.340   93.081    0.214    0.452    4.866
  387.590   92.588    0.190    0.446    4.626
  387.840   91.953    0.194    0.451    4.331
  388.090   91.916    0.191    0.452    4.043
  388.340   91.853    0.177    0.442    3.913
  388.590   92.049    0.163    0.436    3.876
  388.840   93.401    0.150    0.431    3.961
  389.090   97.945    0.159    0.426    4.176
  389.340   99.658    0.176    0.435    4.382
  389.590   99.934    0.188    0.451    4.447
  389.840   98.281    0.176    0.459    4.407
  390.090   96.605    0.194    0.465    4.344
  390.340   98.472    0.205    0.473    4.214
  390.590   99.908    0.210    0.478    4.078
  390.840  100.925    0.218    0.481    3.971
  391.090  101.671    0.219    0.499    3.906
  391.340   99.443    0.211    0.510    3.872
  391.590   98.722    0.207    0.498    3.842
  391.840   97.378    0.200    0.461    3.801
  392.090   95.240    0.205    0.439    3.775
  392.340   93.432    0.224    0.443    3.814
  392.590   92.365    0.216    0.447    3.872
  392.840   91.957    0.207    0.445    3.932
  393.090   93.422    0.191    0.442    3.986
  393.340   95.148    0.170    0.437    4.038
  393.590   96.535    0.167    0.432    4.088
  393.840   98.142    0.172    0.427    4.149
  394.090   99.265    0.175    0.424    4.225
  394.340  101.310    0.188    0.428    4.237
  394.590  102.661    0.199    0.434    4.218
  394.840  103.672    0.211    0.429    4.200
  395.090  103.406    0.214    0.420    4.182
  395.340  102.652    0.198    0.412    4.161
  395.590  102.034    0.190    0.412    4.157
  395.840  101.422    0.183    0.420    4.146
  396.090  101.512    0.193    0.425    4.160
  396.340  102.247    0.207    0.430    4.176
  396.590  102.781    0.200    0.439    4.127
  396.840  103.052    0.192    0.446    4.042
  397.090  102.583    0.190    0.461    3.919
  397.340  101.826    0.201    0.487    3.748
  397.590   99.723    0.234    0.513    3.284
  397.840   99.422    0.237    0.562    2.755
  398.090  101.367    0.261    0.607    2.364
  398.340  102.483    0.249    0.640    2.119
  398.590  102.506    0.236    0.666    1.970
  398.840  101.278    0.235    0.683    1.866
  399.090   98.562    0.236    0.693    1.961
  399.340   95.369    0.244    0.698    2.329
  399.590   92.650    0.250    0.687    2.944
  399.840   89.811    0.233    0.674    3.594
  400.090   87.165    0.210    0.412    4.342
  400.340   85.547    0.182    0.435    4.927
  400.590   85.730    0.110    0.419    5.226
  400.840   88.521    0.148    0.404    5.115
  401.090   91.135    0.180    0.393    4.833
  401.340   92.055    0.195    0.388    4.657
  401.590   90.466    0.196    0.410    4.550
  401.840   88.058    0.174    0.422    4.529
  402.090   87.983    0.153    0.426    4.564
  402.340   91.677    0.134    0.419    4.594
  402.590   94.325    0.148    0.417    4.512
  402.840   96.262    0.161    0.425    4.362
  403.090   97.290    0.175    0.432    4.121
  403.340   98.296    0.203    0.462    3.868
  403.590   98.605    0.182    0.490    3.665
  403.840   99.662    0.179    0.540    3.489
  404.090  101.897    0.190    0.591    3.308
  404.340  105.540    0.195    0.577    3.192
  404.590  108.613    0.201    0.535    3.108
  404.840  105.165    0.192    0.506    3.045
  405.090  102.942    0.182    0.483    3.000
  405.340  102.721    0.169    0.474    2.941
  405.590  105.256    0.158    0.473    2.919
  405.840  107.532    0.150    0.471    2.853
  406.090  109.949    0.171    0.471    2.798
  406.340  111.538    0.180    0.473    2.753
  406.590  111.061    0.188    0.478    2.718
  406.840  110.731    0.195    0.486    2.685
  407.090  112.877    0.201    0.491    2.678
  407.340  116.502    0.212    0.484    2.707
  407.590  118.622    0.212    0.476    2.767
  407.840  116.235    0.204    0.470    2.903
  408.090  115.898    0.196    0.472    3.043
  408.340  116.434    0.187    0.489    3.064
  408.590  113.531    0.179    0.502    3.026
  408.840  113.735    0.174    0.491    2.980
  409.090  116.613    0.173    0.467    2.761
  409.340  118.679    0.182    0.490    2.607
  409.590  119.806    0.204    0.525    2.443
  409.840  117.970    0.217    0.544    2.405
  410.090  112.366    0.214    0.542    2.449
  410.340  102.887    0.204    0.517    2.733
  410.590   94.555    0.199    0.496    3.214
  410.840   89.706    0.196    0.470    4.100
  411.090   79.885    0.205    0.427    4.853
  411.340   75.540    0.219    0.387    5.645
  411.590   77.580    0.226    0.368    6.022
  411.840   79.040    0.234    0.359    6.138
  412.090   79.961    0.241    0.356    5.932
  412.340   80.835    0.217    0.355    5.704
  412.590   80.115    0.194    0.360    5.828
  412.840   70.649    0.206    0.368    6.419
  413.090   64.641    0.236    0.373    7.230
  413.340   59.209    0.253    0.356    8.232
  413.590   55.843    0.248    0.339    9.028
  413.840   53.235    0.186    0.330    9.857
  414.090   52.796    0.104    0.324   10.228
  414.340   55.285    0.077    0.316    9.761
  414.590   58.701    0.101    0.319    9.141
  414.840   61.339    0.132    0.352    8.505
  415.090   62.837    0.158    0.377    7.936
  415.340   63.923    0.114    0.388    7.381
  415.590   65.362    0.086    0.360    6.908
  415.840   67.745    0.079    0.335    6.491
  416.090   69.563    0.123    0.338    6.295
  416.340   70.935    0.154    0.340    6.750
  416.590   70.593    0.176    0.327    8.166
  416.840   67.444    0.190    0.303    9.269
  417.090   69.403    0.260    0.254    9.683
  417.340   77.660    0.332    0.221    9.368
  417.590   86.125    0.349    0.205    8.045
