~VERSION INFORMATION
 VERS.                 2.0:   CWLS LOG ASCII STANDARD -VERSION 2.0
 WRAP.                  NO:   ONE LINE PER DEPTH STEP
~WELL INFORMATION BLOCK
#MNEM.UNIT           DATA                    DESCRIPTION OF MNEMONIC
#---------    -------------------            -------------------------------
# Generated from Intellog Unique Number	CS_73_76/WELL/3217
WELL.         07-36-076-11W4                 : Well_name    - WELL
LOC .         00/07-36-076-11W4/0            : Location     - LOCATION
UWI .         00/07-36-076-11W4/0            : Uwi          - UNIQUE WELL ID
ENTR.         SP                             : Entered      - ENTERED BY
SRVC.         SCHLUMBERGER                   : Scn          - SERVICE COMPANY
STRT.M        256.032                        : top_depth    - START DEPTH
STOP.M        502.782                        : bot_depth    - STOP DEPTH
STEP.M        0.25                           : increment    - STEP LENGTH
 NULL. -999.2500:NULL Value
~CURVE INFORMATION BLOCK
#MNEM UNIT       ERCB CURVE CODE    CURVE DESCRIPTION
#-----------   ------------------   ----------------------------------
DEPT.M        00 001 00 00         : DEPTH        - DEPTH
GR  .API      00 310 00 00         : GR           - GAMMA RAY
DPHI.V/V      00 890 00 00         : PHID         - DENSITY POROSITY (SANDSTONE)
NPHI.V/V      00 330 00 00         : PHIN         - NEUTRON POROSITY (SANDSTONE)
ILD .OHMM     00 120 00 00         : RESD         - DEEP RESISTIVITY (DIL)
~PARAMETER INFORMATION
#MNEM.UNIT           DATA             DESCRIPTION OF MNEMONIC
#---------         -----------     ------------------------------
GL  .M        673.303              : gl           - GROUND LEVEL ELEVATION
EREF.M        677.509              : kb           - ELEVATION OF DEPTH REFERENCE
DATM.M        673.303              : datum        - DATUM ELEVATION
TDD .M        505.968              : tdd          - TOTAL DEPTH DRILLER
RUN .         ONE                  : Run          - RUN NUMBER
ENG .         BILL                 : Engineer     - RECORDING ENGINEER
WIT .         JIM                  : Witness      - WITNESSED BY
MUD .         GEL                  : Mud_type     - MUD TYPE
MATR.         SANDSTONE            : Logunit      - NEUTRON MATRIX
TMAX.C        27.7778              : BHT          - MAXIMUM RECORDED TEMPERATURE
BHTD.M        505.968              : BHTDEP       - MAXIMUM RECORDED TEMPERATURE
MATR.         1                    : LOGUNIT      - NEUTRON MATRIX
RMT .C        25                   : MDTP         - TEMPERATURE OF MUD
NEUT.         1                    : NEUTRON      - NEUTRON TYPE
RESI.         0                    : RESIST       - RESISTIVITY TYPE
RMC .OHMM     0.25                 : RMC          - RESISTIVITY OF MUD CAKE
RMF .OHMM     0.25                 : RMF          - RESISTIVITY OF MUD FILTRATE
SUFT.C        15                   : SUFT         - SURFACE TEMPERATURE
~A  DEPTH       GR     PHID     PHIN     RESD
# ...
  343.032   65.140    0.353    0.503   15.726
  343.282   65.753    0.348    0.496   15.730
  343.532   66.367    0.353    0.493   15.729
  343.782   66.870    0.357    0.497   15.918
  344.032   66.248    0.351    0.499   16.779
  344.282   66.321    0.352    0.507   17.264
  344.532   67.127    0.361    0.508   17.785
  344.782   69.426    0.368    0.508   18.270
  345.032   69.364    0.372    0.515   17.901
  345.282   67.653    0.370    0.515   17.372
  345.532   67.368    0.367    0.511   16.859
  345.782   67.419    0.363    0.510   16.340
  346.032   68.344    0.363    0.509   16.330
  346.282   70.002    0.362    0.498   16.333
  346.532   69.384    0.355    0.490   16.069
  346.782   69.529    0.357    0.498   16.033
  347.032   70.540    0.360    0.500   16.025
  347.282   71.523    0.356    0.520   16.024
  347.532   72.477    0.347    0.531   16.025
  347.782   73.471    0.354    0.514   16.025
  348.032   71.038    0.347    0.503   16.025
  348.282   68.831    0.353    0.503   16.025
  348.532   68.612    0.350    0.513   16.025
  348.782   67.990    0.355    0.517   16.025
  349.032   66.792    0.350    0.512   16.029
  349.282   65.054    0.347    0.512   15.999
  349.532   67.478    0.344    0.505   16.268
  349.782   69.984    0.338    0.485   17.347
  350.032   71.403    0.336    0.475   17.547
  350.282   72.923    0.334    0.474   18.059
  350.532   75.321    0.328    0.488   18.218
  350.782   77.603    0.325    0.485   18.474
  351.032   78.016    0.316    0.480   18.571
  351.282   78.805    0.312    0.483   18.232
  351.532   80.070    0.310    0.494   17.759
  351.782   80.817    0.305    0.495   16.482
  352.032   81.198    0.297    0.515   16.055
  352.282   80.639    0.303    0.522   15.520
  352.532   78.567    0.301    0.510   15.741
  352.782   77.049    0.301    0.496   16.222
  353.032   77.166    0.301    0.488   16.908
  353.282   78.872    0.299    0.495   17.621
  353.532   79.907    0.294    0.502   18.486
  353.782   80.593    0.286    0.508   18.938
  354.032   82.392    0.293    0.515   18.906
  354.282   83.901    0.294    0.513   17.544
  354.532   86.415    0.300    0.510   13.919
  354.782   91.204    0.314    0.512    9.637
  355.032   94.630    0.302    0.528    6.819
  355.282   96.269    0.274    0.568    4.496
  355.532   96.740    0.275    0.559    3.185
  355.782   97.938    0.277    0.570    2.561
  356.032   99.091    0.280    0.580    2.328
  356.282   98.511    0.278    0.594    2.508
  356.532   98.684    0.280    0.593    2.811
  356.782  100.399    0.281    0.581    3.137
  357.032  100.460    0.265    0.559    3.432
  357.282  101.322    0.263    0.551    3.761
  357.532  103.295    0.251    0.550    4.038
  357.782  104.658    0.233    0.560    4.298
  358.032  103.932    0.238    0.573    4.457
  358.282  102.745    0.259    0.559    4.438
  358.532  103.144    0.259    0.538    4.269
  358.782  105.968    0.264    0.517    4.023
  359.032  106.801    0.260    0.535    3.851
  359.282  106.816    0.269    0.552    3.650
  359.532  107.538    0.262    0.564    3.549
  359.782  106.538    0.268    0.581    3.554
  360.032  106.569    0.243    0.597    3.566
  360.282  109.921    0.216    0.621    3.756
  360.532  112.683    0.205    0.616    3.749
  360.782  114.925    0.236    0.602    3.733
  361.032  114.691    0.254    0.580    3.687
  361.282  113.784    0.263    0.607    3.612
  361.532  111.079    0.255    0.627    3.618
  361.782  108.051    0.246    0.615    3.618
  362.032  109.958    0.235    0.595    3.612
  362.282  111.158    0.229    0.589    3.695
  362.532  111.129    0.260    0.578    3.869
  362.782  110.627    0.274    0.561    4.222
  363.032  108.542    0.279    0.553    4.332
  363.282  108.408    0.275    0.534    4.137
  363.532  109.584    0.256    0.501    3.884
  363.782  111.608    0.235    0.517    3.685
  364.032  113.957    0.238    0.534    3.661
  364.282  116.028    0.246    0.558    3.713
  364.532  116.404    0.243    0.552    3.893
  364.782  116.470    0.232    0.542    3.943
  365.032  115.810    0.223    0.543    3.890
  365.282  116.932    0.230    0.551    3.784
  365.532  117.023    0.242    0.555    3.453
  365.782  120.129    0.252    0.572    3.222
  366.032  121.986    0.247    0.590    2.941
  366.282  123.543    0.248    0.604    2.702
  366.532  126.633    0.256    0.620    2.548
  366.782  128.077    0.265    0.640    2.560
  367.032  130.545    0.281    0.634    2.811
  367.282  128.044    0.280    0.611    3.170
  367.532  114.263    0.268    0.592    3.786
  367.782  110.932    0.256    0.561    4.601
  368.032  105.373    0.268    0.537    5.428
  368.282  101.552    0.268    0.521    6.555
  368.532  100.184    0.257    0.522    7.177
  368.782  101.808    0.246    0.524    7.380
  369.032  101.904    0.239    0.526    7.621
  369.282   95.720    0.227    0.528    7.692
  369.532   92.852    0.232    0.531    7.836
  369.782   92.057    0.245    0.521    7.829
  370.032   89.289    0.270    0.512    7.827
  370.282   88.213    0.263    0.499    7.827
  370.532   88.792    0.282    0.487    7.827
  370.782   89.820    0.297    0.491    7.827
  371.032   91.076    0.283    0.477    7.828
  371.282   92.498    0.299    0.461    7.829
  371.532   92.914    0.290    0.461    7.818
  371.782   91.737    0.279    0.484    8.034
  372.032   89.764    0.271    0.501    8.460
  372.282   88.783    0.266    0.506    9.239
  372.532   87.369    0.256    0.502   10.447
  372.782   84.280    0.243    0.489   11.456
  373.032   76.045    0.199    0.386   19.918
  373.282   65.885    0.152    0.294   19.044
  373.532   59.268    0.108    0.251   17.265
  373.782   63.961    0.012    0.308   14.928
  374.032   73.950    0.089    0.434   12.329
  374.282   85.942    0.208    0.503    9.319
  374.532   95.112    0.254    0.542    8.310
  374.782   96.485    0.272    0.544    7.769
  375.032   95.468    0.252    0.540    7.548
  375.282   93.314    0.232    0.537    7.405
  375.532   89.606    0.229    0.529    7.268
  375.782   89.359    0.235    0.507    7.169
  376.032   93.768    0.234    0.492    7.096
  376.282   98.851    0.233    0.505    7.009
  376.532  101.009    0.248    0.507    6.887
  376.782   98.820    0.233    0.509    6.752
  377.032   98.077    0.220    0.510    6.639
  377.282   99.476    0.226    0.502    6.575
  377.532   99.265    0.235    0.492    6.365
  377.782  104.330    0.240    0.509    6.284
  378.032  109.727    0.252    0.510    6.152
  378.282  111.926    0.244    0.520    6.164
  378.532  109.399    0.228    0.514    6.165
  378.782  105.588    0.233    0.527    6.164
  379.032  101.705    0.230    0.513    6.164
  379.282  103.244    0.237    0.490    6.165
  379.532  104.237    0.229    0.500    6.173
  379.782  107.090    0.225    0.504    6.053
  380.032  108.700    0.236    0.495    5.985
  380.282  107.576    0.233    0.513    5.742
  380.532  109.915    0.242    0.519    5.164
  380.782  112.205    0.256    0.526    4.227
  381.032  116.147    0.274    0.544    3.078
  381.282  118.157    0.266    0.608    2.539
  381.532  115.900    0.278    0.633    2.210
  381.782  112.005    0.289    0.630    2.007
  382.032  108.332    0.296    0.625    1.942
  382.282  109.236    0.287    0.617    2.001
  382.532  102.825    0.298    0.607    2.333
  382.782   98.872    0.307    0.595    2.725
  383.032   95.950    0.287    0.579    3.286
  383.282   92.140    0.277    0.552    4.012
  383.532   93.121    0.267    0.494    4.657
  383.782   93.134    0.267    0.512    5.328
  384.032   92.748    0.274    0.523    5.904
  384.282   89.787    0.284    0.513    6.218
  384.532   84.476    0.271    0.507    6.544
  384.782   81.594    0.278    0.500    6.637
  385.032   80.813    0.258    0.493    6.635
  385.282   82.567    0.233    0.488    6.635
  385.532   78.174    0.242    0.495    6.634
  385.782   73.390    0.286    0.501    6.632
  386.032   71.644    0.329    0.504    6.635
  386.282   69.736    0.348    0.498    6.517
