~VERSION INFORMATION
 VERS.                 2.0:   CWLS LOG ASCII STANDARD -VERSION 2.0
 WRAP.                  NO:   ONE LINE PER DEPTH STEP
~WELL INFORMATION BLOCK
#MNEM.UNIT           DATA                    DESCRIPTION OF MNEMONIC
#---------    -------------------            -------------------------------
# Generated from Intellog Unique Number	CW_73_75/WELL/693
WELL.         CDN SUP ET AL FRANCIS 07-05    : Well_name    - WELL
LOC .         00/07-05-074-20W4/0            : Location     - LOCATION
UWI .         00/07-05-074-20W4/0            : Uwi          - UNIQUE WELL ID
ENTR.         JAYE                           : Entered      - ENTERED BY
SRVC.         SCHLUMBERGER                   : Scn          - SERVICE COMPANY
DATE.         15 MAR 76                      : Date         - LOG DATE
STRT.M        393.192                        : top_depth    - START DEPTH
STOP.M        609.692                        : bot_depth    - STOP DEPTH
STEP.M        0.25                           : increment    - STEP LENGTH
 NULL. -999.2500:NULL Value
~CURVE INFORMATION BLOCK
#MNEM UNIT       ERCB CURVE CODE    CURVE DESCRIPTION
#-----------   ------------------   ----------------------------------
DEPT.M        00 001 00 00         : DEPTH        - DEPTH
DPHI.V/V      00 890 00 00         : PHID         - DENSITY POROSITY (SANDSTONE)
NPHI.V/V      00 330 00 00         : PHIN         - NEUTRON POROSITY (SANDSTONE)
GR  .API      00 310 00 00         : GR           - GAMMA RAY
CALI.IN       00 280 01 00         : CAL          - CALIPER
ILD .OHMM     00 120 00 00         : RESD         - DEEP RESISTIVITY (DIL)
~PARAMETER INFORMATION
#MNEM.UNIT           DATA             DESCRIPTION OF MNEMONIC
#---------         -----------     ------------------------------
GL  .M        705.612              : gl           - GROUND LEVEL ELEVATION
EREF.M        708.965              : kb           - ELEVATION OF DEPTH REFERENCE
DATM.M        705.612              : datum        - DATUM ELEVATION
TDD .M        682.752              : tdd          - TOTAL DEPTH DRILLER
RUN .         ONE                  : Run          - RUN NUMBER
BASE.         EDMONTON             : Branch       - HOME BASE OF LOGGING UNIT
MATR.         SANDSTONE            : Logunit      - NEUTRON MATRIX
TMAX.C        28.8889              : BHT          - MAXIMUM RECORDED TEMPERATURE
BHTD.M        682.752              : BHTDEP       - MAXIMUM RECORDED TEMPERATURE
RMT .C        -16.45               : MDTP         - TEMPERATURE OF MUD
MUDD.KG/M     0                    : MWT          - MUD DENSITY
NEUT.         1                    : NEUTRON      - NEUTRON TYPE
RESI.         0                    : RESIST       - RESISTIVITY TYPE
RM  .OHMM     5.48                 : RM           - RESISTIVITY OF MUD
RMC .OHMM     4                    : RMC          - RESISTIVITY OF MUD CAKE
RMF .OHMM     2.86                 : RMF          - RESISTIVITY OF MUD FILTRATE
SUFT.C        -17.7778             : SUFT         - SURFACE TEMPERATURE
~A  DEPTH     PHID     PHIN       GR      CAL     RESD
# ...
  575.692    0.068    0.245   89.934    8.399   13.916
  575.942    0.065    0.243   93.812    8.501   13.829
  576.192    0.065    0.245   91.274    8.507   13.494
  576.442    0.063    0.246   89.893    8.571   13.049
  576.692    0.088    0.250   92.595    8.636   11.851
  576.942    0.115    0.265  103.189    8.698    9.928
  577.192    0.136    0.294  115.825    8.821    8.856
  577.442    0.219    0.331  125.535    8.981    8.797
  577.692    0.272    0.383  118.322    9.296    8.584
  577.942    0.298    0.411  109.349    9.748    8.610
  578.192    0.373    0.435   97.460   10.373    9.609
  578.442    0.398    0.389   89.954   10.165   10.826
  578.692    0.214    0.347   87.990    9.356   11.354
  578.942    0.044    0.260   86.035    8.936   11.384
  579.192    0.018    0.238   87.279    8.961   11.111
  579.442    0.008    0.234   90.573    9.044   10.274
  579.692    0.051    0.238   94.441    9.282   10.206
  579.942    0.081    0.250  102.120    9.733    9.959
  580.192    0.098    0.263  111.246   10.495    9.631
  580.442    0.122    0.282  126.215   12.323    9.313
  580.692    0.138    0.304  131.551   11.281    9.088
  580.942    0.168    0.324  130.773   11.267    8.953
  581.192    0.211    0.337  126.456   11.137    9.052
  581.442    0.261    0.348  122.761   11.259    9.493
  581.692    0.184    0.347  122.838   11.788   10.045
  581.942    0.143    0.337  124.072   10.863   10.350
  582.192    0.108    0.340  120.659   10.190   10.556
  582.442    0.105    0.328  115.195   10.854   10.779
  582.692    0.103    0.300  112.356   10.356   10.905
  582.942    0.096    0.315  113.026   10.206   11.230
  583.192    0.090    0.323  111.644   10.076   11.460
  583.442    0.079    0.330  106.754   10.042   11.692
  583.692    0.063    0.322   98.656    9.855   11.936
  583.942    0.051    0.307   91.151    9.744   12.291
  584.192    0.050    0.301   88.020    9.652   12.778
  584.442    0.054    0.296   86.639    9.522   13.158
  584.692    0.078    0.289   82.050    9.412   13.549
  584.942    0.105    0.276   78.627    9.378   13.581
  585.192    0.096    0.251   75.496    9.229   13.260
  585.442    0.065    0.234   73.843    9.156   12.819
  585.692    0.066    0.250   77.118    9.065   12.293
  585.942    0.085    0.263   82.755    8.994   11.892
  586.192    0.088    0.273   87.498    8.941   11.701
  586.442    0.078    0.281   92.834    8.888   11.319
  586.692    0.071    0.295   96.420    8.854   11.144
  586.942    0.070    0.306   90.081    8.763   11.373
  587.192    0.069    0.317   82.576    8.672   11.820
  587.442    0.074    0.326   70.978    8.619   12.730
  587.692    0.058    0.305   59.672    8.547   13.967
  587.942    0.058    0.282   53.926    8.493   15.047
  588.192    0.067    0.294   51.962    8.421   16.351
  588.442    0.120    0.300   49.706    8.252   17.769
  588.692    0.132    0.317   57.365    8.103   19.842
  588.942    0.174    0.345   65.617    7.992   22.157
  589.192    0.201    0.360   71.838    7.959   23.657
  589.442    0.214    0.360   75.424    7.964   23.927
  589.692    0.187    0.360   73.459    7.970   23.784
  589.942    0.172    0.362   67.111    7.956   23.200
  590.192    0.165    0.347   65.156    7.962   21.846
  590.442    0.132    0.331   67.284    7.967   20.193
  590.692    0.121    0.319   71.162    7.972   18.840
  590.942    0.154    0.330   74.466    7.958   18.056
  591.192    0.167    0.341   73.065    7.964   18.104
  591.442    0.102    0.342   57.968    7.969   19.324
  591.692    0.121    0.338   51.620    7.994   21.386
  591.942    0.118    0.337   47.624    8.000   23.032
  592.192    0.137    0.327   49.742    8.005   24.813
  592.442    0.149    0.350   58.577    7.992   26.492
  592.692    0.163    0.370   56.914    7.997   28.532
  592.942    0.162    0.350   49.108    8.021   32.167
  593.192    0.031    0.307   34.302    8.007   35.599
  593.442    0.006    0.262   25.922    8.033   39.386
  593.692   -0.039    0.220   22.490    8.116   42.039
  593.942   -0.021    0.202   21.993    8.179   43.706
  594.192   -0.004    0.196   22.070    8.224   43.784
  594.442    0.011    0.211   23.032    8.172   41.228
  594.692    0.021    0.227   24.294    8.099   40.229
  594.942    0.030    0.249   25.538    8.008   39.254
  595.192    0.046    0.271   26.480    7.915   39.031
  595.442    0.054    0.292   26.868    7.864   39.465
  595.692    0.060    0.300   27.820    7.908   40.264
  595.942    0.068    0.290   27.314    8.068   41.473
  596.192    0.073    0.279   27.108    8.132   43.911
  596.442    0.075    0.268   27.778    8.118   44.002
  596.692    0.048    0.255   30.470    8.045   43.336
  596.942    0.051    0.254   33.774    7.935   41.907
  597.192    0.047    0.256   32.393    7.922   40.153
  597.442    0.039    0.262   31.614    7.927   36.476
  597.692    0.051    0.278   31.672    7.931   32.528
  597.942    0.055    0.290   31.175    7.977   27.742
  598.192    0.040    0.276   32.127    8.039   23.874
  598.442    0.029    0.262   33.983    8.084   20.539
  598.692    0.021    0.253   34.050    8.090   17.996
  598.942    0.078    0.274   46.677    8.075   16.197
  599.192    0.098    0.290   54.637    8.081   14.847
  599.442    0.115    0.308   63.482    8.107   14.229
  599.692    0.118    0.322   69.119    8.112   14.526
  599.942    0.092    0.336   65.978    8.078   15.504
  600.192    0.042    0.331   58.172    8.045   16.559
  600.442    0.021    0.296   50.667    8.011   16.748
  600.692    0.056    0.280   49.869    7.998   16.484
  600.942    0.083    0.310   59.598    8.003   15.657
  601.192    0.106    0.341   62.290    7.969   15.146
  601.442    0.137    0.358   60.335    7.917   15.182
  601.692    0.160    0.355   59.839    7.846   15.227
  601.942    0.146    0.346   59.624    7.811   15.264
  602.192    0.140    0.341   59.118    7.760   15.582
  602.442    0.153    0.355   57.746    7.726   15.623
  602.692    0.161    0.366   55.772    7.711   15.378
  602.942    0.169    0.367   54.099    7.679   14.218
  603.192    0.186    0.354   52.728    7.665   13.143
  603.442    0.159    0.370   51.940    7.650   12.043
  603.692    0.160    0.378   52.600    7.637   11.036
  603.942    0.184    0.363   56.186    7.624   10.210
  604.192    0.194    0.346   59.189    7.628    9.783
  604.442    0.192    0.364   61.307    7.614    9.376
  604.692    0.214    0.379   64.009    7.620    9.148
  604.942    0.225    0.385   67.011    7.626    8.929
  605.192    0.234    0.374   70.306    7.631    8.635
  605.442    0.231    0.352   73.610    7.637    8.131
  605.692    0.196    0.341   75.135    7.642    7.586
  605.942    0.182    0.332   77.555    7.687    7.203
  606.192    0.207    0.321   81.151    7.673    6.785
  606.442    0.210    0.344   84.455    7.677    6.505
  606.692    0.202    0.371   83.638    7.722    6.345
  606.942    0.198    0.351   80.808    7.806    6.245
  607.192    0.181    0.343   80.593    7.888    6.041
  607.442    0.167    0.364   79.513    7.952    5.844
  607.692    0.175    0.383   74.331    7.880    5.601
  607.942    0.193    0.394   69.742    7.769    5.416
  608.192    0.208    0.401   65.435    7.755    5.145
  608.442    0.200    0.408   60.263    7.780    4.889
  608.692    0.209    0.399   56.257    7.785    4.813
  608.942    0.175    0.384   52.252    7.829    4.825
  609.192    0.190    0.372   50.579    7.951    4.967
  609.442    0.226    0.382   46.291    7.899    5.211
  609.692    0.211    0.388   43.160    7.846    5.223
