~VERSION INFORMATION
 VERS.                 2.0:   CWLS LOG ASCII STANDARD -VERSION 2.0
 WRAP.                  NO:   ONE LINE PER DEPTH STEP
~WELL INFORMATION BLOCK
#MNEM.UNIT           DATA                    DESCRIPTION OF MNEMONIC
#---------    -------------------            -------------------------------
# Generated from Intellog Unique Number	CW_73_75/WELL/2733
WELL.         ANADARKO ER AL FRANCIS 07-32   : Well_name    - WELL
LOC .         00/07-32-073-21W4/0            : Location     - LOCATION
UWI .         00/07-32-073-21W4/0            : Uwi          - UNIQUE WELL ID
ENTR.         JAYE                           : Entered      - ENTERED BY
SRVC.         SCHLUMBERGER                   : Scn          - SERVICE COMPANY
DATE.         18 FEB 79                      : Date         - LOG DATE
STRT.M        325                            : top_depth    - START DEPTH
STOP.M        575                            : bot_depth    - STOP DEPTH
STEP.M        0.25                           : increment    - STEP LENGTH
 NULL. -999.2500:NULL Value
~CURVE INFORMATION BLOCK
#MNEM UNIT       ERCB CURVE CODE    CURVE DESCRIPTION
#-----------   ------------------   ----------------------------------
DEPT.M        00 001 00 00         : DEPTH        - DEPTH
ILD .OHMM     00 120 00 00         : RESD         - DEEP RESISTIVITY (DIL)
NPHI.V/V      00 330 00 00         : PHIN         - NEUTRON POROSITY (SANDSTONE)
DPHI.V/V      00 890 00 00         : PHID         - DENSITY POROSITY (SANDSTONE)
GR  .API      00 310 00 00         : GR           - GAMMA RAY
CALI.MM       00 280 01 00         : CAL          - CALIPER
~PARAMETER INFORMATION
#MNEM.UNIT           DATA             DESCRIPTION OF MNEMONIC
#---------         -----------     ------------------------------
GL  .M        674                  : gl           - GROUND LEVEL ELEVATION
EREF.M        677.8                : kb           - ELEVATION OF DEPTH REFERENCE
DATM.M        674                  : datum        - DATUM ELEVATION
TDD .M        600                  : tdd          - TOTAL DEPTH DRILLER
RUN .         ONE                  : Run          - RUN NUMBER
ENG .         WESOIOWSKY           : Engineer     - RECORDING ENGINEER
WIT .         ROGERS               : Witness      - WITNESSED BY
BASE.         EDM                  : Branch       - HOME BASE OF LOGGING UNIT
MUD .         GEL CHEM             : Mud_type     - MUD TYPE
MATR.         SANDSTONE            : Logunit      - NEUTRON MATRIX
TMAX.C        24                   : BHT          - MAXIMUM RECORDED TEMPERATURE
BHTD.M        601                  : BHTDEP       - MAXIMUM RECORDED TEMPERATURE
RMT .C        18                   : MDTP         - TEMPERATURE OF MUD
MUDD.KG/M     1090                 : MWT          - MUD DENSITY
NEUT.         1                    : NEUTRON      - NEUTRON TYPE
RESI.         0                    : RESIST       - RESISTIVITY TYPE
RM  .OHMM     5.8                  : RM           - RESISTIVITY OF MUD
RMC .OHMM     0                    : RMC          - RESISTIVITY OF MUD CAKE
RMF .OHMM     5.1                  : RMF          - RESISTIVITY OF MUD FILTRATE
SUFT.C        0                    : SUFT         - SURFACE TEMPERATURE
~A  DEPTH     RESD     PHIN     PHID       GR      CAL
# ...
  434.500    7.637    0.405    0.326   52.486  158.570
  434.750    7.724    0.395    0.323   52.700  158.717
  435.000    7.842    0.394    0.325   52.602  158.873
  435.250    7.917    0.397    0.334   50.836  159.130
  435.500    7.978    0.398    0.321   49.193  159.176
  435.750    8.039    0.405    0.309   48.971  158.707
  436.000    8.070    0.401    0.304   51.417  158.339
  436.250    8.476    0.396    0.317   51.260  158.181
  436.500    8.255    0.411    0.322   49.554  158.225
  436.750    8.366    0.416    0.313   51.628  158.584
  437.000    8.430    0.418    0.298   53.887  158.634
  437.250    8.510    0.430    0.323   52.496  158.376
  437.500    8.495    0.422    0.314   54.319  158.120
  437.750    8.495    0.430    0.328   55.896  158.161
  438.000    8.400    0.406    0.328   56.607  158.413
  438.250    8.151    0.390    0.318   51.121  158.669
  438.500    7.969    0.405    0.309   48.112  159.138
  438.750    7.777    0.412    0.316   47.465  159.387
  439.000    7.560    0.417    0.335   46.065  159.756
  439.250    7.295    0.428    0.335   41.014  159.894
  439.500    7.146    0.415    0.320   39.559  160.151
  439.750    6.934    0.427    0.324   40.638  160.306
  440.000    6.715    0.414    0.330   38.254  160.672
  440.250    6.615    0.390    0.319   40.080  160.710
  440.500    6.443    0.403    0.340   43.389  160.869
  440.750    6.395    0.415    0.342   45.653  160.924
  441.000    6.384    0.427    0.333   43.510  160.957
  441.250    6.494    0.424    0.312   43.914  161.013
  441.500    6.668    0.415    0.319   45.548  161.071
  441.750    6.795    0.419    0.329   48.180  160.808
  442.000    6.977    0.434    0.335   52.670  160.645
  442.250    7.151    0.444    0.339   50.227  160.487
  442.500    7.371    0.450    0.333   51.737  160.334
  442.750    7.611    0.443    0.329   52.449  160.282
  443.000    7.979    0.439    0.318   47.272  160.211
  443.250    8.460    0.433    0.325   50.337  160.047
  443.500    9.528    0.428    0.312   52.413  159.898
  443.750   11.703    0.432    0.325   51.759  160.154
  444.000   13.636    0.462    0.326   48.690  160.300
  444.250   15.070    0.438    0.329   44.629  160.554
  444.500   14.873    0.415    0.334   46.953  160.501
  444.750   12.961    0.425    0.344   46.484  160.660
  445.000   12.625    0.436    0.338   45.273  160.908
  445.250   14.380    0.415    0.309   46.172  161.169
  445.500   18.904    0.411    0.263   45.210  161.311
  445.750   24.944    0.290    0.131   41.891  161.877
  446.000   47.098    0.090   -0.013   38.080  164.199
  446.250   69.201    0.089   -0.006   36.310  166.110
  446.500   63.936    0.090   -0.001   41.917  166.989
  446.750   56.671    0.091    0.010   46.779  167.445
  447.000   51.672    0.091   -0.004   45.943  167.593
  447.250   47.203    0.089   -0.007   40.764  167.641
  447.500   43.040    0.084   -0.009   38.439  167.389
  447.750   39.467    0.082   -0.005   41.133  167.427
  448.000   36.740    0.084    0.005   41.596  167.061
  448.250   34.202    0.093    0.012   38.898  166.811
  448.500   31.899    0.092   -0.010   38.557  166.852
  448.750   29.863    0.092   -0.009   38.151  166.795
  449.000   27.487    0.101   -0.011   38.180  166.743
  449.250   24.921    0.113   -0.013   40.438  166.582
  449.500   22.341    0.127   -0.002   42.328  166.628
  449.750   19.765    0.137    0.015   41.610  166.880
  450.000   16.807    0.138    0.029   41.641  166.928
  450.250   14.564    0.133    0.046   45.324  165.848
  450.500   12.153    0.155    0.065   49.257  162.384
  450.750   10.103    0.190    0.144   51.024  159.844
  451.000    8.607    0.246    0.216   51.361  158.042
  451.250    7.658    0.296    0.326   53.310  157.054
  451.500    7.169    0.408    0.317   56.317  156.585
  451.750    6.983    0.410    0.317   56.900  156.322
  452.000    6.918    0.428    0.326   56.310  155.956
  452.250    6.905    0.452    0.326   53.985  155.592
  452.500    6.906    0.441    0.319   52.033  155.334
  452.750    6.933    0.422    0.310   49.642  154.968
  453.000    6.946    0.409    0.305   54.319  154.610
  453.250    6.973    0.415    0.309   58.932  154.240
  453.500    7.026    0.422    0.308   60.389  153.975
  453.750    7.147    0.432    0.314   60.418  153.824
  454.000    7.242    0.442    0.310   58.588  153.765
  454.250    7.243    0.445    0.296   56.386  153.498
  454.500    7.216    0.430    0.299   56.909  153.459
  454.750    7.068    0.434    0.314   59.230  153.396
  455.000    6.859    0.432    0.322   62.420  153.336
  455.250    6.556    0.417    0.289   67.101  153.389
  455.500    6.080    0.413    0.275   71.154  153.328
  455.750    5.575    0.406    0.276   75.086  153.691
  456.000    5.399    0.413    0.285   78.398  154.148
  456.250    5.451    0.438    0.312   77.499  154.505
  456.500    5.608    0.437    0.313   78.212  157.349
  456.750    5.726    0.435    0.325   78.299  159.464
  457.000    5.726    0.453    0.327   74.425  160.543
  457.250    5.694    0.468    0.305   75.384  161.519
  457.500    5.641    0.468    0.273   76.283  162.079
  457.750    5.589    0.446    0.276   76.061  162.755
  458.000    5.547    0.406    0.301   72.434  163.215
  458.250    5.506    0.420    0.290   84.608  163.258
  458.500    5.558    0.451    0.263   87.303  163.005
  458.750    5.696    0.485    0.199   82.498  163.043
  459.000    5.762    0.424    0.170   80.360  163.816
  459.250    5.654    0.365    0.176   85.591  165.828
  459.500    5.456    0.380    0.200   93.430  168.355
  459.750    5.254    0.438    0.215  101.264  169.952
  460.000    5.098    0.473    0.201  103.153  171.038
  460.250    4.919    0.450    0.189   99.710  171.810
  460.500    4.801    0.471    0.219   97.760  172.266
  460.750    4.738    0.474    0.223   96.299  172.006
  461.000    4.765    0.463    0.195   99.736  170.817
  461.250    4.765    0.444    0.209  101.809  169.931
  461.500    4.739    0.433    0.201  102.336  169.877
  461.750    4.668    0.431    0.189  100.690  170.542
  462.000    4.454    0.433    0.201   96.570  171.212
  462.250    4.045    0.446    0.218   96.596  172.297
  462.500    3.552    0.461    0.199   97.990  173.586
  462.750    3.257    0.471    0.194  102.107  175.282
  463.000    3.233    0.502    0.209  105.854  177.394
  463.250    3.351    0.518    0.226   96.341  179.201
  463.500    3.513    0.481    0.254   84.597  176.359
  463.750    3.753    0.447    0.295   74.279  168.249
  464.000    4.070    0.426    0.312   72.016  163.340
  464.250    4.267    0.416    0.318   69.940  160.602
  464.500    4.308    0.409    0.311   66.557  159.302
  464.750    4.308    0.412    0.316   63.491  159.040
  465.000    4.268    0.413    0.336   60.730  159.199
  465.250    4.205    0.424    0.335   63.612  159.347
  465.500    4.173    0.430    0.329   67.107  159.496
  465.750    4.134    0.424    0.331   69.434  159.753
  466.000    4.104    0.433    0.328   68.281  159.908
  466.250    4.088    0.449    0.322   68.187  160.265
  466.500    4.073    0.430    0.334   69.825  160.521
  466.750    4.073    0.416    0.350   66.014  160.878
  467.000    4.105    0.404    0.354   67.720  161.027
  467.250    4.097    0.394    0.341   70.657  161.183
  467.500    4.090    0.395    0.334   73.969  161.130
  467.750    4.098    0.416    0.327   77.968  160.666
  468.000    4.114    0.399    0.326   77.312  160.394
  468.250    4.153    0.396    0.337   69.596  160.440
  468.500    4.192    0.409    0.337   64.173  160.392
  468.750    4.248    0.420    0.325   65.196  160.332
  469.000    4.249    0.409    0.336   67.765  160.482
  469.250    4.257    0.430    0.348   69.343  160.531
  469.500    4.249    0.432    0.339   69.808  160.479
  469.750    4.202    0.411    0.337   70.453  160.327
  470.000    4.202    0.415    0.338   71.844  160.272
  470.250    4.226    0.414    0.337   72.371  160.430
  470.500    4.299    0.391    0.343   72.336  160.478
  470.750    4.507    0.408    0.332   72.797  160.624
