~VERSION INFORMATION
 VERS.                 2.0:   CWLS LOG ASCII STANDARD -VERSION 2.0
 WRAP.                  NO:   ONE LINE PER DEPTH STEP
~WELL INFORMATION BLOCK
#MNEM.UNIT           DATA                    DESCRIPTION OF MNEMONIC
#---------    -------------------            -------------------------------
# Generated from Intellog Unique Number	CW_70_72/WELL/554
NULL.         -999.25                        : NULL_VALUE
WELL.         BOWRIO ET AL SMITH 06-06       : Well_name    - WELL              
LOC .         06-06-071-25W4                 : Location     - LOCATION          
UWI .         00/06-06-071-25W4/0            : Uwi          - UNIQUE WELL ID    
ENTR.         JAYE                           : Entered      - ENTERED BY        
SRVC.         SCHLUMBERGER                   : Scn          - SERVICE COMPANY   
DATE.         25 MAY 80                      : Date         - LOG DATE          
STRT.M        463                            : top_depth    - START DEPTH       
STOP.M        680                            : bot_depth    - STOP DEPTH        
STEP.M        0.25                           : increment    - STEP LENGTH       
~CURVE INFORMATION BLOCK
#MNEM UNIT       ERCB CURVE CODE    CURVE DESCRIPTION
#-----------   ------------------   ----------------------------------
DEPT.M        00 001 00 00         : DEPTH        - DEPTH                       
DPHI.V/V      00 890 00 00         : PHID         - DENSITY POROSITY (SANDSTONE)
NPHI.V/V      00 330 00 00         : PHIN         - NEUTRON POROSITY (SANDSTONE)
GR  .API      00 310 00 00         : GR           - GAMMA RAY                   
CALI.MM       00 280 01 00         : CAL          - CALIPER                     
ILD .OHMM     00 120 00 00         : RESD         - DEEP RESISTIVITY (DIL)      
~PARAMETER INFORMATION       
#MNEM.UNIT           DATA             DESCRIPTION OF MNEMONIC
#---------         -----------     ------------------------------
GL  .M        647.5                : gl           - GROUND LEVEL ELEVATION      
EREF.M        651                  : kb           - ELEVATION OF DEPTH REFERENCE
DATM.M        647.5                : datum        - DATUM ELEVATION             
TDD .M        690                  : tdd          - TOTAL DEPTH DRILLER         
RUN .         ONE                  : Run          - RUN NUMBER                  
ENG .         BRANDSTROM           : Engineer     - RECORDING ENGINEER          
WIT .         GRANT                : Witness      - WITNESSED BY                
BASE.         EDM                  : Branch       - HOME BASE OF LOGGING UNIT   
MUD .         GEL CHEM             : Mud_type     - MUD TYPE                    
MATR.         SANDSTONE            : Logunit      - NEUTRON MATRIX              
TMAX.C        25.4                 : BHT          - MAXIMUM RECORDED TEMPERATURE
BHTD.M        692                  : BHTDEP       - MAXIMUM RECORDED TEMPERATURE
RMT .C        15                   : MDTP         - TEMPERATURE OF MUD          
MUDD.KG/M     1160                 : MWT          - MUD DENSITY                 
NEUT.         1                    : NEUTRON      - NEUTRON TYPE                
RESI.         0                    : RESIST       - RESISTIVITY TYPE            
RM  .OHMM     3.13                 : RM           - RESISTIVITY OF MUD          
RMC .OHMM     0                    : RMC          - RESISTIVITY OF MUD CAKE     
RMF .OHMM     2.62                 : RMF          - RESISTIVITY OF MUD FILTRATE 
SUFT.C        32                   : SUFT         - SURFACE TEMPERATURE         
~A  DEPTH     PHID     PHIN       GR      CAL     RESD
# ...
  609.000    0.158    0.429   89.716  210.448    4.059
  609.250    0.146    0.410   90.851  210.059    4.069
  609.500    0.144    0.414   93.917  210.083    3.931
  609.750    0.152    0.426   96.171  209.700    3.811
  610.000    0.156    0.428  100.044  209.514    3.835
  610.250    0.156    0.413   92.097  209.233    3.867
  610.500    0.149    0.395   90.868  209.047    3.849
  610.750    0.147    0.386   94.119  208.765    3.852
  611.000    0.149    0.402   99.113  208.377    3.819
  611.250    0.139    0.418  102.861  207.674    3.887
  611.500    0.126    0.434  105.115  206.252    4.240
  611.750    0.117    0.415   87.711  204.617    4.846
  612.000    0.103    0.374   77.525  203.708    5.416
  612.250    0.088    0.355   74.304  207.261    5.058
  612.500    0.138    0.367   73.699  207.186    4.697
  612.750    0.163    0.382   73.278  207.108    4.445
  613.000    0.171    0.395   75.908  206.820    4.229
  613.250    0.180    0.410   78.598  207.159    4.100
  613.500    0.178    0.404   77.369  207.190    4.035
  613.750    0.197    0.413   79.066  207.109    4.030
  614.000    0.206    0.405   76.903  206.306    4.157
  614.250    0.187    0.389   74.059  205.399    4.343
  614.500    0.194    0.394   72.269  205.114    4.640
  614.750    0.187    0.398   68.365  204.934    4.959
  615.000    0.171    0.392   66.763  204.543    4.843
  615.250    0.162    0.381   68.958  204.066    4.524
  615.500    0.157    0.367   73.079  204.077    4.280
  615.750    0.176    0.353   75.397  203.692    4.103
  616.000    0.164    0.361   75.165  203.615    3.890
  616.250    0.163    0.369   74.806  203.636    3.820
  616.500    0.167    0.359   77.061  203.671    3.947
  616.750    0.147    0.352   80.561  203.383    4.116
  617.000    0.150    0.364   82.816  203.823    4.261
  617.250    0.162    0.373   81.091  204.781    4.536
  617.500    0.143    0.367   78.430  206.466    4.749
  617.750    0.153    0.361   79.879  208.563    4.943
  618.000    0.147    0.351   82.754  210.666    5.184
  618.250    0.129    0.330   85.571  210.690    5.487
  618.500    0.116    0.340   88.697  210.307    5.787
  618.750    0.105    0.352   90.083  209.603    6.081
  619.000    0.084    0.370   88.542  207.865    6.317
  619.250    0.087    0.312   85.322  207.893    6.491
  619.500    0.071    0.310   80.423  209.683    6.532
  619.750    0.046    0.353   74.095  211.785    6.404
  620.000    0.093    0.365   66.146  212.433    6.362
  620.250    0.075    0.337   61.060  211.835    6.320
  620.500    0.049    0.267   65.119  209.995    6.266
  620.750    0.025    0.348   79.071  208.159    5.787
  621.000    0.073    0.381   84.437  207.453    5.304
  621.250    0.070    0.362   85.388  206.443    4.771
  621.500    0.084    0.393   86.025  205.743    4.268
  621.750    0.127    0.409   87.349  205.464    4.153
  622.000    0.104    0.417   88.420  205.488    4.188
  622.250    0.105    0.414   88.250  205.721    4.335
  622.500    0.124    0.406   86.087  206.574    4.581
  622.750    0.123    0.393   81.624  207.019    4.867
  623.000    0.113    0.381   76.973  207.042    5.521
  623.250    0.097    0.367   67.532  206.861    5.988
  623.500    0.069    0.347   66.118  206.679    5.960
  623.750    0.056    0.318   74.160  205.776    5.576
  624.000    0.081    0.364   83.631  204.970    5.111
  624.250    0.119    0.395   88.811  204.270    4.983
  624.500    0.120    0.382   86.400  204.193    4.877
  624.750    0.104    0.376   82.621  205.255    4.782
  625.000    0.104    0.368   81.082  207.771    4.705
  625.250    0.104    0.367   83.026  210.287    4.622
  625.500    0.120    0.396   87.024  211.453    4.591
  625.750    0.137    0.418   90.212  211.893    4.527
  626.000    0.141    0.403   92.592  212.232    4.446
  626.250    0.148    0.389   94.536  212.154    4.375
  626.500    0.130    0.409   94.056  211.764    4.298
  626.750    0.126    0.427   92.764  211.171    4.261
  627.000    0.139    0.421   92.780  210.888    4.241
  627.250    0.136    0.392   92.734  210.710    4.229
  627.500    0.130    0.386   92.316  210.525    4.256
  627.750    0.130    0.377   91.834  210.138    4.316
  628.000    0.139    0.360   91.784  209.851    4.376
  628.250    0.136    0.367   90.246  209.668    4.564
  628.500    0.131    0.388   87.463  209.074    4.904
  628.750    0.107    0.358   84.304  208.996    5.369
  629.000    0.082    0.331   80.026  208.919    6.024
  629.250    0.056    0.268   71.021  208.843    6.318
  629.500    0.022    0.271   76.512  208.455    6.490
  629.750    0.061    0.305   83.683  207.760    6.581
  630.000    0.096    0.343   85.876  207.366    6.440
  630.250    0.056    0.317   82.470  206.561    5.396
  630.500    0.076    0.336   88.209  206.278    4.983
  630.750    0.105    0.364   94.136  205.682    5.034
  631.000    0.124    0.387   95.272  204.876    5.124
  631.250    0.104    0.398   95.039  204.803    5.343
  631.500    0.086    0.362   93.872  205.346    5.763
  631.750    0.094    0.316   90.092  205.790    6.239
  632.000    0.072    0.298   80.590  206.018    6.556
  632.250    0.032    0.299   81.974  206.569    6.624
  632.500    0.029    0.325   85.225  206.800    6.529
  632.750    0.067    0.345   89.162  207.341    6.007
  633.000    0.132    0.368   92.476  207.679    5.485
  633.250    0.141    0.353   95.849  208.019    5.172
  633.500    0.125    0.345  100.220  208.044    5.108
  633.750    0.097    0.360  104.217  208.275    5.141
  634.000    0.113    0.389  106.721  208.408    5.292
  634.250    0.110    0.400  104.747  208.744    5.518
  634.500    0.123    0.358   96.861  208.979    5.819
  634.750    0.102    0.334   83.500  208.899    6.185
  635.000    0.039    0.311   78.352  209.136    6.329
  635.250    0.020    0.296   79.925  209.472    6.299
  635.500    0.104    0.315   84.048  208.978    5.541
  635.750    0.141    0.329   88.416  208.383    4.556
  636.000    0.142    0.333   94.282  207.163    3.555
  636.250    0.140    0.342   99.584  208.642    2.498
  636.500    0.182    0.400  107.003  223.602    2.121
  636.750    0.199    0.466  116.724  228.914    1.996
  637.000    0.184    0.482  111.578  218.573    1.924
  637.250    0.190    0.489  109.290  209.681    1.943
  637.500    0.210    0.504  107.316  204.005    1.974
  637.750    0.222    0.520  104.532  203.101    2.082
  638.000    0.182    0.509   98.823  205.094    2.246
  638.250    0.165    0.413   91.497  208.229    2.515
  638.500    0.141    0.349   85.106  213.130    2.697
  638.750    0.066    0.337   82.633  208.594    3.443
  639.000    0.019    0.354   90.736  204.888    3.504
  639.250    0.090    0.374   93.490  207.093    3.391
  639.500    0.119    0.395   97.798  209.607    2.938
  639.750    0.133    0.410  100.054  208.805    2.385
  640.000    0.142    0.402   99.199  207.172    2.186
  640.250    0.099    0.396   98.282  205.334    2.103
  640.500    0.091    0.387  100.973  205.667    2.047
  640.750    0.109    0.370  100.739  209.325    2.010
  641.000    0.130    0.362   99.199  211.734    2.062
  641.250    0.108    0.383  104.379  211.350    2.220
  641.500    0.096    0.371  105.764  210.645    2.963
  641.750    0.093    0.345   93.275  209.536    4.561
  642.000    0.078    0.298   84.456  208.732    5.078
  642.250    0.055    0.269   73.023  207.518    5.256
  642.500   -0.011    0.230   79.634  206.399    5.291
  642.750   -0.024    0.385   96.075  205.284    5.225
  643.000    0.088    0.415  106.916  204.069    5.000
  643.250    0.149    0.398  110.042  203.572    4.431
  643.500    0.140    0.376   96.060  203.495    3.840
  643.750    0.116    0.361   87.801  203.938    3.772
  644.000    0.119    0.343   84.707  204.170    4.247
  644.250    0.132    0.364   84.224  204.926    4.900
  644.500    0.131    0.362   84.426  205.261    5.396
  644.750    0.123    0.335   80.398  205.596    5.574
  645.000    0.108    0.323   75.934  205.833    5.652
  645.250    0.070    0.319   78.937  206.685    5.657
