~VERSION INFORMATION
 VERS.                 2.0:   CWLS LOG ASCII STANDARD -VERSION 2.0
 WRAP.                  NO:   ONE LINE PER DEPTH STEP
~WELL INFORMATION BLOCK
#MNEM.UNIT           DATA                    DESCRIPTION OF MNEMONIC
#---------    -------------------            -------------------------------
# Generated from Intellog Unique Number	CS_77_79/WELL/921
WELL.         HUDSONS BAY OIL AND GAS        : Well_name    - WELL
LOC .         00/08-29-077-10W4/0            : Location     - LOCATION
UWI .         00/08-29-077-10W4/0            : Uwi          - UNIQUE WELL ID
ENTR.         SP                             : Entered      - ENTERED BY
SRVC.         SCHLUMBERGER                   : Scn          - SERVICE COMPANY
STRT.M        345.138                        : top_depth    - START DEPTH
STOP.M        424.888                        : bot_depth    - STOP DEPTH
STEP.M        0.25                           : increment    - STEP LENGTH
 NULL. -999.2500:NULL Value
~CURVE INFORMATION BLOCK
#MNEM UNIT       ERCB CURVE CODE    CURVE DESCRIPTION
#-----------   ------------------   ----------------------------------
DEPT.M        00 001 00 00         : DEPTH        - DEPTH
GR  .API      00 310 00 00         : GR           - GAMMA RAY
DPHI.V/V      00 890 00 00         : PHID         - DENSITY POROSITY (SANDSTONE)
NPHI.V/V      00 330 00 00         : PHIN         - NEUTRON POROSITY (SANDSTONE)
ILD .OHMM     00 120 00 00         : RESD         - DEEP RESISTIVITY (DIL)
~PARAMETER INFORMATION
#MNEM.UNIT           DATA             DESCRIPTION OF MNEMONIC
#---------         -----------     ------------------------------
GL  .M        663.245              : gl           - GROUND LEVEL ELEVATION
EREF.M        640.69               : kb           - ELEVATION OF DEPTH REFERENCE
DATM.M        663.245              : datum        - DATUM ELEVATION
TDD .M        489.204              : tdd          - TOTAL DEPTH DRILLER
RUN .         ONE                  : Run          - RUN NUMBER
ENG .         BILL                 : Engineer     - RECORDING ENGINEER
WIT .         JIM                  : Witness      - WITNESSED BY
MUD .         GEL                  : Mud_type     - MUD TYPE
MATR.         SANDSTONE            : Logunit      - NEUTRON MATRIX
TMAX.C        5.55556              : BHT          - MAXIMUM RECORDED TEMPERATURE
BHTD.M        489.204              : BHTDEP       - MAXIMUM RECORDED TEMPERATURE
MATR.         1                    : LOGUNIT      - NEUTRON MATRIX
RMT .C        25                   : MDTP         - TEMPERATURE OF MUD
NEUT.         1                    : NEUTRON      - NEUTRON TYPE
RESI.         0                    : RESIST       - RESISTIVITY TYPE
RMC .OHMM     0.25                 : RMC          - RESISTIVITY OF MUD CAKE
RMF .OHMM     0.25                 : RMF          - RESISTIVITY OF MUD FILTRATE
SUFT.C        15                   : SUFT         - SURFACE TEMPERATURE
~A  DEPTH       GR     PHID     PHIN     RESD
# ...
  388.638   63.132    0.308    0.484    8.437
  388.888   63.077    0.315    0.474    8.451
  389.138   64.675    0.321    0.468    8.276
  389.388   64.938    0.311    0.464    8.131
  389.638   62.952    0.305    0.470    7.894
  389.888   61.182    0.304    0.483    7.667
  390.138   61.842    0.313    0.482    7.311
  390.388   64.161    0.315    0.473    6.952
  390.638   66.462    0.307    0.464    6.769
  390.888   68.011    0.315    0.487    6.779
  391.138   66.316    0.317    0.492    6.779
  391.388   65.417    0.317    0.495    6.778
  391.638   65.384    0.327    0.488    6.781
  391.888   66.079    0.328    0.485    6.818
  392.138   66.003    0.321    0.490    7.034
  392.388   66.402    0.326    0.488    7.451
  392.638   66.239    0.332    0.470    7.798
  392.888   64.773    0.339    0.461    8.738
  393.138   64.844    0.337    0.468    9.495
  393.388   64.224    0.327    0.472   10.213
  393.638   61.422    0.242    0.475    9.805
  393.888   58.124    0.209    0.496    9.217
  394.138   54.209    0.152    0.273    8.670
  394.388   54.317    0.068    0.233    7.884
  394.638   57.048    0.112    0.285    7.501
  394.888   60.035    0.186    0.352    7.149
  395.138   62.757    0.294    0.408    7.061
  395.388   63.272    0.334    0.458    7.000
  395.638   62.814    0.336    0.492    6.778
  395.888   61.852    0.337    0.482    6.719
  396.138   60.101    0.338    0.484    6.369
  396.388   59.766    0.334    0.504    6.200
  396.638   60.171    0.329    0.506    5.961
  396.888   59.648    0.326    0.496    5.849
  397.138   60.229    0.324    0.483    5.854
  397.388   60.894    0.323    0.472    6.024
  397.638   61.516    0.318    0.466    6.204
  397.888   62.504    0.312    0.481    6.396
  398.138   63.163    0.315    0.501    6.648
  398.388   63.902    0.327    0.498    6.782
  398.638   64.085    0.336    0.479    6.900
  398.888   64.043    0.331    0.483    7.055
  399.138   65.033    0.324    0.476    6.904
  399.388   66.730    0.318    0.472    6.826
  399.638   66.966    0.308    0.470    6.787
  399.888   67.402    0.304    0.466    6.670
  400.138   68.240    0.303    0.479    6.525
  400.388   70.678    0.323    0.484    6.521
  400.638   72.604    0.326    0.481    6.321
  400.888   74.903    0.318    0.474    6.135
  401.138   76.521    0.307    0.470    5.954
  401.388   79.136    0.298    0.473    5.846
  401.638   81.093    0.291    0.475    6.010
  401.888   82.387    0.272    0.471    6.191
  402.138   83.439    0.251    0.477    6.453
  402.388   83.690    0.230    0.475    6.861
  402.638   81.236    0.237    0.471    7.154
  402.888   80.537    0.259    0.466    7.367
  403.138   80.607    0.273    0.480    7.572
  403.388   78.392    0.273    0.488    7.561
  403.638   76.564    0.257    0.488    7.561
  403.888   75.626    0.256    0.470    7.557
  404.138   75.153    0.255    0.470    7.678
  404.388   75.281    0.252    0.475    7.713
  404.638   75.593    0.257    0.466    7.563
  404.888   76.080    0.278    0.473    7.712
  405.138   76.569    0.271    0.466    7.702
  405.388   77.376    0.276    0.456    7.701
  405.638   78.415    0.287    0.465    7.700
  405.888   78.547    0.283    0.462    7.692
  406.138   78.535    0.278    0.455    7.834
  406.388   78.217    0.267    0.448    7.839
  406.638   77.077    0.252    0.438    7.843
  406.888   76.066    0.253    0.433    7.840
  407.138   76.300    0.255    0.442    7.777
  407.388   77.301    0.255    0.457    7.706
  407.638   77.185    0.258    0.466    7.590
  407.888   77.817    0.265    0.460    7.567
  408.138   79.081    0.259    0.458    7.563
  408.388   80.111    0.239    0.464    7.465
  408.638   79.251    0.239    0.469    7.427
  408.888   77.244    0.248    0.472    7.428
  409.138   75.572    0.262    0.475    7.280
  409.388   74.598    0.273    0.479    7.290
  409.638   74.095    0.264    0.471    7.291
  409.888   74.738    0.238    0.480    7.291
  410.138   75.431    0.228    0.475    7.291
  410.388   76.353    0.213    0.469    7.291
  410.638   78.235    0.224    0.476    7.291
  410.888   80.165    0.216    0.483    7.291
  411.138   81.562    0.226    0.490    7.292
  411.388   82.510    0.250    0.486    7.302
  411.638   82.475    0.253    0.478    7.159
  411.888   81.329    0.243    0.467    7.148
  412.138   82.987    0.222    0.460    7.307
  412.388   85.328    0.202    0.451    7.285
  412.638   87.851    0.194    0.447    7.438
  412.888   91.168    0.188    0.456    7.429
  413.138   93.574    0.201    0.444    7.323
  413.388   95.715    0.197    0.426    6.904
  413.638   96.272    0.198    0.419    6.507
  413.888   96.782    0.192    0.425    6.117
  414.138   97.273    0.189    0.431    5.878
  414.388   96.156    0.185    0.434    5.638
  414.638   93.465    0.176    0.427    4.927
  414.888   88.987    0.193    0.424    4.358
  415.138   87.146    0.195    0.448    3.794
  415.388   86.425    0.195    0.487    3.222
  415.638   87.281    0.197    0.505    2.895
  415.888   87.643    0.213    0.509    2.645
  416.138   89.772    0.230    0.522    2.461
  416.388   88.823    0.250    0.538    2.343
  416.638   89.517    0.239    0.620    2.313
  416.888   88.342    0.250    0.624    2.329
  417.138   86.325    0.248    0.601    2.405
  417.388   85.430    0.241    0.583    2.525
  417.638   83.800    0.256    0.573    2.616
  417.888   84.565    0.264    0.562    2.726
  418.138   85.593    0.263    0.550    2.893
  418.388   88.528    0.257    0.546    3.173
  418.638   90.501    0.231    0.572    3.381
  418.888   90.492    0.214    0.584    3.877
  419.138   90.412    0.214    0.553    4.469
  419.388   89.892    0.205    0.528    5.105
  419.638   89.951    0.189    0.489    5.752
  419.888   89.245    0.191    0.453    6.318
  420.138   88.885    0.165    0.457    6.308
  420.388   87.139    0.152    0.469    6.152
  420.638   86.196    0.145    0.449    5.730
  420.888   85.046    0.131    0.423    5.395
  421.138   86.638    0.125    0.420    4.883
  421.388   88.582    0.172    0.432    4.710
  421.638   89.616    0.186    0.447    4.429
  421.888   89.872    0.175    0.463    4.275
  422.138   90.906    0.199    0.481    4.222
  422.388   91.808    0.188    0.499    4.093
  422.638   93.421    0.182    0.487    4.060
  422.888   93.804    0.175    0.475    3.993
  423.138   94.795    0.173    0.476    3.998
  423.388   95.754    0.174    0.484    4.004
  423.638   95.629    0.178    0.485    4.262
  423.888   96.143    0.178    0.492    4.564
  424.138   95.687    0.181    0.499    4.708
  424.388   93.798    0.194    0.506    4.801
  424.638   92.175    0.191    0.498    4.790
  424.888   90.240    0.191    0.489    4.878
