~VERSION INFORMATION
 VERS.                 2.0:   CWLS LOG ASCII STANDARD -VERSION 2.0
 WRAP.                  NO:   ONE LINE PER DEPTH STEP
~WELL INFORMATION BLOCK
#MNEM.UNIT           DATA                    DESCRIPTION OF MNEMONIC
#---------    -------------------            -------------------------------
# Generated from Intellog Unique Number	CS_77_79/WELL/886
WELL.         PEX LOUGHERY                   : Well_name    - WELL
LOC .         00/06-30-078-05W4/0            : Location     - LOCATION
UWI .         00/06-30-078-05W4/0            : Uwi          - UNIQUE WELL ID
ENTR.         JHS                            : Entered      - ENTERED BY
SRVC.         SCHLUMBERGER                   : Scn          - SERVICE COMPANY
STRT.M        115                            : top_depth    - START DEPTH
STOP.M        390                            : bot_depth    - STOP DEPTH
STEP.M        0.25                           : increment    - STEP LENGTH
 NULL. -999.2500:NULL Value
~CURVE INFORMATION BLOCK
#MNEM UNIT       ERCB CURVE CODE    CURVE DESCRIPTION
#-----------   ------------------   ----------------------------------
DEPT.M        00 001 00 00         : DEPTH        - DEPTH
DPHI.V/V      00 890 00 00         : PHID         - DENSITY POROSITY (LIMESTONE)
NPHI.V/V      00 330 00 00         : PHIN         - NEUTRON POROSITY (LIMESTONE)
GR  .API      00 310 00 00         : GR           - GAMMA RAY
ILD .OHMM     00 120 00 00         : RESD         - DEEP RESISTIVITY (DIL)
RHOB.KG/M3    00 350 00 00         : DENS         - BULK DENSITY
~PARAMETER INFORMATION
#MNEM.UNIT           DATA             DESCRIPTION OF MNEMONIC
#---------         -----------     ------------------------------
GL  .M        552.72               : gl           - GROUND LEVEL ELEVATION
EREF.M        555.82               : kb           - ELEVATION OF DEPTH REFERENCE
DATM.M        555.82               : datum        - DATUM ELEVATION
TDD .M        398                  : tdd          - TOTAL DEPTH DRILLER
RUN .         ONE                  : Run          - RUN NUMBER
ENG .         BILL                 : Engineer     - RECORDING ENGINEER
WIT .         JIM                  : Witness      - WITNESSED BY
MUD .         GEL                  : Mud_type     - MUD TYPE
MATR.         LIMESTONE            : Logunit      - NEUTRON MATRIX
TMAX.C        18.5                 : BHT          - MAXIMUM RECORDED TEMPERATURE
BHTD.M        398                  : BHTDEP       - MAXIMUM RECORDED TEMPERATURE
MATR.         1                    : LOGUNIT      - NEUTRON MATRIX
RMT .C        25                   : MDTP         - TEMPERATURE OF MUD
NEUT.         1                    : NEUTRON      - NEUTRON TYPE
RESI.         0                    : RESIST       - RESISTIVITY TYPE
RMC .OHMM     0.25                 : RMC          - RESISTIVITY OF MUD CAKE
RMF .OHMM     0.25                 : RMF          - RESISTIVITY OF MUD FILTRATE
SUFT.C        15                   : SUFT         - SURFACE TEMPERATURE
~A  DEPTH     PHID     PHIN       GR     RESD     DENS
# ...
  224.500    0.255    0.432   97.406    7.842    0.000
  224.750    0.248    0.421   95.554    7.419    0.000
  225.000    0.245    0.437   93.094    7.288    0.000
  225.250    0.250    0.459   97.367    7.438    0.000
  225.500    0.249    0.458  102.254    7.305    0.000
  225.750    0.235    0.445  104.686    7.312    0.000
  226.000    0.224    0.459  101.616    6.537    0.000
  226.250    0.251    0.482   99.763    5.954    0.000
  226.500    0.268    0.497  100.368    4.936    0.000
  226.750    0.256    0.514  102.191    4.091    0.000
  227.000    0.259    0.536  102.791    3.727    0.000
  227.250    0.276    0.565  106.452    3.525    0.000
  227.500    0.244    0.549  107.050    3.464    0.000
  227.750    0.222    0.501  104.591    3.602    0.000
  228.000    0.239    0.474  107.640    3.674    0.000
  228.250    0.249    0.508  107.015    3.892    0.000
  228.500    0.230    0.571  105.779    4.281    0.000
  228.750    0.243    0.565  105.153    4.709    0.000
  229.000    0.259    0.560  101.468    5.380    0.000
  229.250    0.285    0.527   94.722    6.266    0.000
  229.500    0.333    0.517   88.589    6.512    0.000
  229.750    0.309    0.494   89.183    6.046    0.000
  230.000    0.299    0.469   92.846    5.303    0.000
  230.250    0.283    0.469   94.672    4.397    0.000
  230.500    0.251    0.496   98.945    4.004    0.000
  230.750    0.236    0.521  104.440    3.788    0.000
  231.000    0.226    0.545  105.655    3.652    0.000
  231.250    0.229    0.561  103.192    3.725    0.000
  231.500    0.263    0.537  105.017    3.946    0.000
  231.750    0.285    0.517  106.230    4.181    0.000
  232.000    0.295    0.539  101.318    4.268    0.000
  232.250    0.282    0.525   98.858    4.191    0.000
  232.500    0.277    0.495  100.682    3.965    0.000
  232.750    0.290    0.530  103.118    3.822    0.000
  233.000    0.282    0.575  104.942    3.898    0.000
  233.250    0.273    0.554  102.482    3.830    0.000
  233.500    0.260    0.543  103.078    3.623    0.000
  233.750    0.252    0.532  105.515    3.427    0.000
  234.000    0.260    0.525  106.728    3.497    0.000
  234.250    0.310    0.559  104.877    3.634    0.000
  234.500    0.307    0.580   98.746    4.231    0.000
  234.750    0.295    0.542   79.756    5.213    0.000
  235.000    0.300    0.484   76.070    6.927    0.000
  235.250    0.310    0.441   77.892    9.029    0.000
  235.500    0.301    0.435   76.657   10.921    0.000
  235.750    0.304    0.445   74.198   11.350    0.000
  236.000    0.301    0.435   76.634   10.341    0.000
  236.250    0.285    0.435   77.234    8.902    0.000
  236.500    0.264    0.434   82.727    7.519    0.000
  236.750    0.257    0.432   84.554    6.473    0.000
  237.000    0.288    0.456   85.151    6.238    0.000
  237.250    0.349    0.516   84.529    6.128    0.000
  237.500    0.321    0.507   84.517    6.022    0.000
  237.750    0.320    0.494   85.728    6.144    0.000
  238.000    0.353    0.485   88.776    6.268    0.000
  238.250    0.304    0.475   91.210    6.392    0.000
  238.500    0.276    0.477   89.974    6.649    0.000
  238.750    0.245    0.475   89.352    6.655    0.000
  239.000    0.230    0.481   85.056    6.661    0.000
  239.250    0.253    0.499   82.592    6.544    0.000
  239.500    0.283    0.472   85.641    6.430    0.000
  239.750    0.242    0.439   86.854    6.433    0.000
  240.000    0.224    0.440   81.333    6.440    0.000
  240.250    0.245    0.459   82.542    6.572    0.000
  240.500    0.277    0.466   86.815    6.702    0.000
  240.750    0.307    0.474   89.253    6.709    0.000
  241.000    0.318    0.465   85.566    6.350    0.000
  241.250    0.293    0.455   85.553    6.005    0.000
  241.500    0.282    0.457   89.217    4.978    0.000
  241.750    0.277    0.490   92.263    4.366    0.000
  242.000    0.293    0.512   94.087    3.688    0.000
  242.250    0.319    0.539   95.300    3.763    0.000
  242.500    0.389    0.603   94.059    4.062    0.000
  242.750    0.435    0.609   91.599    5.296    0.000
  243.000    0.368    0.528   87.913    7.308    0.000
  243.250    0.336    0.480   83.614    9.002    0.000
  243.500    0.328    0.470   79.933   11.518    0.000
  243.750    0.317    0.476   75.636   12.670    0.000
  244.000    0.313    0.460   70.116   12.690    0.000
  244.250    0.322    0.446   63.981   12.461    0.000
  244.500    0.335    0.472   63.355   12.246    0.000
  244.750    0.340    0.475   63.344   12.027    0.000
  245.000    0.339    0.463   65.163   12.042    0.000
  245.250    0.335    0.461   65.155   12.050    0.000
  245.500    0.336    0.454   63.917   11.846    0.000
  245.750    0.333    0.447   62.682   11.855    0.000
  246.000    0.325    0.457   61.445   11.649    0.000
  246.250    0.322    0.469   60.208   11.655    0.000
  246.500    0.332    0.464   60.805   11.237    0.000
  246.750    0.340    0.463   61.407   11.255    0.000
  247.000    0.346    0.482   60.780   11.261    0.000
  247.250    0.340    0.488   61.993   11.490    0.000
  247.500    0.333    0.467   63.817   11.947    0.000
  247.750    0.337    0.457   65.639   11.956    0.000
  248.000    0.340    0.474   66.849   12.202    0.000
  248.250    0.339    0.487   68.064   12.212    0.000
  248.500    0.327    0.500   69.892   12.224    0.000
  248.750    0.317    0.483   73.550   12.240    0.000
  249.000    0.320    0.468   74.152   12.491    0.000
  249.250    0.313    0.458   72.303   12.500    0.000
  249.500    0.310    0.452   70.455   12.511    0.000
  249.750    0.313    0.470   71.050   12.291    0.000
  250.000    0.317    0.439   76.220   10.783    0.000
  250.250    0.295    0.454   85.368    9.808    0.000
  250.500    0.284    0.473   87.198    8.921    0.000
  250.750    0.289    0.478   87.199    8.427    0.000
  251.000    0.285    0.452   87.810    8.113    0.000
  251.250    0.270    0.473   91.470    7.958    0.000
  251.500    0.263    0.494   94.520    7.955    0.000
  251.750    0.257    0.473   93.301    7.951    0.000
  252.000    0.256    0.470   85.375    7.949    0.000
  252.250    0.251    0.484   85.376    7.797    0.000
  252.500    0.245    0.493   92.695    7.506    0.000
  252.750    0.242    0.497   98.183    7.362    0.000
  253.000    0.248    0.494   97.575    7.087    0.000
  253.250    0.257    0.479   95.747    7.085    0.000
  253.500    0.261    0.468   97.577    6.949    0.000
  253.750    0.245    0.479  103.676    6.689    0.000
  254.000    0.221    0.494  106.116    6.439    0.000
  254.250    0.197    0.497   96.970    6.083    0.000
  254.500    0.195    0.507   94.533    5.638    0.000
  254.750    0.235    0.522   90.875    5.428    0.000
  255.000    0.311    0.531   87.218    5.529    0.000
  255.250    0.334    0.537   89.658    5.223    0.000
  255.500    0.316    0.564  103.073    4.575    0.000
  255.750    0.275    0.593  106.123    3.786    0.000
  256.000    0.263    0.612  100.637    3.194    0.000
  256.250    0.283    0.616   98.199    2.851    0.000
  256.500    0.268    0.615   99.419    2.497    0.000
  256.750    0.269    0.602  103.079    2.404    0.000
  257.000    0.299    0.573  103.690    2.495    0.000
  257.250    0.291    0.550  101.252    2.639    0.000
  257.500    0.266    0.554  100.033    2.792    0.000
  257.750    0.251    0.570   96.986    3.010    0.000
  258.000    0.272    0.559   93.328    3.245    0.000
  258.250    0.285    0.545   90.280    3.565    0.000
  258.500    0.290    0.518   88.452    3.991    0.000
  258.750    0.283    0.482   88.453    4.639    0.000
  259.000    0.289    0.462   87.845    5.002    0.000
  259.250    0.318    0.500   84.797    5.494    0.000
  259.500    0.355    0.531   82.359    5.812    0.000
  259.750    0.327    0.509   86.019    6.148    0.000
  260.000    0.316    0.514   86.020    6.382    0.000
  260.250    0.296    0.492   82.972    6.751    0.000
  260.500    0.286    0.472   78.095    6.878    0.000
  260.750    0.294    0.474   81.145    7.276    0.000
