~VERSION INFORMATION
 VERS.                 2.0:   CWLS LOG ASCII STANDARD -VERSION 2.0
 WRAP.                  NO:   ONE LINE PER DEPTH STEP
~WELL INFORMATION BLOCK
#MNEM.UNIT           DATA                    DESCRIPTION OF MNEMONIC
#---------    -------------------            -------------------------------
# Generated from Intellog Unique Number	CW_70_72/WELL/3006
NULL.         -999.25                        : NULL_VALUE
WELL.         GAO HONDO 06-14                : Well_name    - WELL              
LOC .         06-14-070-01W5                 : Location     - LOCATION          
UWI .         00/06-14-070-01W5/0              : Uwi          - UNIQUE WELL ID    
ENTR.         J                              : Entered      - ENTERED BY        
SRVC.         SCHLUMBERGER                   : Scn          - SERVICE COMPANY   
DATE.         1 JAN 76                       : Date         - LOG DATE          
STRT.M        438.912                        : top_depth    - START DEPTH       
STOP.M        676.662                        : bot_depth    - STOP DEPTH        
STEP.M        0.25                           : increment    - STEP LENGTH       
~CURVE INFORMATION BLOCK
#MNEM UNIT       ERCB CURVE CODE    CURVE DESCRIPTION
#-----------   ------------------   ----------------------------------
DEPT.M        00 001 00 00         : DEPTH        - DEPTH                       
ILD .OHMM     00 120 00 00         : RESD         - DEEP RESISTIVITY (DIL)      
CALI.MM       00 280 01 00         : CAL          - CALIPER                     
GR  .API      00 310 00 00         : GR           - GAMMA RAY                   
NPHI.V/V      00 330 00 00         : PHIN         - NEUTRON POROSITY (SANDSTONE)
DPHI.V/V      00 890 00 00         : PHID         - DENSITY POROSITY (SANDSTONE)
~PARAMETER INFORMATION       
#MNEM.UNIT           DATA             DESCRIPTION OF MNEMONIC
#---------         -----------     ------------------------------
GL  .M        604.723              : gl           - GROUND LEVEL ELEVATION      
EREF.M        607.771              : kb           - ELEVATION OF DEPTH REFERENCE
DATM.M        604.723              : datum        - DATUM ELEVATION             
TDD .M        688.848              : tdd          - TOTAL DEPTH DRILLER         
RUN .         ONE                  : Run          - RUN NUMBER                  
ENG .         SAWASE               : Engineer     - RECORDING ENGINEER          
WIT .         CUMMIN               : Witness      - WITNESSED BY                
BASE.         EDM                  : Branch       - HOME BASE OF LOGGING UNIT   
MATR.         SANDSTONE            : Logunit      - NEUTRON MATRIX              
TMAX.C        29.4444              : BHT          - MAXIMUM RECORDED TEMPERATURE
BHTD.M        690.067              : BHTDEP       - MAXIMUM RECORDED TEMPERATURE
RMT .C        17.7778              : MDTP         - TEMPERATURE OF MUD          
MUDD.KG/M     1188                 : MWT          - MUD DENSITY                 
NEUT.         1                    : NEUTRON      - NEUTRON TYPE                
RESI.         0                    : RESIST       - RESISTIVITY TYPE            
RM  .OHMM     2.5                  : RM           - RESISTIVITY OF MUD          
RMC .OHMM     2.5                  : RMC          - RESISTIVITY OF MUD CAKE     
RMF .OHMM     2.25                 : RMF          - RESISTIVITY OF MUD FILTRATE 
SUFT.C        -17.7778             : SUFT         - SURFACE TEMPERATURE         
~A  DEPTH     RESD      CAL       GR     PHIN     PHID
# ...
  511.912    2.597  165.203   62.679    0.254    0.150
  512.162    2.151  162.543   64.516    0.302    0.273
  512.412    2.004  158.544   66.719    0.358    0.305
  512.662    1.880  158.353   69.104    0.371    0.293
  512.912    1.826  159.094   72.767    0.382    0.296
  513.162    1.816  159.419   75.214    0.376    0.304
  513.412    1.936  159.440   74.982    0.367    0.291
  513.662    2.076  159.766   74.140    0.362    0.279
  513.912    2.267  160.300   73.723    0.353    0.271
  514.162    2.591  160.834   77.752    0.342    0.267
  514.412    2.798  161.988   82.999    0.337    0.259
  514.662    2.989  164.585   90.924    0.353    0.221
  514.912    3.129  165.940  100.614    0.390    0.193
  515.162    3.039  168.542   96.668    0.404    0.204
  515.412    2.640  165.878   88.158    0.390    0.230
  515.662    2.423  163.218   82.141    0.375    0.277
  515.912    2.188  161.686   73.995    0.362    0.296
  516.162    2.082  160.883   70.535    0.346    0.291
  516.412    1.925  160.592   68.052    0.339    0.271
  516.662    1.816  160.710   66.965    0.348    0.265
  516.912    1.761  161.044   65.332    0.375    0.274
  517.162    1.751  161.167   63.578    0.370    0.297
  517.412    1.777  161.907   64.929    0.361    0.297
  517.662    1.854  162.029   70.663    0.368    0.266
  517.912    1.948  162.251   74.203    0.378    0.300
  518.162    2.039  162.678   73.484    0.380    0.309
  518.412    2.127  162.904   73.373    0.382    0.305
  518.662    2.244  162.719   78.072    0.388    0.307
  518.912    2.427  162.733   73.760    0.396    0.324
  519.162    2.588  162.443   78.461    0.417    0.341
  519.412    2.775  162.051   81.575    0.442    0.361
  519.662    2.926  161.656   83.898    0.458    0.361
  519.912    2.975  161.364   84.458    0.463    0.346
  520.162    2.874  161.176   81.182    0.441    0.339
  520.412    2.721  159.133   85.455    0.419    0.323
  520.662    2.511  157.811   90.579    0.404    0.300
  520.912    2.250  157.421   96.190    0.388    0.269
  521.162    2.065  158.570   91.088    0.387    0.281
  521.412    2.039  160.961   80.142    0.379    0.290
  521.662    2.383  162.526   74.979    0.357    0.296
  521.912    2.758  163.577   71.580    0.348    0.265
  522.162    3.107  164.626   68.304    0.295    0.196
  522.412    3.436  165.054   66.671    0.265    0.141
  522.662    3.431  164.868   67.414    0.270    0.161
  522.912    3.002  164.474   68.335    0.328    0.197
  523.162    2.651  163.769   71.511    0.361    0.227
  523.412    2.389  162.657   75.724    0.377    0.272
  523.662    2.372  161.851   76.830    0.371    0.257
  523.912    2.567  160.943   74.101    0.361    0.253
  524.162    2.849  160.135   69.365    0.358    0.257
  524.412    3.145  159.020   66.150    0.352    0.230
  524.662    3.485  158.316   64.942    0.335    0.240
  524.912    3.925  158.027   66.597    0.346    0.279
  525.162    4.430  158.147   70.017    0.364    0.260
  525.412    4.654  160.020   75.324    0.354    0.197
  525.662    4.007  166.328   75.031    0.253    0.136
  525.912    3.362  168.407   74.376    0.227    0.124
  526.162    2.915  166.263   75.296    0.258    0.178
  526.412    2.796  164.426   78.898    0.302    0.208
  526.662    2.869  165.476   82.562    0.343    0.247
  526.912    3.003  166.629   87.566    0.349    0.226
  527.162    3.133  167.160   89.585    0.359    0.202
  527.412    3.244  166.458   91.545    0.369    0.197
  527.662    3.335  165.860   94.416    0.379    0.199
  527.912    3.428  165.565   96.133    0.376    0.185
  528.162    3.504  165.276   94.864    0.365    0.178
  528.412    3.563  164.990   94.998    0.360    0.171
  528.662    3.643  165.208   93.303    0.361    0.186
  528.912    3.710  166.364   97.456    0.362    0.192
  529.162    3.779  167.929   98.925    0.353    0.191
  529.412    3.857  169.390   99.306    0.346    0.184
  529.662    3.936  170.749  101.810    0.340    0.185
  529.912    4.016  171.590  101.639    0.338    0.182
  530.162    4.068  172.332   99.885    0.346    0.163
  530.412    4.144  172.455   99.895    0.356    0.153
  530.662    4.175  172.988  103.984    0.357    0.151
  530.912    4.183  173.318  101.317    0.352    0.150
  531.162    4.131  173.747  101.936    0.348    0.146
  531.412    3.983  173.976  107.305    0.343    0.142
  531.662    3.750  173.580  109.506    0.344    0.130
  531.912    3.454  172.976  111.161    0.357    0.152
  532.162    3.205  171.038  113.426    0.376    0.159
  532.412    2.952  167.655  107.469    0.379    0.202
  532.662    2.862  165.403   92.567    0.363    0.225
  532.912    2.878  164.493   89.961    0.362    0.250
  533.162    2.954  164.512   93.684    0.370    0.250
  533.412    3.115  165.254   98.016    0.376    0.203
  533.662    3.327  165.891  105.031    0.367    0.181
  533.912    3.528  166.424  109.422    0.373    0.176
  534.162    3.714  167.577  104.929    0.362    0.186
  534.412    3.853  168.317  105.247    0.345    0.180
  534.662    3.939  169.369  106.595    0.345    0.173
  534.912    3.969  169.802  106.606    0.354    0.169
  535.162    3.998  169.507  101.806    0.362    0.162
  535.412    4.050  168.907  100.114    0.377    0.167
  535.662    4.111  168.203  105.299    0.385    0.195
  535.912    4.157  166.780   98.249    0.376    0.231
  536.162    4.127  165.252   91.380    0.423    0.283
  536.412    3.950  163.414   94.984    0.444    0.302
  536.662    3.679  161.686   96.821    0.419    0.268
  536.912    3.352  161.090   97.561    0.367    0.215
  537.162    3.093  160.894   98.181    0.357    0.234
  537.412    2.886  160.197   96.855    0.369    0.250
  537.662    2.767  159.694   95.099    0.379    0.253
  537.912    2.727  159.694   93.649    0.369    0.264
  538.162    2.733  159.694   92.380    0.360    0.257
  538.412    2.789  158.215   90.688    0.355    0.251
  538.662    2.898  158.427   89.115    0.362    0.249
  538.912    3.023  158.651   85.900    0.370    0.241
  539.162    3.148  160.116   86.096    0.362    0.236
  539.412    3.338  162.812   89.393    0.347    0.210
  539.662    3.482  167.057   93.908    0.334    0.185
  539.912    3.527  167.181   99.032    0.355    0.173
  540.162    3.540  166.682   97.278    0.376    0.210
  540.412    3.401  165.774   92.054    0.367    0.223
  540.662    3.214  165.380   89.752    0.352    0.225
  540.912    2.955  165.604   86.779    0.360    0.230
  541.162    2.803  165.315   84.296    0.366    0.233
  541.412    2.601  164.819   84.488    0.364    0.245
  541.662    2.703  164.422   85.961    0.362    0.259
  541.912    2.804  163.719   87.553    0.360    0.265
  542.162    2.872  164.152   89.270    0.366    0.254
  542.412    2.857  165.201   91.655    0.363    0.237
  542.662    2.821  165.220   92.152    0.356    0.233
  542.912    2.795  164.618   87.171    0.379    0.240
  543.162    2.745  162.782   83.287    0.387    0.253
  543.412    2.691  161.564   82.202    0.363    0.251
  543.662    2.642  160.348   84.830    0.356    0.237
  543.912    2.638  159.539   86.546    0.357    0.251
  544.162    2.737  159.353   83.026    0.365    0.266
  544.412    2.897  159.576   79.505    0.372    0.279
  544.662    3.157  161.346   82.682    0.362    0.279
  544.912    3.198  163.428   74.414    0.374    0.271
  545.162    2.957  165.301   68.945    0.329    0.229
  545.412    2.753  165.526   71.331    0.313    0.204
  545.662    2.569  162.657   74.203    0.330    0.240
  545.912    2.574  159.070   78.111    0.347    0.270
  546.162    2.725  158.883   82.444    0.361    0.278
  546.412    2.942  159.416   86.411    0.362    0.252
  546.662    3.351  161.186   87.944    0.362    0.222
  546.912    3.720  162.443   82.354    0.372    0.224
  547.162    4.091  161.842   75.183    0.308    0.222
  547.412    3.902  160.933   70.627    0.294    0.197
  547.662    3.440  159.303   68.874    0.305    0.229
  547.912    3.174  157.980   72.415    0.325    0.260
  548.162    2.908  157.488   75.898    0.348    0.276
