~VERSION INFORMATION
 VERS.                 2.0:   CWLS LOG ASCII STANDARD -VERSION 2.0
 WRAP.                  NO:   ONE LINE PER DEPTH STEP
~WELL INFORMATION BLOCK
#MNEM.UNIT           DATA                    DESCRIPTION OF MNEMONIC
#---------    -------------------            -------------------------------
# Generated from Intellog Unique Number	CS_71_72/WELL/623
WELL.         BVI ET AL CHARRON              : Well_name    - WELL
LOC .         00/03-07-071-15W4/0            : Location     - LOCATION
UWI .         00/03-07-071-15W4/0            : Uwi          - UNIQUE WELL ID
ENTR.         SP                             : Entered      - ENTERED BY
SRVC.         SCHLUMBERGER                   : Scn          - SERVICE COMPANY
STRT.M        310                            : top_depth    - START DEPTH
STOP.M        500                            : bot_depth    - STOP DEPTH
STEP.M        0.25                           : increment    - STEP LENGTH
 NULL. -999.2500:NULL Value
~CURVE INFORMATION BLOCK
#MNEM UNIT       ERCB CURVE CODE    CURVE DESCRIPTION
#-----------   ------------------   ----------------------------------
DEPT.M        00 001 00 00         : DEPTH        - DEPTH
ILD .OHMM     00 120 00 00         : RESD         - DEEP RESISTIVITY (DIL)
DPHI.V/V      00 890 00 00         : PHID         - DENSITY POROSITY (LIMESTONE)
NPHI.V/V      00 330 00 00         : PHIN         - NEUTRON POROSITY (LIMESTONE)
GR  .API      00 310 00 00         : GR           - GAMMA RAY
~PARAMETER INFORMATION
#MNEM.UNIT           DATA             DESCRIPTION OF MNEMONIC
#---------         -----------     ------------------------------
GL  .M        599.2                : gl           - GROUND LEVEL ELEVATION
EREF.M        602.85               : kb           - ELEVATION OF DEPTH REFERENCE
DATM.M        599.2                : datum        - DATUM ELEVATION
TDD .M        503                  : tdd          - TOTAL DEPTH DRILLER
RUN .         ONE                  : Run          - RUN NUMBER
ENG .         BILL                 : Engineer     - RECORDING ENGINEER
WIT .         JIM                  : Witness      - WITNESSED BY
MUD .         GEL                  : Mud_type     - MUD TYPE
MATR.         LIMESTONE            : Logunit      - NEUTRON MATRIX
TMAX.C        19                   : BHT          - MAXIMUM RECORDED TEMPERATURE
BHTD.M        503                  : BHTDEP       - MAXIMUM RECORDED TEMPERATURE
MATR.         1                    : LOGUNIT      - NEUTRON MATRIX
RMT .C        25                   : MDTP         - TEMPERATURE OF MUD
NEUT.         1                    : NEUTRON      - NEUTRON TYPE
RESI.         0                    : RESIST       - RESISTIVITY TYPE
RMC .OHMM     0.25                 : RMC          - RESISTIVITY OF MUD CAKE
RMF .OHMM     0.25                 : RMF          - RESISTIVITY OF MUD FILTRATE
SUFT.C        15                   : SUFT         - SURFACE TEMPERATURE
~A  DEPTH     RESD     PHID     PHIN       GR
# ...
  353.500    4.091    0.286    0.440   77.284
  353.750    4.154    0.284    0.424   83.388
  354.000    4.169    0.261    0.413   92.604
  354.250    4.138    0.231    0.398   97.796
  354.500    4.084    0.240    0.420  101.218
  354.750    3.963    0.246    0.456  102.083
  355.000    3.853    0.246    0.483  105.629
  355.250    3.635    0.226    0.491  109.725
  355.500    3.487    0.205    0.510  111.683
  355.750    3.474    0.223    0.529  113.949
  356.000    3.897    0.238    0.501  115.056
  356.250    4.338    0.246    0.454  114.947
  356.500    4.522    0.236    0.456  111.176
  356.750    4.767    0.235    0.456  104.177
  357.000    4.903    0.222    0.442  102.298
  357.250    5.035    0.209    0.426  103.467
  357.500    5.130    0.207    0.426  101.466
  357.750    5.277    0.215    0.423   93.675
  358.000    5.348    0.227    0.417   90.211
  358.250    5.308    0.224    0.409   95.159
  358.500    4.804    0.202    0.399  101.630
  358.750    4.356    0.212    0.404  106.394
  359.000    3.943    0.225    0.416  106.284
  359.250    3.622    0.245    0.430   94.409
  359.500    3.392    0.275    0.445   83.752
  359.750    3.316    0.316    0.443   76.021
  360.000    3.430    0.332    0.429   72.010
  360.250    3.616    0.324    0.419   75.921
  360.500    3.798    0.322    0.421   78.064
  360.750    3.958    0.312    0.415   78.136
  361.000    4.196    0.300    0.411   81.014
  361.250    4.432    0.284    0.406   84.254
  361.500    4.585    0.268    0.392   89.079
  361.750    4.672    0.254    0.387   92.808
  362.000    4.689    0.238    0.385   95.377
  362.250    4.663    0.250    0.433   97.582
  362.500    4.399    0.288    0.495   98.264
  362.750    4.027    0.315    0.563   95.591
  363.000    3.638    0.345    0.544   80.303
  363.250    3.464    0.320    0.478   68.916
  363.500    3.262    0.320    0.444   61.734
  363.750    3.129    0.335    0.422   57.600
  364.000    3.014    0.337    0.403   60.235
  364.250    3.014    0.333    0.406   61.584
  364.500    3.106    0.338    0.420   62.385
  364.750    3.238    0.342    0.437   60.262
  365.000    3.305    0.348    0.456   62.227
  365.250    3.400    0.354    0.467   64.002
  365.500    3.432    0.370    0.448   65.719
  365.750    3.407    0.388    0.471   67.497
  366.000    3.318    0.371    0.488   68.790
  366.250    3.232    0.351    0.464   69.412
  366.500    3.172    0.336    0.441   68.381
  366.750    3.107    0.335    0.432   63.150
  367.000    3.107    0.336    0.428   63.405
  367.250    3.107    0.337    0.417   65.487
  367.500    3.125    0.337    0.404   66.290
  367.750    3.160    0.330    0.395   66.240
  368.000    3.294    0.324    0.402   70.638
  368.250    3.427    0.318    0.424   77.660
  368.500    3.612    0.293    0.416   82.789
  368.750    3.844    0.234    0.405   88.894
  369.000    4.192    0.207    0.399   93.964
  369.250    4.345    0.235    0.415   95.193
  369.500    4.494    0.247    0.436   97.398
  369.750    4.615    0.237    0.448   99.055
  370.000    4.685    0.221    0.430  100.833
  370.250    4.747    0.209    0.424  102.306
  370.500    4.712    0.211    0.432   98.538
  370.750    4.589    0.236    0.440   92.697
  371.000    4.378    0.259    0.444   88.684
  371.250    4.273    0.268    0.426   88.695
  371.500    4.154    0.251    0.413   93.154
  371.750    4.123    0.232    0.406  101.881
  372.000    4.008    0.223    0.424  113.228
  372.250    4.008    0.212    0.443  115.737
  372.500    4.016    0.202    0.447  101.242
  372.750    4.001    0.216    0.456   89.368
  373.000    3.956    0.242    0.476   82.368
  373.250    3.912    0.261    0.460   73.908
  373.500    3.817    0.284    0.443   66.969
  373.750    3.753    0.294    0.425   62.895
  374.000    3.697    0.292    0.407   65.405
  374.250    3.628    0.289    0.387   67.370
  374.500    3.629    0.288    0.405   68.293
  374.750    3.725    0.299    0.420   69.154
  375.000    3.782    0.287    0.417   70.632
  375.250    3.920    0.277    0.409   72.042
  375.500    4.025    0.276    0.402   75.830
  375.750    4.048    0.262    0.395   81.935
  376.000    4.040    0.214    0.427   87.492
  376.250    4.010    0.231    0.476   92.379
  376.500    3.958    0.248    0.465   91.048
  376.750    3.935    0.255    0.450   87.404
  377.000    3.877    0.258    0.440   83.820
  377.250    3.805    0.252    0.432   81.450
  377.500    3.805    0.260    0.426   77.319
  377.750    3.783    0.258    0.422   75.863
  378.000    3.762    0.258    0.421   79.774
  378.250    3.776    0.243    0.423   84.967
  378.500    3.769    0.221    0.424   89.123
  378.750    3.784    0.223    0.421   91.082
  379.000    3.784    0.234    0.404   92.435
  379.250    3.784    0.229    0.413   91.713
  379.500    3.763    0.227    0.429   90.261
  379.750    3.720    0.229    0.440   89.722
  380.000    3.638    0.238    0.447   86.137
  380.250    3.583    0.263    0.444   80.966
  380.500    3.490    0.280    0.438   78.051
  380.750    3.393    0.295    0.435   78.549
  381.000    3.336    0.300    0.433   80.326
  381.250    3.349    0.293    0.435   82.412
  381.500    3.374    0.288    0.443   84.006
  381.750    3.343    0.281    0.452   86.518
  382.000    3.299    0.265    0.454   90.305
  382.250    3.238    0.263    0.461   93.849
  382.500    3.232    0.270    0.474   96.423
  382.750    3.275    0.273    0.486   95.760
  383.000    3.375    0.270    0.504   92.479
  383.250    3.701    0.264    0.483   88.345
  383.500    3.807    0.258    0.455   88.416
  383.750    4.254    0.252    0.445   89.771
  384.000    4.327    0.245    0.456   89.900
  384.250    4.872    0.230    0.467   85.461
  384.500    4.993    0.212    0.488   80.230
  384.750    5.870    0.134    0.261   73.231
  385.000    6.235    0.096    0.238   67.634
  385.250    6.928    0.062    0.229   65.268
  385.500    7.317    0.053    0.226   65.222
  385.750    7.641    0.098    0.378   65.106
  386.000    7.816    0.168    0.409   64.446
  386.250    7.641    0.229    0.400   61.591
  386.500    6.787    0.152    0.245   63.431
  386.750    5.415    0.099    0.208   68.195
  387.000    4.537    0.194    0.386   72.046
  387.250    3.940    0.266    0.435   75.778
  387.500    3.606    0.310    0.451   76.272
  387.750    3.332    0.321    0.436   76.039
  388.000    3.197    0.328    0.425   74.283
  388.250    3.161    0.322    0.433   70.515
  388.500    3.132    0.312    0.453   70.097
  388.750    3.138    0.303    0.449   74.252
  389.000    3.174    0.300    0.448   75.240
  389.250    3.271    0.304    0.454   75.493
  389.500    3.396    0.310    0.464   77.821
  389.750    3.422    0.317    0.469   79.843
  390.000    3.560    0.305    0.458   80.888
  390.250    3.746    0.292    0.448   80.898
  390.500    3.875    0.287    0.444   82.494
  390.750    4.016    0.270    0.440   85.429
  391.000    4.039    0.233    0.438   88.977
  391.250    3.994    0.212    0.456   91.608
  391.500    3.868    0.219    0.470   92.959
  391.750    3.810    0.233    0.458   93.822
  392.000    3.684    0.230    0.468   94.015
  392.250    3.568    0.233    0.476   89.030
  392.500    3.508    0.256    0.461   84.711
  392.750    3.488    0.280    0.441   79.235
  393.000    3.541    0.300    0.431   76.381
  393.250    3.775    0.312    0.425   79.379
  393.500    4.203    0.298    0.421   83.475
  393.750    5.170    0.271    0.424   86.103
  394.000    6.948    0.240    0.449   88.066
  394.250   10.086    0.206    0.465   77.836
  394.500   13.251    0.045    0.197   62.974
  394.750   15.846    0.005    0.175   55.731
  395.000   17.377   -0.010    0.166   57.389
  395.250   16.704   -0.004    0.170   60.079
  395.500    6.137    0.151    0.362   68.075
  395.750    4.924    0.202    0.391   77.898
  396.000    4.602    0.236    0.404   84.186
  396.250    4.542    0.233    0.412   87.245
  396.500    4.491    0.229    0.415   88.902
  396.750    4.457    0.235    0.420   90.558
