~VERSION INFORMATION
 VERS.                 2.0:   CWLS LOG ASCII STANDARD -VERSION 2.0
 WRAP.                  NO:   ONE LINE PER DEPTH STEP
~WELL INFORMATION BLOCK
#MNEM.UNIT           DATA                    DESCRIPTION OF MNEMONIC
#---------    -------------------            -------------------------------
# Generated from Intellog Unique Number	CW_70_72/WELL/829
NULL.         -999.25                        : NULL_VALUE
WELL.         SUNDANCE ET AL SMITH 06-29     : Well_name    - WELL              
LOC .         06-29-071-22W4                 : Location     - LOCATION          
UWI .         00/06-29-071-22W4/0            : Uwi          - UNIQUE WELL ID    
ENTR.         JAYE                           : Entered      - ENTERED BY        
SRVC.         SCHLUMBERGER                   : Scn          - SERVICE COMPANY   
DATE.         9 MAR 76                       : Date         - LOG DATE          
STRT.M        402.336                        : top_depth    - START DEPTH       
STOP.M        603.586                        : bot_depth    - STOP DEPTH        
STEP.M        0.25                           : increment    - STEP LENGTH       
~CURVE INFORMATION BLOCK
#MNEM UNIT       ERCB CURVE CODE    CURVE DESCRIPTION
#-----------   ------------------   ----------------------------------
DEPT.M        00 001 00 00         : DEPTH        - DEPTH                       
DPHI.V/V      00 890 00 00         : PHID         - DENSITY POROSITY (SANDSTONE)
NPHI.V/V      00 330 00 00         : PHIN         - NEUTRON POROSITY (SANDSTONE)
GR  .API      00 310 00 00         : GR           - GAMMA RAY                   
CALI.MM       00 280 01 00         : CAL          - CALIPER                     
ILD .OHMM     00 120 00 00         : RESD         - DEEP RESISTIVITY (DIL)      
~PARAMETER INFORMATION       
#MNEM.UNIT           DATA             DESCRIPTION OF MNEMONIC
#---------         -----------     ------------------------------
GL  .M        641.421              : gl           - GROUND LEVEL ELEVATION      
EREF.M        644.896              : kb           - ELEVATION OF DEPTH REFERENCE
DATM.M        641.421              : datum        - DATUM ELEVATION             
TDD .M        625.754              : tdd          - TOTAL DEPTH DRILLER         
RUN .         ONE                  : Run          - RUN NUMBER                  
BASE.         EDM                  : Branch       - HOME BASE OF LOGGING UNIT   
MUD .         GEL                  : Mud_type     - MUD TYPE                    
MATR.         SANDSTONE            : Logunit      - NEUTRON MATRIX              
TMAX.C        22.7778              : BHT          - MAXIMUM RECORDED TEMPERATURE
BHTD.M        626.669              : BHTDEP       - MAXIMUM RECORDED TEMPERATURE
RMT .C        21.6667              : MDTP         - TEMPERATURE OF MUD          
MUDD.KG/M     0                    : MWT          - MUD DENSITY                 
NEUT.         1                    : NEUTRON      - NEUTRON TYPE                
RESI.         0                    : RESIST       - RESISTIVITY TYPE            
RM  .OHMM     1.67                 : RM           - RESISTIVITY OF MUD          
RMC .OHMM     1.25                 : RMC          - RESISTIVITY OF MUD CAKE     
RMF .OHMM     2.74                 : RMF          - RESISTIVITY OF MUD FILTRATE 
SUFT.C        -17.7778             : SUFT         - SURFACE TEMPERATURE         
~A  DEPTH     PHID     PHIN       GR      CAL     RESD
# ...
  584.836    0.148    0.462  129.949  167.636    3.698
  585.086    0.156    0.465  130.851  162.813    3.647
  585.336    0.171    0.476  127.132  162.113    3.682
  585.586    0.156    0.496  127.219  165.538    3.760
  585.836    0.150    0.503  131.923  166.636    3.918
  586.086    0.147    0.475  127.765  161.816    4.022
  586.336    0.125    0.441  117.369  159.429    4.092
  586.586    0.099    0.422  119.327  159.048    4.111
  586.836    0.047    0.446  127.839  160.039    4.098
  587.086    0.116    0.450  132.917  161.557    4.108
  587.336    0.161    0.435  134.625  162.446    4.103
  587.586    0.148    0.436  129.906  160.587    4.129
  587.836    0.144    0.439  128.810  156.822    4.168
  588.086    0.158    0.441  127.460  155.810    4.225
  588.336    0.152    0.432  125.303  155.006    4.323
  588.586    0.136    0.418  119.522  153.988    4.504
  588.836    0.174    0.408  109.814  153.077    4.773
  589.086    0.201    0.440   94.050  152.171    5.444
  589.336    0.383    0.511   75.412  150.519    6.635
  589.586    0.444    0.586   56.284  148.025    8.043
  589.836    0.552    0.606   46.323  145.844    9.344
  590.086    0.605    0.628   54.210  144.620   11.098
  590.336    0.616    0.645   61.902  144.451   11.231
  590.586    0.606    0.654   73.977  144.598    9.825
  590.836    0.588    0.633   94.034  145.275    8.977
  591.086    0.491    0.610  140.484  148.580    8.000
  591.336    0.349    0.590  208.649  151.064    7.393
  591.586    0.203    0.544  236.066  153.733    6.923
  591.836    0.121    0.489  269.100  154.632    6.615
  592.086    0.133    0.439  261.886  155.093    6.484
  592.336    0.152    0.468  247.246  155.235    6.622
  592.586    0.161    0.498  235.037  155.587    6.639
  592.836    0.152    0.534  226.327  156.056    6.572
  593.086    0.167    0.550  220.799  156.307    6.492
  593.336    0.177    0.536  225.687  156.460    6.482
  593.586    0.187    0.540  231.826  156.610    6.547
  593.836    0.189    0.550  237.970  157.156    6.658
  594.086    0.177    0.539  246.854  157.209    6.763
  594.336    0.150    0.520  254.741  157.356    6.805
  594.586    0.168    0.523  262.125  157.503    6.821
  594.836    0.158    0.538  268.888  157.232    6.839
  595.086    0.145    0.552  273.719  157.374    6.880
  595.336    0.143    0.548  278.237  157.412    6.885
  595.586    0.161    0.531  283.189  157.468    6.891
  595.836    0.160    0.537  286.704  157.400    6.917
  596.086    0.166    0.562  287.860  157.648    6.923
  596.336    0.149    0.565  288.821  157.789    6.913
  596.586    0.146    0.554  288.901  157.937    6.918
  596.836    0.152    0.526  288.368  157.676    6.897
  597.086    0.137    0.505  286.895  157.389    6.939
  597.336    0.131    0.494  282.802  157.426    6.929
  597.586    0.130    0.486  275.274  157.264    6.883
  597.836    0.114    0.495  264.132  156.457    6.590
  598.086    0.104    0.489  213.485  156.083    6.195
  598.336    0.093    0.470  203.837  156.644    5.961
  598.586    0.100    0.447  191.382  157.428    5.665
  598.836    0.118    0.439  154.716  159.167    5.453
  599.086    0.143    0.443  150.557  161.208    5.288
  599.336    0.148    0.462  150.769  163.048    5.137
  599.586    0.131    0.484  152.292  166.580    5.020
  599.836    0.097    0.480  155.558  161.863    4.949
  600.086    0.117    0.451  157.895  161.479    4.826
  600.336    0.136    0.477  162.970  165.643    4.627
  600.586    0.149    0.507  165.869  167.803    4.002
  600.836    0.207    0.540  166.454  177.241    3.094
  601.086    0.249    0.555  153.812  182.572    2.691
  601.336    0.231    0.570  149.344  153.869    2.562
  601.586    0.071    0.494  147.867  152.963    2.498
  601.836    0.029    0.450  152.511  152.993    2.481
  602.086   -0.003    0.451  167.138  153.246    2.562
  602.336   -0.016    0.429  174.898  152.873    2.670
  602.586   -0.025    0.401  179.418  151.966    2.711
  602.836    0.029    0.373  184.931  151.371    2.753
  603.086   -0.000    0.404  191.694  151.303    2.705
  603.336   -0.014    0.454  199.083  151.665    2.618
  603.586   -0.011    0.462  213.647  151.589    2.548
