~VERSION INFORMATION
 VERS.                 2.0:   CWLS LOG ASCII STANDARD -VERSION 2.0
 WRAP.                  NO:   ONE LINE PER DEPTH STEP
~WELL INFORMATION BLOCK
#MNEM.UNIT           DATA                    DESCRIPTION OF MNEMONIC
#---------    -------------------            -------------------------------
# Generated from Intellog Unique Number	CC_80_83/WELL/2492
WELL.         GULF PONY                      : Well_name    - WELL
LOC .         00/06-25-081-09W4/0            : Location     - LOCATION
UWI .         00/06-25-081-09W4/0            : Uwi          - UNIQUE WELL ID
ENTR.         JHS                            : Entered      - ENTERED BY
SRVC.         SCHLUMBERGER                   : Scn          - SERVICE COMPANY
STRT.M        274.32                         : top_depth    - START DEPTH
STOP.M        477.07                         : bot_depth    - STOP DEPTH
STEP.M        0.25                           : increment    - STEP LENGTH
 NULL. -999.2500:NULL Value
~CURVE INFORMATION BLOCK
#MNEM UNIT       ERCB CURVE CODE    CURVE DESCRIPTION
#-----------   ------------------   ----------------------------------
DEPT.M        00 001 00 00         : DEPTH        - DEPTH
GR  .API      00 310 00 00         : GR           - GAMMA RAY
DPHI.V/V      00 890 00 00         : PHID         - DENSITY POROSITY (SANDSTONE)
NPHI.V/V      00 330 00 00         : PHIN         - NEUTRON POROSITY (SANDSTONE)
ILD .OHMM     00 120 00 00         : RESD         - DEEP RESISTIVITY (DIL)
~PARAMETER INFORMATION
#MNEM.UNIT           DATA             DESCRIPTION OF MNEMONIC
#---------         -----------     ------------------------------
GL  .M        706.344              : gl           - GROUND LEVEL ELEVATION
EREF.M        709.879              : kb           - ELEVATION OF DEPTH REFERENCE
DATM.M        709.879              : datum        - DATUM ELEVATION
TDD .M        484.632              : tdd          - TOTAL DEPTH DRILLER
RUN .         ONE                  : Run          - RUN NUMBER
ENG .         BILL                 : Engineer     - RECORDING ENGINEER
WIT .         JIM                  : Witness      - WITNESSED BY
MUD .         GEL                  : Mud_type     - MUD TYPE
MATR.         SANDSTONE            : Logunit      - NEUTRON MATRIX
TMAX.C        60                   : BHT          - MAXIMUM RECORDED TEMPERATURE
BHTD.M        484.632              : BHTDEP       - MAXIMUM RECORDED TEMPERATURE
MATR.         1                    : LOGUNIT      - NEUTRON MATRIX
RMT .C        25                   : MDTP         - TEMPERATURE OF MUD
NEUT.         1                    : NEUTRON      - NEUTRON TYPE
RESI.         0                    : RESIST       - RESISTIVITY TYPE
RMC .OHMM     0.25                 : RMC          - RESISTIVITY OF MUD CAKE
RMF .OHMM     0.25                 : RMF          - RESISTIVITY OF MUD FILTRATE
SUFT.C        15                   : SUFT         - SURFACE TEMPERATURE
~A  DEPTH       GR     PHID     PHIN     RESD
# ...
  317.820   39.145    0.364    0.459   18.425
  318.070   38.329    0.425    0.533   18.251
  318.320   36.748    0.397    0.579   18.156
  318.570   37.163    0.280    0.518   18.530
  318.820   43.008    0.276    0.426   18.799
  319.070   46.892    0.271    0.412   19.061
  319.320   47.247    0.289    0.423   19.625
  319.570   45.858    0.302    0.434   20.105
  319.820   44.641    0.303    0.431   20.337
  320.070   44.407    0.313    0.420   20.716
  320.320   44.933    0.312    0.441   21.378
  320.570   45.585    0.319    0.453   21.753
  320.820   45.279    0.324    0.442   22.074
  321.070   43.535    0.320    0.431   22.384
  321.320   42.990    0.323    0.431   22.831
  321.570   45.804    0.335    0.424   23.553
  321.820   47.969    0.323    0.410   23.934
  322.070   48.023    0.320    0.406   24.269
  322.320   46.867    0.332    0.416   24.706
  322.570   45.170    0.347    0.427   24.943
  322.820   43.249    0.352    0.424   24.921
  323.070   42.311    0.342    0.416   24.938
  323.320   43.602    0.324    0.414   24.621
  323.570   45.288    0.320    0.413   24.166
  323.820   46.585    0.324    0.408   24.048
  324.070   48.394    0.331    0.408   23.981
  324.320   50.239    0.342    0.415   23.611
  324.570   50.149    0.347    0.423   23.613
  324.820   51.624    0.341    0.433   23.632
  325.070   51.659    0.349    0.425   23.666
  325.320   50.776    0.350    0.409   23.554
  325.570   50.012    0.335    0.404   23.140
  325.820   47.996    0.341    0.405   22.807
  326.070   49.942    0.344    0.413   22.860
  326.320   49.886    0.331    0.420   22.359
  326.570   47.265    0.331    0.426   21.732
  326.820   45.349    0.340    0.418   21.600
  327.070   45.194    0.334    0.395   21.592
  327.320   46.177    0.337    0.392   21.263
  327.570   47.716    0.319    0.408   21.009
  327.820   48.726    0.325    0.421   20.306
  328.070   48.718    0.339    0.428   19.352
  328.320   48.169    0.336    0.436   18.474
  328.570   47.723    0.341    0.442   17.368
  328.820   47.290    0.337    0.447   16.304
  329.070   46.819    0.331    0.444   15.800
  329.320   48.453    0.333    0.454   16.031
  329.570   50.566    0.328    0.465   16.594
  329.820   50.110    0.312    0.452   17.102
  330.070   49.538    0.313    0.434   17.881
  330.320   51.856    0.320    0.430   19.335
  330.570   53.295    0.318    0.433   20.349
  330.820   53.353    0.318    0.432   21.627
  331.070   53.239    0.298    0.422   23.185
  331.320   52.172    0.231    0.400   23.819
  331.570   50.336    0.202    0.351   24.625
  331.820   47.845    0.231    0.326   24.569
  332.070   46.107    0.285    0.371   23.809
  332.320   45.717    0.326    0.430   22.359
  332.570   45.753    0.343    0.445   20.865
  332.820   45.275    0.342    0.453   20.937
  333.070   44.638    0.343    0.445   21.356
  333.320   45.238    0.325    0.427   23.392
  333.570   46.181    0.272    0.446   25.632
  333.820   43.379    0.198    0.430   26.178
  334.070   37.512    0.167    0.318   25.715
  334.320   37.803    0.244    0.302   25.401
  334.570   40.105    0.309    0.362   24.151
  334.820   43.245    0.340    0.419   22.590
  335.070   45.103    0.351    0.440   21.409
  335.320   44.068    0.346    0.448   20.519
  335.570   42.633    0.344    0.458   19.924
  335.820   41.501    0.346    0.454   19.853
  336.070   41.484    0.336    0.429   20.105
  336.320   40.869    0.334    0.411   20.473
  336.570   39.259    0.344    0.414   20.700
  336.820   39.180    0.344    0.420   20.675
  337.070   41.315    0.341    0.423   20.682
  337.320   41.214    0.333    0.423   20.681
  337.570   41.239    0.327    0.424   20.734
  337.820   42.975    0.340    0.431   20.589
  338.070   43.952    0.359    0.438   20.304
  338.320   42.333    0.351    0.437   20.335
  338.570   40.653    0.333    0.433   20.348
  338.820   40.807    0.335    0.427   20.346
  339.070   41.119    0.344    0.423   20.355
  339.320   40.167    0.346    0.424   20.361
  339.570   38.701    0.343    0.428   20.368
  339.820   38.142    0.335    0.419   20.371
  340.070   40.120    0.340    0.419   20.378
  340.320   43.388    0.349    0.427   20.384
  340.570   45.432    0.361    0.434   20.390
  340.820   45.358    0.360    0.436   20.396
  341.070   43.770    0.336    0.438   20.403
  341.320   41.105    0.343    0.444   20.412
  341.570   41.313    0.350    0.445   20.405
  341.820   42.644    0.347    0.437   20.456
  342.070   43.623    0.348    0.429   20.338
  342.320   44.508    0.351    0.432   20.041
  342.570   44.017    0.351    0.440   20.059
  342.820   43.010    0.354    0.451   20.074
  343.070   42.552    0.357    0.450   20.086
  343.320   43.289    0.355    0.441   20.052
  343.570   45.077    0.350    0.439   20.151
  343.820   46.432    0.349    0.447   20.471
  344.070   45.551    0.346    0.460   20.459
  344.320   44.439    0.325    0.458   20.731
  344.570   43.767    0.327    0.445   20.912
  344.820   43.541    0.342    0.437   20.858
  345.070   43.582    0.343    0.440   20.889
  345.320   44.544    0.362    0.447   20.899
  345.570   48.877    0.368    0.455   20.621
  345.820   48.977    0.364    0.454   20.285
  346.070   51.301    0.351    0.455   20.032
  346.320   55.183    0.343    0.466   19.647
  346.570   51.958    0.353    0.470   19.052
  346.820   49.953    0.362    0.467   18.737
  347.070   48.858    0.360    0.464   18.796
  347.320   48.479    0.356    0.466   18.399
  347.570   48.760    0.350    0.466   18.015
  347.820   49.398    0.342    0.464   18.049
  348.070   50.427    0.340    0.470   17.757
  348.320   51.092    0.346    0.469   17.730
  348.570   50.808    0.353    0.455   17.775
  348.820   50.433    0.357    0.441   17.728
  349.070   50.736    0.352    0.435   17.835
  349.320   51.219    0.339    0.431   18.113
  349.570   50.816    0.333    0.419   18.108
  349.820   49.538    0.334    0.420   18.160
  350.070   50.433    0.335    0.431   17.846
  350.320   51.272    0.325    0.443   17.169
  350.570   51.761    0.314    0.455   15.397
  350.820   56.007    0.305    0.464   11.351
  351.070   60.720    0.254    0.470    6.943
  351.320   67.533    0.223    0.479    5.340
  351.570   76.692    0.215    0.489    5.091
  351.820   81.799    0.215    0.486    4.721
  352.070   82.113    0.224    0.476    4.623
  352.320   86.825    0.228    0.492    4.553
  352.570   87.647    0.238    0.491    4.537
  352.820   86.999    0.233    0.493    4.587
  353.070   86.188    0.230    0.513    4.681
  353.320   84.729    0.238    0.530    4.863
  353.570   83.820    0.233    0.525    5.087
  353.820   82.401    0.227    0.512    5.150
  354.070   81.166    0.226    0.492    5.432
  354.320   80.904    0.216    0.480    5.707
  354.570   80.831    0.221    0.485    5.838
  354.820   80.350    0.253    0.494    5.904
  355.070   80.862    0.265    0.491    5.648
  355.320   83.429    0.236    0.465    4.830
  355.570   87.382    0.207    0.461    4.164
  355.820   89.015    0.217    0.493    3.967
  356.070   88.061    0.234    0.528    3.912
  356.320   88.320    0.225    0.543    3.797
  356.570   89.919    0.250    0.553    3.952
  356.820   89.764    0.263    0.528    4.355
  357.070   87.274    0.258    0.495    4.892
  357.320   84.623    0.249    0.488    5.113
  357.570   84.471    0.235    0.515    4.890
  357.820   88.559    0.215    0.550    4.608
  358.070   96.099    0.217    0.541    4.038
  358.320   97.159    0.243    0.528    3.608
  358.570   94.780    0.240    0.532    3.340
  358.820   95.762    0.220    0.552    3.117
  359.070   98.165    0.229    0.583    2.992
  359.320   97.580    0.230    0.602    2.902
  359.570   98.358    0.228    0.592    2.824
  359.820   96.329    0.228    0.587    2.707
  360.070   96.290    0.219    0.582    2.607
  360.320   99.580    0.212    0.575    2.591
  360.570   96.687    0.225    0.584    2.635
  360.820   93.373    0.223    0.564    2.715
  361.070   93.078    0.223    0.541    2.804
