~VERSION INFORMATION
 VERS.                 2.0:   CWLS LOG ASCII STANDARD -VERSION 2.0
 WRAP.                  NO:   ONE LINE PER DEPTH STEP
~WELL INFORMATION BLOCK
#MNEM.UNIT           DATA                    DESCRIPTION OF MNEMONIC
#---------    -------------------            -------------------------------
# Generated from Intellog Unique Number	CS_67_68/WELL/2176
WELL.         07-08-067-02W4                 : Well_name    - WELL
LOC .         00/07-08-067-02W4/0            : Location     - LOCATION
UWI .         00/07-08-067-02W4/0            : Uwi          - UNIQUE WELL ID
ENTR.         SP                             : Entered      - ENTERED BY
SRVC.         SCHLUMBERGER                   : Scn          - SERVICE COMPANY
STRT.M        345                            : top_depth    - START DEPTH
STOP.M        606                            : bot_depth    - STOP DEPTH
STEP.M        0.25                           : increment    - STEP LENGTH
 NULL. -999.2500:NULL Value
~CURVE INFORMATION BLOCK
#MNEM UNIT       ERCB CURVE CODE    CURVE DESCRIPTION
#-----------   ------------------   ----------------------------------
DEPT.M        00 001 00 00         : DEPTH        - DEPTH
ILD .OHMM     00 120 00 00         : RESD         - DEEP RESISTIVITY (DIL)
DPHI.V/V      00 890 00 00         : PHID         - DENSITY POROSITY (LIMESTONE)
NPHI.V/V      00 330 00 00         : PHIN         - NEUTRON POROSITY (LIMESTONE)
GR  .API      00 310 00 00         : GR           - GAMMA RAY
CALI.MM       00 280 01 00         : CAL          - CALIPER
~PARAMETER INFORMATION
#MNEM.UNIT           DATA             DESCRIPTION OF MNEMONIC
#---------         -----------     ------------------------------
GL  .M        644.3                : gl           - GROUND LEVEL ELEVATION
EREF.M        648.1                : kb           - ELEVATION OF DEPTH REFERENCE
DATM.M        648.1                : datum        - DATUM ELEVATION
TDD .M        613.8                : tdd          - TOTAL DEPTH DRILLER
RUN .         ONE                  : Run          - RUN NUMBER
ENG .         BILL                 : Engineer     - RECORDING ENGINEER
WIT .         JIM                  : Witness      - WITNESSED BY
MUD .         GEL                  : Mud_type     - MUD TYPE
MATR.         LIMESTONE            : Logunit      - NEUTRON MATRIX
TMAX.C        25.5                 : BHT          - MAXIMUM RECORDED TEMPERATURE
BHTD.M        618.3                : BHTDEP       - MAXIMUM RECORDED TEMPERATURE
MATR.         1                    : LOGUNIT      - NEUTRON MATRIX
RMT .C        25                   : MDTP         - TEMPERATURE OF MUD
NEUT.         1                    : NEUTRON      - NEUTRON TYPE
RESI.         0                    : RESIST       - RESISTIVITY TYPE
RMC .OHMM     0.25                 : RMC          - RESISTIVITY OF MUD CAKE
RMF .OHMM     0.25                 : RMF          - RESISTIVITY OF MUD FILTRATE
SUFT.C        15                   : SUFT         - SURFACE TEMPERATURE
~A  DEPTH     RESD     PHID     PHIN       GR      CAL
# ...
  491.000   12.444    0.266    0.456   82.088  163.915
  491.250   10.615    0.244    0.451   87.897  164.311
  491.500    8.920    0.249    0.477   91.168  163.897
  491.750    6.995    0.254    0.505   92.565  163.282
  492.000    5.737    0.255    0.504   94.264  162.866
  492.250    4.876    0.253    0.489   96.749  162.859
  492.500    4.507    0.248    0.482   95.305  162.645
  492.750    4.197    0.248    0.474   93.197  163.043
  493.000    4.050    0.245    0.477   91.271  163.136
  493.250    3.937    0.250    0.484   88.679  163.329
  493.500    3.835    0.260    0.472   85.846  163.319
  493.750    3.659    0.269    0.459   82.831  163.715
  494.000    3.283    0.267    0.480   82.959  164.010
  494.250    2.923    0.267    0.538   85.202  165.722
  494.500    2.677    0.270    0.547   84.001  166.623
  494.750    2.451    0.277    0.534   83.947  167.423
  495.000    2.339    0.274    0.523   81.597  167.313
  495.250    2.287    0.263    0.514   77.555  165.888
  495.500    2.252    0.275    0.506   78.712  163.855
  495.750    2.202    0.289    0.524   78.536  161.421
  496.000    2.145    0.296    0.525   74.554  161.412
  496.250    2.101    0.300    0.530   74.260  165.145
  496.500    2.089    0.309    0.543   74.568  168.370
  496.750    2.124    0.319    0.547   76.147  170.689
  497.000    2.147    0.308    0.544   78.027  172.400
  497.250    2.183    0.298    0.536   81.298  172.795
  497.500    2.224    0.290    0.526   83.722  172.382
  497.750    2.249    0.277    0.513   84.395  172.170
  498.000    2.269    0.270    0.520   84.159  171.857
  498.250    2.325    0.265    0.524   84.470  172.355
  498.500    2.404    0.263    0.523   84.899  173.155
  498.750    2.504    0.271    0.517   85.571  173.144
  499.000    2.643    0.277    0.525   87.935  172.631
  499.250    2.859    0.296    0.533   87.156  171.208
  499.500    3.556    0.315    0.494   75.983  165.434
  499.750    4.996    0.324    0.470   71.034  160.470
  500.000    6.380    0.329    0.457   66.388  157.932
  500.250    7.733    0.323    0.452   67.906  157.822
  500.500    8.746    0.317    0.448   69.303  158.117
  500.750    8.926    0.312    0.466   70.035  158.915
  501.000    8.908    0.317    0.478   70.284  159.108
  501.250    8.725    0.326    0.464   68.055  159.202
  501.500    7.740    0.328    0.458   67.034  158.891
  501.750    7.088    0.313    0.451   69.097  158.376
  502.000    6.503    0.300    0.459   70.795  157.860
  502.250    6.079    0.291    0.469   71.407  157.650
  502.500    7.866    0.278    0.481   63.981  157.337
  502.750    9.115    0.239    0.357   55.889  157.326
  503.000   10.137    0.123    0.241   49.309  157.320
  503.250   11.423    0.000    0.196   49.678  157.615
  503.500   10.579    0.113    0.165   57.602  157.605
  503.750    9.491    0.158    0.324   64.983  157.293
  504.000    7.470    0.197    0.384   71.155  156.475
  504.250    6.116    0.253    0.416   75.814  155.051
  504.500    5.236    0.267    0.438   76.124  153.929
  504.750    5.216    0.264    0.448   77.944  153.719
  505.000    5.353    0.271    0.451   76.864  153.710
  505.250    5.443    0.278    0.447   72.338  153.903
  505.500    5.534    0.279    0.445   72.043  154.399
  505.750    5.711    0.280    0.452   74.649  154.996
  506.000    5.775    0.284    0.452   77.980  155.696
  506.250    5.828    0.279    0.443   78.651  156.295
  506.500    5.915    0.274    0.431   72.977  157.095
  506.750    5.902    0.271    0.423   72.138  158.096
  507.000    5.923    0.271    0.432   75.047  158.897
  507.250    5.978    0.273    0.438   77.955  159.596
  507.500    6.022    0.274    0.432   79.109  160.093
  507.750    6.192    0.282    0.429   77.426  160.487
  508.000    6.237    0.285    0.426   76.465  160.885
  508.250    6.018    0.270    0.440   79.131  161.178
  508.500    5.807    0.272    0.443   81.436  161.066
  508.750    5.731    0.265    0.444   83.196  160.856
  509.000    5.708    0.254    0.456   83.504  160.949
  509.250    5.707    0.249    0.463   82.665  160.636
  509.500    5.728    0.253    0.471   79.891  160.627
  509.750    5.770    0.257    0.466   77.239  160.315
  510.000    5.888    0.266    0.459   75.917  160.206
  510.250    5.965    0.273    0.446   79.188  160.198
  510.500    6.042    0.281    0.439   78.650  160.391
  510.750    6.064    0.288    0.450   82.586  160.282
  511.000    6.085    0.276    0.458   84.648  160.374
  511.250    6.164    0.260    0.461   83.809  160.263
  511.500    6.410    0.249    0.461   82.668  160.153
  511.750    6.945    0.237    0.435   79.894  159.841
  512.000    7.567    0.225    0.413   75.430  159.426
  512.250    8.574    0.244    0.419   71.689  159.419
  512.500    9.118    0.259    0.343   68.856  159.105
  512.750    9.393    0.263    0.366   66.143  158.693
  513.000    9.269    0.284    0.387   59.684  158.278
  513.250    9.011    0.317    0.410   54.735  158.170
  513.500    8.471    0.319    0.416   55.166  157.959
  513.750    7.543    0.320    0.414   58.134  157.546
  514.000    6.482    0.309    0.410   65.091  157.436
  514.250    5.686    0.285    0.406   71.384  157.225
  514.500    5.227    0.263    0.420   73.626  157.317
  514.750    5.486    0.271    0.437   67.650  157.507
  515.000    5.823    0.286    0.453   63.427  157.499
  515.250    6.215    0.302    0.441   64.582  157.492
  515.500    6.659    0.317    0.411   71.178  157.382
  515.750    7.255    0.310    0.386   75.657  157.676
  516.000    7.964    0.302    0.377   78.745  157.667
  516.250    8.581    0.314    0.395   79.539  157.658
  516.500    8.725    0.324    0.417   76.947  157.448
  516.750    8.626    0.337    0.403   74.960  157.337
  517.000    8.576    0.345    0.411   77.021  157.127
  517.250    8.623    0.342    0.420   79.023  156.916
  517.500    8.734    0.333    0.416   80.541  156.906
  517.750    8.914    0.329    0.411   81.394  157.100
  518.000    9.098    0.315    0.410   82.670  157.090
  518.250    9.250    0.306    0.404   84.914  157.184
  518.500    9.405    0.308    0.396   87.096  157.175
  518.750    9.599    0.311    0.405   81.665  157.064
  519.000    9.742    0.304    0.412   72.061  156.752
  519.250    9.850    0.292    0.385   47.108  156.742
  519.500    9.903    0.283    0.357   40.710  156.634
  519.750    9.902    0.283    0.335   40.716  156.726
  520.000    9.844    0.284    0.321   42.053  157.122
  520.250    9.751    0.286    0.323   45.384  157.619
  520.500    9.640    0.288    0.331   43.880  158.014
  520.750    9.567    0.291    0.335   38.932  158.409
  521.000    9.512    0.285    0.331   35.675  158.602
  521.250    9.563    0.294    0.321   32.721  158.594
  521.500    9.615    0.297    0.318   32.607  158.484
  521.750    9.722    0.281    0.313   40.229  158.676
  522.000    9.848    0.266    0.307   45.615  158.669
  522.250    9.957    0.268    0.310   50.699  158.558
  522.500   10.049    0.264    0.325   49.376  158.547
  522.750   10.066    0.275    0.340   35.483  158.439
  523.000   10.083    0.291    0.337   24.551  158.330
  523.250   10.006    0.302    0.325   28.063  158.118
  523.500    9.874    0.299    0.313   37.196  157.703
  523.750    9.817    0.277    0.307   44.516  157.594
  524.000    9.670    0.256    0.327   53.891  157.181
  524.250    9.542    0.234    0.346   68.463  157.174
  524.500    9.469    0.214    0.358   77.898  157.063
  524.750    9.432    0.254    0.367   74.460  157.054
  525.000    9.343    0.269    0.378   73.561  156.945
  525.250    9.203    0.276    0.361   70.546  156.430
  525.500    9.031    0.276    0.371   69.888  156.217
  525.750    9.012    0.270    0.372   64.396  155.906
  526.000    9.061    0.265    0.356   60.897  155.695
  526.250    9.161    0.270    0.339   61.932  155.585
  526.500    9.194    0.265    0.359   71.609  155.273
  526.750    9.210    0.263    0.391   58.743  155.264
  527.000    9.208    0.278    0.423   41.707  155.559
  527.250    9.241    0.292    0.383   34.885  156.257
