~VERSION INFORMATION
 VERS.                 2.0:   CWLS LOG ASCII STANDARD -VERSION 2.0
 WRAP.                  NO:   ONE LINE PER DEPTH STEP
~WELL INFORMATION BLOCK
#MNEM.UNIT           DATA                    DESCRIPTION OF MNEMONIC
#---------    -------------------            -------------------------------
# Generated from Intellog Unique Number	CW_79_81/WELL/189
WELL.         06-07-079-01W5                 : Well_name    - WELL
LOC .         00/06-07-079-01W5/0            : Location     - LOCATION
UWI .         00/06-07-079-01W5/0            : Uwi          - UNIQUE WELL ID
ENTR.         JJ                             : Entered      - ENTERED BY
SRVC.         WESTERN ATLAS                  : Scn          - SERVICE COMPANY
DATE.         25 MAR                         : Date         - LOG DATE
STRT.M        405.384                        : top_depth    - START DEPTH
STOP.M        533.384                        : bot_depth    - STOP DEPTH
STEP.M        0.25                           : increment    - STEP LENGTH
 NULL. -999.2500:NULL Value
~CURVE INFORMATION BLOCK
#MNEM UNIT       ERCB CURVE CODE    CURVE DESCRIPTION
#-----------   ------------------   ----------------------------------
DEPT.M        00 001 00 00         : DEPTH        - DEPTH
ILD .OHMM     00 120 00 00         : RESD         - DEEP RESISTIVITY (DIL)
GR  .API      00 310 00 00         : GR           - GAMMA RAY
CALI.MM       00 280 01 00         : CAL          - CALIPER
DELT.US/F     00 520 00 00         : DELT         - SONIC TRAVEL TIME
~PARAMETER INFORMATION
#MNEM.UNIT           DATA             DESCRIPTION OF MNEMONIC
#---------         -----------     ------------------------------
GL  .M        594.665              : gl           - GROUND LEVEL ELEVATION
EREF.M        595.488              : kb           - ELEVATION OF DEPTH REFERENCE
DATM.M        595.488              : datum        - DATUM ELEVATION
TDD .M        525.17               : tdd          - TOTAL DEPTH DRILLER
RUN .         ONE                  : Run          - RUN NUMBER
ENG .         BERGLIND-MILLER      : Engineer     - RECORDING ENGINEER
WIT .         FOREMAN              : Witness      - WITNESSED BY
BASE.         EDM                  : Branch       - HOME BASE OF LOGGING UNIT
MUD .         GEL                  : Mud_type     - MUD TYPE
MATR.         SANDSTONE            : Logunit      - NEUTRON MATRIX
TMAX.C        22.7778              : BHT          - MAXIMUM RECORDED TEMPERATURE
BHTD.M        525.17               : BHTDEP       - MAXIMUM RECORDED TEMPERATURE
RMT .C        16.6667              : MDTP         - TEMPERATURE OF MUD
MUDD.KG/M     1140                 : MWT          - MUD DENSITY
NEUT.         1                    : NEUTRON      - NEUTRON TYPE
RESI.         0                    : RESIST       - RESISTIVITY TYPE
RM  .OHMM     4.54                 : RM           - RESISTIVITY OF MUD
RMC .OHMM     5.6                  : RMC          - RESISTIVITY OF MUD CAKE
RMF .OHMM     5                    : RMF          - RESISTIVITY OF MUD FILTRATE
SUFT.C        5                    : SUFT         - SURFACE TEMPERATURE
~A  DEPTH     RESD       GR      CAL     DELT
# ...
  492.384   12.374   32.695  232.875  344.484
  492.634   12.111   35.196  232.907  347.817
  492.884   12.008   36.365  233.154  353.379
  493.134   11.923   36.674  233.792  351.580
  493.384   11.821   37.841  234.435  348.661
  493.634   11.776   40.914  234.275  346.929
  493.884   11.813   40.271  234.303  344.012
  494.134   11.909   39.676  234.241  346.818
  494.384   12.044   42.226  234.076  344.820
  494.634   12.100   43.393  234.012  341.971
  494.884   12.077   41.462  234.150  345.757
  495.134   11.635   42.730  234.086  342.577
  495.384   12.050   39.509  233.719  342.162
  495.634   13.043   36.435  233.553  343.848
  495.884   14.394   39.179  235.306  316.813
  496.134   14.950   37.817  236.756  295.165
  496.384   15.484   35.651  236.387  271.682
  496.634   14.703   37.341  235.721  321.539
  496.884   12.944   39.702  234.748  351.547
  497.134   11.486   43.108  234.079  351.062
  497.384   10.345   47.086  233.713  346.899
  497.634    9.943   50.732  234.050  356.403
  497.884    9.620   52.090  234.084  352.701
  498.134    9.476   55.641  234.431  350.573
  498.384    9.493   57.192  234.661  359.091
  498.634    9.569   57.739  235.305  363.077
  498.884    9.784   59.717  235.851  350.436
  499.134   10.359   60.930  237.805  344.891
  499.384   11.093   61.574  239.557  357.091
  499.634   11.108   63.171  239.998  335.051
  499.884   10.925   61.670  238.114  318.400
  500.134   10.682   63.650  240.784  357.346
  500.384   10.340   66.150  241.323  370.928
  500.634    9.579   66.983  238.528  363.870
  500.884    8.977   67.532  239.380  356.092
  501.134    8.734   67.602  241.430  365.266
  501.384    8.770   66.388  243.692  375.233
  501.634    9.145   66.319  240.190  370.413
  501.884    9.600   64.721 -225.905  345.941
  502.134   10.015   61.455  245.719  314.372
  502.384   10.231   62.955  244.850  372.180
  502.634   10.367   60.692  240.035  355.529
  502.884    9.864   58.287  238.963  341.245
  503.134    9.222   62.362  241.623  376.577
  503.384    9.119   65.674  243.882  372.016
  503.634    9.235   67.841  245.843  370.874
  503.884    9.351   66.913  246.585  377.491
  504.134    9.546   67.460  246.623  365.901
  504.384    9.403   69.724  245.042  337.223
  504.634    8.981   70.319  242.449  349.752
  504.884    8.578   75.305  248.447  394.219
  505.134    8.315   79.421  246.160  390.647
  505.384    8.131   74.347  247.212  372.090
  505.634    8.108   71.510  250.076  365.690
  505.884    8.364   75.013  249.199  391.100
  506.134    8.419   76.657  248.029  375.566
  506.384    8.316   73.059  249.879  362.529
  506.634    8.133   68.460  253.657  382.878
  506.884    8.049   67.197  252.685  370.829
  507.134    8.026   67.317  247.971  389.994
  507.384    8.122   70.819  247.604  369.071
  507.634    8.238   70.514  248.045  360.372
  507.884    8.533   71.392  247.878  380.195
  508.134    8.649   73.178  245.490  387.137
  508.384    8.506   74.966  239.365  363.389
  508.634    8.243   70.318  235.763  353.770
  508.884    8.418   70.821  240.045  397.580
  509.134    8.634   74.896  246.647  389.342
  509.384    8.929   71.678  250.625  306.775
  509.634    8.925   65.603  246.013  280.069
  509.884    9.082   61.097  247.164  264.863
  510.134   10.334   62.932  248.719  386.683
  510.384   12.763   60.145  246.934  320.348
  510.634   17.604   51.448  242.421  278.067
  510.884   21.149   43.800  242.055  218.962
  511.134   26.568   45.301  242.698  219.001
  511.384   26.524   50.853  242.941  215.627
  511.634   21.376   55.839  243.782  287.894
  511.884   17.305   59.240  245.943  320.139
  512.134   14.271   64.459  245.978  333.846
  512.384   12.434   68.772  244.599  345.457
  512.634   11.273   70.843  245.043  354.503
  512.884   10.851   73.344  246.793  351.323
  513.134   11.107   72.846  246.124  351.431
  513.384   11.621   68.060  245.048  340.301
  513.634   12.415   65.462  244.581  329.762
  513.884   13.567   63.719  244.215  331.907
  514.134   14.740   61.313  243.043  337.007
  514.384   15.135   60.574  240.451  342.571
  514.634   14.075   62.508  240.690  354.243
  514.884   13.033   64.386  244.662  362.827
  515.134   12.751   68.366  246.315  356.957
  515.384   12.468   67.390  244.938  351.673
  515.634   12.744   65.651  244.677  346.459
  515.884   13.258   64.958  244.509  334.738
  516.134   13.354   65.459  244.344  333.071
  516.384   12.233   64.719  244.781  328.644
  516.634   11.931   66.220  245.434  328.683
  516.884   11.728   64.053  245.771  334.310
  517.134   11.804   64.696  246.414  328.832
  517.384   11.999   65.911  246.748  321.580
  517.634   12.115   66.174  247.195  327.208
  517.884   11.952   65.246  247.225  336.252
  518.134   11.530   69.892  247.161  332.615
  518.384   10.769   74.013  246.894  334.624
  518.634    9.867   79.373  248.952  336.916
  518.884    9.305   82.018  253.031  347.446
  519.134    8.943   86.093  249.733  362.351
  519.384    8.640   89.167  252.496  364.384
  519.634    8.537   90.908  254.353  370.139
  519.884    8.573   89.695  252.266  368.119
  520.134    8.629   88.906  249.878  349.412
  520.384    8.804   91.073  247.797  343.130
  520.634    9.219   83.473  246.316  340.728
  520.884    9.854   76.206  247.261  328.237
  521.134   10.508   69.177  247.096  318.302
  521.384   10.644   69.008  247.536  303.664
  521.634   10.560   74.608  251.413  288.954
  521.884   10.357   79.207  254.176  329.430
  522.134    9.138   76.992  253.915  340.418
  522.384    8.435   74.965  253.647  337.073
  522.634    8.572   76.610  252.975  339.376
  522.884    8.767   78.113  252.610  345.066
  523.134    8.963   78.850  252.345  350.625
  523.384    9.278   76.968  252.277  339.056
  523.634    9.573   77.137  252.015  343.562
  523.884    9.131   76.971  252.048  338.799
  524.134    7.652   77.329  252.998  333.043
  524.384    6.571   77.732  253.739  334.686
  524.634    5.890   78.945  255.291  350.771
  524.884    5.328   81.686  260.478  376.539
  525.134    4.945   78.564  263.747  401.910
  525.384    4.722   77.016  264.794  395.767
  525.634    4.698   80.660  262.713  363.272
  525.884    4.615   84.260  252.649  401.589
  526.134    4.512   88.477  251.573  397.603
  526.384    4.448   89.359  251.710  402.377
  526.634    4.185   89.048  252.855  404.209
  526.884    3.882   90.787  252.693  392.970
  527.134    3.599   89.763  251.816  394.280
  527.384    3.296   86.215  250.643  390.228
  527.634    3.034   82.760  249.772  385.328
  527.884    2.930   80.447  250.011  367.024
  528.134    2.906   81.188  254.695  366.565
  528.384    2.923   85.930  255.843  400.957
  528.634    3.139   86.763  253.857  393.438
  528.884    3.872   85.117  253.083  381.548
  529.134    4.487   84.759  250.999  361.477
  529.384    4.982   80.304  253.663  379.266
  529.634    5.177   83.901  255.317  392.472
  529.884    4.536   85.688  256.773  390.313
  530.134    3.534   77.326  254.885  373.969
  530.384    3.850   47.326  245.728  256.025
  530.634    4.425   27.143  240.410  222.482
  530.884    6.234   34.220  236.909  208.295
  531.134    9.700   15.898  234.319  195.550
  531.384   22.795   15.634  233.345  215.295
  531.634   27.098   16.372  234.098  223.147
  531.884   18.741   17.017  234.642  230.539
  532.134   16.085   16.136  235.583  225.238
  532.384   15.623   14.347  236.728  207.790
  532.634   15.120   15.515  237.470  209.620
  532.884   14.200   16.302  238.118  233.884
  533.134   13.758   16.754  238.250  246.635
  533.384   13.515   16.207  237.683  253.112
