~VERSION INFORMATION
 VERS.                 2.0:   CWLS LOG ASCII STANDARD -VERSION 2.0
 WRAP.                  NO:   ONE LINE PER DEPTH STEP
~WELL INFORMATION BLOCK
#MNEM.UNIT           DATA                    DESCRIPTION OF MNEMONIC
#---------    -------------------            -------------------------------
# Generated from Intellog Unique Number	CX_WELLS/WELL/2939
WELL.         GULF SURMONT                   : Well_name    - WELL
LOC .         00/06-25-082-09W4/0            : Location     - LOCATION
UWI .         00/06-25-082-09W4/0            : Uwi          - UNIQUE WELL ID
ENTR.         T                              : Entered      - ENTERED BY
SRVC.         SCHLUMBERGER                   : Scn          - SERVICE COMPANY
DATE.         03/04/92                       : Date         - LOG DATE
STRT.F        900                            : top_depth    - START DEPTH
STOP.F        1680.02                        : bot_depth    - STOP DEPTH
STEP.F        0.82                           : increment    - STEP LENGTH
 NULL. -999.2500:NULL Value
~CURVE INFORMATION BLOCK
#MNEM UNIT       ERCB CURVE CODE    CURVE DESCRIPTION
#-----------   ------------------   ----------------------------------
DEPT.F        00 001 00 00         : DEPTH        - DEPTH
GR  .API      00 310 00 00         : GR           - GAMMA RAY
NPHI.V/V      00 330 00 00         : PHIN         - NEUTRON POROSITY (SANDSTONE)
DPHI.V/V      00 890 00 00         : PHID         - DENSITY POROSITY (SANDSTONE)
ILD .OHMM     00 120 00 00         : RESD         - DEEP RESISTIVITY (OTHER)
~PARAMETER INFORMATION
#MNEM.UNIT           DATA             DESCRIPTION OF MNEMONIC
#---------         -----------     ------------------------------
GL  .F        2422                 : gl           - GROUND LEVEL ELEVATION
EREF.F        2432                 : kb           - ELEVATION OF DEPTH REFERENCE
DATM.F        2432                 : datum        - DATUM ELEVATION
TDD .F        1690                 : tdd          - TOTAL DEPTH DRILLER
RUN .         ONE                  : Run          - RUN NUMBER
ENG .         JO                   : Engineer     - RECORDING ENGINEER
WIT .         TIM                  : Witness      - WITNESSED BY
MUD .         GEL                  : Mud_type     - MUD TYPE
MATR.         SANDSTONE            : Logunit      - NEUTRON MATRIX
TMAX.F        62                   : BHT          - MAXIMUM RECORDED TEMPERATURE
BHTD.F        1690                 : BHTDEP       - MAXIMUM RECORDED TEMPERATURE
RMT .F        60                   : MDTP         - TEMPERATURE OF MUD
MUDD.LB/G     9.6                  : MWT          - MUD DENSITY
NEUT.         1                    : NEUTRON      - NEUTRON TYPE
RESI.         6.5                  : RESIST       - RESISTIVITY TYPE
RM  .OHMM     9.5                  : RM           - RESISTIVITY OF MUD
RMC .OHMM     9.5                  : RMC          - RESISTIVITY OF MUD CAKE
RMF .OHMM     9.5                  : RMF          - RESISTIVITY OF MUD FILTRATE
SUFT.F        39.2                 : SUFT         - SURFACE TEMPERATURE
~A  DEPTH       GR     PHIN     PHID     RESD
# ...
 1185.430   59.212    0.448    0.339   20.117
 1186.250   59.383    0.447    0.334   20.146
 1187.070   59.440    0.447    0.328   20.218
 1187.890   60.203    0.446    0.322   19.922
 1188.710   60.288    0.451    0.320   19.964
 1189.530   60.431    0.456    0.321   19.672
 1190.350   60.545    0.459    0.323   19.700
 1191.170   60.660    0.461    0.323   19.397
 1191.990   60.774    0.463    0.325   19.099
 1192.810   60.888    0.468    0.326   19.167
 1193.640   60.412    0.471    0.326   18.873
 1194.460   59.936    0.474    0.326   18.940
 1195.280   60.021    0.473    0.326   18.981
 1196.100   60.107    0.473    0.326   19.035
 1196.920   61.489    0.473    0.327   19.076
 1197.740   63.461    0.473    0.330   18.810
 1198.560   64.813    0.471    0.329   18.864
 1199.380   66.785    0.467    0.329   18.561
 1200.200   69.405    0.465    0.324   18.614
 1201.020   70.729    0.464    0.317   18.341
 1201.840   73.969    0.471    0.305   17.396
 1202.660   79.656    0.477    0.265   15.626
 1203.480   90.945    0.500    0.230   14.287
 1204.300   96.662    0.519    0.221   10.487
 1205.120   99.281    0.534    0.211    7.835
 1205.940   99.986    0.549    0.205    5.055
 1206.760  100.748    0.555    0.208    4.461
 1207.580  100.244    0.543    0.210    4.645
 1208.400   98.500    0.537    0.220    4.737
 1209.220   98.586    0.537    0.225    5.023
 1210.040   99.319    0.538    0.233    5.632
 1210.860  100.729    0.542    0.228    5.851
 1211.680  102.111    0.547    0.221    5.977
 1212.500  102.787    0.553    0.216    5.885
 1213.320  101.663    0.558    0.215    5.384
 1214.140   98.090    0.561    0.216    4.840
 1214.960   95.137    0.561    0.217    4.510
 1215.780   93.956    0.560    0.219    4.441
 1216.600   92.184    0.556    0.226    4.533
 1217.420   96.099    0.551    0.232    4.807
 1218.240   97.395    0.532    0.246    5.097
 1219.060  101.844    0.522    0.250    5.199
 1219.880  107.588    0.533    0.217    5.322
 1220.700  109.560    0.546    0.211    5.233
 1221.520  112.152    0.560    0.210    4.787
 1222.340  112.266    0.567    0.212    4.541
 1223.160  111.142    0.567    0.219    4.079
 1223.980  110.018    0.567    0.224    3.597
 1224.800  110.161    0.562    0.233    3.414
 1225.620  110.866    0.554    0.237    3.186
 1226.440  110.980    0.546    0.237    3.135
 1227.260  111.123    0.550    0.231    3.029
 1228.080  111.237    0.552    0.227    2.984
 1228.900  110.703    0.558    0.225    2.995
 1229.720  110.199    0.564    0.223    2.949
 1230.540  109.074    0.564    0.223    2.955
 1231.360  107.331    0.565    0.223    2.962
 1232.190  106.235    0.566    0.223    2.972
 1233.010  106.321    0.567    0.222    2.929
 1233.830  106.435    0.575    0.222    2.935
 1234.650  105.930    0.586    0.222    2.943
 1235.470  102.358    0.590    0.225    2.954
 1236.290   99.966    0.585    0.228    2.960
 1237.110   96.985    0.575    0.232    3.026
 1237.930   94.622    0.566    0.237    3.209
 1238.750   94.117    0.560    0.244    3.522
 1239.570   94.203    0.548    0.246    4.094
 1240.390   94.374    0.522    0.248    4.583
 1241.210   94.460    0.510    0.249    4.682
 1242.030   91.449    0.497    0.253    4.705
 1242.850   87.229    0.521    0.255    4.626
 1243.670   81.770    0.532    0.257    4.555
 1244.490   78.169    0.534    0.263    5.004
 1245.310   73.329    0.506    0.267    6.259
 1246.130   69.728    0.490    0.274    7.542
 1246.950   65.507    0.480    0.279    9.786
 1247.770   61.287    0.475    0.282   13.418
 1248.590   59.572    0.469    0.287   16.466
 1249.410   59.039    0.465    0.293   18.449
 1250.230   58.505    0.455    0.296   19.926
 1251.050   58.029    0.449    0.301   20.353
 1251.870   57.495    0.442    0.305   20.412
 1252.690   56.400    0.440    0.308   20.470
 1253.510   55.304    0.437    0.310   20.514
 1254.330   55.390    0.438    0.312   20.199
 1255.150   55.504    0.444    0.314   19.917
 1255.970   54.971    0.446    0.315   19.960
 1256.790   54.494    0.447    0.313   20.003
 1257.610   54.580    0.444    0.312   20.003
 1258.430   54.723    0.444    0.313   19.808
 1259.250   55.456    0.446    0.314   20.189
 1260.070   57.428    0.450    0.315   19.879
 1260.890   60.020    0.452    0.319   19.588
 1261.710   61.373    0.454    0.321   19.273
 1262.530   61.515    0.461    0.323   18.977
 1263.350   59.800    0.468    0.325   18.685
 1264.170   59.238    0.464    0.326   18.738
 1264.990   56.876    0.453    0.327   18.450
 1265.810   54.513    0.446    0.327   18.180
 1266.630   54.008    0.443    0.325   17.887
 1267.450   54.122    0.442    0.324   17.613
 1268.270   55.532    0.443    0.319   17.367
 1269.090   57.476    0.452    0.316   17.392
 1269.910   58.829    0.457    0.312   17.454
 1270.730   60.181    0.456    0.307   17.504
 1271.560   61.563    0.452    0.301   18.548
 1272.380   60.439    0.451    0.297   21.558
 1273.200   58.105    0.448    0.290   25.485
 1274.020   56.333    0.442    0.277   31.878
 1274.840   55.180    0.433    0.249   33.804
 1275.660   52.817    0.335    0.222   31.478
 1276.480   52.931    0.303    0.210   27.277
 1277.300   54.961    0.275    0.173   24.074
 1278.120   56.904    0.305    0.180   22.817
 1278.940   58.228    0.320    0.225   20.496
 1279.760   59.610    0.348    0.253   18.090
 1280.580   59.724    0.387    0.280   17.463
 1281.400   58.628    0.433    0.297   16.882
 1282.220   56.885    0.459    0.319   16.331
 1283.040   55.703    0.453    0.318   16.069
 1283.860   55.199    0.445    0.318   16.127
 1284.680   55.341    0.440    0.319   16.161
 1285.500   56.103    0.440    0.328   16.242
 1286.320   55.599    0.443    0.332   16.567
 1287.140   55.065    0.446    0.327   16.614
 1287.960   55.236    0.445    0.322   16.971
 1288.780   55.294    0.444    0.314   17.020
 1289.600   55.437    0.443    0.314   17.068
 1290.420   56.199    0.442    0.317   17.129
 1291.240   56.904    0.443    0.321   17.179
 1292.060   56.989    0.443    0.325   16.902
 1292.880   57.132    0.444    0.328   16.363
 1293.700   57.894    0.445    0.329   15.807
 1294.520   58.628    0.448    0.325   15.841
 1295.340   58.714    0.452    0.324   15.314
 1296.160   59.533    0.453    0.323   14.556
 1296.980   59.562    0.453    0.324   14.322
 1297.800   59.676    0.446    0.325   14.092
 1298.620   60.467    0.442    0.326   13.875
 1299.440   61.172    0.440    0.327   13.935
 1300.260   61.257    0.439    0.327   13.955
 1301.080   61.371    0.440    0.324   13.995
 1301.900   60.247    0.441    0.321   14.035
 1302.720   58.504    0.441    0.320   14.075
 1303.540   57.437    0.445    0.318   14.136
 1304.360   57.494    0.454    0.318   14.177
 1305.180   58.285    0.465    0.318   14.227
 1306.000   58.990    0.458    0.318   14.248
 1306.820   60.400    0.448    0.315   14.309
 1307.640   60.485    0.443    0.314   14.329
 1308.460   61.190    0.441    0.313   14.130
 1309.280   61.362    0.445    0.314   14.150
 1310.100   61.419    0.450    0.315   13.932
 1310.930   60.943    0.458    0.315   13.992
 1311.750   60.438    0.468    0.315   14.012
 1312.570   59.313    0.479    0.315   14.052
 1313.390   58.809    0.484    0.313   14.093
 1314.210   58.332    0.479    0.313   14.395
 1315.030   58.389    0.475    0.313   14.436
 1315.850   57.913    0.468    0.314   14.488
 1316.670   58.027    0.458    0.318   14.830
 1317.490   58.142    0.447    0.317   14.841
 1318.310   58.284    0.437    0.314   14.884
 1319.130   58.370    0.428    0.307   15.203
 1319.950   57.275    0.423    0.288   15.246
 1320.770   57.417    0.425    0.264   15.596
 1321.590   56.884    0.430    0.273   15.919
 1322.410   56.970    0.440    0.300   15.953
 1323.230   57.112    0.451    0.318   16.021
 1324.050   57.198    0.458    0.323   15.764
 1324.870   57.341    0.463    0.321   15.533
 1325.690   58.103    0.462    0.314   15.272
 1326.510   58.160    0.463    0.314   14.232
 1327.330   58.951    0.469    0.314   12.323
