~VERSION INFORMATION
 VERS.                 2.0:   CWLS LOG ASCII STANDARD -VERSION 2.0
 WRAP.                  NO:   ONE LINE PER DEPTH STEP
~WELL INFORMATION BLOCK
#MNEM.UNIT           DATA                    DESCRIPTION OF MNEMONIC
#---------    -------------------            -------------------------------
# Generated from Intellog Unique Number	CW_70_72/WELL/637
NULL.         -999.25                        : NULL_VALUE
WELL.         SUN ET AL TOMATO 06-12         : Well_name    - WELL              
LOC .         06-12-072-23W4                 : Location     - LOCATION          
UWI .         00/06-12-072-23W4/0            : Uwi          - UNIQUE WELL ID    
ENTR.         JAYE                           : Entered      - ENTERED BY        
SRVC.         COMPUTALOG                     : Scn          - SERVICE COMPANY   
DATE.         17 FEB 79                      : Date         - LOG DATE          
STRT.M        380                            : top_depth    - START DEPTH       
STOP.M        600                            : bot_depth    - STOP DEPTH        
STEP.M        0.25                           : increment    - STEP LENGTH       
~CURVE INFORMATION BLOCK
#MNEM UNIT       ERCB CURVE CODE    CURVE DESCRIPTION
#-----------   ------------------   ----------------------------------
DEPT.M        00 001 00 00         : DEPTH        - DEPTH                       
DPHI.V/V      00 890 00 00         : PHID         - DENSITY POROSITY (SANDSTONE)
NPHI.V/V      00 330 00 00         : PHIN         - NEUTRON POROSITY (SANDSTONE)
GR  .API      00 310 00 00         : GR           - GAMMA RAY                   
CALI.MM       00 280 01 00         : CAL          - CALIPER                     
ILD .OHMM     00 120 00 00         : RESD         - DEEP RESISTIVITY (DIL)      
~PARAMETER INFORMATION       
#MNEM.UNIT           DATA             DESCRIPTION OF MNEMONIC
#---------         -----------     ------------------------------
GL  .M        619.96               : gl           - GROUND LEVEL ELEVATION      
EREF.M        623.3                : kb           - ELEVATION OF DEPTH REFERENCE
DATM.M        619.96               : datum        - DATUM ELEVATION             
TDD .M        612                  : tdd          - TOTAL DEPTH DRILLER         
RUN .         ONE                  : Run          - RUN NUMBER                  
ENG .         ADAMS                : Engineer     - RECORDING ENGINEER          
WIT .         BOYAN                : Witness      - WITNESSED BY                
BASE.         EDM                  : Branch       - HOME BASE OF LOGGING UNIT   
MUD .         GEL CHEM             : Mud_type     - MUD TYPE                    
MATR.         SANDSTONE            : Logunit      - NEUTRON MATRIX              
TMAX.C        21                   : BHT          - MAXIMUM RECORDED TEMPERATURE
BHTD.M        614                  : BHTDEP       - MAXIMUM RECORDED TEMPERATURE
RMT .C        13                   : MDTP         - TEMPERATURE OF MUD          
MUDD.KG/M     1100                 : MWT          - MUD DENSITY                 
NEUT.         1                    : NEUTRON      - NEUTRON TYPE                
RESI.         0                    : RESIST       - RESISTIVITY TYPE            
RM  .OHMM     3.7                  : RM           - RESISTIVITY OF MUD          
RMC .OHMM     0                    : RMC          - RESISTIVITY OF MUD CAKE     
RMF .OHMM     0                    : RMF          - RESISTIVITY OF MUD FILTRATE 
SUFT.C        0                    : SUFT         - SURFACE TEMPERATURE         
~A  DEPTH     PHID     PHIN       GR      CAL     RESD
  380.000    0.180    0.423   92.594  188.130    2.536
  380.250    0.178    0.404   96.193  188.854    2.538
  380.500    0.176    0.411  101.592  189.060    2.517
  380.750    0.183    0.418   95.200  188.853    2.444
  381.000    0.194    0.440   82.353  187.818    2.442
  381.250    0.208    0.475   83.904  186.783    2.463
  381.500    0.205    0.522   91.290  186.266    2.503
  381.750    0.195    0.473   91.662  186.266    2.548
  382.000    0.190    0.447   85.890  187.093    2.575
  382.250    0.193    0.478   87.689  188.127    2.582
  382.500    0.191    0.482   89.675  188.540    2.669
  382.750    0.190    0.454   93.212  187.816    2.763
  383.000    0.188    0.484   95.198  185.953    2.856
  383.250    0.191    0.464   97.928  183.678    2.986
  383.500    0.203    0.455   75.525  180.367    3.121
  383.750    0.169    0.451   60.257  177.574    3.238
  384.000    0.080    0.345   67.084  173.747    3.347
  384.250    0.069    0.352   79.310  167.334    3.402
  384.500    0.158    0.378   82.971  162.265    3.437
  384.750    0.170    0.411   83.281  159.782    3.251
  385.000    0.183    0.465   86.322  163.919    3.000
  385.250    0.205    0.535   89.797  169.711    2.712
  385.500    0.239    0.564   94.203  175.607    2.570
  385.750    0.282    0.565   91.844  177.468    2.592
  386.000    0.333    0.548   82.349  177.054    2.664
  386.250    0.450    0.591   67.144  175.916    2.795
  386.500    0.818    0.983   53.925  170.951    2.961
  386.750    0.836    1.006   43.437  159.055    3.154
  387.000    0.612    1.007   52.373  158.124    3.405
  387.250    0.562    0.996   63.730  166.916    3.526
  387.500    0.342    0.967   66.771  169.605    3.502
  387.750    0.239    0.894   68.446  167.432    3.499
  388.000    0.227    0.544   79.679  163.915    3.490
  388.250    0.241    0.578   84.333  157.605    3.513
  388.500    0.267    0.605   93.456  160.501    3.610
  388.750    0.258    0.511  101.027  168.982    3.710
  389.000    0.228    0.469   88.428  175.188    3.857
  389.250    0.190    0.435   79.243  187.186    4.078
  389.500    0.204    0.397   67.700  170.740    4.360
  389.750    0.218    0.392   66.893  162.671    4.566
  390.000    0.232    0.384   70.802  150.776    4.614
  390.250    0.238    0.406   77.753  149.535    4.584
  390.500    0.230    0.395   86.069  152.223    4.545
  390.750    0.221    0.407   87.682  153.671    4.532
  391.000    0.208    0.413   87.930  154.602    4.614
  391.250    0.195    0.397   89.481  154.084    4.725
  391.500    0.188    0.411   89.233  153.153    4.828
  391.750    0.175    0.437   93.019  153.049    4.842
  392.000    0.157    0.462   97.611  156.048    4.774
  392.250    0.154    0.495   99.783  161.530    4.689
  392.500    0.172    0.523   98.045  166.184    4.623
  392.750    0.197    0.476   94.073  173.114    4.752
  393.000    0.207    0.420   93.204  178.182    5.014
  393.250    0.204    0.398   80.791  178.802    5.341
  393.500    0.185    0.382   75.764  171.355    5.427
  393.750    0.178    0.435   82.591  167.113    5.211
  394.000    0.180    0.444   88.362  169.182    4.810
  394.250    0.171    0.379   83.459  171.457    4.507
  394.500    0.171    0.346   85.259  163.182    4.353
  394.750    0.238    0.411   96.740  159.665    4.406
  395.000    0.256    0.412  103.256  161.423    4.615
  395.250    0.219    0.376   97.360  165.249    4.788
  395.500    0.210    0.425   86.189  166.180    4.884
  395.750    0.199    0.433   76.693  164.938    4.972
  396.000    0.187    0.382   83.520  164.111    5.024
  396.250    0.194    0.404   83.147  164.317    5.087
  396.500    0.201    0.438   82.837  165.144    5.130
  396.750    0.199    0.461   88.608  167.109    5.154
  397.000    0.205    0.400   96.986  172.591    5.130
  397.250    0.213    0.369   94.876  174.866    5.086
  397.500    0.206    0.406   89.166  171.452    5.071
  397.750    0.187    0.388   86.001  165.349    5.029
  398.000    0.179    0.336   80.601  161.729    5.015
  398.250    0.159    0.315   79.174  158.936    5.019
  398.500    0.164    0.297   91.399  156.246    4.930
  398.750    0.177    0.322   91.647  152.626    5.029
  399.000    0.176    0.340   78.552  155.418    4.641
  399.250    0.197    0.327   55.279  162.244    4.172
  399.500    0.248    0.323   41.626  158.934    3.511
  399.750    0.276    0.358   31.758  153.865    3.173
  400.000    0.278    0.399   29.586  151.486    2.912
  400.250    0.263    0.427   41.501  149.727    2.882
  400.500    0.249    0.397   66.325  149.830    2.985
  400.750    0.231    0.355   85.626  150.968    3.056
  401.000    0.233    0.350  101.389  152.519    3.059
  401.250    0.245    0.390   83.453  155.104    3.004
  401.500    0.258    0.410   52.671  156.345    2.946
  401.750    0.267    0.417   53.974  157.069    2.927
  402.000    0.274    0.412   50.623  157.586    2.951
  402.250    0.280    0.399   55.711  157.792    3.068
  402.500    0.261    0.390   68.123  157.482    3.336
  402.750    0.239    0.371   73.212  156.344    3.588
  403.000    0.232    0.345   76.253  154.688    3.808
  403.250    0.231    0.314   74.391  153.033    3.965
  403.500    0.220    0.330   74.080  152.309    4.161
  403.750    0.211    0.327   79.541  152.619    4.366
  404.000    0.202    0.309   89.036  154.480    4.496
  404.250    0.192    0.278   91.581  156.755    4.466
  404.500    0.197    0.338   84.568  161.409    4.462
  404.750    0.233    0.363   75.631  167.822    4.350
  405.000    0.254    0.353   67.563  174.648    4.169
  405.250    0.240    0.339   86.367  170.717    3.862
  405.500    0.230    0.376  101.137  159.650    3.445
  405.750    0.221    0.424  103.557  159.442    3.174
  406.000    0.210    0.528  100.578  162.855    2.968
  406.250    0.196    0.523  104.053  167.820    2.829
  406.500    0.193    0.493  108.025  171.129    2.805
  406.750    0.181    0.453  103.556  177.438    2.845
  407.000    0.169    0.460   98.467  184.885    2.946
  407.250    0.206    0.454  111.127  186.023    3.198
  407.500    0.229    0.433  122.856  189.643    3.558
  407.750    0.214    0.390  130.676  195.228    3.929
  408.000    0.197    0.369  114.912  191.814    4.314
  408.250    0.195    0.348  109.699  186.228    4.638
  408.500    0.188    0.362  114.477  177.333    4.785
  408.750    0.177    0.419  113.608  165.748    4.691
  409.000    0.165    0.401  113.918  161.300    4.488
  409.250    0.187    0.411  118.945  162.644    4.277
  409.500    0.243    0.450   97.844  167.401    4.139
  409.750    0.273    0.466   84.129  174.021    4.035
  410.000    0.297    0.460   73.516  172.986    4.039
  410.250    0.293    0.443   67.930  166.056    4.073
  410.500    0.282    0.417   67.930  157.470    4.163
  410.750    0.269    0.392   70.475  152.816    4.277
  411.000    0.246    0.381   73.019  152.815    4.421
  411.250    0.196    0.413   77.425  154.056    4.544
  411.500    0.169    0.434   85.865  156.124    4.653
  411.750    0.180    0.438   92.381  157.882    4.746
  412.000    0.216    0.450   89.029  158.916    4.878
  412.250    0.233    0.463   85.616  158.502    4.947
  412.500    0.246    0.469   77.300  155.502    5.027
  412.750    0.245    0.462   76.182  153.433    5.090
  413.000    0.235    0.449   80.216  153.640    5.133
  413.250    0.211    0.457   90.270  156.743    5.157
  413.500    0.186    0.452   88.408  159.535    5.230
  413.750    0.194    0.444   85.367  162.017    5.255
  414.000    0.205    0.409   89.152  163.465    5.300
  414.250    0.217    0.386   93.868  164.499    5.023
  414.500    0.229    0.364   84.435  164.498    4.795
  414.750    0.228    0.342   83.256  163.774    4.587
  415.000    0.219    0.389   91.634  161.291    4.557
  415.250    0.215    0.472   97.219  157.257    4.578
  415.500    0.213    0.459   96.908  155.602    4.741
  415.750    0.213    0.411   89.088  158.187    4.928
  416.000    0.216    0.384   84.930  164.289    5.008
  416.250    0.222    0.387   87.971  176.494    4.994
