~VERSION INFORMATION
 VERS.                 2.0:   CWLS LOG ASCII STANDARD -VERSION 2.0
 WRAP.                  NO:   ONE LINE PER DEPTH STEP
~WELL INFORMATION BLOCK
#MNEM.UNIT           DATA                    DESCRIPTION OF MNEMONIC
#---------    -------------------            -------------------------------
# Generated from Intellog Unique Number	CC_80_83/WELL/1045
LOC .         00/02-29-080-13W4/0            : Location     - LOCATION
UWI .         00/02-29-080-13W4/0            : Uwi          - UNIQUE WELL ID
ENTR.         DW                             : Entered      - ENTERED BY
SRVC.         SCHLUMBERGER                   : Scn          - SERVICE COMPANY
STRT.M        275                            : top_depth    - START DEPTH
STOP.M        504.75                         : bot_depth    - STOP DEPTH
STEP.M        0.25                           : increment    - STEP LENGTH
 NULL. -999.2500:NULL Value
~CURVE INFORMATION BLOCK
#MNEM UNIT       ERCB CURVE CODE    CURVE DESCRIPTION
#-----------   ------------------   ----------------------------------
DEPT.M        00 001 00 00         : DEPTH        - DEPTH
GR  .API      00 310 00 00         : GR           - GAMMA RAY
DPHI.V/V      00 890 00 00         : PHID         - DENSITY POROSITY (SANDSTONE)
NPHI.V/V      00 330 00 00         : PHIN         - NEUTRON POROSITY (SANDSTONE)
ILD .OHMM     00 120 00 00         : RESD         - DEEP RESISTIVITY (DIL)
~PARAMETER INFORMATION
#MNEM.UNIT           DATA             DESCRIPTION OF MNEMONIC
#---------         -----------     ------------------------------
GL  .M        698.4                : gl           - GROUND LEVEL ELEVATION
EREF.M        701.6                : kb           - ELEVATION OF DEPTH REFERENCE
DATM.M        701.6                : datum        - DATUM ELEVATION
TDD .M        509.5                : tdd          - TOTAL DEPTH DRILLER
RUN .         ONE                  : Run          - RUN NUMBER
ENG .         BILL                 : Engineer     - RECORDING ENGINEER
WIT .         JIM                  : Witness      - WITNESSED BY
MUD .         GEL                  : Mud_type     - MUD TYPE
MATR.         SANDSTONE            : Logunit      - NEUTRON MATRIX
TMAX.C        21.2                 : BHT          - MAXIMUM RECORDED TEMPERATURE
BHTD.M        509                  : BHTDEP       - MAXIMUM RECORDED TEMPERATURE
MATR.         1                    : LOGUNIT      - NEUTRON MATRIX
RMT .C        25                   : MDTP         - TEMPERATURE OF MUD
NEUT.         1                    : NEUTRON      - NEUTRON TYPE
RESI.         0                    : RESIST       - RESISTIVITY TYPE
RMC .OHMM     0.25                 : RMC          - RESISTIVITY OF MUD CAKE
RMF .OHMM     0.25                 : RMF          - RESISTIVITY OF MUD FILTRATE
SUFT.C        15                   : SUFT         - SURFACE TEMPERATURE
~A  DEPTH       GR     PHID     PHIN     RESD
# ...
  318.500   58.524    0.325    0.450   13.586
  318.750   62.727    0.317    0.453   13.585
  319.000   68.322    0.327    0.446   13.469
  319.250   62.674    0.335    0.434   12.939
  319.500   62.638    0.331    0.423   12.390
  319.750   76.426    0.319    0.419   11.596
  320.000   83.823    0.293    0.414   10.155
  320.250   89.296    0.269    0.402    9.667
  320.500   96.831    0.257    0.391    9.079
  320.750  103.160    0.257    0.401    8.839
  321.000  101.462    0.261    0.416    9.281
  321.250   94.200    0.268    0.419   10.195
  321.500   89.870    0.283    0.423   11.398
  321.750   85.111    0.293    0.433   12.181
  322.000   82.538    0.299    0.430   12.700
  322.250   83.423    0.301    0.482   12.682
  322.500   87.717    0.301    0.517   12.482
  322.750   94.431    0.298    0.473   12.149
  323.000   99.122    0.283    0.443   11.368
  323.250   96.627    0.258    0.452   11.200
  323.500   95.531    0.231    0.462   10.707
  323.750   99.387    0.226    0.449   10.505
  324.000   96.829    0.256    0.444   10.943
  324.250   89.091    0.288    0.456   11.437
  324.500   91.701    0.280    0.457   11.350
  324.750   96.259    0.262    0.458   10.328
  325.000  101.512    0.259    0.459    9.417
  325.250  105.499    0.266    0.459    8.930
  325.500  108.057    0.272    0.454    8.862
  325.750  108.687    0.280    0.444    9.029
  326.000  105.783    0.297    0.431    9.176
  326.250  102.232    0.311    0.422    9.610
  326.500   97.889    0.315    0.425   10.211
  326.750   92.697    0.310    0.429   10.965
  327.000   88.059    0.305    0.423   11.441
  327.250   86.855    0.305    0.413   11.589
  327.500   90.377    0.307    0.413   11.761
  327.750   93.948    0.311    0.417   11.403
  328.000   91.220    0.308    0.427   11.012
  328.250   83.334    0.296    0.425   10.677
  328.500   76.337    0.279    0.403   10.317
  328.750   81.362    0.265    0.387    9.397
  329.000  100.303    0.254    0.404    7.680
  329.250  110.518    0.238    0.436    6.688
  329.500  110.497    0.226    0.454    6.429
  329.750   97.094    0.225    0.464    6.645
  330.000   82.690    0.252    0.477    7.343
  330.250   72.746    0.348    0.479    9.703
  330.500   58.066    0.466    0.502   14.249
  330.750   52.059    0.420    0.605   17.814
  331.000   53.624    0.359    0.498   19.172
  331.250   54.436    0.339    0.410   19.448
  331.500   53.566    0.339    0.436   19.015
  331.750   51.936    0.348    0.451   18.048
  332.000   47.590    0.357    0.456   17.530
  332.250   44.685    0.354    0.448   17.494
  332.500   45.570    0.362    0.437   17.740
  332.750   49.978    0.365    0.426   18.039
  333.000   53.363    0.353    0.420   18.320
  333.250   51.799    0.344    0.426   18.615
  333.500   47.547    0.344    0.432   18.910
  333.750   46.166    0.348    0.418   19.202
  334.000   48.382    0.351    0.409   19.566
  334.250   52.963    0.356    0.404   19.537
  334.500   55.175    0.357    0.396   18.993
  334.750   54.201    0.348    0.383   18.442
  335.000   54.950    0.341    0.371   18.160
  335.250   55.926    0.351    0.386   17.810
  335.500   51.455    0.368    0.402   18.215
  335.750   47.708    0.377    0.410   18.900
  336.000   47.794    0.365    0.411   19.426
  336.250   50.004    0.343    0.408   19.555
  336.500   52.426    0.334    0.404   19.214
  336.750   50.417    0.337    0.396   19.231
  337.000   49.094    0.345    0.398   18.905
  337.250   50.260    0.335    0.411   19.019
  337.500   51.410    0.327    0.410   19.130
  337.750   50.982    0.339    0.393   18.778
  338.000   49.257    0.340    0.389   18.817
  338.250   46.724    0.325    0.403   18.837
  338.500   50.205    0.319    0.421   18.591
  338.750   54.804    0.320    0.432   18.227
  339.000   56.408    0.336    0.449   18.069
  339.250   55.728    0.358    0.455   18.080
  339.500   53.535    0.359    0.425   18.082
  339.750   51.367    0.355    0.411   18.375
  340.000   50.491    0.353    0.427   18.474
  340.250   50.535    0.359    0.444   18.259
  340.500   50.207    0.353    0.441   17.929
  340.750   50.916    0.341    0.426   17.667
  341.000   54.168    0.357    0.420   17.713
  341.250   55.755    0.360    0.428   18.516
  341.500   56.645    0.296    0.418   19.998
  341.750   52.687    0.275    0.484   21.636
  342.000   44.444    0.169    0.386   23.849
  342.250   39.610    0.009    0.154   34.681
  342.500   40.514    0.062    0.182   55.191
  342.750   39.169    0.131    0.202   59.688
  343.000   42.608    0.220    0.245   46.077
  343.250   47.575    0.296    0.306   28.868
  343.500   49.562    0.337    0.367   19.892
  343.750   49.811    0.359    0.422   18.052
  344.000   50.344    0.366    0.435   16.653
  344.250   50.353    0.367    0.416   16.590
  344.500   50.143    0.366    0.401   16.902
  344.750   48.465    0.367    0.401   17.017
  345.000   48.350    0.369    0.417   16.884
  345.250   48.636    0.371    0.446   16.569
  345.500   44.706    0.372    0.472   16.316
  345.750   43.511    0.373    0.479   16.316
  346.000   43.642    0.370    0.474   16.259
  346.250   45.697    0.364    0.463   16.582
  346.500   49.360    0.359    0.448   17.165
  346.750   53.761    0.361    0.446   17.744
  347.000   54.497    0.370    0.468   18.652
  347.250   44.514    0.373    0.478   19.652
  347.500   45.994    0.374    0.478   19.948
  347.750   49.848    0.353    0.490   22.507
  348.000   49.329    0.319    0.413   24.892
  348.250   47.874    0.317    0.311   24.072
  348.500   45.882    0.356    0.377   22.103
  348.750   46.974    0.366    0.430   19.433
  349.000   46.772    0.365    0.448   17.415
  349.250   49.096    0.365    0.458   16.305
  349.500   49.040    0.366    0.463   15.781
  349.750   44.599    0.365    0.467   15.628
  350.000   44.626    0.363    0.481   15.630
  350.250   45.958    0.360    0.494   15.589
  350.500   43.611    0.361    0.498   16.017
  350.750   43.022    0.369    0.482   16.460
  351.000   45.880    0.368    0.448   16.533
  351.250   47.780    0.347    0.411   16.580
  351.500   46.378    0.329    0.400   16.856
  351.750   44.003    0.342    0.439   16.858
  352.000   45.681    0.353    0.444   16.838
  352.250   48.783    0.358    0.433   16.838
  352.500   50.770    0.362    0.436   16.855
  352.750   50.191    0.362    0.443   17.337
  353.000   46.954    0.361    0.445   17.816
  353.250   47.066    0.359    0.440   16.413
  353.500   50.800    0.356    0.431   16.025
  353.750   51.913    0.355    0.448   16.388
  354.000   49.567    0.354    0.464   16.504
  354.250   47.103    0.351    0.456   16.484
  354.500   45.695    0.349    0.448   16.479
  354.750   45.634    0.347    0.431   16.441
  355.000   46.023    0.352    0.424   16.763
  355.250   46.934    0.356    0.429   16.503
  355.500   47.738    0.356    0.434   16.050
  355.750   46.267    0.350    0.433   16.204
  356.000   43.171    0.334    0.431   16.455
  356.250   44.796    0.326    0.444   16.471
  356.500   50.317    0.328    0.445   16.375
  356.750   54.736    0.321    0.413   16.772
  357.000   56.813    0.317    0.384   17.184
  357.250   56.214    0.327    0.393   18.134
  357.500   54.264    0.334    0.416   20.317
  357.750   57.262    0.321    0.427   21.237
  358.000   53.381    0.225    0.462   23.381
  358.250   47.250    0.196    0.384   24.331
  358.500   50.238    0.259    0.324   22.881
  358.750   58.532    0.310    0.396   20.568
  359.000   59.745    0.319    0.430   18.387
  359.250   58.471    0.320    0.417   16.887
  359.500   60.584    0.320    0.422   16.380
  359.750   64.878    0.323    0.436   16.528
  360.000   68.303    0.316    0.441   16.818
  360.250   68.715    0.301    0.439   17.087
  360.500   66.480    0.303    0.433   17.013
  360.750   65.854    0.308    0.423   15.924
  361.000   65.936    0.296    0.411   15.491
  361.250   65.383    0.296    0.424   15.312
  361.500   62.307    0.310    0.453   15.888
  361.750   59.581    0.319    0.455   17.229
