~VERSION INFORMATION
 VERS.                 2.0:   CWLS LOG ASCII STANDARD -VERSION 2.0
 WRAP.                  NO:   ONE LINE PER DEPTH STEP
~WELL INFORMATION BLOCK
#MNEM.UNIT           DATA                    DESCRIPTION OF MNEMONIC
#---------    -------------------            -------------------------------
# Generated from Intellog Unique Number	CX_WELLS/WELL/2922
WELL.         GULF SURMONT                   : Well_name    - WELL
LOC .         00/06-12-082-09W4/0            : Location     - LOCATION
UWI .         00/06-12-082-09W400            : Uwi          - UNIQUE WELL ID
ENTR.         T                              : Entered      - ENTERED BY
SRVC.         SCHLUMBERGER                   : Scn          - SERVICE COMPANY
STRT.F        950                            : top_depth    - START DEPTH
STOP.F        1689.83                        : bot_depth    - STOP DEPTH
STEP.F        0.82                           : increment    - STEP LENGTH
 NULL. -999.2500:NULL Value
~CURVE INFORMATION BLOCK
#MNEM UNIT       ERCB CURVE CODE    CURVE DESCRIPTION
#-----------   ------------------   ----------------------------------
DEPT.F        00 001 00 00         : DEPTH        - DEPTH
GR  .API      00 310 00 00         : GR           - GAMMA RAY
NPHI.V/V      00 330 00 00         : PHIN         - NEUTRON POROSITY (SANDSTONE)
DPHI.V/V      00 890 00 00         : PHID         - DENSITY POROSITY (SANDSTONE)
ILD .OHMM     00 120 00 00         : RESD         - DEEP RESISTIVITY (OTHER)
~PARAMETER INFORMATION
#MNEM.UNIT           DATA             DESCRIPTION OF MNEMONIC
#---------         -----------     ------------------------------
GL  .F        2413                 : gl           - GROUND LEVEL ELEVATION
EREF.F        2425                 : kb           - ELEVATION OF DEPTH REFERENCE
DATM.F        2425                 : datum        - DATUM ELEVATION
TDD .F        1705                 : tdd          - TOTAL DEPTH DRILLER
RUN .         ONE                  : Run          - RUN NUMBER
ENG .         BILL                 : Engineer     - RECORDING ENGINEER
WIT .         JIM                  : Witness      - WITNESSED BY
MUD .         GEL                  : Mud_type     - MUD TYPE
MATR.         SANDSTONE            : Logunit      - NEUTRON MATRIX
TMAX.F        71.6                 : BHT          - MAXIMUM RECORDED TEMPERATURE
BHTD.F        1710                 : BHTDEP       - MAXIMUM RECORDED TEMPERATURE
MATR.         1                    : LOGUNIT      - NEUTRON MATRIX
RMT .F        73                   : MDTP         - TEMPERATURE OF MUD
NEUT.         1                    : NEUTRON      - NEUTRON TYPE
RESI.         4.65                 : RESIST       - RESISTIVITY TYPE
RMC .OHMM     5.05                 : RMC          - RESISTIVITY OF MUD CAKE
RMF .OHMM     5.05                 : RMF          - RESISTIVITY OF MUD FILTRATE
SUFT.F        35                   : SUFT         - SURFACE TEMPERATURE
~A  DEPTH       GR     PHIN     PHID     RESD
# ...
 1235.430  108.841    0.550    0.232    4.214
 1236.250  104.726    0.543    0.237    4.464
 1237.070   88.814    0.534    0.244    4.728
 1237.890   89.425    0.522    0.258    5.008
 1238.710   90.631    0.504    0.271    5.206
 1239.530   93.597    0.489    0.281    5.515
 1240.350   99.530    0.475    0.283    5.217
 1241.170  101.901    0.470    0.271    4.753
 1241.990  107.823    0.467    0.255    4.495
 1242.810  114.335    0.519    0.240    4.172
 1243.640  119.077    0.545    0.233    4.022
 1244.460  121.458    0.558    0.235    3.877
 1245.280  117.353    0.570    0.240    3.738
 1246.100  116.189    0.588    0.247    3.471
 1246.920  117.390    0.595    0.252    3.345
 1247.740  118.006    0.603    0.251    3.163
 1248.560  118.022    0.601    0.242    2.883
 1249.380  117.458    0.597    0.233    2.831
 1250.200  116.889    0.585    0.231    2.833
 1251.020  116.319    0.566    0.235    2.892
 1251.840  115.755    0.568    0.236    2.949
 1252.660  115.186    0.577    0.238    3.065
 1253.480  114.617    0.588    0.242    3.247
 1254.300  114.048    0.582    0.248    3.311
 1255.120  112.298    0.570    0.249    3.508
 1255.940  109.953    0.561    0.251    3.715
 1256.760  105.849    0.553    0.248    3.935
 1257.580  104.684    0.531    0.242    4.090
 1258.400  102.935    0.518    0.234    4.333
 1259.220  103.546    0.521    0.237    4.336
 1260.040  103.572    0.513    0.240    4.424
 1260.860  103.587    0.500    0.242    4.267
 1261.680  104.198    0.497    0.235    4.269
 1262.500  104.219    0.505    0.231    4.193
 1263.320  104.240    0.512    0.227    4.120
 1264.140  101.906    0.516    0.234    4.047
 1264.960  101.927    0.517    0.243    4.050
 1265.780  101.948    0.519    0.245    4.054
 1266.600  101.968    0.524    0.245    4.060
 1267.420  100.809    0.528    0.245    4.063
 1268.240  100.240    0.528    0.246    4.143
 1269.060   99.086    0.526    0.247    4.475
 1269.880   98.511    0.524    0.250    4.651
 1270.700   97.937    0.522    0.252    4.925
 1271.520   96.187    0.518    0.254    5.416
 1272.340   94.443    0.509    0.257    5.957
 1273.160   92.694    0.494    0.263    6.933
 1273.980   90.349    0.478    0.273    7.919
 1274.800   90.375    0.465    0.286    9.573
 1275.620   89.806    0.450    0.311   11.355
 1276.440   88.646    0.438    0.328   14.254
 1277.260   87.487    0.416    0.336   15.678
 1278.080   87.508    0.389    0.342   17.241
 1278.900   87.523    0.364    0.352   18.968
 1279.720   86.374    0.332    0.364   20.087
 1280.540   85.795    0.314    0.373   20.884
 1281.360   83.455    0.304    0.382   21.302
 1282.190   79.935    0.300    0.387   21.318
 1283.010   78.191    0.295    0.391   20.166
 1283.830   78.207    0.299    0.392   18.031
 1284.650   78.823    0.309    0.388   16.422
 1285.470   79.429    0.317    0.382   14.680
 1286.290   79.450    0.352    0.375   12.640
 1287.110   78.290    0.372    0.359   12.188
 1287.930   77.131    0.393    0.350   11.743
 1288.750   75.977    0.419    0.351   11.537
 1289.570   73.637    0.442    0.353   11.546
 1290.390   71.882    0.445    0.351   11.783
 1291.210   70.723    0.447    0.346   11.795
 1292.030   70.749    0.445    0.341   12.028
 1292.850   70.765    0.445    0.338   12.040
 1293.670   71.386    0.444    0.336   12.052
 1294.490   71.402    0.444    0.335   12.064
 1295.310   72.603    0.444    0.329   12.075
 1296.130   73.804    0.445    0.326   12.084
 1296.950   74.415    0.445    0.322   12.102
 1297.770   75.031    0.447    0.324   11.891
 1298.590   74.462    0.455    0.331   11.897
 1299.410   73.298    0.461    0.336   11.908
 1300.230   73.329    0.462    0.338   11.697
 1301.050   73.930    0.462    0.342   11.068
 1301.870   75.731    0.463    0.343   10.671
 1302.690   75.742    0.468    0.342   10.480
 1303.510   76.353    0.474    0.339   10.493
 1304.330   75.789    0.465    0.335   10.498
 1305.150   72.264    0.456    0.328   10.711
 1305.970   69.929    0.448    0.323   10.719
 1306.790   69.950    0.452    0.327   11.144
 1307.610   69.966    0.458    0.332   11.370
 1308.430   69.402    0.458    0.339   11.379
 1309.250   70.018    0.457    0.344   11.387
 1310.070   70.624    0.453    0.345   11.398
 1310.890   71.235    0.449    0.346   10.988
 1311.710   71.251    0.447    0.345   10.793
 1312.530   71.282    0.448    0.341   10.803
 1313.350   71.297    0.449    0.338   10.819
 1314.170   71.313    0.450    0.334   10.827
 1314.990   71.350    0.448    0.327   11.042
 1315.810   70.185    0.442    0.320   11.477
 1316.630   69.020    0.427    0.307   12.624
 1317.450   68.446    0.402    0.270   14.149
 1318.270   66.702    0.373    0.206   15.563
 1319.090   66.132    0.309    0.203   16.493
 1319.910   66.743    0.326    0.250   15.902
 1320.730   66.764    0.364    0.281   15.039
 1321.560   66.785    0.407    0.314   14.493
 1322.380   67.391    0.431    0.324   13.454
 1323.200   68.603    0.453    0.327   12.730
 1324.020   69.219    0.456    0.330   12.265
 1324.840   69.234    0.445    0.335   11.826
 1325.660   69.840    0.439    0.342   11.399
 1326.480   69.861    0.437    0.344   10.994
 1327.300   70.472    0.438    0.345   11.005
 1328.120   71.083    0.444    0.347   11.220
 1328.940   71.694    0.447    0.347   11.450
 1329.760   72.305    0.451    0.348   11.461
 1330.580   72.326    0.455    0.348   11.470
 1331.400   72.347    0.457    0.346   11.264
 1332.220   72.368    0.454    0.344   11.275
 1333.040   72.979    0.452    0.341   11.075
 1333.860   74.185    0.450    0.339   10.678
 1334.680   75.386    0.443    0.338   10.686
 1335.500   75.402    0.435    0.336   10.304
 1336.320   77.204    0.434    0.336   10.119
 1337.140   77.809    0.438    0.336    9.756
 1337.960   77.240    0.441    0.336    9.584
 1338.780   74.901    0.448    0.340    9.411
 1339.600   73.736    0.452    0.345    9.074
 1340.420   73.167    0.452    0.341    8.749
 1341.240   73.783    0.449    0.334    8.592
 1342.060   73.799    0.449    0.329    8.599
 1342.880   74.410    0.450    0.325    8.138
 1343.700   75.616    0.456    0.320    7.992
 1344.520   76.812    0.463    0.315    7.706
 1345.340   78.013    0.467    0.314    7.565
 1346.160   83.350    0.459    0.310    7.023
 1346.980   89.278    0.457    0.301    6.280
 1347.800   92.839    0.464    0.290    5.720
 1348.620   95.805    0.474    0.277    5.309
 1349.440   99.367    0.495    0.265    5.216
 1350.260  102.339    0.498    0.249    5.220
 1351.080  104.720    0.507    0.249    5.129
 1351.900  105.336    0.514    0.246    5.133
 1352.720  105.942    0.507    0.245    5.043
 1353.540  107.744    0.499    0.245    4.682
 1354.360  108.349    0.497    0.247    4.429
 1355.180  108.955    0.502    0.251    4.349
 1356.000  110.162    0.504    0.254    3.962
 1356.820  110.182    0.509    0.262    3.747
 1357.640  110.788    0.517    0.259    3.479
 1358.460  110.809    0.527    0.258    3.169
 1359.280  112.616    0.532    0.259    2.942
 1360.100  113.217    0.539    0.260    2.582
 1360.930  115.603    0.548    0.263    2.535
 1361.750  117.985    0.558    0.264    2.490
 1362.570  119.776    0.571    0.261    2.739
 1363.390  119.802    0.573    0.258    3.071
 1364.210  119.812    0.570    0.256    3.251
 1365.030  118.068    0.562    0.255    3.444
 1365.850  115.133    0.551    0.254    4.242
 1366.670  111.028    0.529    0.253    4.666
 1367.490  109.864    0.505    0.250    5.331
 1368.310  108.704    0.471    0.245    5.756
 1369.130  108.725    0.470    0.243    6.094
 1369.950  108.746    0.476    0.243    6.706
 1370.770  109.947    0.473    0.249    6.969
 1371.590  110.564    0.468    0.254    7.242
 1372.410  111.169    0.459    0.261    7.819
 1373.230  112.376    0.461    0.267    7.975
 1374.050  112.981    0.464    0.269    8.288
 1374.870  113.598    0.460    0.269    8.617
 1375.690  113.619    0.455    0.261    8.957
 1376.510  113.634    0.445    0.254    9.139
 1377.330  113.660    0.435    0.243    9.319
