~VERSION INFORMATION
 VERS.                 2.0:   CWLS LOG ASCII STANDARD -VERSION 2.0
 WRAP.                  NO:   ONE LINE PER DEPTH STEP
~WELL INFORMATION BLOCK
#MNEM.UNIT           DATA                    DESCRIPTION OF MNEMONIC
#---------    -------------------            -------------------------------
# Generated from Intellog Unique Number	CW_76_78/WELL/189
WELL.         CDN-SUP LLE WILLOW 06-15       : Well_name    - WELL
LOC .         00/06-15-077-03W5/0            : Location     - LOCATION
UWI .         00/06-15-077-03W5/0            : Uwi          - UNIQUE WELL ID
ENTR.         JJ                             : Entered      - ENTERED BY
SRVC.         SCHLUMBERGER                   : Scn          - SERVICE COMPANY
DATE.         20 JAN 74                      : Date         - LOG DATE
STRT.M        548.64                         : top_depth    - START DEPTH
STOP.M        670.64                         : bot_depth    - STOP DEPTH
STEP.M        0.25                           : increment    - STEP LENGTH
 NULL. -999.2500:NULL Value
~CURVE INFORMATION BLOCK
#MNEM UNIT       ERCB CURVE CODE    CURVE DESCRIPTION
#-----------   ------------------   ----------------------------------
DEPT.M        00 001 00 00         : DEPTH        - DEPTH
DELT.US/F     00 520 00 00         : DELT         - SONIC TRAVEL TIME
GR  .API      00 310 00 00         : GR           - GAMMA RAY
ILD .OHMM     00 120 00 00         : RESD         - DEEP RESISTIVITY (DIL)
~PARAMETER INFORMATION
#MNEM.UNIT           DATA             DESCRIPTION OF MNEMONIC
#---------         -----------     ------------------------------
GL  .M        718.718              : gl           - GROUND LEVEL ELEVATION
EREF.M        721.766              : kb           - ELEVATION OF DEPTH REFERENCE
DATM.M        718.718              : datum        - DATUM ELEVATION
TDD .M        685.8                : tdd          - TOTAL DEPTH DRILLER
RUN .         ONE                  : Run          - RUN NUMBER
ENG .         BOYKO                : Engineer     - RECORDING ENGINEER
BASE.         EDM                  : Branch       - HOME BASE OF LOGGING UNIT
MUD .         GEL-CHEM             : Mud_type     - MUD TYPE
MATR.         SANDSTONE            : Logunit      - NEUTRON MATRIX
TMAX.C        28.8889              : BHT          - MAXIMUM RECORDED TEMPERATURE
BHTD.M        686.41               : BHTDEP       - MAXIMUM RECORDED TEMPERATURE
RMT .C        10                   : MDTP         - TEMPERATURE OF MUD
MUDD.KG/M     1116                 : MWT          - MUD DENSITY
NEUT.         1                    : NEUTRON      - NEUTRON TYPE
RESI.         0                    : RESIST       - RESISTIVITY TYPE
RM  .OHMM     5.62                 : RM           - RESISTIVITY OF MUD
RMC .OHMM     0                    : RMC          - RESISTIVITY OF MUD CAKE
RMF .OHMM     6.11                 : RMF          - RESISTIVITY OF MUD FILTRATE
SUFT.C        5                    : SUFT         - SURFACE TEMPERATURE
~A  DEPTH     DELT       GR     RESD
  548.640  380.182   73.567    4.981
  548.890  381.157   70.104    4.797
  549.140  386.065   75.410    4.755
  549.390  388.287   82.179    4.740
  549.640  387.820   82.064    4.778
  549.890  389.974   86.031    4.789
  550.140  392.391   87.379    4.766
  550.390  391.465   83.490    4.717
  550.640  388.572   82.948    4.720
  550.890  386.663   85.454    4.819
  551.140  387.506   91.673    4.920
  551.390  390.449   90.890    4.985
  551.640  393.195   83.835    5.175
  551.890  391.480   79.214    5.302
  552.140  387.081   77.699    5.493
  552.390  381.696   79.595    5.617
  552.640  384.900   82.161    5.810
  552.890  392.235   84.545    5.965
  553.140  388.422   85.587    6.112
  553.390  384.744   85.413    6.320
  553.640  378.571   82.010    6.655
  553.890  374.237   79.825    7.269
  554.140  369.837   74.596    8.545
  554.390  364.846   68.637    9.470
  554.640  362.279   63.286   11.170
  554.890  360.632   60.918   13.297
  555.140  356.821   60.925   13.452
  555.390  354.453   67.389   11.377
  555.640  391.882   74.340   10.163
  555.890  353.715   77.149    8.196
  556.140  331.218   75.331    7.335
  556.390  354.879   82.158    6.170
  556.640  388.373   87.769    5.512
  556.890  388.037   85.465    5.336
  557.140  409.468   83.950    5.252
  557.390  413.327   85.846    5.294
  557.640  397.715   88.836    5.278
  557.890  387.871   92.194    5.251
  558.140  388.323   94.152    5.294
  558.390  389.494   95.438    5.435
  558.640  390.205   94.715    5.497
  558.890  390.591   90.825    5.542
  559.140  390.125   95.402    5.586
  559.390  388.018   95.226    5.608
  559.640  385.781   92.373    5.643
  559.890  381.774   85.865    5.709
  560.140  386.354   82.281    5.806
  560.390  384.117   82.470    6.184
  560.640  372.176   86.254    6.266
  560.890  378.134   87.906    6.328
  561.140  388.223   88.401    6.274
  561.390  396.867   88.956    6.231
  561.640  401.908   91.583    6.012
  561.890  416.259   94.393    5.831
  562.140  423.266   90.990    5.751
  562.390  414.144   93.252    5.785
  562.640  431.510   94.904    5.949
  562.890  375.314   91.501    6.358
  563.140  365.275   81.643    6.672
  563.390  369.200   81.226    6.774
  563.640  377.123   82.695    6.667
  563.890  371.149   79.779    6.316
  564.140  372.976   78.449    6.015
  564.390  378.344   84.181    5.749
  564.640  381.352   87.295    5.742
  564.890  382.459   86.693    6.181
  565.140  378.189   77.993    7.212
  565.390  359.954   68.865    8.201
  565.640  308.348   59.617   10.146
  565.890  231.171   54.326   12.277
  566.140  230.311   60.730   16.640
  566.390  318.026   66.279   17.431
  566.640  350.078   71.281   14.876
  566.890  369.149   77.684   13.410
  567.140  376.746   76.169   11.445
  567.390  381.195   74.655    9.984
  567.640  380.598   78.560    9.321
  567.890  371.213   76.801    9.208
  568.140  361.109   76.749    9.520
  568.390  362.017   81.568   10.515
  568.640  369.286   79.809   11.258
  568.890  369.540   77.077   11.389
  569.140  365.597   80.496   10.807
  569.390  359.821   80.808   10.050
  569.640  347.420   78.319    9.128
  569.890  339.677   76.136    8.886
  570.140  331.013   75.109    9.022
  570.390  325.892   74.142    9.749
  570.640  316.508   72.749   10.630
  570.890  307.976   70.565   11.380
  571.140  321.146   69.051   12.455
  571.390  335.889   70.398   13.579
  571.640  326.701   70.712   15.471
  571.890  287.618   65.663   17.658
  572.140  201.460   58.000   21.176
  572.390  195.157   52.708   27.929
  572.640  224.915   48.088   32.405
  572.890  248.049   51.688   36.315
  573.140  270.005   55.959   30.322
  573.390  267.637   60.534   24.182
  573.640  248.353   63.161   18.126
  573.890  221.333   64.449   15.812
  574.140  255.024   68.659   13.250
  574.390  303.925   71.956   10.904
  574.640  365.088   74.828    9.848
  574.890  375.439   76.416    8.544
  575.140  377.461   80.505    7.918
  575.390  374.373   89.648    7.750
  575.640  365.120   87.037    7.586
  575.890  362.358   84.182    7.563
  576.140  361.629   85.958    7.623
  576.390  362.732   86.635    7.669
  576.640  362.858   84.207    7.703
  576.890  361.407   84.949    7.722
  577.140  358.380   86.416    7.685
  577.390  357.587   91.661    7.673
  577.640  360.725   93.071    7.650
  577.890  367.012   89.730    7.768
  578.140  367.921   81.942    7.959
  578.390  364.240   79.087    8.553
  578.640  342.531   81.226    9.326
  578.890  327.313   84.889    9.929
  579.140  307.307   78.927   10.174
  579.390  317.133   77.596    9.761
  579.640  337.516   84.790    9.029
  579.890  360.782   89.061    8.583
  580.140  368.313   89.313    8.160
  580.390  365.943   83.474    8.017
  580.640  362.263   81.351    7.948
  580.890  360.878   82.820    7.925
  581.140  363.100   85.082    7.914
  581.390  367.223   90.998    7.862
  581.640  366.099   87.594    7.795
  581.890  362.287   81.147    7.828
  582.140  360.378   78.962    7.790
  582.390  358.207   79.580    7.881
  582.640  354.461   82.024    7.958
  582.890  346.323   81.119    8.108
  583.140  331.235   78.873    8.698
  583.390  317.984   83.143    9.193
  583.640  306.567   84.431    9.646
  583.890  331.013   76.887    9.794
  584.140  350.674   79.270    8.640
  584.390  361.285   85.855    7.789
  584.640  367.377   91.651    7.061
  584.890  372.745   93.788    6.484
  585.140  377.718   84.662    6.299
  585.390  380.923   85.583    6.066
  585.640  379.735   89.733    6.037
  585.890  373.236   91.995    6.107
  586.140  368.179   87.007    6.224
  586.390  363.253   79.159    6.413
  586.640  355.968   84.161    6.716
  586.890  348.025   85.205    7.046
  587.140  346.836   81.866    7.655
  587.390  346.566   81.080    9.097
  587.640  332.856   76.033   11.758
  587.890  266.038   66.967   14.358
  588.140  259.277   59.667   17.924
  588.390  304.113   59.918   22.541
  588.640  318.004   66.748   24.400
  588.890  333.142   70.226   25.047
  589.140  366.899   69.689   25.386
  589.390  361.973   70.304   25.680
  589.640  359.867   71.713   25.509
  589.890  358.351   75.374   24.834
  590.140  352.834   69.474   22.718
  590.390  344.697   67.657   19.214
  590.640  351.506   72.171   16.821
  590.890  337.927   78.816   15.904
  591.140  319.625   72.369   15.827
  591.390  319.027   71.282   15.578
  591.640  333.902   75.795   14.755
  591.890  351.596   80.249   13.328
  592.140  354.473   78.308   11.972
  592.390  357.740   80.327   10.331
  592.640  364.880   83.683    9.044
  592.890  365.592   87.346    8.304
  593.140  362.502   82.055    8.129
  593.390  359.806   76.277    8.224
  593.640  358.225   80.488    8.395
  593.890  362.216   85.551    8.681
  594.140  371.779   86.533    9.027
  594.390  369.412   82.278    9.249
  594.640  360.879   81.555    9.374
  594.890  351.758   83.573    9.466
  595.140  351.291   83.519    9.473
  595.390  360.986   78.961    9.461
  595.640  368.253   80.613    9.396
  595.890  371.589   82.448    9.166
  596.140  370.206   82.457    8.907
  596.390  370.722   83.438    8.733
  596.640  361.074   84.115    8.489
  596.890  358.378   90.640    8.445
  597.140  356.141   95.521    8.781
  597.390  350.626   94.249    9.435
  597.640  343.799   79.520   11.090
  597.890  371.131   73.621   12.542
  598.140  385.087   69.487   14.447
  598.390  367.507   66.876   15.610
  598.640  359.959   76.203   16.350
  598.890  390.241   77.123   17.158
  599.140  320.802   64.708   17.936
  599.390  243.429   56.190   19.378
  599.640  203.558   50.047   21.679
  599.890  214.368   44.452   24.607
  600.140  249.501   53.840   29.026
  600.390  246.214   55.310   32.893
  600.640  231.520   54.343   34.133
  600.890  219.907   55.020   35.362
  601.140  226.849   56.916   35.450
  601.390  296.466   58.507   34.257
  601.640  315.800   63.693   27.376
  601.890  330.610   66.440   21.997
  602.140  342.731   68.884   18.668
  602.390  345.604   71.389   16.138
  602.640  345.664   72.614   14.602
