~VERSION INFORMATION
 VERS.                 2.0:   CWLS LOG ASCII STANDARD -VERSION 2.0
 WRAP.                  NO:   ONE LINE PER DEPTH STEP
~WELL INFORMATION BLOCK
#MNEM.UNIT           DATA                    DESCRIPTION OF MNEMONIC
#---------    -------------------            -------------------------------
# Generated from Intellog Unique Number	CC_84_87/WELL/1070
NULL.         -999.25                        : NULL_VALUE
WELL.         MURPHY ET AL HOUSE             : Well_name    - WELL
LOC .         06-24-084-16W4                 : Location     - LOCATION          
UWI .         00/06-24-084-16W400            : Uwi          - UNIQUE WELL ID    
ENTR.         DW                             : Entered      - ENTERED BY        
SRVC.         SCHLUMBERGER                   : Scn          - SERVICE COMPANY   
DATE.         21 FEB 80                      : Date         - LOG DATE
STRT.M        100                            : top_depth    - START DEPTH       
STOP.M        267.101                        : bot_depth    - STOP DEPTH        
STEP.M        0.3                            : increment    - STEP LENGTH       
~CURVE INFORMATION BLOCK
#MNEM UNIT       ERCB CURVE CODE    CURVE DESCRIPTION
#-----------   ------------------   ----------------------------------
DEPT.M        00 001 00 00         : DEPTH        - DEPTH                       
DPHI.V/V      00 890 00 00         : PHID         - DENSITY POROSITY (LIMESTONE)
NPHI.V/V      00 330 00 00         : PHIN         - NEUTRON POROSITY (LIMESTONE)
GR  .API      00 310 00 00         : GR           - GAMMA RAY                   
ILD .OHMM     00 120 00 00         : RESD         - DEEP RESISTIVITY (DIL)      
~PARAMETER INFORMATION       
#MNEM.UNIT           DATA             DESCRIPTION OF MNEMONIC
#---------         -----------     ------------------------------
GL  .M        527.7                : gl           - GROUND LEVEL ELEVATION      
EREF.M        531.2                : kb           - ELEVATION OF DEPTH REFERENCE
DATM.M        531.2                : datum        - DATUM ELEVATION             
TDD .M        289                  : tdd          - TOTAL DEPTH DRILLER         
RUN .         ONE                  : Run          - RUN NUMBER                  
ENG .         BILL                 : Engineer     - RECORDING ENGINEER          
WIT .         JIM                  : Witness      - WITNESSED BY                
MUD .         GEL                  : Mud_type     - MUD TYPE                    
MATR.         LIMESTONE            : Logunit      - NEUTRON MATRIX              
TMAX.C        24                   : BHT          - MAXIMUM RECORDED TEMPERATURE
BHTD.M        289                  : BHTDEP       - MAXIMUM RECORDED TEMPERATURE
MATR.         1                    : LOGUNIT      - NEUTRON MATRIX              
RMT .C        25                   : MDTP         - TEMPERATURE OF MUD          
NEUT.         1                    : NEUTRON      - NEUTRON TYPE                
RESI.         0                    : RESIST       - RESISTIVITY TYPE            
RMC .OHMM     0.25                 : RMC          - RESISTIVITY OF MUD CAKE     
RMF .OHMM     0.25                 : RMF          - RESISTIVITY OF MUD FILTRATE 
SUFT.C        15                   : SUFT         - SURFACE TEMPERATURE         
~A  DEPTH     PHID     PHIN       GR     RESD
# ...
  204.401    0.292    0.371   79.424   11.664
  204.701    0.296    0.359   73.928   13.521
  205.001    0.282    0.343   69.654   15.387
  205.301    0.040    0.259   75.136   15.387
  205.601    0.043    0.260   66.591   12.792
  205.901    0.073    0.277   68.413   11.881
  206.201    0.125    0.326   67.188   11.241
  206.501    0.253    0.371   70.840   10.833
  206.801    0.278    0.432   73.883   10.635
  207.101    0.268    0.417   76.314   10.635
  207.401    0.262    0.407   76.308   10.833
  207.701    0.247    0.401   78.740   12.329
  208.001    0.238    0.384   79.343   14.030
  208.301    0.273    0.356   77.508   15.106
  208.601    0.277    0.312   73.843   14.558
  208.901    0.073    0.278   68.348   13.031
  209.201    0.107    0.277   62.243   11.035
  209.501    0.226    0.364   84.799    9.878
  209.801    0.244    0.407   91.500    9.345
  210.101    0.228    0.390   96.372    9.519
  210.401    0.224    0.381   94.536    9.878
  210.701    0.224    0.395   89.042   10.249
  211.001    0.232    0.381   80.499   10.635
  211.301    0.236    0.375   78.053   10.635
  211.601    0.223    0.378   92.681   10.635
  211.901    0.236    0.400   90.235   10.440
  212.201    0.236    0.398   85.958    9.519
  212.501    0.217    0.406   85.954    8.365
  212.801    0.216    0.395   84.727    7.084
  213.101    0.223    0.386   85.329    6.341
  213.401    0.206    0.387   87.153    6.111
  213.701    0.198    0.406  103.000    6.341
  214.001    0.206    0.416  105.434    8.365
  214.301    0.205    0.380  100.547    9.519
  214.601    0.188    0.362   96.883    9.878
  214.901    0.175    0.351   93.219    9.697
  215.201    0.175    0.345   88.333    8.680
  215.501    0.212    0.351   85.888    7.350
  215.801    0.203    0.387   96.858    6.579
  216.101    0.194    0.403  110.876    6.459
  216.401    0.192    0.407  115.138    6.459
  216.701    0.200    0.391  109.642    6.827
  217.001    0.207    0.379  104.147    7.216
  217.301    0.216    0.394  102.923    7.487
  217.601    0.209    0.410  101.695    7.350
  217.901    0.207    0.424  100.469    6.827
  218.201    0.212    0.417  105.952    6.702
  218.501    0.220    0.409  112.652    6.827
  218.801    0.224    0.409  115.085    7.216
  219.101    0.216    0.421  121.177    8.680
  219.401    0.188    0.408  113.242   10.249
  219.701    0.159    0.399   98.602   11.664
  220.001    0.149    0.369   89.448   12.329
  220.301    0.174    0.367   81.515   12.329
  220.601    0.198    0.376   89.436   11.881
  220.901    0.198    0.383  105.283   11.035
  221.201    0.193    0.380  108.326   10.440
  221.501    0.194    0.384  102.220    9.878
  221.801    0.206    0.398  104.654    9.519
  222.101    0.212    0.394  107.695    9.345
  222.401    0.208    0.376  104.640    9.345
  222.701    0.193    0.374  101.585    9.519
  223.001    0.194    0.394  109.506    9.697
  223.301    0.207    0.404  105.229    9.878
  223.601    0.216    0.394   95.467   10.249
  223.901    0.221    0.369   97.290   10.635
  224.201    0.243    0.360  103.382   10.833
  224.501    0.250    0.362   94.228   10.833
  224.801    0.223    0.361   83.855   10.635
  225.101    0.201    0.352   80.800   10.635
  225.401    0.211    0.356   86.280   10.635
  225.701    0.222    0.355   92.981   10.635
  226.001    0.227    0.364   91.147   10.833
  226.301    0.242    0.381   76.505   11.035
  226.601    0.238    0.393   73.449   11.035
  226.901    0.238    0.398   72.833   11.241
  227.201    0.257    0.377   71.606   11.664
  227.501    0.266    0.355   69.771   12.103
  227.801    0.234    0.350   81.960   13.031
  228.101    0.225    0.363   72.197   13.274
  228.401    0.261    0.361   70.362   13.773
  228.701    0.260    0.348   72.793   13.773
  229.001    0.248    0.345   74.007   12.558
  229.301    0.200    0.331   72.170   11.664
  229.601    0.096    0.302   75.823   10.249
  229.901    0.154    0.304   74.594    9.174
  230.201    0.212    0.372   76.420    8.680
  230.501    0.226    0.388   81.291    8.521
  230.801    0.235    0.384   81.894    8.680
  231.101    0.232    0.386   84.938    9.174
  231.401    0.227    0.400   88.590   10.249
  231.701    0.217    0.406   84.313   10.635
  232.001    0.211    0.380   81.257   10.440
  232.301    0.206    0.373   94.058   10.440
  232.601    0.208    0.380   92.831   10.062
  232.901    0.214    0.379   84.287    9.878
  233.201    0.214    0.379   80.622    9.174
  233.501    0.214    0.385   86.714    8.212
  233.801    0.173    0.398   89.146    7.769
  234.101    0.168    0.405   79.992    7.769
  234.401    0.197    0.402   74.499    7.627
  234.701    0.206    0.397   83.028    7.350
  235.001    0.208    0.412   95.217    6.827
  235.301    0.211    0.407  103.749    6.341
  235.601    0.217    0.407  106.181    5.572
  235.901    0.212    0.418  101.906    4.718
  236.201    0.206    0.420   98.850    4.223
  236.501    0.207    0.412  101.893    3.996
  236.801    0.208    0.417  107.373    3.851
  237.101    0.200    0.403  117.124    4.223
  237.401    0.183    0.420  119.557    5.999
  237.701    0.177    0.397  118.331    8.212
  238.001    0.185    0.394  118.324   11.241
  238.301    0.191    0.391  104.292   14.558
  238.601    0.185    0.371   93.920   18.509
  238.901    0.157    0.364   88.426   17.838
  239.201    0.149    0.385   87.809   15.387
  239.501    0.176    0.394   95.729   13.274
  239.801    0.180    0.405   99.381   12.558
  240.101    0.184    0.394   99.984   11.664
  240.401    0.188    0.393   99.369   11.881
  240.701    0.189    0.384   91.434   12.792
  241.001    0.204    0.365   80.452   13.773
  241.301    0.222    0.358   72.518   15.674
  241.601    0.245    0.361   52.389   18.509
  241.901    0.260    0.363   47.503   22.264
  242.201    0.277    0.358   44.449   24.873
  242.501    0.288    0.355   41.393   26.780
  242.801    0.275    0.363   41.996   27.788
  243.101    0.264    0.372   48.085   27.279
  243.401    0.270    0.384   49.298   25.809
  243.701    0.275    0.377   49.294   24.418
  244.001    0.278    0.372   48.067   23.101
  244.301    0.281    0.377   49.891   22.264
  244.601    0.275    0.376   46.836   18.854
  244.901    0.277    0.372   47.437   15.674
  245.201    0.276    0.378   51.700   14.030
  245.501    0.271    0.409   55.353   12.329
  245.801    0.275    0.409   65.711   11.450
  246.101    0.279    0.398   71.192   11.450
  246.401    0.280    0.393   74.846   11.241
  246.701    0.283    0.395   71.791   10.635
  247.001    0.286    0.395   72.394    7.487
  247.301    0.274    0.393   79.095    6.111
  247.602    0.194    0.392   96.772    5.370
  247.902    0.221    0.391   89.447    4.547
  248.202    0.240    0.400   88.832    4.070
  248.502    0.243    0.416   95.533    3.851
  248.802    0.232    0.429  103.453    3.711
  249.102    0.229    0.416  103.446    3.643
  249.402    0.226    0.414  104.659    3.923
  249.702    0.233    0.437  108.921    4.146
  250.002    0.243    0.456  107.695    4.146
  250.302    0.247    0.459   96.713    4.146
  250.602    0.231    0.441   80.241    3.996
  250.902    0.149    0.392   82.675    3.923
  251.202    0.187    0.421  106.450    3.851
  251.502    0.229    0.434  114.369    3.851
  251.802    0.228    0.420  113.754    3.996
  252.102    0.232    0.422   99.112    4.547
  252.402    0.216    0.423   94.227    6.459
  252.702    0.203    0.419   89.953    9.519
  253.002    0.199    0.404   83.848   10.833
  253.302    0.203    0.386   69.207    9.878
  253.602    0.286    0.388   58.834    7.350
  253.902    0.305    0.413   63.096    5.080
  254.202    0.308    0.431   82.602    4.464
  254.502    0.242    0.436   85.035    4.382
  254.802    0.244    0.428   74.052    6.459
  255.102    0.261    0.369   60.020   11.241
  255.402    0.274    0.374   56.965   15.966
  255.702    0.273    0.379   49.641   15.106
  256.002    0.303    0.373   44.756   12.792
  256.302    0.312    0.404   46.579    7.216
