~VERSION INFORMATION
 VERS.                 2.0:   CWLS LOG ASCII STANDARD -VERSION 2.0
 WRAP.                  NO:   ONE LINE PER DEPTH STEP
~WELL INFORMATION BLOCK
#MNEM.UNIT           DATA                    DESCRIPTION OF MNEMONIC
#---------    -------------------            -------------------------------
# Generated from Intellog Unique Number	CW_73_75/WELL/591
WELL.         ASHLAND ET AL MCMILLAN 06-31   : Well_name    - WELL
LOC .         00/06-31-074-19W4/0            : Location     - LOCATION
UWI .         00/06-31-074-19W4/0            : Uwi          - UNIQUE WELL ID
ENTR.         JAYE                           : Entered      - ENTERED BY
SRVC.         WESTERN ATLAS                  : Scn          - SERVICE COMPANY
DATE.         17 JAN 76                      : Date         - LOG DATE
STRT.M        298.704                        : top_depth    - START DEPTH
STOP.M        508.954                        : bot_depth    - STOP DEPTH
STEP.M        0.25                           : increment    - STEP LENGTH
 NULL. -999.2500:NULL Value
~CURVE INFORMATION BLOCK
#MNEM UNIT       ERCB CURVE CODE    CURVE DESCRIPTION
#-----------   ------------------   ----------------------------------
DEPT.M        00 001 00 00         : DEPTH        - DEPTH
ILD .OHMM     00 120 00 00         : RESD         - DEEP RESISTIVITY (DIL)
GR  .API      00 310 00 00         : GR           - GAMMA RAY
CALI.MM       00 280 01 00         : CAL          - CALIPER
NPHI.V/V      00 330 00 00         : PHIN         - NEUTRON POROSITY (SANDSTONE)
DPHI.V/V      00 890 00 00         : PHID         - DENSITY POROSITY (SANDSTONE)
COND.MMHO                          : COND         - DEEP CONDUCTIVITY (DIL)
~PARAMETER INFORMATION
#MNEM.UNIT           DATA             DESCRIPTION OF MNEMONIC
#---------         -----------     ------------------------------
GL  .M        616.61               : gl           - GROUND LEVEL ELEVATION
EREF.M        619.658              : kb           - ELEVATION OF DEPTH REFERENCE
DATM.M        616.61               : datum        - DATUM ELEVATION
TDD .M        514.502              : tdd          - TOTAL DEPTH DRILLER
RUN .         ONE                  : Run          - RUN NUMBER
BASE.         EDMONTON             : Branch       - HOME BASE OF LOGGING UNIT
MATR.         SANDSTONE            : Logunit      - NEUTRON MATRIX
TMAX.C        23.8889              : BHT          - MAXIMUM RECORDED TEMPERATURE
BHTD.M        512.978              : BHTDEP       - MAXIMUM RECORDED TEMPERATURE
RMT .C        -15.7222             : MDTP         - TEMPERATURE OF MUD
MUDD.KG/M     0                    : MWT          - MUD DENSITY
NEUT.         1                    : NEUTRON      - NEUTRON TYPE
RESI.         0                    : RESIST       - RESISTIVITY TYPE
RM  .OHMM     4                    : RM           - RESISTIVITY OF MUD
RMC .OHMM     0                    : RMC          - RESISTIVITY OF MUD CAKE
RMF .OHMM     3.9                  : RMF          - RESISTIVITY OF MUD FILTRATE
SUFT.C        -17.7778             : SUFT         - SURFACE TEMPERATURE
~A  DEPTH     RESD       GR      CAL     PHIN     PHID     COND
# ...
  486.204    7.750   83.099  190.076    0.320    0.237  129.030
  486.454    6.640   86.464  189.744    0.320    0.251  150.610
  486.704    6.520   92.101  190.868    0.332    0.244  153.366
  486.954    6.858  101.729  192.927    0.332    0.225  145.815
  487.204    7.649  103.989  194.883    0.327    0.202  130.734
  487.454    8.402  101.890  197.254    0.323    0.175  119.022
  487.704    9.319  104.150  198.482    0.325    0.159  107.310
  487.954    9.772  104.507  198.463    0.327    0.149  102.334
  488.204    9.812  103.574  197.505    0.326    0.151  101.920
  488.454    9.700   97.667  196.760    0.323    0.153  103.089
  488.704    9.912   97.839  196.012    0.319    0.156  100.889
  488.954   10.899   89.293  195.056    0.319    0.162   91.753
  489.204   12.650   61.835  194.100    0.321    0.197   79.048
  489.454   14.635   60.657  193.145    0.322    0.227   68.329
  489.704   16.347   61.935  192.498    0.321    0.219   61.174
  489.954   17.365   65.239  192.584    0.320    0.216   57.588
  490.204   17.077   73.823  192.356    0.308    0.216   58.559
  490.454   15.136   88.364  192.649    0.306    0.195   66.070
  490.704   13.234   98.115  194.501    0.306    0.142   75.562
  490.954   11.516  100.865  199.887    0.307    0.138   86.839
  491.204    9.466   94.775  205.483    0.312    0.134  105.645
  491.454    8.048   90.588  203.799    0.306    0.101  124.254
  491.704    7.346   79.094  197.644    0.296    0.066  136.125
  491.954    7.294   65.881  194.713    0.286    0.215  137.096
  492.204    8.765   72.317  193.862    0.286    0.224  114.088
  492.454   10.203   71.445  194.569    0.297    0.200   98.016
  492.704   12.475   58.294  193.510    0.306    0.182   80.160
  492.954   18.525   43.484  190.682    0.315    0.221   53.981
  493.204   32.812   43.227  190.351    0.323    0.287   49.404
  493.454   27.734   46.593  190.433    0.321    0.273   43.835
  493.704   37.891   39.949  190.412    0.323    0.270   34.499
  493.954   42.188   36.745  190.292    0.336    0.269   26.752
  494.204   42.188   38.881  190.166    0.341    0.269   20.390
  494.454   39.062   48.264  189.939    0.329    0.280   15.614
  494.704   33.594   57.831  189.919    0.318    0.299   15.595
  494.954   28.906   67.767  189.899    0.310    0.301   20.530
  495.204   25.000   87.894  190.816    0.303    0.232   39.733
  495.454   16.362  106.119  196.722    0.303    0.182   61.116
  495.704   13.591  106.353  203.980    0.308    0.162   73.581
  495.954   12.899   76.499  198.450    0.307    0.169   77.524
  496.204   14.455   69.059  194.583    0.303    0.219   69.181
  496.454   15.919   67.818  193.522    0.299    0.232   62.819
  496.704   18.907   71.552  193.294    0.295    0.206   52.891
  496.954   22.958   69.084  193.483    0.297    0.188   43.557
  497.204   25.018   67.661  193.878    0.298    0.222   39.971
  497.454   25.410   67.219  194.171    0.295    0.256   39.355
  497.704   25.681   67.575  193.839    0.294    0.250   38.939
  497.954   25.435   68.852  193.505    0.296    0.231   39.316
  498.204   24.700   69.640  193.592    0.294    0.212   40.486
  498.454   24.007   73.680  193.467    0.290    0.143   41.655
  498.704   22.928   78.827  193.344    0.288    0.109   43.615
  498.954   21.474   87.288  193.012    0.290    0.129   46.569
  499.204   18.697   93.662  193.720    0.286    0.159   53.486
  499.454   15.979   99.913  194.739    0.292    0.124   62.583
  499.704   14.430  105.857  195.656    0.300    0.102   69.301
  499.954   13.690  106.398  196.260    0.303    0.095   73.046
  500.204   13.474  100.001  196.445    0.302    0.097   74.215
  500.454   14.119   98.209  196.220    0.301    0.106   70.827
  500.704   14.656   95.925  195.680    0.301    0.110   68.231
  500.954   14.833   92.168  195.661    0.305    0.114   67.417
  501.204   14.091   96.945  195.849    0.308    0.123   70.966
  501.454   13.565  107.555  195.825    0.313    0.140   73.720
  501.704   12.975  112.640  195.807    0.327    0.126   77.069
  501.954   12.497  112.874  196.101    0.328    0.108   80.022
  502.204   12.023  112.861  196.806    0.322    0.092   83.173
  502.454   11.719  114.631  197.307    0.318    0.116   85.333
  502.704   11.972  119.839  198.743    0.318    0.135   83.528
  502.954   11.204  119.888  199.867    0.320    0.144   89.257
  503.204    9.237  117.973  198.913    0.309    0.117  108.262
  503.454    8.407  117.777  197.125    0.303    0.067  118.943
  503.704    8.624  113.836  196.272    0.298    0.025  115.951
  503.954    8.900  122.849  198.434    0.298    0.009  112.365
  504.204    8.949  120.873  202.160    0.297    0.019  111.748
  504.454    8.871  119.264  201.723    0.292    0.070  112.721
  504.704    8.889  116.858  198.792    0.277    0.095  112.503
  504.954    9.232  112.549  195.446    0.273    0.100  108.322
  505.204    9.584  104.677  193.243    0.269    0.102  104.339
  505.454    9.887   95.640  191.870    0.263    0.096  101.147
  505.704   10.355   88.936  190.915    0.258    0.094   96.570
  505.954   10.918   76.030  189.854    0.253    0.125   91.596
  506.204   11.063   88.175  189.003    0.251    0.170   90.387
  506.454   11.574   88.716  188.152    0.247    0.153   86.403
  506.704   12.017   78.634  187.924    0.248    0.139   83.213
  506.954   12.435   72.912  187.486    0.243    0.174   80.419
  507.204   17.956   66.761  187.468    0.238    0.170   73.661
  507.454   23.113   55.205  187.759    0.229    0.158   56.202
  507.704   29.069   50.957  189.508    0.219    0.125   26.059
  507.954   37.358   44.375  192.087    0.229    0.082   12.761
  508.204   43.294   43.258  192.274    0.225    0.054   10.562
  508.454   50.416   45.212  191.007    0.213    0.019   10.938
  508.704   57.928   45.937  188.804    0.209    0.015    8.739
  508.954   64.293   44.328  188.056    0.211    0.035    6.141
