~VERSION INFORMATION
 VERS.                 2.0:   CWLS LOG ASCII STANDARD -VERSION 2.0
 WRAP.                  NO:   ONE LINE PER DEPTH STEP
~WELL INFORMATION BLOCK
#MNEM.UNIT           DATA                    DESCRIPTION OF MNEMONIC
#---------    -------------------            -------------------------------
# Generated from Intellog Unique Number	CS_73_76/WELL/1030
WELL.         CAVALIER ENERGY INC.           : Well_name    - WELL
LOC .         00/06-02-076-15W4/0            : Location     - LOCATION
UWI .         00/06-02-076-15W4/0            : Uwi          - UNIQUE WELL ID
ENTR.         SP                             : Entered      - ENTERED BY
SRVC.         SCHLUMBERGER                   : Scn          - SERVICE COMPANY
STRT.M        344.424                        : top_depth    - START DEPTH
STOP.M        545.424                        : bot_depth    - STOP DEPTH
STEP.M        0.25                           : increment    - STEP LENGTH
 NULL. -999.2500:NULL Value
~CURVE INFORMATION BLOCK
#MNEM UNIT       ERCB CURVE CODE    CURVE DESCRIPTION
#-----------   ------------------   ----------------------------------
DEPT.M        00 001 00 00         : DEPTH        - DEPTH
GR  .API      00 310 00 00         : GR           - GAMMA RAY
DPHI.V/V      00 890 00 00         : PHID         - DENSITY POROSITY (SANDSTONE)
NPHI.V/V      00 330 00 00         : PHIN         - NEUTRON POROSITY (SANDSTONE)
ILD .OHMM     00 120 00 00         : RESD         - DEEP RESISTIVITY (DIL)
~PARAMETER INFORMATION
#MNEM.UNIT           DATA             DESCRIPTION OF MNEMONIC
#---------         -----------     ------------------------------
GL  .M        714.146              : gl           - GROUND LEVEL ELEVATION
EREF.M        717.194              : kb           - ELEVATION OF DEPTH REFERENCE
DATM.M        714.146              : datum        - DATUM ELEVATION
TDD .M        545.592              : tdd          - TOTAL DEPTH DRILLER
RUN .         ONE                  : Run          - RUN NUMBER
ENG .         BILL                 : Engineer     - RECORDING ENGINEER
WIT .         JIM                  : Witness      - WITNESSED BY
MUD .         GEL                  : Mud_type     - MUD TYPE
MATR.         SANDSTONE            : Logunit      - NEUTRON MATRIX
TMAX.C        17.7778              : BHT          - MAXIMUM RECORDED TEMPERATURE
BHTD.M        545.592              : BHTDEP       - MAXIMUM RECORDED TEMPERATURE
MATR.         1                    : LOGUNIT      - NEUTRON MATRIX
RMT .C        25                   : MDTP         - TEMPERATURE OF MUD
NEUT.         1                    : NEUTRON      - NEUTRON TYPE
RESI.         0                    : RESIST       - RESISTIVITY TYPE
RMC .OHMM     0.25                 : RMC          - RESISTIVITY OF MUD CAKE
RMF .OHMM     0.25                 : RMF          - RESISTIVITY OF MUD FILTRATE
SUFT.C        15                   : SUFT         - SURFACE TEMPERATURE
~A  DEPTH       GR     PHID     PHIN     RESD
# ...
  518.424  100.025    0.065    0.382    6.716
  518.674   98.821    0.144    0.403    6.601
  518.924  100.328    0.166    0.432    6.609
  519.174   96.048    0.171    0.443    6.662
  519.424   94.059    0.156    0.449    6.701
  519.674   92.016    0.151    0.446    6.845
  519.924   87.750    0.158    0.445    6.841
  520.174   84.511    0.165    0.438    6.936
  520.424   89.733    0.127    0.428    6.988
  520.674   96.567    0.107    0.397    7.231
  520.924   99.299    0.129    0.422    7.778
  521.174   96.321    0.174    0.439    8.519
  521.424   85.620    0.184    0.459    9.121
  521.674   81.691    0.173    0.442    9.971
  521.924   85.808    0.166    0.417   10.568
  522.174   99.114    0.145    0.404   11.535
  522.424  111.877    0.158    0.391   12.253
  522.674  112.383    0.199    0.419   12.611
  522.924  103.875    0.215    0.423   12.736
  523.174  100.064    0.236    0.375   12.465
  523.424  102.456    0.260    0.366   11.635
  523.674  106.511    0.243    0.364    9.937
  523.924  108.946    0.194    0.368    8.510
  524.174  113.156    0.079    0.378    7.903
  524.424  119.949    0.065    0.379    7.578
  524.674  129.136    0.077    0.397    7.614
  524.924  134.145    0.167    0.428    8.254
  525.174  137.397    0.168    0.414   10.191
  525.424  139.319    0.170    0.414   12.586
  525.674  138.257    0.153    0.422   14.903
  525.924  110.797    0.184    0.417   17.470
  526.174   98.344    0.169    0.407   20.680
  526.424   90.391    0.160    0.391   20.410
  526.674   94.377    0.178    0.384   19.794
  526.924   99.900    0.231    0.389   17.608
  527.174  101.527    0.266    0.404   16.713
  527.424   99.032    0.247    0.407   16.162
  527.674   97.683    0.235    0.400   15.888
  527.924   99.224    0.222    0.381   15.802
  528.174   98.075    0.206    0.373   15.971
  528.424   96.122    0.200    0.369   16.464
  528.674   96.224    0.211    0.364   16.910
  528.924   94.242    0.196    0.359   17.187
  529.174   90.920    0.175    0.338   17.251
  529.424   83.423    0.154    0.329   17.321
  529.674   78.912    0.132    0.333   17.074
  529.924   80.143    0.105    0.343   16.709
  530.174   82.070    0.093    0.362   16.354
  530.424   82.821    0.160    0.343   16.460
  530.674   80.324    0.208    0.337   17.484
  530.924   73.801    0.247    0.305   18.157
  531.174   75.874    0.279    0.285   19.872
  531.424   78.136    0.318    0.310   21.305
  531.674   77.116    0.270    0.335   23.405
  531.924   73.039    0.247    0.389   24.763
  532.174   70.192    0.262    0.407   27.357
  532.424   76.500    0.294    0.396   29.579
  532.674   81.549    0.290    0.370   29.655
  532.924   83.557    0.277    0.362   28.265
  533.174   85.729    0.257    0.360   27.223
  533.424   83.874    0.242    0.374   27.257
  533.674   75.136    0.232    0.399   29.159
  533.924   68.156    0.221    0.406   31.993
  534.174   61.178    0.201    0.421   35.028
  534.424   62.379    0.227    0.415   36.305
  534.674   70.664    0.262    0.412   36.352
  534.924   75.845    0.260    0.406   33.343
  535.174   79.545    0.255    0.403   29.822
  535.424   81.352    0.221    0.408   27.328
  535.674   83.801    0.210    0.416   25.983
  535.924   84.633    0.227    0.424   25.899
  536.174   80.046    0.241    0.422   25.818
  536.424   80.655    0.266    0.410   25.709
  536.674   81.940    0.252    0.405   26.668
  536.924   82.938    0.242    0.420   25.634
  537.174   86.693    0.253    0.430   25.044
  537.424   90.888    0.271    0.421   23.302
  537.674   96.950    0.247    0.402   21.505
  537.924  102.828    0.198    0.383   15.220
  538.174  109.267    0.190    0.372   14.288
  538.424  113.333    0.172    0.361   13.089
  538.674  114.539    0.160    0.359   12.283
  538.924  116.941    0.173    0.372   11.679
  539.174  115.012    0.172    0.376   11.089
  539.424   64.786    0.167    0.382   10.606
  539.674   48.024    0.168    0.389   10.325
  539.924   10.808    0.156    0.408   10.260
  540.174   16.228    0.163    0.420   10.288
  540.424   38.533    0.169    0.399   10.426
  540.674   72.009    0.159    0.387   10.743
  540.924   73.510    0.152    0.394   11.129
  541.174   74.671    0.162    0.380   11.220
  541.424   74.757    0.148    0.376   11.342
  541.674   74.017    0.185    0.401   11.561
  541.924   74.099    0.195    0.422   11.835
  542.174   74.116    0.182    0.435   12.131
  542.424   74.142    0.180    0.442   12.622
  542.674   74.085    0.201    0.443   13.085
  542.924   74.520    0.198    0.443   13.137
  543.174   74.852    0.188    0.443   12.531
  543.424   74.340    0.183    0.442   11.453
  543.674   74.250    0.188    0.440    9.887
  543.924   74.256    0.173    0.440    8.832
  544.174   73.861    0.151    0.440    8.243
  544.424   73.701    0.136    0.438    7.649
  544.674   73.697    0.100    0.438    7.565
  544.924   73.653    0.149    0.440    7.556
  545.174   74.378    0.171    0.442    7.641
  545.424   74.885    0.156    0.445    7.565
