~VERSION INFORMATION
 VERS.                 2.0:   CWLS LOG ASCII STANDARD -VERSION 2.0
 WRAP.                  NO:   ONE LINE PER DEPTH STEP
~WELL INFORMATION BLOCK
#MNEM.UNIT           DATA                    DESCRIPTION OF MNEMONIC
#---------    -------------------            -------------------------------
# Generated from Intellog Unique Number	CS_73_76/WELL/2913
WELL.         BOW VALLEY EXPLORATION         : Well_name    - WELL
LOC .         00/07-33-076-17W4/0            : Location     - LOCATION
UWI .         00/07-33-076-17W4/0            : Uwi          - UNIQUE WELL ID
ENTR.         SP                             : Entered      - ENTERED BY
SRVC.         SCHLUMBERGER                   : Scn          - SERVICE COMPANY
STRT.M        340                            : top_depth    - START DEPTH
STOP.M        563                            : bot_depth    - STOP DEPTH
STEP.M        0.25                           : increment    - STEP LENGTH
 NULL. -999.2500:NULL Value
~CURVE INFORMATION BLOCK
#MNEM UNIT       ERCB CURVE CODE    CURVE DESCRIPTION
#-----------   ------------------   ----------------------------------
DEPT.M        00 001 00 00         : DEPTH        - DEPTH
GR  .API      00 310 00 00         : GR           - GAMMA RAY
NPHI.V/V      00 330 00 00         : PHIN         - NEUTRON POROSITY (LIMESTONE)
DPHI.V/V      00 890 00 00         : PHID         - DENSITY POROSITY (LIMESTONE)
ILD .OHMM     00 120 00 00         : RESD         - DEEP RESISTIVITY (DIL)
~PARAMETER INFORMATION
#MNEM.UNIT           DATA             DESCRIPTION OF MNEMONIC
#---------         -----------     ------------------------------
GL  .M        704.76               : gl           - GROUND LEVEL ELEVATION
EREF.M        709.26               : kb           - ELEVATION OF DEPTH REFERENCE
DATM.M        704.76               : datum        - DATUM ELEVATION
TDD .M        564                  : tdd          - TOTAL DEPTH DRILLER
RUN .         ONE                  : Run          - RUN NUMBER
ENG .         BILL                 : Engineer     - RECORDING ENGINEER
WIT .         JIM                  : Witness      - WITNESSED BY
MUD .         GEL                  : Mud_type     - MUD TYPE
MATR.         LIMESTONE            : Logunit      - NEUTRON MATRIX
TMAX.C        20                   : BHT          - MAXIMUM RECORDED TEMPERATURE
BHTD.M        564                  : BHTDEP       - MAXIMUM RECORDED TEMPERATURE
MATR.         1                    : LOGUNIT      - NEUTRON MATRIX
RMT .C        25                   : MDTP         - TEMPERATURE OF MUD
NEUT.         1                    : NEUTRON      - NEUTRON TYPE
RESI.         0                    : RESIST       - RESISTIVITY TYPE
RMC .OHMM     0.25                 : RMC          - RESISTIVITY OF MUD CAKE
RMF .OHMM     0.25                 : RMF          - RESISTIVITY OF MUD FILTRATE
SUFT.C        15                   : SUFT         - SURFACE TEMPERATURE
~A  DEPTH       GR     PHIN     PHID     RESD
# ...
  514.000   83.268    0.411    0.190    5.964
  514.250   87.608    0.410    0.175    5.965
  514.500   91.329    0.409    0.170    5.967
  514.750   91.952    0.409    0.204    5.968
  515.000   93.193    0.418    0.197    5.856
  515.250   95.675    0.401    0.171    5.639
  515.500   95.057    0.389    0.194    5.533
  515.750   93.200    0.375    0.226    5.534
  516.000   95.061    0.364    0.212    5.536
  516.250   96.303    0.357    0.213    5.644
  516.500   91.346    0.352    0.206    5.645
  516.750   85.770    0.359    0.162    5.646
  517.000   82.673    0.377    0.153    5.334
  517.250   89.493    0.400    0.187    5.135
  517.500   93.834    0.405    0.212    4.409
  517.750   89.498    0.395    0.211    3.933
  518.000   88.879    0.406    0.197    3.508
  518.250   88.262    0.416    0.210    2.263
  518.500   87.644    0.425    0.226    2.057
  518.750   88.266    0.451    0.245    1.906
  519.000   87.648    0.439    0.255    1.907
  519.250   85.171    0.463    0.275    1.982
  519.500   84.553    0.504    0.248    2.099
  519.750   85.175    0.534    0.244    2.181
  520.000   85.177    0.538    0.223    2.310
  520.250   87.038    0.527    0.224    2.494
  520.500   88.280    0.451    0.215    2.692
  520.750   86.423    0.396    0.219    3.259
  521.000   81.467    0.383    0.173    3.797
  521.250   78.989    0.377    0.139    4.597
  521.500   83.330    0.374    0.166    5.459
  521.750   89.530    0.369    0.186    6.007
  522.000   92.012    0.358    0.166    6.486
  522.250   88.915    0.365    0.154    6.740
  522.500   82.719    0.359    0.166    6.871
  522.750   82.101    0.348    0.152    6.615
  523.000   79.624    0.347    0.114    6.249
  523.250   76.526    0.344    0.086    6.016
  523.500   79.629    0.391    0.098    5.683
  523.750   81.489    0.380    0.159    5.367
  524.000   83.351    0.378    0.172    4.880
  524.250   83.973    0.401    0.189    4.523
  524.500   85.214    0.396    0.201    4.272
  524.750   85.837    0.388    0.200    4.035
  525.000   85.219    0.393    0.214    3.960
  525.250   83.361    0.388    0.214    3.813
  525.500   79.644    0.368    0.184    3.671
  525.750   81.506    0.364    0.187    3.602
  526.000   88.946    0.370    0.172    3.468
  526.250   95.766    0.400    0.207    3.214
  526.500   93.909    0.401    0.218    3.215
  526.750   88.952    0.398    0.228    3.405
  527.000   87.095    0.390    0.237    3.676
  527.250   90.816    0.376    0.208    3.820
  527.500   93.297    0.366    0.109    4.284
  527.750   88.341    0.364    0.107    4.538
  528.000   84.004    0.395    0.160    5.089
  528.250   80.907    0.391    0.161    5.494
  528.500   90.826    0.416    0.140    6.046
  528.750   99.506    0.404    0.198    6.527
  529.000  100.748    0.384    0.211    7.320
  529.250   92.072    0.364    0.240    8.055
  529.500   77.818    0.352    0.259    8.863
  529.750   57.365    0.350    0.266    8.865
  530.000   51.169    0.357    0.254    6.411
  530.250   55.510    0.371    0.241    3.980
  530.500   69.769    0.364    0.224    3.483
  530.750   77.829    0.397    0.211    3.484
  531.000   83.409    0.457    0.198    3.484
  531.250   86.510    0.448    0.207    3.762
  531.500   91.471    0.435    0.188    4.300
  531.750   97.052    0.389    0.174    5.107
  532.000  103.872    0.381    0.178    6.302
  532.250   99.536    0.370    0.186    7.925
  532.500   91.480    0.347    0.192    9.060
  532.750   88.382    0.317    0.164    9.780
  533.000   86.525    0.366    0.060   10.359
  533.250   79.089    0.334    0.099   10.166
  533.500   89.009    0.306    0.134    9.788
  533.750   93.350    0.332    0.214    9.423
  534.000   96.451    0.340    0.196    8.901
  534.250  100.172    0.343    0.186    8.904
  534.500  100.174    0.361    0.164    8.906
  534.750   94.598    0.361    0.172    8.908
  535.000   88.401    0.360    0.182    9.081
  535.250   82.825    0.349    0.190    9.083
  535.500   80.347    0.337    0.182    9.261
  535.750   84.068    0.320    0.164    9.441
  536.000   89.030    0.322    0.183    9.625
  536.250   92.131    0.327    0.172    9.813
  536.500   94.612    0.328    0.178    9.815
  536.750   89.656    0.330    0.193   10.008
  537.000   85.938    0.339    0.138   10.009
  537.250   87.800    0.348    0.129   10.205
  537.500   95.860    0.343    0.157   10.206
  537.750   96.482    0.334    0.177   10.405
  538.000   82.228    0.329    0.205   10.813
  538.250   79.131    0.325    0.229   11.023
  538.500   80.373    0.330    0.233   11.456
  538.750   82.854    0.344    0.225   11.458
  539.000   83.476    0.339    0.205   11.244
  539.250   81.618    0.327    0.194   10.826
  539.500   80.381    0.310    0.173   10.624
  539.750   80.383    0.304    0.172   10.626
  540.000   85.344    0.299    0.212   10.629
  540.250   81.627    0.317    0.196   10.835
  540.500   75.430    0.323    0.176   10.839
  540.750   74.193    0.315    0.168   11.926
  541.000   74.195    0.305    0.183   13.376
  541.250   66.759    0.302    0.186   15.291
  541.500   59.943    0.294    0.229   16.508
  541.750   56.846    0.292    0.240   17.154
  542.000   56.848    0.294    0.242   17.158
  542.250   58.090    0.314    0.245   16.837
  542.500   61.191    0.320    0.242   16.210
  542.750   61.813    0.326    0.235   15.313
  543.000   59.955    0.330    0.220   13.923
  543.250   59.957    0.319    0.209   12.903
  543.500   64.298    0.323    0.204   11.957
  543.750   69.259    0.328    0.197   10.872
  544.000   75.460    0.329    0.184    9.885
  544.250   83.519    0.325    0.167    8.987
  544.500   87.861    0.323    0.123    8.490
  544.750   89.722    0.329    0.170    8.331
  545.000   90.964    0.345    0.187    8.333
  545.250   90.966    0.340    0.176    8.659
  545.500   90.349    0.335    0.203    8.828
  545.750   89.731    0.335    0.172    9.714
  546.000   88.493    0.343    0.191   10.487
  546.250   87.255    0.339    0.203   11.539
  546.500   83.538    0.333    0.192   12.697
  546.750   79.201    0.328    0.225   15.080
  547.000   76.724    0.315    0.261   17.238
  547.250   74.247    0.308    0.088   18.969
  547.500   79.208    0.346    0.193   19.713
  547.750   81.069    0.347    0.310   19.344
  548.000   82.311    0.370    0.299   16.929
  548.250   87.892    0.360    0.231   14.537
  548.500   90.373    0.335    0.203   13.730
  548.750   90.376    0.314    0.186   12.485
  549.000   89.757    0.320    0.174   11.793
  549.250   90.999    0.318    0.160   11.138
  549.500   94.721    0.308    0.144   10.323
  549.750   95.962    0.299    0.140    9.751
  550.000   91.625    0.295    0.190    9.569
  550.250   83.569    0.292    0.156    9.390
  550.500   75.513    0.299    0.095    9.392
  550.750   75.516    0.298    0.122    9.394
  551.000   80.476    0.294    0.162    9.396
  551.250   87.297    0.316    0.130    9.047
  551.500   89.158    0.319    0.161    8.545
  551.750   90.400    0.319    0.164    8.227
  552.000   94.121    0.344    0.188    8.074
  552.250   94.743    0.354    0.168    7.923
  552.500   99.704    0.341    0.159    8.078
  552.750  102.185    0.321    0.178    8.079
  553.000   94.750    0.324    0.176    8.396
  553.250   90.412    0.320    0.178    8.560
  553.500   91.655    0.320    0.152    8.726
  553.750   94.755    0.329    0.172    8.896
  554.000   95.997    0.332    0.148    9.245
  554.250   99.719    0.327    0.155    9.607
  554.500  102.200    0.319    0.143    9.794
  554.750   97.863    0.300    0.110   10.178
  555.000   89.807    0.303    0.082   10.376
  555.250   78.652    0.314    0.000   10.379
  555.500   71.836    0.299    0.035   10.381
  555.750   75.557    0.279    0.141   10.187
  556.000   97.254    0.282    0.154   10.190
  556.250   96.016    0.284    0.167   10.000
  556.500   92.299    0.291    0.174    9.812
  556.750   89.822    0.303    0.162    9.814
  557.000   87.345    0.311    0.138    9.632
  557.250   86.107    0.300    0.126    9.273
