~VERSION INFORMATION
 VERS.                 2.0:   CWLS LOG ASCII STANDARD -VERSION 2.0
 WRAP.                  NO:   ONE LINE PER DEPTH STEP
~WELL INFORMATION BLOCK
#MNEM.UNIT           DATA                    DESCRIPTION OF MNEMONIC
#---------    -------------------            -------------------------------
# Generated from Intellog Unique Number	CS_73_76/WELL/2159
WELL.         WAINOCO OIL & GAS LIMITED      : Well_name    - WELL
LOC .         00/06-05-074-12W4/0            : Location     - LOCATION
UWI .         00/06-05-074-12W4/0            : Uwi          - UNIQUE WELL ID
ENTR.         SP                             : Entered      - ENTERED BY
SRVC.         SCHLUMBERGER                   : Scn          - SERVICE COMPANY
STRT.M        295                            : top_depth    - START DEPTH
STOP.M        530                            : bot_depth    - STOP DEPTH
STEP.M        0.25                           : increment    - STEP LENGTH
 NULL. -999.2500:NULL Value
~CURVE INFORMATION BLOCK
#MNEM UNIT       ERCB CURVE CODE    CURVE DESCRIPTION
#-----------   ------------------   ----------------------------------
DEPT.M        00 001 00 00         : DEPTH        - DEPTH
ILD .OHMM     00 120 00 00         : RESD         - DEEP RESISTIVITY (DIL)
DPHI.V/V      00 890 00 00         : PHID         - DENSITY POROSITY (LIMESTONE)
NPHI.V/V      00 330 00 00         : PHIN         - NEUTRON POROSITY (LIMESTONE)
GR  .API      00 310 00 00         : GR           - GAMMA RAY
~PARAMETER INFORMATION
#MNEM.UNIT           DATA             DESCRIPTION OF MNEMONIC
#---------         -----------     ------------------------------
GL  .M        661.2                : gl           - GROUND LEVEL ELEVATION
EREF.M        664.2                : kb           - ELEVATION OF DEPTH REFERENCE
DATM.M        661.2                : datum        - DATUM ELEVATION
TDD .M        543                  : tdd          - TOTAL DEPTH DRILLER
RUN .         ONE                  : Run          - RUN NUMBER
ENG .         BILL                 : Engineer     - RECORDING ENGINEER
WIT .         JIM                  : Witness      - WITNESSED BY
MUD .         GEL                  : Mud_type     - MUD TYPE
MATR.         LIMESTONE            : Logunit      - NEUTRON MATRIX
TMAX.C        23                   : BHT          - MAXIMUM RECORDED TEMPERATURE
BHTD.M        5432                 : BHTDEP       - MAXIMUM RECORDED TEMPERATURE
MATR.         1                    : LOGUNIT      - NEUTRON MATRIX
RMT .C        25                   : MDTP         - TEMPERATURE OF MUD
NEUT.         1                    : NEUTRON      - NEUTRON TYPE
RESI.         0                    : RESIST       - RESISTIVITY TYPE
RMC .OHMM     0.25                 : RMC          - RESISTIVITY OF MUD CAKE
RMF .OHMM     0.25                 : RMF          - RESISTIVITY OF MUD FILTRATE
SUFT.C        15                   : SUFT         - SURFACE TEMPERATURE
~A  DEPTH     RESD     PHID     PHIN       GR
  295.000    2.625    0.238    0.584   93.520
  295.250    2.576    0.234    0.583   95.944
  295.500    2.528    0.231    0.577   94.724
  295.750    2.528    0.235    0.568   94.719
  296.000    2.577    0.245    0.561   95.925
  296.250    2.626    0.250    0.547   96.530
  296.500    2.779    0.243    0.524   98.346
  296.750    2.887    0.224    0.511   98.342
  297.000    2.998    0.212    0.501   94.692
  297.250    3.174    0.201    0.491   92.864
  297.500    3.234    0.192    0.484   92.253
  297.750    3.359    0.194    0.480   92.855
  298.000    3.489    0.199    0.485   95.278
  298.250    3.489    0.210    0.494   97.097
  298.500    3.360    0.217    0.506  100.127
  298.750    3.175    0.219    0.513  100.121
  299.000    3.057    0.222    0.523  100.116
  299.250    3.000    0.228    0.535  100.112
  299.500    2.943    0.238    0.541   99.499
  299.750    2.888    0.240    0.534   98.886
  300.000    2.889    0.246    0.521  100.702
  300.250    2.944    0.249    0.513  101.912
  300.500    3.000    0.244    0.515  103.730
  300.750    3.000    0.238    0.515  105.546
  301.000    3.001    0.232    0.522  105.541
  301.250    3.001    0.226    0.524  101.892
  301.500    3.001    0.226    0.518  101.280
  301.750    2.945    0.226    0.517  100.060
  302.000    2.945    0.226    0.517   97.017
  302.250    2.945    0.233    0.507   92.761
  302.500    3.001    0.242    0.495   89.720
  302.750    3.002    0.247    0.483   86.678
  303.000    3.002    0.239    0.479   86.065
  303.250    3.002    0.232    0.484   86.669
  303.500    2.890    0.227    0.489   89.093
  303.750    2.783    0.221    0.494   93.337
  304.000    2.946    0.225    0.490   92.119
  304.250    3.363    0.248    0.274   79.968
  304.500    3.697    0.282    0.247   71.461
  304.750    4.468    0.313    0.204   58.094
  305.000    5.714    0.362    0.179   51.411
  305.250    7.448    0.400    0.170   44.118
  305.500    9.894    0.417    0.183   41.077
  305.750   11.732    0.421    0.205   39.857
  306.000   12.418    0.406    0.244   41.066
  306.250   12.185    0.386    0.281   43.488
  306.500   10.277    0.378    0.320   44.700
  306.750    8.668    0.370    0.347   47.730
  307.000    7.738    0.367    0.380   48.331
  307.250    6.908    0.357    0.394   48.934
  307.500    6.284    0.355    0.405   49.537
  307.750    5.827    0.355    0.411   48.923
  308.000    5.718    0.346    0.421   47.704
  308.250    5.611    0.341    0.397   45.270
  308.500    5.611    0.340    0.380   45.264
  308.750    5.718    0.335    0.377   45.261
  309.000    5.719    0.335    0.382   44.648
  309.250    5.828    0.342    0.391   43.427
  309.500    5.940    0.341    0.400   41.601
  309.750    6.054    0.338    0.407   39.167
  310.000    6.288    0.318    0.409   38.554
  310.250    6.408    0.278    0.376   37.943
  310.500    6.531    0.258    0.313   35.508
  310.750    6.656    0.241    0.296   36.717
  311.000    6.656    0.236    0.291   39.141
  311.250    6.531    0.252    0.300   38.528
  311.500    6.409    0.301    0.318   39.737
  311.750    6.289    0.330    0.341   42.768
  312.000    6.056    0.330    0.361   44.586
  312.250    5.943    0.324    0.372   47.008
  312.500    5.832    0.321    0.370   47.004
  312.750    5.832    0.314    0.365   47.607
  313.000    5.944    0.311    0.355   46.995
  313.250    6.057    0.316    0.349   45.167
  313.500    6.292    0.313    0.355   44.553
  313.750    6.412    0.303    0.361   45.155
  314.000    6.535    0.297    0.360   45.759
  314.250    6.917    0.291    0.326   46.360
  314.500    7.321    0.281    0.285   46.963
  314.750    7.897    0.170    0.226   44.527
  315.000    8.202    0.106    0.148   43.917
  315.250    8.682    0.062    0.099   41.482
  315.500    9.365    0.022    0.064   39.653
  315.750    9.727    0.022    0.050   39.042
  316.000   10.102    0.033    0.045   39.035
  316.250   10.296    0.040    0.043   39.031
  316.500   10.493    0.046    0.048   40.240
  316.750   10.297    0.053    0.053   40.843
  317.000    9.729    0.062    0.067   40.231
  317.250    9.192    0.067    0.058   39.618
  317.500    8.363    0.040    0.050   38.398
  317.750    7.466    0.012    0.047   38.395
  318.000    7.189    0.004    0.061   39.603
  318.250    6.540    0.049    0.100   40.813
  318.500    6.179    0.098    0.127   45.664
  318.750    5.838    0.154    0.158   49.303
  319.000    5.517    0.194    0.205   52.334
  319.250    5.413    0.222    0.342   52.936
  319.500    5.414    0.233    0.367   52.933
  319.750    5.517    0.249    0.371   52.925
  320.000    5.730    0.272    0.356   53.529
  320.250    6.065    0.296    0.323   52.309
  320.500    6.543    0.287    0.296   49.268
  320.750    6.668    0.207    0.267   44.403
  321.000    6.796    0.192    0.224   43.185
  321.250    6.926    0.197    0.212   41.358
  321.500    6.421    0.227    0.243   42.567
  321.750    6.067    0.265    0.312   46.813
  322.000    5.732    0.293    0.357   53.488
  322.250    5.520    0.320    0.393   55.911
  322.500    5.315    0.299    0.408   58.335
  322.750    4.928    0.277    0.406   61.973
  323.000    4.745    0.259    0.413   64.397
  323.250    4.569    0.248    0.407   65.001
  323.500    4.483    0.243    0.398   64.996
  323.750    4.399    0.246    0.395   66.812
  324.000    4.484    0.270    0.395   63.163
  324.250    4.570    0.280    0.397   59.513
  324.500    4.657    0.282    0.407   60.724
  324.750    4.746    0.294    0.425   61.934
  325.000    4.747    0.288    0.434   66.179
  325.250    4.838    0.286    0.442   74.067
  325.500    4.838    0.286    0.446   78.312
  325.750    4.747    0.278    0.446   81.344
  326.000    4.658    0.267    0.425   80.125
  326.250    4.571    0.265    0.418   76.475
  326.500    4.486    0.280    0.414   75.864
  326.750    4.486    0.288    0.412   78.286
  327.000    4.572    0.289    0.416   78.282
  327.250    4.572    0.296    0.430   80.706
  327.500    4.660    0.281    0.444   84.950
  327.750    4.749    0.267    0.449   85.555
  328.000    4.840    0.255    0.447   85.549
  328.250    5.027    0.253    0.432   80.684
  328.500    5.221    0.268    0.422   74.606
  328.750    5.423    0.291    0.419   68.529
  329.000    5.740    0.308    0.423   64.273
  329.250    6.192    0.324    0.429   62.447
  329.500    6.310    0.319    0.435   61.835
  329.750    6.554    0.307    0.430   61.223
  330.000    6.807    0.301    0.411   57.572
  330.250    6.807    0.295    0.406   55.138
  330.500    6.807    0.288    0.412   57.563
  330.750    6.193    0.280    0.426   72.132
  331.000    5.126    0.263    0.443   78.808
  331.250    4.843    0.232    0.467   84.875
  331.500    4.406    0.205    0.486   95.799
  331.750    4.163    0.187    0.494   99.438
  332.000    3.933    0.164    0.492  100.649
  332.250    3.787    0.159    0.480  106.714
  332.500    3.934    0.172    0.475  106.710
  332.750    4.164    0.188    0.469  105.491
  333.000    4.407    0.207    0.471  107.308
  333.250    4.845    0.238    0.467  103.659
  333.500    5.428    0.258    0.462  102.439
  333.750    5.745    0.264    0.453  100.613
  334.000    6.081    0.265    0.439  100.607
  334.250    6.436    0.263    0.433   99.387
  334.500    6.685    0.256    0.444   97.561
  334.750    6.685    0.269    0.449   92.697
  335.000    6.813    0.276    0.447   92.692
  335.250    6.686    0.286    0.445   94.508
  335.500    6.686    0.286    0.461   99.359
  335.750    6.317    0.292    0.467  102.392
  336.000    5.747    0.291    0.474  107.852
  336.250    5.430    0.275    0.483  110.884
  336.500    5.329    0.272    0.482  112.093
  336.750    5.229    0.253    0.465  112.088
  337.000    5.229    0.241    0.454  110.869
  337.250    5.229    0.231    0.436  102.361
  337.500    5.330    0.247    0.427   95.069
  337.750    5.432    0.262    0.424   87.169
  338.000    5.536    0.267    0.417   81.091
  338.250    5.750    0.279    0.417   78.050
