~VERSION INFORMATION
 VERS.                 2.0:   CWLS LOG ASCII STANDARD -VERSION 2.0
 WRAP.                  NO:   ONE LINE PER DEPTH STEP
~WELL INFORMATION BLOCK
#MNEM.UNIT           DATA                    DESCRIPTION OF MNEMONIC
#---------    -------------------            -------------------------------
# Generated from Intellog Unique Number	CS_77_79/WELL/3271
WELL.         ALLIED ROXANA MINERALS LTD.    : Well_name    - WELL
LOC .         00/05-33-079-17W4/0            : Location     - LOCATION
UWI .         00/05-33-079-17W4/0            : Uwi          - UNIQUE WELL ID
ENTR.         JOETTE                         : Entered      - ENTERED BY
SRVC.         SCHLUMBERGER                   : Scn          - SERVICE COMPANY
DATE.         08/24/92                       : Date         - LOG DATE
STRT.M        198.12                         : top_depth    - START DEPTH
STOP.M        411.37                         : bot_depth    - STOP DEPTH
STEP.M        0.25                           : increment    - STEP LENGTH
 NULL. -999.2500:NULL Value
~CURVE INFORMATION BLOCK
#MNEM UNIT       ERCB CURVE CODE    CURVE DESCRIPTION
#-----------   ------------------   ----------------------------------
DEPT.M        00 001 00 00         : DEPTH        - DEPTH
ILD .OHMM     00 120 00 00         : RESD         - DEEP RESISTIVITY (DLL)
NPHI.V/V      00 330 00 00         : PHIN         - NEUTRON POROSITY (SANDSTONE)
GR  .API      00 310 00 00         : GR           - GAMMA RAY
~PARAMETER INFORMATION
#MNEM.UNIT           DATA             DESCRIPTION OF MNEMONIC
#---------         -----------     ------------------------------
GL  .M        554.736              : gl           - GROUND LEVEL ELEVATION
EREF.M        557.784              : kb           - ELEVATION OF DEPTH REFERENCE
DATM.M        557.784              : datum        - DATUM ELEVATION
TDD .M        410.87               : tdd          - TOTAL DEPTH DRILLER
RUN .         ONE                  : Run          - RUN NUMBER
ENG .         BILL                 : Engineer     - RECORDING ENGINEER
WIT .         JIM                  : Witness      - WITNESSED BY
MUD .         GEL                  : Mud_type     - MUD TYPE
MATR.         SANDSTONE            : Logunit      - NEUTRON MATRIX
TMAX.C        5                    : BHT          - MAXIMUM RECORDED TEMPERATURE
BHTD.M        74                   : BHTDEP       - MAXIMUM RECORDED TEMPERATURE
RMT .C        1348                 : MDTP         - TEMPERATURE OF MUD
MUDD.KG/M     58                   : MWT          - MUD DENSITY
NEUT.         9.8                  : NEUTRON      - NEUTRON TYPE
RESI.         1                    : RESIST       - RESISTIVITY TYPE
RM  .OHMM     0                    : RM           - RESISTIVITY OF MUD
RMC .OHMM     4.22                 : RMC          - RESISTIVITY OF MUD CAKE
RMF .OHMM     4.22                 : RMF          - RESISTIVITY OF MUD FILTRATE
SUFT.C        4.22                 : SUFT         - SURFACE TEMPERATURE
SUFT.C        15                   : SUFT         - SURFACE TEMPERATURE
~A  DEPTH     RESD     PHIN       GR
# ...
  252.370    9.420    0.527   61.513
  252.620    8.808    0.493   60.312
  252.870    8.200    0.470   60.288
  253.120    7.790    0.486   60.242
  253.370    7.977    0.492   59.633
  253.620    8.754    0.481   58.432
  253.870    9.146    0.476   54.889
  254.120    9.531    0.480   53.102
  254.370   10.116    0.485   53.071
  254.620   10.302    0.476   55.966
  254.870   10.287    0.475   58.854
  255.120    9.676    0.504   62.342
  255.370    9.070    0.505   67.579
  255.620    7.862    0.507   68.125
  255.870    6.853    0.508   70.428
  256.120    6.450    0.512   72.168
  256.370    6.236    0.546   73.300
  256.620    6.621    0.428   69.164
  256.870    8.199    0.394   65.629
  257.120   10.374    0.341   63.249
  257.370   11.353    0.346   69.079
  257.620   10.742    0.422   75.486
  257.870   10.338    0.499   76.625
  258.120    9.130    0.525   74.831
  258.370    8.124    0.530   73.036
  258.620    7.314    0.530   81.207
  258.870    6.907    0.559   81.168
  259.120    6.696    0.570   80.552
  259.370    6.479    0.548   79.943
  259.620    6.473    0.542   78.741
  259.870    6.461    0.532   77.532
  260.120    6.244    0.533   78.094
  260.370    6.030    0.535   82.160
  260.620    5.624    0.543   86.803
  260.870    5.614    0.583   89.106
  261.120    5.398    0.568   87.319
  261.370    5.391    0.578   85.540
  261.620    5.376    0.576   80.826
  261.870    5.364    0.594   75.520
  262.120    5.548    0.530   74.903
  262.370    5.738    0.525   76.043
  262.620    6.123    0.587   74.248
  262.870    6.111    0.564   77.151
  263.120    6.298    0.576   77.698
  263.370    6.482    0.590   81.186
  263.620    6.469    0.566   81.733
  263.870    6.256    0.536   79.946
  264.120    6.244    0.544   80.500
  264.370    6.033    0.549   82.217
  264.620    6.021    0.549   82.771
  264.870    6.008    0.539   82.163
  265.120    5.996    0.532   80.376
  265.370    5.789    0.565   80.329
  265.620    5.776    0.563   81.484
  265.870    5.556    0.541   82.624
  266.120    5.550    0.536   82.007
  266.370    5.138    0.542   79.620
  266.620    4.927    0.598   79.003
  266.870    4.719    0.567   78.972
  267.120    4.707    0.536   81.290
  267.370    4.695    0.522   82.422
  267.620    5.276    0.518   80.057
  267.870    6.059    0.484   75.921
  268.120    6.644    0.420   74.720
  268.370    7.427    0.396   79.371
  268.620    7.806    0.576   79.925
  268.870    7.797    0.586   78.138
  269.120    7.788    0.589   79.278
  269.370    7.574    0.602   83.336
  269.620    7.366    0.566   83.890
  269.870    6.752    0.565   83.282
  270.120    6.345    0.558   79.723
  270.370    5.929    0.546   79.692
  270.620    5.920    0.543   83.181
  270.870    5.911    0.534   86.068
  271.120    5.694    0.592   84.274
  271.370    5.688    0.602   82.495
  271.620    5.670    0.602   81.301
  271.870    5.655    0.591   81.254
  272.120    5.649    0.556   82.979
  272.370    5.637    0.546   80.029
  272.620    5.622    0.514   75.901
  272.870    5.613    0.500   73.529
  273.120    5.601    0.539   73.498
  273.370    5.586    0.571   75.808
  273.620    5.772    0.537   78.110
  273.870    5.959    0.531   80.420
  274.120    6.143    0.537   79.804
  274.370    6.329    0.553   78.602
  274.620    6.317    0.536   82.083
  274.870    6.504    0.523   80.881
  275.120    6.495    0.523   77.924
  275.370    6.477    0.514   76.137
  275.620    6.263    0.523   80.187
  275.870    6.055    0.532   80.734
  276.120    5.642    0.524   80.710
  276.370    5.434    0.516   81.272
  276.620    5.028    0.520   81.819
  276.870    4.817    0.541   81.796
  277.120    4.404    0.578   81.757
  277.370    4.193    0.572   80.555
  277.620    3.982    0.574   81.109
  277.870    3.772    0.590   85.168
  278.120    3.760    0.599   85.136
  278.370    3.747    0.590   82.179
  278.620    3.931    0.561   78.058
  278.870    4.515    0.547   71.004
  279.120    5.299    0.538   62.186
  279.370    6.082    0.544   59.813
  279.620    6.862    0.558   59.197
  279.870    7.250    0.560   59.743
  280.120    7.437    0.526   60.305
  280.370    7.618    0.494   60.274
  280.620    7.413    0.492   58.472
  280.870    7.202    0.498   57.278
  281.120    7.187    0.480   56.076
  281.370    7.566    0.486   57.216
  281.620    7.756    0.508   59.526
  281.870    8.539    0.506   58.910
  282.120    9.720    0.491   55.359
  282.370   10.904    0.402   51.808
  282.620   12.084    0.389   54.126
  282.870   13.265    0.375   58.184
  283.120   14.048    0.395   58.146
  283.370   14.235    0.446   57.545
  283.620   13.030    0.418   56.928
  283.870   11.425    0.405   57.467
  284.120   10.021    0.446   58.029
  284.370    9.015    0.494   59.153
  284.620    8.403    0.531   59.723
  284.870    7.991    0.543   60.269
  285.120    7.981    0.528   60.831
  285.370    7.963    0.519   60.207
  285.620    7.755    0.508   59.591
  285.870    7.746    0.509   58.982
  286.120    7.529    0.504   59.521
  286.370    7.517    0.502   61.254
  286.620    7.511    0.546   62.393
  286.870    7.496    0.544   61.769
  287.120    7.484    0.517   61.153
  287.370    7.270    0.506   59.951
  287.620    7.255    0.538   59.335
  287.870    7.050    0.532   59.304
  288.120    6.836    0.531   60.435
  288.370    6.827    0.522   61.583
  288.620    6.809    0.495   61.552
  288.870    6.800    0.504   60.927
  289.120    6.785    0.542   63.238
  289.370    6.776    0.544   65.548
  289.620    6.758    0.520   65.524
  289.870    6.749    0.514   65.493
  290.120    6.740    0.517   64.276
  290.370    6.725    0.528   63.660
  290.620    6.710    0.525   64.214
  290.870    6.697    0.519   64.191
  291.120    6.688    0.541   64.160
  291.370    6.676    0.533   65.299
  291.620    6.664    0.527   67.016
  291.870    6.649    0.523   65.815
  292.120    6.640    0.511   67.539
  292.370    6.622    0.523   69.850
  292.620    6.414    0.533   70.404
  292.870    6.001    0.503   73.299
  293.120    5.787    0.505   76.187
  293.370    5.580    0.498   76.749
  293.620    5.571    0.520   77.888
  293.870    5.558    0.545   79.613
  294.120    5.546    0.562   81.330
  294.370    5.528    0.557   84.233
  294.620    5.715    0.575   89.470
  294.870    5.706    0.553   89.439
  295.120    5.694    0.493   84.710
  295.370    5.878    0.498   81.752
  295.620    5.868    0.499   78.795
  295.870    5.850    0.492   76.430
  296.120    5.844    0.484   75.814
  296.370    5.826    0.570   79.295
  296.620    5.817    0.587   85.117
  296.870    5.603    0.580   85.663
  297.120    5.591    0.558   85.039
  297.370    5.582    0.536   86.179
  297.620    5.570    0.524   89.082
  297.870    5.558    0.530   91.977
  298.120    5.742    0.523   91.938
  298.370    5.922    0.540   90.151
  298.620    5.913    0.575   90.112
  298.870    5.898    0.555   93.016
  299.120    5.690    0.549   95.903
  299.370    5.278    0.545   95.872
  299.620    5.073    0.561   97.597
  299.870    5.061    0.572   99.322
  300.120    4.844    0.566   98.120
  300.370    5.030    0.532   95.756
  300.620    6.012    0.472   90.457
  300.870    6.600    0.419   84.565
  301.120    7.184    0.418   78.088
  301.370    7.368    0.423   81.569
  301.620    7.160    0.456   86.228
  301.870    6.747    0.520   88.538
  302.120    6.337    0.535   87.336
  302.370    5.925    0.533   86.135
  302.620    5.714    0.540   89.608
  302.870    5.503    0.547   91.333
  303.120    5.491    0.522   90.716
  303.370    5.482    0.491   87.759
  303.620    6.057    0.487   81.875
  303.870    6.250    0.501   76.576
  304.120    6.834    0.509   70.684
  304.370    7.415    0.504   67.141
  304.620    7.406    0.382   62.428
  304.870    7.388    0.352   57.714
  305.120    7.379    0.353   64.114
  305.370    7.168    0.376   67.602
  305.620    6.557    0.461   69.905
  305.870    5.948    0.496   67.525
  306.120    5.536    0.508   70.420
  306.370    5.328    0.505   73.909
