~VERSION INFORMATION
 VERS.                 2.0:   CWLS LOG ASCII STANDARD -VERSION 2.0
 WRAP.                  NO:   ONE LINE PER DEPTH STEP
~WELL INFORMATION BLOCK
#MNEM.UNIT           DATA                    DESCRIPTION OF MNEMONIC
#---------    -------------------            -------------------------------
# Generated from Intellog Unique Number	CS_71_72/WELL/620
WELL.         SULPETRO BRENDA IPIATIK        : Well_name    - WELL
LOC .         00/03-04-072-09W4/0            : Location     - LOCATION
UWI .         00/03-04-072-09W4/0            : Uwi          - UNIQUE WELL ID
ENTR.         SP                             : Entered      - ENTERED BY
SRVC.         SCHLUMBERGER                   : Scn          - SERVICE COMPANY
STRT.M        305                            : top_depth    - START DEPTH
STOP.M        498.5                          : bot_depth    - STOP DEPTH
STEP.M        0.25                           : increment    - STEP LENGTH
 NULL. -999.2500:NULL Value
~CURVE INFORMATION BLOCK
#MNEM UNIT       ERCB CURVE CODE    CURVE DESCRIPTION
#-----------   ------------------   ----------------------------------
DEPT.M        00 001 00 00         : DEPTH        - DEPTH
ILD .OHMM     00 120 00 00         : RESD         - DEEP RESISTIVITY (DIL)
DPHI.V/V      00 890 00 00         : PHID         - DENSITY POROSITY (LIMESTONE)
NPHI.V/V      00 330 00 00         : PHIN         - NEUTRON POROSITY (LIMESTONE)
GR  .API      00 310 00 00         : GR           - GAMMA RAY
~PARAMETER INFORMATION
#MNEM.UNIT           DATA             DESCRIPTION OF MNEMONIC
#---------         -----------     ------------------------------
GL  .M        666.64               : gl           - GROUND LEVEL ELEVATION
EREF.M        670                  : kb           - ELEVATION OF DEPTH REFERENCE
DATM.M        666.64               : datum        - DATUM ELEVATION
TDD .M        508                  : tdd          - TOTAL DEPTH DRILLER
RUN .         ONE                  : Run          - RUN NUMBER
ENG .         BILL                 : Engineer     - RECORDING ENGINEER
WIT .         JIM                  : Witness      - WITNESSED BY
MUD .         GEL                  : Mud_type     - MUD TYPE
MATR.         LIMESTONE            : Logunit      - NEUTRON MATRIX
TMAX.C        20                   : BHT          - MAXIMUM RECORDED TEMPERATURE
BHTD.M        508                  : BHTDEP       - MAXIMUM RECORDED TEMPERATURE
MATR.         1                    : LOGUNIT      - NEUTRON MATRIX
RMT .C        25                   : MDTP         - TEMPERATURE OF MUD
NEUT.         1                    : NEUTRON      - NEUTRON TYPE
RESI.         0                    : RESIST       - RESISTIVITY TYPE
RMC .OHMM     0.25                 : RMC          - RESISTIVITY OF MUD CAKE
RMF .OHMM     0.25                 : RMF          - RESISTIVITY OF MUD FILTRATE
SUFT.C        15                   : SUFT         - SURFACE TEMPERATURE
~A  DEPTH     RESD     PHID     PHIN       GR
# ...
  392.000   14.562    0.317    0.422   67.117
  392.250   14.307    0.316    0.422   65.293
  392.500   14.051    0.313    0.423   64.078
  392.750   14.058    0.311    0.432   62.860
  393.000   13.807    0.311    0.437   62.855
  393.250   14.073    0.313    0.432   65.267
  393.500   14.080    0.301    0.429   67.677
  393.750   13.824    0.300    0.429   68.882
  394.000   14.092    0.303    0.432   70.084
  394.250   14.098    0.312    0.431   69.474
  394.500   14.106    0.317    0.428   67.046
  394.750   14.115    0.311    0.427   66.435
  395.000   14.120    0.306    0.435   67.636
  395.250   13.866    0.306    0.444   67.632
  395.500   13.877    0.309    0.437   68.829
  395.750   13.883    0.303    0.439   70.033
  396.000   13.632    0.300    0.440   70.632
  396.250   13.642    0.299    0.437   70.627
  396.500   13.396    0.297    0.433   71.829
  396.750   13.402    0.293    0.426   71.822
  397.000   13.167    0.294    0.425   71.816
  397.250   13.171    0.291    0.439   71.204
  397.500   13.175    0.287    0.449   69.987
  397.750   12.939    0.292    0.457   68.166
  398.000   12.948    0.306    0.463   69.367
  398.250   12.716    0.317    0.455   70.572
  398.500   12.487    0.308    0.440   73.588
  398.750   12.263    0.292    0.436   75.397
  399.000   12.043    0.285    0.438   77.204
  399.250   12.048    0.279    0.443   77.801
  399.500   11.835    0.272    0.442   76.585
  399.750   11.839    0.270    0.432   74.156
  400.000   12.067    0.263    0.414   72.337
  400.250   13.007    0.234    0.391   68.096
  400.500   14.285    0.191    0.365   63.854
  400.750   15.982    0.148    0.332   60.819
  401.000   17.225    0.165    0.315   59.605
  401.250   18.918    0.194    0.297   62.623
  401.500   18.235    0.233    0.319   65.037
  401.750   15.428    0.262    0.366   69.867
  402.000   13.055    0.278    0.386   72.277
  402.250   11.048    0.293    0.423   72.877
  402.500    9.884    0.308    0.456   74.077
  402.750    8.522    0.304    0.473   74.677
  403.000    7.626    0.296    0.484   77.089
  403.250    7.349    0.291    0.493   78.294
  403.500    6.826    0.285    0.468   80.705
  403.750    6.458    0.279    0.458   81.910
  404.000    6.226    0.278    0.440   80.691
  404.250    6.228    0.283    0.441   78.870
  404.500    6.234    0.286    0.446   78.864
  404.750    6.237    0.285    0.460   82.481
  405.000    6.240    0.275    0.465   84.289
  405.250    6.242    0.260    0.469   85.493
  405.500    6.246    0.249    0.472   86.697
  405.750    6.133    0.246    0.471   86.690
  406.000    6.138    0.248    0.469   86.079
  406.250    6.140    0.250    0.465   86.072
  406.500    5.920    0.251    0.460   87.877
  406.750    5.923    0.250    0.458   89.686
  407.000    5.816    0.250    0.463   90.888
  407.250    5.711    0.247    0.460   91.488
  407.500    5.610    0.243    0.465   92.692
  407.750    5.508    0.237    0.471   93.288
  408.000    5.410    0.228    0.474   92.071
  408.250    5.412    0.218    0.463   90.249
  408.500    5.416    0.203    0.457   90.847
  408.750    5.418    0.196    0.468   92.048
  409.000    5.522    0.201    0.469   92.649
  409.250    5.526    0.198    0.466   92.036
  409.500    5.426    0.190    0.459   92.031
  409.750    5.429    0.188    0.449   92.626
  410.000    5.333    0.189    0.443   93.828
  410.250    5.335    0.198    0.452   94.427
  410.500    5.338    0.203    0.460   95.026
  410.750    5.441    0.209    0.464   96.228
  411.000    5.444    0.213    0.472   96.826
  411.250    5.654    0.212    0.476   96.818
  411.500    5.656    0.211    0.479   96.811
  411.750    5.765    0.212    0.469   96.805
  412.000    5.877    0.214    0.468   96.795
  412.250    5.881    0.214    0.477   96.788
  412.500    5.883    0.214    0.482   97.388
  412.750    5.887    0.215    0.473   96.774
  413.000    5.890    0.221    0.462   96.770
  413.250    5.892    0.212    0.458   96.157
  413.500    5.897    0.207    0.468   96.152
  413.750    5.899    0.209    0.471   95.538
  414.000    5.792    0.215    0.473   94.928
  414.250    5.796    0.218    0.459   93.712
  414.500    5.799    0.219    0.465   93.098
  414.750    5.802    0.218    0.473   93.698
  415.000    5.807    0.212    0.470   94.898
  415.250    5.702    0.210    0.464   96.707
  415.500    5.704    0.210    0.462   99.721
  415.750    5.708    0.217    0.464  101.531
  416.000    5.604    0.208    0.457  102.131
  416.250    5.608    0.201    0.455   97.887
  416.500    5.507    0.200    0.456   96.067
  416.750    5.409    0.200    0.459   96.666
  417.000    5.311    0.202    0.462   98.472
  417.250    5.026    0.205    0.468  100.882
  417.500    4.845    0.208    0.474  102.088
  417.750    4.334    0.218    0.490  103.895
  418.000    3.668    0.223    0.505  102.678
  418.250    3.406    0.225    0.514  103.881
  418.500    2.992    0.225    0.531  105.085
  418.750    2.677    0.216    0.546  105.682
  419.000    2.486    0.200    0.562  106.280
  419.250    2.396    0.194    0.561  106.273
  419.500    2.267    0.199    0.554  105.055
  419.750    2.268    0.211    0.547  103.233
  420.000    2.312    0.215    0.526  101.411
  420.250    2.493    0.219    0.510   97.774
  420.500    2.738    0.223    0.490   96.561
  420.750    2.843    0.229    0.478   94.133
  421.000    3.064    0.230    0.468   93.523
  421.250    3.241    0.230    0.460   95.329
  421.500    3.627    0.233    0.459   98.346
  421.750    3.837    0.238    0.462   98.945
  422.000    4.060    0.244    0.467   96.517
  422.250    4.295    0.251    0.463   93.486
  422.500    4.378    0.257    0.468   91.060
  422.750    4.381    0.267    0.474   88.028
  423.000    4.302    0.273    0.463   86.811
  423.250    4.304    0.278    0.460   86.805
  423.500    4.388    0.265    0.474   86.800
  423.750    4.389    0.255    0.479   88.605
  424.000    4.474    0.262    0.482   89.206
  424.250    4.647    0.272    0.485   89.801
  424.500    4.649    0.281    0.482   89.188
  424.750    4.740    0.290    0.478   87.974
  425.000    4.830    0.293    0.488   86.152
  425.250    5.017    0.288    0.490   83.725
  425.500    5.113    0.285    0.477   81.903
  425.750    5.116    0.282    0.471   81.293
  426.000    4.751    0.284    0.464   81.891
  426.250    4.581    0.286    0.462   83.698
  426.500    4.415    0.273    0.468   84.899
  426.750    4.336    0.257    0.458   84.893
  427.000    4.420    0.251    0.452   84.281
  427.250    4.765    0.248    0.446   84.275
  427.500    4.948    0.242    0.448   86.686
  427.750    5.043    0.242    0.450   88.491
  428.000    5.336    0.246    0.449   88.488
  428.250    5.646    0.252    0.443   87.271
  428.500    5.862    0.240    0.440   84.237
  428.750    6.088    0.239    0.435   83.627
  429.000    6.092    0.254    0.443   83.622
  429.250    6.094    0.267    0.448   84.819
  429.500    5.986    0.262    0.452   84.813
  429.750    5.989    0.254    0.458   85.413
  430.000    5.991    0.238    0.463   86.618
  430.250    5.884    0.225    0.450   89.028
  430.500    5.779    0.220    0.451   92.044
  430.750    5.571    0.222    0.447   93.249
  431.000    5.573    0.232    0.448   93.845
  431.250    5.473    0.242    0.448   93.236
  431.500    5.276    0.245    0.451   90.809
  431.750    4.993    0.247    0.458   88.383
  432.000    4.812    0.243    0.464   90.191
  432.250    4.638    0.233    0.461   90.184
  432.500    4.390    0.216    0.466   88.964
  432.750    4.311    0.215    0.472   88.352
  433.000    4.234    0.228    0.474   87.743
  433.250    4.157    0.243    0.471   87.132
  433.500    4.159    0.251    0.469   87.124
  433.750    4.162    0.259    0.464   88.931
  434.000    4.163    0.259    0.462   90.135
  434.250    4.167    0.250    0.465   90.127
  434.500    4.168    0.247    0.471   89.513
  434.750    4.329    0.254    0.465   88.299
  435.000    4.580    0.243    0.462   86.476
  435.250    4.667    0.237    0.458   86.469
