~VERSION INFORMATION
 VERS.                 2.0:   CWLS LOG ASCII STANDARD -VERSION 2.0
 WRAP.                  NO:   ONE LINE PER DEPTH STEP
~WELL INFORMATION BLOCK
#MNEM.UNIT           DATA                    DESCRIPTION OF MNEMONIC
#---------    -------------------            -------------------------------
# Generated from Intellog Unique Number	CW_73_75/WELL/875
WELL.         HOME UNIT MARTEN HILLS 07-33   : Well_name    - WELL
LOC .         00/07-33-074-24W4/0            : Location     - LOCATION
UWI .         00/07-33-074-24W4/0            : Uwi          - UNIQUE WELL ID
ENTR.         JAYE                           : Entered      - ENTERED BY
SRVC.         WESTERN ATLAS                  : Scn          - SERVICE COMPANY
DATE.         22 JAN 85                      : Date         - LOG DATE
STRT.M        410                            : top_depth    - START DEPTH
STOP.M        605                            : bot_depth    - STOP DEPTH
STEP.M        0.25                           : increment    - STEP LENGTH
 NULL. -999.2500:NULL Value
~CURVE INFORMATION BLOCK
#MNEM UNIT       ERCB CURVE CODE    CURVE DESCRIPTION
#-----------   ------------------   ----------------------------------
DEPT.M        00 001 00 00         : DEPTH        - DEPTH
ILD .OHMM     00 120 00 00         : RESD         - DEEP RESISTIVITY (DIL)
NPHI.V/V      00 330 00 00         : PHIN         - NEUTRON POROSITY (SANDSTONE)
DPHI.V/V      00 890 00 00         : PHID         - DENSITY POROSITY (SANDSTONE)
GR  .API      00 310 00 00         : GR           - GAMMA RAY
CALI.MM       00 280 01 00         : CAL          - CALIPER
~PARAMETER INFORMATION
#MNEM.UNIT           DATA             DESCRIPTION OF MNEMONIC
#---------         -----------     ------------------------------
GL  .M        687.1                : gl           - GROUND LEVEL ELEVATION
EREF.M        691.7                : kb           - ELEVATION OF DEPTH REFERENCE
DATM.M        687.1                : datum        - DATUM ELEVATION
TDD .M        611                  : tdd          - TOTAL DEPTH DRILLER
RUN .         ONE                  : Run          - RUN NUMBER
ENG .         MONAGLE              : Engineer     - RECORDING ENGINEER
WIT .         SAEA                 : Witness      - WITNESSED BY
BASE.         2150                 : Branch       - HOME BASE OF LOGGING UNIT
MUD .         GEL CHEM             : Mud_type     - MUD TYPE
MATR.         SANDSTONE            : Logunit      - NEUTRON MATRIX
TMAX.C        25                   : BHT          - MAXIMUM RECORDED TEMPERATURE
BHTD.M        611.2                : BHTDEP       - MAXIMUM RECORDED TEMPERATURE
RMT .C        15                   : MDTP         - TEMPERATURE OF MUD
MUDD.KG/M     1220                 : MWT          - MUD DENSITY
NEUT.         1                    : NEUTRON      - NEUTRON TYPE
RESI.         0                    : RESIST       - RESISTIVITY TYPE
RM  .OHMM     5.7                  : RM           - RESISTIVITY OF MUD
RMC .OHMM     5.2                  : RMC          - RESISTIVITY OF MUD CAKE
RMF .OHMM     6                    : RMF          - RESISTIVITY OF MUD FILTRATE
SUFT.C        0                    : SUFT         - SURFACE TEMPERATURE
~A  DEPTH     RESD     PHIN     PHID       GR      CAL
# ...
  483.000    5.092    0.409    0.207   78.936  210.158
  483.250    5.657    0.412    0.228   76.912  209.264
  483.500    6.167    0.414    0.216   71.356  207.650
  483.750    6.891    0.440    0.247   60.030  206.140
  484.000    7.428    0.431    0.265   51.498  204.940
  484.250    7.582    0.410    0.294   54.932  203.945
  484.500    7.651    0.412    0.283   60.350  203.261
  484.750    7.693    0.395    0.283   56.219  202.782
  485.000    7.590    0.390    0.269   53.391  202.617
  485.250    7.418    0.400    0.257   52.610  202.453
  485.500    7.305    0.404    0.277   55.362  202.075
  485.750    7.086    0.402    0.284   58.981  201.705
  486.000    6.848    0.391    0.291   56.958  201.327
  486.250    6.445    0.393    0.296   52.393  201.263
  486.500    6.146    0.392    0.280   46.588  200.993
  486.750    5.873    0.387    0.265   44.195  200.722
  487.000    5.570    0.391    0.258   43.723  200.348
  487.250    5.362    0.375    0.254   44.739  199.874
  487.500    5.075    0.357    0.260   45.758  199.603
  487.750    4.759    0.362    0.246   46.273  199.954
  488.000    4.471    0.378    0.263   46.668  199.887
  488.250    4.240    0.387    0.279   46.384  199.519
  488.500    4.152    0.394    0.271   45.413  199.348
  488.750    4.135    0.390    0.272   44.880  198.768
  489.000    4.212    0.370    0.288   44.097  198.600
  489.250    4.243    0.353    0.288   42.819  198.741
  489.500    4.258    0.354    0.227   39.370  198.783
  489.750    4.209    0.362    0.218   39.951  199.030
  490.000    4.029    0.357    0.238   42.642  199.587
  490.250    3.828    0.370    0.262   46.326  200.555
  490.500    3.714    0.383    0.279   53.231  201.524
  490.750    3.678    0.367    0.284   54.064  202.803
  491.000    3.725    0.362    0.286   53.094  202.845
  491.250    3.745    0.372    0.286   52.621  202.574
  491.500    3.773    0.370    0.286   57.853  202.097
  491.750    3.829    0.375    0.287   64.015  201.309
  492.000    3.908    0.375    0.265   64.908  200.108
  492.250    3.981    0.359    0.235   59.599  197.463
  492.500    4.079    0.350    0.248   56.708  196.673
  492.750    4.179    0.351    0.249   54.065  197.128
  493.000    4.123    0.354    0.236   51.050  198.614
  493.250    3.969    0.350    0.225   50.020  199.791
  493.500    3.843    0.349    0.233   51.222  200.659
  493.750    3.672    0.349    0.255   54.285  201.319
  494.000    3.582    0.351    0.259   56.044  201.872
  494.250    3.649    0.358    0.255   55.510  202.227
  494.500    3.941    0.360    0.252   59.071  202.267
  494.750    4.314    0.354    0.249   60.519  201.894
  495.000    4.911    0.355    0.266   62.589  201.204
  495.250    4.984    0.349    0.219   57.465  200.416
  495.500    4.927    0.336    0.175   53.830  199.838
  495.750    4.788    0.326    0.161   55.962  199.464
  496.000    4.498    0.329    0.211   60.825  200.124
  496.250    4.266    0.364    0.234   59.296  200.680
  496.500    4.233    0.373    0.226   71.412  200.720
  496.750    4.478    0.371    0.224   83.776  199.416
  497.000    4.800    0.350    0.209   69.538  196.354
  497.250    5.068    0.340    0.187   54.183  196.291
  497.500    5.202    0.337    0.137   49.184  197.466
  497.750    5.230    0.334    0.124   57.889  198.952
  498.000    5.131    0.341    0.162   70.439  201.265
  498.250    5.024    0.352    0.205   75.239  203.170
  498.500    4.901    0.357    0.190   68.628  201.140
  498.750    4.701    0.362    0.193   67.101  198.388
  499.000    4.492    0.372    0.225   69.233  197.909
  499.250    4.423    0.363    0.218   73.472  199.189
  499.500    4.481    0.359    0.200   76.100  202.021
  499.750    4.573    0.368    0.184   73.148  205.782
  500.000    4.607    0.407    0.207   72.428  209.955
  500.250    4.485    0.421    0.229   74.001  210.716
  500.500    4.302    0.392    0.221   71.731  202.901
  500.750    4.244    0.362    0.214   70.390  208.934
  501.000    4.243    0.371    0.220   70.785  212.904
  501.250    4.186    0.385    0.224   75.027  212.527
  501.500    4.170    0.379    0.209   79.021  211.741
  501.750    4.184    0.393    0.195   82.701  212.607
  502.000    4.159    0.382    0.180   84.895  215.851
  502.250    4.081    0.379    0.201   84.299  216.723
  502.500    3.973    0.404    0.212   80.914  215.829
  502.750    3.920    0.401    0.197   77.402  212.666
  503.000    3.875    0.376    0.212   70.170  208.260
  503.250    3.859    0.396    0.249   65.729  202.616
  503.500    3.865    0.364    0.303   59.986  201.415
  503.750    3.872    0.363    0.336   55.421  200.833
  504.000    3.885    0.359    0.320   50.981  200.360
  504.250    3.862    0.380    0.313   47.470  199.981
  504.500    3.832    0.376    0.304   48.425  200.125
  504.750    3.802    0.368    0.309   51.673  201.094
  505.000    3.780    0.379    0.303   55.665  202.476
  505.250    3.793    0.380    0.296   55.936  203.139
  505.500    3.871    0.370    0.290   52.797  202.972
  505.750    3.996    0.357    0.281   53.069  202.492
  506.000    4.188    0.365    0.265   48.441  201.395
  506.250    4.307    0.377    0.258   47.226  199.576
  506.500    4.454    0.388    0.255   53.018  196.514
  506.750    4.555    0.392    0.247   54.838  193.456
  507.000    4.649    0.380    0.263   52.567  191.632
  507.250    4.727    0.393    0.285   50.607  191.467
  507.500    4.761    0.405    0.321   52.617  193.056
  507.750    4.823    0.387    0.307   55.305  195.473
  508.000    4.932    0.386    0.296   63.577  197.994
  508.250    5.120    0.380    0.302   56.469  199.168
  508.500    5.266    0.381    0.298   51.594  199.522
  508.750    5.294    0.404    0.280   54.162  200.178
  509.000    5.322    0.401    0.264   53.501  202.390
  509.250    5.432    0.364    0.253   47.511  203.979
  509.500    5.545    0.349    0.242   46.542  204.121
  509.750    5.564    0.363    0.265   48.550  203.647
  510.000    5.316    0.386    0.278   53.349  203.273
  510.250    4.938    0.415    0.297   56.660  203.001
  510.500    4.493    0.442    0.274   52.652  203.148
  510.750    4.019    0.432    0.281   51.064  203.184
  511.000    3.677    0.442    0.294   52.764  203.015
  511.250    3.628    0.410    0.297   56.384  202.645
  511.500    3.634    0.387    0.292   58.762  202.577
  511.750    3.667    0.406    0.300   59.468  202.106
  512.000    3.807    0.408    0.312   56.826  201.419
  512.250    3.982    0.393    0.308   53.815  200.008
  512.500    4.157    0.404    0.297   55.013  197.983
  512.750    4.357    0.348    0.274   55.966  195.854
  513.000    4.786    0.331    0.254   55.620  193.103
  513.250    5.449    0.322    0.180   52.977  190.355
  513.500    6.146    0.315    0.190   49.961  189.046
  513.750    6.453    0.317    0.258   47.878  188.366
  514.000    6.427    0.322    0.247   46.970  189.126
  514.250    6.106    0.318    0.142   46.870  191.025
  514.500    6.002    0.320    0.138   48.011  192.718
  514.750    6.266    0.334    0.171   50.639  192.861
  515.000    6.729    0.352    0.240   47.748  191.042
  515.250    7.748    0.354    0.172   47.585  187.153
  515.500    8.773    0.335    0.139   48.291  186.261
  515.750   10.852    0.314    0.108   46.951  190.643
  516.000   12.638    0.289    0.091   45.796  194.402
  516.250   13.623    0.261    0.077   46.379  196.410
  516.500   14.010    0.259    0.057   47.582  197.068
  516.750   13.261    0.270    0.087   49.712  197.210
  517.000   12.020    0.298    0.149   53.704  196.834
  517.250   10.571    0.313    0.180   52.922  197.700
  517.500    9.297    0.327    0.179   49.909  201.047
  517.750    8.555    0.333    0.185   47.204  201.396
  518.000    8.159    0.324    0.178   44.684  200.816
  518.250    7.810    0.318    0.114   45.203  199.620
  518.500    7.463    0.315    0.100   46.901  198.730
  518.750    6.932    0.323    0.160   55.235  198.973
  519.000    6.488    0.347    0.205   55.012  200.252
  519.250    5.914    0.373    0.222   57.577  202.773
