~VERSION INFORMATION
 VERS.                 2.0:   CWLS LOG ASCII STANDARD -VERSION 2.0
 WRAP.                  NO:   ONE LINE PER DEPTH STEP
~WELL INFORMATION BLOCK
#MNEM.UNIT           DATA                    DESCRIPTION OF MNEMONIC
#---------    -------------------            -------------------------------
# Generated from Intellog Unique Number	CW_79_81/WELL/620
WELL.         PETROREP SANDERS               : Well_name    - WELL
LOC .         00/07-26-080-02W5/0            : Location     - LOCATION
UWI .         00/07-26-080-02W5/0            : Uwi          - UNIQUE WELL ID
ENTR.         MAX                            : Entered      - ENTERED BY
SRVC.         SCHLUMBERGER                   : Scn          - SERVICE COMPANY
STRT.M        256.032                        : top_depth    - START DEPTH
STOP.M        515.032                        : bot_depth    - STOP DEPTH
STEP.M        0.25                           : increment    - STEP LENGTH
 NULL. -999.2500:NULL Value
~CURVE INFORMATION BLOCK
#MNEM UNIT       ERCB CURVE CODE    CURVE DESCRIPTION
#-----------   ------------------   ----------------------------------
DEPT.M        00 001 00 00         : DEPTH        - DEPTH
ILD .OHMM     00 120 00 00         : RESD         - DEEP RESISTIVITY (DIL)
NPHI.V/V      00 330 00 00         : PHIN         - NEUTRON POROSITY (SANDSTONE)
DPHI.V/V      00 890 00 00         : PHID         - DENSITY POROSITY (SANDSTONE)
CALI.MM       00 280 01 00         : CAL          - CALIPER
GR  .API      00 310 00 00         : GR           - GAMMA RAY
~PARAMETER INFORMATION
#MNEM.UNIT           DATA             DESCRIPTION OF MNEMONIC
#---------         -----------     ------------------------------
GL  .M        602.254              : gl           - GROUND LEVEL ELEVATION
EREF.M        605.607              : kb           - ELEVATION OF DEPTH REFERENCE
DATM.M        602.254              : datum        - DATUM ELEVATION
TDD .M        544.068              : tdd          - TOTAL DEPTH DRILLER
RUN .         ONE                  : Run          - RUN NUMBER
ENG .         BILL                 : Engineer     - RECORDING ENGINEER
WIT .         JIM                  : Witness      - WITNESSED BY
MUD .         GEL                  : Mud_type     - MUD TYPE
MATR.         SANDSTONE            : Logunit      - NEUTRON MATRIX
TMAX.C        24.4444              : BHT          - MAXIMUM RECORDED TEMPERATURE
BHTD.M        544.068              : BHTDEP       - MAXIMUM RECORDED TEMPERATURE
RMT .C        18.3333              : MDTP         - TEMPERATURE OF MUD
MUDD.KG/M     1120                 : MWT          - MUD DENSITY
NEUT.         1                    : NEUTRON      - NEUTRON TYPE
RESI.         0                    : RESIST       - RESISTIVITY TYPE
RM  .OHMM     5                    : RM           - RESISTIVITY OF MUD
RMC .OHMM     0                    : RMC          - RESISTIVITY OF MUD CAKE
RMF .OHMM     7                    : RMF          - RESISTIVITY OF MUD FILTRATE
SUFT.C        -20.5556             : SUFT         - SURFACE TEMPERATURE
~A  DEPTH     RESD     PHIN     PHID      CAL       GR
# ...
  438.532    8.058    0.409    0.219  167.149  102.834
  438.782    7.998    0.402    0.213  167.200  105.526
  439.032    8.010    0.399    0.228  166.757  107.050
  439.282    8.024    0.406    0.224  165.827  105.895
  439.532    8.035    0.419    0.228  166.394  102.972
  439.782    8.049    0.422    0.226  167.449  100.640
  440.032    8.210    0.418    0.225  169.005   99.486
  440.282    8.300    0.414    0.228  166.562  100.113
  440.532    8.309    0.416    0.231  165.610  101.040
  440.782    8.248    0.417    0.233  165.668  101.955
  441.032    8.112    0.402    0.230  165.727  104.072
  441.282    8.048    0.398    0.232  165.800  103.509
  441.532    8.060    0.406    0.233  165.349  102.359
  441.782    8.149    0.408    0.212  165.408  107.134
  442.032    8.314    0.403    0.223  165.466  107.765
  442.282    8.325    0.400    0.202  165.525  104.240
  442.532    8.260    0.401    0.179  164.580  103.682
  442.782    8.275    0.393    0.170  164.645  105.198
  443.032    8.286    0.387    0.174  166.711  109.977
  443.282    8.223    0.392    0.182  167.772  110.604
  443.532    8.088    0.402    0.195  168.340  109.458
  443.782    7.951    0.396    0.207  168.398  109.192
  444.032    7.891    0.388    0.209  168.449  110.411
  444.282    7.833    0.384    0.195  168.515  115.783
  444.532    7.842    0.387    0.208  169.068  120.854
  444.782    7.854    0.404    0.195  170.646  114.074
  445.032    7.868    0.408    0.182  173.205  107.003
  445.282    7.881    0.378    0.168  173.271  103.181
  445.532    7.892    0.371    0.181  169.323   99.665
  445.782    7.904    0.393    0.206  168.873   96.436
  446.032    7.844    0.396    0.232  168.924   91.726
  446.282    7.784    0.394    0.241  168.982   86.428
  446.532    7.655    0.380    0.238  167.543   81.722
  446.782    7.596    0.369    0.197  166.598   77.313
  447.032    7.677    0.378    0.177  166.162   73.500
  447.282    8.355    0.389    0.204  166.221   73.234
  447.532    9.170    0.364    0.222  166.279   73.574
  447.782   10.540    0.360    0.220  166.330   73.896
  448.032   13.155    0.376    0.222  166.389   74.823
  448.282   15.257    0.391    0.216  166.956   73.385
  448.532   19.394    0.385    0.200  167.516   74.004
  448.782   23.337    0.383    0.208  167.582   76.408
  449.032   26.097    0.391    0.211  167.139   77.332
  449.282   26.142    0.380    0.173  166.695   74.704
  449.532   24.549    0.354    0.084  166.761   70.883
  449.782   22.634    0.329    0.047  166.311   70.625
  450.032   20.873    0.245    0.061  165.358   75.696
  450.282   19.430    0.296    0.125  163.919   83.730
  450.532   18.931    0.340    0.177  164.479   91.472
  450.782   19.135    0.373    0.239  166.043   98.024
  451.032   20.248    0.382    0.229  166.108  100.729
  451.282   21.830    0.405    0.248  165.665   99.578
  451.532   23.091    0.415    0.238  166.225  101.103
  451.782   24.435    0.408    0.213  166.284  101.726
  452.032   25.391    0.403    0.198  165.840   99.983
  452.282   25.674    0.387    0.189  165.906   94.976
  452.532   24.327    0.367    0.177  165.950   93.830
  452.782   20.847    0.365    0.172  166.008   96.527
  453.032   15.566    0.395    0.177  166.081   95.084
  453.282   12.978    0.388    0.221  166.147   96.896
  453.532   11.327    0.391    0.216  166.198  102.564
  453.782   10.162    0.401    0.222  166.751  106.149
  454.032    9.371    0.402    0.221  166.817  104.702
  454.282    9.046    0.418    0.216  166.875  100.890
  454.532    9.147    0.427    0.226  166.941  100.920
  454.782    9.414    0.411    0.212  166.992  102.436
  455.032   10.054    0.408    0.204  166.556  102.775
  455.282   10.835    0.403    0.197  166.113  102.810
  455.532   10.755    0.397    0.188  166.171  101.951
  455.782   10.290    0.398    0.179  166.222  101.397
  456.032    9.754    0.414    0.183  166.288  101.728
  456.282    9.330    0.414    0.190  165.343  104.129
  456.532    8.845    0.404    0.216  164.907  107.134
  456.782    8.698    0.407    0.215  164.951  105.979
  457.032    8.399    0.406    0.188  165.526  107.199
  457.282    8.182    0.405    0.183  163.578  106.937
  457.532    7.898    0.406    0.189  163.127  106.384
  457.782    7.488    0.399    0.177  164.203  109.381
  458.032    7.488    0.382    0.170  165.251  111.188
  458.282    7.308    0.372    0.158  165.316  108.265
  458.532    6.864    0.389    0.193  164.873  104.443
  458.782    6.747    0.401    0.184  164.422  103.005
  459.032    6.574    0.406    0.188  165.492  103.628
  459.282    6.464    0.410    0.183  166.059  101.889
  459.532    6.415    0.416    0.173  165.623  100.142
  459.782    6.427    0.420    0.156  164.685  101.662
  460.032    6.436    0.416    0.173  164.722  104.363
  460.282    6.446    0.399    0.196  165.791  107.360
  460.532    6.457    0.387    0.209  166.344  107.699
  460.782    6.466    0.381    0.198  165.915  105.059
  461.032    6.536    0.364    0.200  165.974  100.946
  461.282    6.536    0.357    0.181  166.032   99.211
  461.532    6.618    0.349    0.176  166.083   99.237
  461.782    7.068    0.349    0.196  166.141   98.980
  462.032    7.342    0.355    0.209  166.709   93.677
  462.282    7.768    0.378    0.211  166.767   89.564
  462.532    8.220    0.389    0.194  166.826   86.640
  462.782    9.109    0.396    0.207  166.397   84.300
  463.032    9.728    0.379    0.205  166.448   81.372
  463.282   10.292    0.363    0.183  167.016   78.148
  463.532   11.300    0.350    0.160  167.067   75.817
  463.782   12.290    0.340    0.169  167.140   72.884
  464.032   12.652    0.339    0.157  167.184   71.734
  464.282   13.388    0.314    0.099  167.242   71.772
  464.532   14.835    0.232    0.042  166.799   71.807
  464.782   16.284    0.227    0.055  166.363   72.726
  465.032   18.040    0.274    0.071  165.920   76.019
  465.282   20.735    0.341    0.157  165.978   82.576
  465.532   24.049    0.374    0.224  166.036   91.498
  465.782   27.642    0.387    0.230  166.597   97.170
  466.032   31.189    0.379    0.206  166.648   93.053
  466.282   33.003    0.369    0.175  166.212   87.162
  466.532   29.882    0.353    0.155  165.761   84.826
  466.782   26.081    0.306    0.132  165.333   87.527
  467.032   21.546    0.370    0.179  165.391   94.672
  467.282   17.633    0.382    0.217  165.457  102.122
  467.532   15.390    0.383    0.210  166.511  101.267
  467.782   13.189    0.371    0.208  167.071   99.524
  468.032   11.617    0.377    0.196  167.130   96.296
  468.282   10.423    0.379    0.159  167.181   92.183
  468.532    9.612    0.384    0.173  166.745   92.814
  468.782    9.197    0.397    0.187  166.309   95.811
  469.032    8.798    0.400    0.181  165.357   98.804
  469.282    8.494    0.396    0.169  166.418  103.291
  469.532    8.274    0.394    0.201  168.985  106.580
  469.782    7.843    0.383    0.204  167.546  111.655
  470.032    7.572    0.402    0.191  169.102  115.249
  470.282    7.572    0.408    0.183  169.669  113.510
  470.532    7.391    0.408    0.180  170.237  113.541
  470.782    7.004    0.405    0.160  170.790  115.348
  471.032    6.764    0.406    0.153  170.361  118.350
  471.282    6.711    0.407    0.159  168.907  122.828
  471.532    6.599    0.393    0.182  170.463  126.426
  471.782    6.550    0.379    0.203  171.525  127.341
  472.032    6.500    0.361    0.206  170.595  126.783
  472.282    6.393    0.362    0.192  169.141  121.485
  472.532    6.343    0.360    0.186  168.705  121.524
  472.782    6.181    0.351    0.166  168.756  125.410
  473.032    6.133    0.349    0.175  168.814  129.596
  473.282    6.031    0.365    0.180  169.876  133.774
  473.532    6.040    0.383    0.162  169.942  132.327
  473.782    6.050    0.399    0.153  171.498  129.399
  474.032    6.346    0.405    0.202  172.073  127.360
  474.282    6.653    0.404    0.195  169.128  123.839
  474.532    7.105    0.393    0.183  168.169  115.874
  474.782    7.586    0.380    0.171  167.726  109.984
