~VERSION INFORMATION
 VERS.                 2.0:   CWLS LOG ASCII STANDARD -VERSION 2.0
 WRAP.                  NO:   ONE LINE PER DEPTH STEP
~WELL INFORMATION BLOCK
#MNEM.UNIT           DATA                    DESCRIPTION OF MNEMONIC
#---------    -------------------            -------------------------------
# Generated from Intellog Unique Number	CS_71_72/WELL/800
WELL.         BVX ET AL LYLE                 : Well_name    - WELL
LOC .         00/06-36-072-17W4/0            : Location     - LOCATION
UWI .         00/06-36-072-17W4/0            : Uwi          - UNIQUE WELL ID
ENTR.         SP                             : Entered      - ENTERED BY
SRVC.         SCHLUMBERGER                   : Scn          - SERVICE COMPANY
STRT.M        268.224                        : top_depth    - START DEPTH
STOP.M        461.224                        : bot_depth    - STOP DEPTH
STEP.M        0.25                           : increment    - STEP LENGTH
 NULL. -999.2500:NULL Value
~CURVE INFORMATION BLOCK
#MNEM UNIT       ERCB CURVE CODE    CURVE DESCRIPTION
#-----------   ------------------   ----------------------------------
DEPT.M        00 001 00 00         : DEPTH        - DEPTH
GR  .API      00 310 00 00         : GR           - GAMMA RAY
DPHI.V/V      00 890 00 00         : PHID         - DENSITY POROSITY (SANDSTONE)
NPHI.V/V      00 330 00 00         : PHIN         - NEUTRON POROSITY (SANDSTONE)
ILD .OHMM     00 120 00 00         : RESD         - DEEP RESISTIVITY (DIL)
~PARAMETER INFORMATION
#MNEM.UNIT           DATA             DESCRIPTION OF MNEMONIC
#---------         -----------     ------------------------------
GL  .M        592.836              : gl           - GROUND LEVEL ELEVATION
EREF.M        595.884              : kb           - ELEVATION OF DEPTH REFERENCE
DATM.M        592.836              : datum        - DATUM ELEVATION
TDD .M        463.296              : tdd          - TOTAL DEPTH DRILLER
RUN .         ONE                  : Run          - RUN NUMBER
ENG .         BILL                 : Engineer     - RECORDING ENGINEER
WIT .         JIM                  : Witness      - WITNESSED BY
MUD .         GEL                  : Mud_type     - MUD TYPE
MATR.         SANDSTONE            : Logunit      - NEUTRON MATRIX
TMAX.C        12.7778              : BHT          - MAXIMUM RECORDED TEMPERATURE
BHTD.M        463.296              : BHTDEP       - MAXIMUM RECORDED TEMPERATURE
MATR.         1                    : LOGUNIT      - NEUTRON MATRIX
RMT .C        25                   : MDTP         - TEMPERATURE OF MUD
NEUT.         1                    : NEUTRON      - NEUTRON TYPE
RESI.         0                    : RESIST       - RESISTIVITY TYPE
RMC .OHMM     0.25                 : RMC          - RESISTIVITY OF MUD CAKE
RMF .OHMM     0.25                 : RMF          - RESISTIVITY OF MUD FILTRATE
SUFT.C        15                   : SUFT         - SURFACE TEMPERATURE
~A  DEPTH       GR     PHID     PHIN     RESD
  268.224  119.041    0.249    0.557    3.049
  268.474  117.229    0.242    0.520    3.136
  268.724  115.797    0.259    0.513    3.302
  268.974  114.860    0.248    0.516    3.464
  269.224  118.529    0.252    0.516    3.470
  269.474  120.323    0.261    0.532    3.476
  269.724  119.844    0.265    0.546    3.425
  269.974  118.997    0.255    0.549    3.330
  270.224  120.465    0.248    0.530    3.166
  270.474  121.506    0.233    0.521    3.040
  270.724  120.813    0.228    0.517    2.898
  270.974  118.554    0.236    0.526    2.849
  271.224  118.014    0.245    0.539    2.848
  271.474  117.869    0.231    0.528    2.913
  271.724  117.473    0.234    0.521    2.908
  271.974  116.159    0.240    0.527    3.034
  272.224  115.050    0.236    0.540    3.159
  272.474  112.943    0.250    0.539    3.253
  272.724  110.704    0.288    0.536    3.252
  272.974  107.736    0.318    0.528    3.247
  273.224  107.731    0.349    0.508    2.909
  273.474  109.511    0.326    0.520    2.860
  273.724  109.638    0.309    0.531    3.053
  273.974  103.070    0.296    0.491    4.021
  274.224   97.876    0.308    0.453    5.136
  274.474   93.213    0.276    0.457    5.969
  274.724   87.014    0.261    0.482    6.435
  274.974   80.195    0.439    0.524    7.118
  275.224   72.794    0.522    0.619    7.288
  275.474   65.099    0.474    0.559    6.570
  275.724   70.857    0.365    0.494    4.690
  275.974   73.497    0.319    0.450    4.332
  276.224   73.918    0.304    0.433    4.107
  276.474   75.025    0.311    0.443    4.084
  276.724   77.120    0.312    0.440    4.077
  276.974   77.148    0.306    0.440    4.164
  277.224   76.188    0.300    0.448    4.244
  277.474   81.119    0.298    0.453    4.284
  277.724   85.515    0.306    0.447    4.525
  277.974   89.228    0.313    0.445    4.650
  278.224   95.743    0.309    0.452    5.037
  278.474   98.890    0.290    0.455    5.324
  278.724  102.318    0.285    0.456    5.580
  278.974  105.308    0.278    0.460    5.769
  279.224  105.737    0.272    0.471    5.825
  279.474  101.673    0.266    0.459    5.934
  279.724  102.194    0.263    0.428    5.771
  279.974  106.307    0.268    0.429    5.608
  280.224  110.459    0.278    0.439    5.619
  280.474  113.344    0.276    0.448    5.639
  280.724  115.645    0.269    0.437    5.941
  280.974  115.659    0.274    0.428    5.927
  281.224  118.484    0.276    0.416    6.072
  281.474  123.238    0.266    0.414    5.956
  281.724  123.192    0.258    0.419    5.782
  281.974  116.203    0.271    0.428    5.611
  282.224  108.903    0.288    0.427    5.537
  282.474  105.181    0.289    0.434    5.576
  282.724  103.752    0.276    0.405    5.891
  282.974  104.142    0.248    0.380    6.170
  283.224  106.004    0.223    0.373    6.368
  283.474  105.553    0.206    0.369    6.432
  283.724  101.131    0.231    0.359    6.567
  283.974   93.235    0.205    0.363    6.392
  284.224   85.598    0.201    0.373    6.210
  284.474   75.759    0.229    0.389    5.780
  284.724   71.262    0.231    0.375    5.397
  284.974   73.548    0.217    0.376    5.005
  285.224   75.639    0.227    0.385    4.851
  285.474   80.885    0.242    0.397    4.824
  285.724   87.294    0.262    0.396    4.748
  285.974   93.909    0.244    0.406    4.780
  286.224   99.897    0.254    0.416    4.828
  286.474  112.700    0.285    0.426    4.759
  286.724  119.699    0.288    0.450    4.712
  286.974  118.953    0.281    0.478    4.659
  287.224  119.569    0.268    0.497    4.454
  287.474  121.786    0.237    0.518    4.005
  287.724  123.717    0.279    0.540    3.624
  287.974  127.037    0.335    0.559    3.448
  288.224  129.009    0.287    0.568    3.360
  288.474  131.055    0.309    0.579    3.363
  288.724  129.490    0.346    0.566    3.462
  288.974  127.845    0.374    0.546    3.563
  289.224  123.894    0.383    0.547    3.560
  289.474  120.886    0.382    0.534    3.546
  289.724  121.761    0.344    0.532    3.366
  289.974  125.342    0.357    0.554    3.128
  290.224  129.687    0.387    0.572    2.920
  290.474  132.903    0.356    0.594    3.083
  290.724  134.615    0.321    0.563    3.812
  290.974  136.846    0.345    0.475    4.430
  291.224  132.134    0.338    0.443    5.114
  291.474  127.463    0.308    0.434    5.605
  291.724  123.865    0.268    0.440    6.128
  291.974  121.304    0.255    0.445    6.617
  292.224  119.492    0.229    0.454    6.799
  292.474  116.073    0.217    0.457    6.798
  292.724  111.956    0.217    0.463    6.814
  292.974  108.546    0.244    0.464    6.670
  293.224  104.546    0.255    0.449    6.550
  293.474  110.217    0.240    0.452    6.023
  293.724  117.361    0.238    0.470    5.562
  293.974  121.709    0.222    0.480    5.286
  294.224  123.851    0.208    0.492    5.293
  294.474  121.317    0.226    0.496    5.517
  294.724  114.536    0.235    0.488    5.895
  294.974  109.933    0.258    0.469    6.082
  295.224  101.829    0.302    0.451    6.265
  295.474   99.054    0.300    0.460    6.484
  295.724   97.459    0.293    0.459    6.723
  295.974   96.831    0.292    0.445    6.850
  296.224   94.196    0.287    0.434    6.842
  296.474   94.209    0.273    0.435    6.989
  296.724   95.203    0.264    0.441    7.118
  296.974   97.515    0.263    0.438    7.043
  297.224   97.477    0.267    0.442    6.840
  297.474   99.862    0.268    0.451    6.528
  297.724  102.861    0.268    0.462    6.262
  297.974  106.526    0.283    0.457    6.283
  298.224  107.480    0.288    0.466    6.183
  298.474  107.049    0.274    0.470    6.164
  298.724  109.883    0.248    0.453    6.297
  298.974  113.837    0.225    0.450    6.296
  299.224  116.260    0.224    0.449    6.058
  299.474  117.477    0.255    0.438    5.639
  299.724  120.417    0.246    0.442    5.534
  299.974  123.240    0.278    0.456    5.688
  300.224  125.128    0.306    0.451    5.863
  300.474  129.862    0.265    0.447    5.991
  300.724  133.483    0.234    0.449    5.823
  300.974  136.938    0.229    0.447    5.567
  301.224  137.579    0.244    0.459    5.590
  301.474  129.618    0.254    0.471    6.027
  301.724  122.005    0.241    0.479    6.180
  301.974  114.498    0.268    0.447    6.464
  302.224  111.022    0.266    0.430    6.587
  302.474  113.633    0.248    0.422    6.802
  302.724  116.787    0.235    0.413    6.868
  302.974  118.224    0.227    0.406    6.955
  303.224  119.993    0.217    0.401    6.384
  303.474  124.124    0.217    0.406    5.611
  303.724  125.911    0.210    0.421    5.037
  303.974  127.977    0.194    0.449    4.653
  304.224  128.408    0.197    0.473    4.419
  304.474  127.888    0.212    0.498    4.562
  304.724  129.366    0.237    0.505    4.925
  304.974  120.030    0.270    0.484    5.453
  305.224  107.527    0.266    0.477    5.675
  305.474  102.008    0.286    0.489    6.110
  305.724   99.891    0.289    0.502    6.275
  305.974  100.681    0.292    0.498    6.199
  306.224  103.587    0.296    0.473    6.015
  306.474  105.886    0.288    0.455    5.842
  306.724  108.763    0.284    0.451    5.799
  306.974  112.318    0.279    0.446    5.860
  307.224  114.179    0.275    0.450    6.056
  307.474  114.494    0.277    0.441    6.252
  307.724  110.965    0.270    0.432    6.297
  307.974  111.960    0.264    0.430    6.308
  308.224  116.292    0.264    0.434    6.102
  308.474  117.411    0.240    0.452    5.621
  308.724  115.742    0.222    0.477    5.194
  308.974  110.671    0.235    0.478    5.171
  309.224  105.437    0.239    0.483    5.170
  309.474  101.371    0.251    0.471    5.679
  309.724   98.008    0.272    0.454    6.576
  309.974   97.313    0.252    0.440    7.043
  310.224   94.429    0.245    0.413    7.655
  310.474   91.937    0.218    0.399    7.955
  310.724   94.393    0.192    0.416    8.184
  310.974   97.815    0.213    0.430    8.303
  311.224  101.118    0.229    0.439    7.838
  311.474  103.893    0.196    0.438    6.905
