~VERSION INFORMATION
 VERS.                 2.0:   CWLS LOG ASCII STANDARD -VERSION 2.0
 WRAP.                  NO:   ONE LINE PER DEPTH STEP
~WELL INFORMATION BLOCK
#MNEM.UNIT           DATA                    DESCRIPTION OF MNEMONIC
#---------    -------------------            -------------------------------
# Generated from Intellog Unique Number	CW_70_72/WELL/3017
NULL.         -999.25                        : NULL_VALUE
WELL.         MESA SULPETRO CALL 07-30       : Well_name    - WELL              
LOC .         07-30-070-22W4                 : Location     - LOCATION          
UWI .         00/07-30-070-22W4/0            : Uwi          - UNIQUE WELL ID    
ENTR.         jj                             : Entered      - ENTERED BY        
SRVC.         SCHLUMBERGER                   : Scn          - SERVICE COMPANY   
DATE.         14 JAN 78                      : Date         - LOG DATE          
STRT.M        411.48                         : top_depth    - START DEPTH       
STOP.M        636.98                         : bot_depth    - STOP DEPTH        
STEP.M        0.25                           : increment    - STEP LENGTH       
~CURVE INFORMATION BLOCK
#MNEM UNIT       ERCB CURVE CODE    CURVE DESCRIPTION
#-----------   ------------------   ----------------------------------
DEPT.M        00 001 00 00         : DEPTH        - DEPTH                       
ILD .OHMM     00 120 00 00         : RESD         - DEEP RESISTIVITY (DIL)      
CALI.MM       00 280 01 00         : CAL          - CALIPER                     
GR  .API      00 310 00 00         : GR           - GAMMA RAY                   
NPHI.V/V      00 330 00 00         : PHIN         - NEUTRON POROSITY (SANDSTONE)
DPHI.V/V      00 890 00 00         : PHID         - DENSITY POROSITY (SANDSTONE)
~PARAMETER INFORMATION       
#MNEM.UNIT           DATA             DESCRIPTION OF MNEMONIC
#---------         -----------     ------------------------------
GL  .M        659.282              : gl           - GROUND LEVEL ELEVATION      
EREF.M        662.33               : kb           - ELEVATION OF DEPTH REFERENCE
DATM.M        659.282              : datum        - DATUM ELEVATION             
TDD .M        652.882              : tdd          - TOTAL DEPTH DRILLER         
RUN .         ONE                  : Run          - RUN NUMBER                  
ENG .         RUMSEY               : Engineer     - RECORDING ENGINEER          
WIT .         STRANDBERG           : Witness      - WITNESSED BY                
BASE.         EDM                  : Branch       - HOME BASE OF LOGGING UNIT   
MUD .         GEL CHEM             : Mud_type     - MUD TYPE                    
MATR.         SANDSTONE            : Logunit      - NEUTRON MATRIX              
TMAX.C        25                   : BHT          - MAXIMUM RECORDED TEMPERATURE
BHTD.M        652.882              : BHTDEP       - MAXIMUM RECORDED TEMPERATURE
RMT .C        15.5556              : MDTP         - TEMPERATURE OF MUD          
MUDD.KG/M     1008                 : MWT          - MUD DENSITY                 
NEUT.         1                    : NEUTRON      - NEUTRON TYPE                
RESI.         0                    : RESIST       - RESISTIVITY TYPE            
RM  .OHMM     2.88                 : RM           - RESISTIVITY OF MUD          
RMC .OHMM     2.5                  : RMC          - RESISTIVITY OF MUD CAKE     
RMF .OHMM     3.34                 : RMF          - RESISTIVITY OF MUD FILTRATE 
SUFT.C        -17.7778             : SUFT         - SURFACE TEMPERATURE         
~A  DEPTH     RESD      CAL       GR     PHIN     PHID
# ...
  447.980    6.627  155.985   84.284    0.449    0.221
  448.230    5.959  158.880   82.791    0.495    0.243
  448.480    4.989  163.793   79.170    0.496    0.305
  448.730    3.690  166.047   75.485    0.486    0.323
  448.980    2.959  160.228   73.745    0.465    0.320
  449.230    2.778  153.146   74.889    0.461    0.335
  449.480    2.828  154.441   78.416    0.444    0.320
  449.730    2.984  160.732   82.010    0.557    0.330
  449.980    3.275  175.311   83.090    0.584    0.367
  450.230    3.683  186.803   84.109    0.520    0.389
  450.480    3.864  200.525   85.001    0.491    0.349
  450.730    3.697  176.555   87.464    0.468    0.265
  450.980    3.584  166.065   89.106    0.437    0.241
  451.230    3.487  158.343   90.690    0.417    0.229
  451.480    3.497  153.271   94.029    0.408    0.237
  451.730    3.904  150.325  100.004    0.413    0.213
  451.980    4.432  154.913  104.157    0.426    0.212
  452.230    4.910  163.121  102.357    0.467    0.222
  452.480    5.669  170.576   97.229    0.490    0.205
  452.730    6.835  177.296   89.969    0.498    0.224
  452.980    7.238  182.098   83.276    0.476    0.256
  453.230    7.123  167.468   78.962    0.431    0.282
  453.480    6.970  152.631   74.964    0.405    0.290
  453.730    6.925  149.260   71.969    0.393    0.330
  453.980    7.063  152.360   69.916    0.384    0.352
  454.230    7.231  157.166   68.240    0.391    0.330
  454.480    7.277  159.321   67.312    0.375    0.321
  454.730    6.872  157.116   66.260    0.383    0.350
  454.980    5.986  154.593   66.089    0.401    0.347
  455.230    4.947  153.982   66.542    0.428    0.329
  455.480    4.300  154.224   67.876    0.440    0.313
  455.730    3.933  153.714   69.457    0.450    0.290
  455.980    3.536  153.322   73.298    0.457    0.277
  456.230    3.333  152.918   77.016    0.459    0.273
  456.480    3.100  152.629   76.154    0.449    0.278
  456.730    2.938  152.120   74.410    0.443    0.286
  456.980    2.822  151.934   72.675    0.451    0.296
  457.230    2.746  151.960   71.997    0.458    0.325
  457.480    2.698  152.202   71.133    0.468    0.332
  457.730    2.675  152.648   70.710    0.476    0.330
  457.980    2.658  153.417   70.474    0.469    0.326
  458.230    2.660  153.447   71.304    0.460    0.324
  458.480    2.678  154.744   71.196    0.483    0.328
  458.730    2.685  155.408   67.701    0.509    0.337
  458.980    2.723  154.054   65.143    0.518    0.347
  459.230    2.756  152.384   62.273    0.500    0.347
  459.480    2.827  151.556   63.417    0.486    0.339
  459.730    2.911  150.527   63.621    0.476    0.324
  459.980    3.082  149.914   63.326    0.459    0.327
  460.230    3.519  150.040   62.899    0.461    0.339
  460.480    3.987  151.665   62.289    0.485    0.337
  460.730    4.656  152.434   62.556    0.490    0.333
  460.980    5.884  152.459   63.635    0.466    0.313
  461.230    6.617  150.042   64.341    0.443    0.297
  461.480    6.942  146.242   63.041    0.415    0.281
  461.730    6.692  149.668   61.177    0.346    0.183
  461.980    6.226  153.199   58.872    0.342    0.201
  462.230    5.802  153.972   57.066    0.364    0.218
  462.480    5.458  154.098   55.639    0.376    0.236
  462.730    5.115  155.081   55.843    0.381    0.250
  462.980    4.767  156.173   56.296    0.386    0.268
  463.230    4.595  156.410   56.314    0.389    0.281
  463.480    4.421  156.334   56.955    0.403    0.294
  463.730    4.255  156.249   58.916    0.421    0.285
  463.980    4.147  155.957   60.372    0.424    0.280
  464.230    4.074  155.773   61.704    0.417    0.291
  464.480    3.965  155.904   62.598    0.426    0.289
  464.730    3.984  155.716   63.240    0.433    0.276
  464.980    4.002  155.003   63.948    0.436    0.278
  465.230    3.793  154.067   65.154    0.432    0.299
  465.480    3.555  151.866   66.797    0.424    0.284
  465.730    3.240  150.090   68.570    0.411    0.263
  465.980    3.152  149.898   69.839    0.409    0.247
  466.230    3.307  150.034   72.050    0.425    0.232
  466.480    3.649  149.421   75.327    0.442    0.240
  466.730    4.467  149.345   74.275    0.451    0.274
  466.980    5.719  149.048   68.710    0.461    0.289
  467.230    6.113  147.586   65.465    0.460    0.292
  467.480    5.719  147.933   65.229    0.416    0.259
  467.730    4.916  150.295   67.063    0.390    0.217
  467.980    4.470  153.086   64.569    0.381    0.206
  468.230    4.027  154.387   62.141    0.380    0.246
  468.480    3.733  155.263   60.649    0.387    0.262
  468.730    3.605  155.178   59.288    0.404    0.276
  468.980    3.495  154.569   59.112    0.421    0.293
  469.230    3.351  154.276   60.132    0.434    0.306
  469.480    3.254  153.668   60.398    0.458    0.300
  469.730    3.214  153.265   57.842    0.459    0.306
  469.980    3.181  152.547   58.673    0.454    0.301
  470.230    3.179  151.723   61.134    0.451    0.303
  470.480    3.170  150.907   62.278    0.457    0.307
  470.730    3.131  150.395   62.732    0.463    0.312
  470.980    3.001  149.890   63.128    0.471    0.321
  471.230    2.807  148.007   62.577    0.480    0.332
  471.480    2.539  146.441   61.149    0.482    0.340
  471.730    2.361  146.149   60.410    0.473    0.325
  471.980    2.184  147.660   60.866    0.462    0.328
  472.230    2.086  151.508   59.063    0.443    0.331
  472.480    2.026  155.462   59.328    0.427    0.326
  472.730    2.066  158.037   60.286    0.436    0.321
  472.980    2.238  155.837   60.424    0.451    0.322
  473.230    2.638  153.102   60.880    0.460    0.324
  473.480    2.944  153.548   59.705    0.461    0.327
  473.730    3.387  155.808   59.218    0.456    0.333
  473.980    3.948  155.624   59.296    0.444    0.335
  474.230    4.173  154.376   58.120    0.422    0.307
  474.480    3.903  152.698   54.059    0.390    0.220
  474.730    3.312  151.352   50.373    0.309    0.185
  474.980    3.278  152.327   50.012    0.295    0.196
  475.230    3.343  156.071   53.603    0.343    0.225
  475.480    3.422  156.416   56.381    0.372    0.241
  475.730    3.438  153.999   56.960    0.394    0.222
  475.980    3.327  153.067   57.035    0.414    0.264
  476.230    3.141  156.385   57.492    0.443    0.250
  476.480    2.928  148.977   58.822    0.466    0.257
  476.730    2.817  152.831   60.596    0.478    0.283
  476.980    2.778  156.146   59.735    0.479    0.307
  477.230    2.780  157.555   57.991    0.464    0.307
  477.480    2.837  156.516   56.566    0.450    0.318
  477.730    2.860  152.613   56.579    0.446    0.318
  477.980    2.923  149.134   56.785    0.449    0.319
  478.230    2.959  147.786   56.986    0.451    0.310
  478.480    2.977  147.806   57.630    0.452    0.292
  478.730    2.969  148.791   58.839    0.448    0.301
  478.980    2.933  150.940   59.731    0.440    0.294
  479.230    2.854  154.575   60.560    0.437    0.272
  479.480    2.798  156.513   61.958    0.443    0.276
  479.730    2.749  151.020   62.411    0.454    0.296
  479.980    2.720  149.981   62.676    0.454    0.313
  480.230    2.707  158.398   62.253    0.444    0.298
  480.480    2.746  159.068   62.394    0.439    0.274
  480.730    2.811  157.598   64.668    0.429    0.279
  480.980    2.835  154.653   66.690    0.428    0.279
  481.230    2.743  152.023   68.898    0.437    0.284
  481.480    2.600  151.521   71.739    0.448    0.299
  481.730    2.469  154.735   73.069    0.453    0.290
  481.980    2.358  158.582   70.011    0.456    0.268
  482.230    2.273  155.953   66.453    0.458    0.262
  482.480    2.167  153.537   63.020    0.459    0.276
  482.730    2.121  152.820   60.274    0.457    0.282
  482.980    2.079  154.435   56.089    0.433    0.290
  483.230    2.058  157.966   55.292    0.423    0.316
  483.480    2.040  161.499   55.681    0.442    0.313
  483.730    2.023  161.100   56.950    0.464    0.320
  483.980    2.010  157.093   57.970    0.479    0.313
  484.230    2.012  155.416   57.109    0.463    0.317
