~VERSION INFORMATION
 VERS.                 2.0:   CWLS LOG ASCII STANDARD -VERSION 2.0
 WRAP.                  NO:   ONE LINE PER DEPTH STEP
~WELL INFORMATION BLOCK
#MNEM.UNIT           DATA                    DESCRIPTION OF MNEMONIC
#---------    -------------------            -------------------------------
# Generated from Intellog Unique Number	CS_71_72/WELL/772
WELL.         KIRBY                          : Well_name    - WELL
LOC .         00/06-20-071-05W4/0            : Location     - LOCATION
UWI .         00/06-20-071-05W4/0            : Uwi          - UNIQUE WELL ID
ENTR.         SP                             : Entered      - ENTERED BY
SRVC.         SCHLUMBERGER                   : Scn          - SERVICE COMPANY
STRT.M        310                            : top_depth    - START DEPTH
STOP.M        555                            : bot_depth    - STOP DEPTH
STEP.M        0.25                           : increment    - STEP LENGTH
 NULL. -999.2500:NULL Value
~CURVE INFORMATION BLOCK
#MNEM UNIT       ERCB CURVE CODE    CURVE DESCRIPTION
#-----------   ------------------   ----------------------------------
DEPT.M        00 001 00 00         : DEPTH        - DEPTH
ILD .OHMM     00 120 00 00         : RESD         - DEEP RESISTIVITY (DIL)
DPHI.V/V      00 890 00 00         : PHID         - DENSITY POROSITY (LIMESTONE)
NPHI.V/V      00 330 00 00         : PHIN         - NEUTRON POROSITY (LIMESTONE)
GR  .API      00 310 00 00         : GR           - GAMMA RAY
~PARAMETER INFORMATION
#MNEM.UNIT           DATA             DESCRIPTION OF MNEMONIC
#---------         -----------     ------------------------------
GL  .M        678.2                : gl           - GROUND LEVEL ELEVATION
EREF.M        681.5                : kb           - ELEVATION OF DEPTH REFERENCE
DATM.M        678.2                : datum        - DATUM ELEVATION
TDD .M        555                  : tdd          - TOTAL DEPTH DRILLER
RUN .         ONE                  : Run          - RUN NUMBER
ENG .         BILL                 : Engineer     - RECORDING ENGINEER
WIT .         JIM                  : Witness      - WITNESSED BY
MUD .         GEL                  : Mud_type     - MUD TYPE
MATR.         LIMESTONE            : Logunit      - NEUTRON MATRIX
TMAX.C        20.5                 : BHT          - MAXIMUM RECORDED TEMPERATURE
BHTD.M        555                  : BHTDEP       - MAXIMUM RECORDED TEMPERATURE
MATR.         1                    : LOGUNIT      - NEUTRON MATRIX
RMT .C        25                   : MDTP         - TEMPERATURE OF MUD
NEUT.         1                    : NEUTRON      - NEUTRON TYPE
RESI.         0                    : RESIST       - RESISTIVITY TYPE
RMC .OHMM     0.25                 : RMC          - RESISTIVITY OF MUD CAKE
RMF .OHMM     0.25                 : RMF          - RESISTIVITY OF MUD FILTRATE
SUFT.C        15                   : SUFT         - SURFACE TEMPERATURE
~A  DEPTH     RESD     PHID     PHIN       GR
# ...
  527.500    3.416    0.345    0.413   39.274
  527.750    3.199    0.328    0.404   37.227
  528.000    3.088    0.321    0.416   38.357
  528.250    2.925    0.316    0.410   35.578
  528.500    2.781    0.325    0.413   38.172
  528.750    2.699    0.337    0.421   38.874
  529.000    2.630    0.344    0.387   35.240
  529.250    2.553    0.334    0.371   30.628
  529.500    2.501    0.332    0.364   26.564
  529.750    2.455    0.333    0.364   23.664
  530.000    2.410    0.332    0.357   22.289
  530.250    2.384    0.328    0.349   22.564
  530.500    2.362    0.326    0.362   23.391
  530.750    2.354    0.327    0.374   24.456
  531.000    2.358    0.323    0.372   25.895
  531.250    2.381    0.316    0.365   26.968
  531.500    2.413    0.317    0.359   29.555
  531.750    2.459    0.318    0.358   36.183
  532.000    2.506    0.305    0.396   43.542
  532.250    2.530    0.295    0.409   46.076
  532.500    2.564    0.296    0.411   38.901
  532.750    2.560    0.304    0.397   33.860
  533.000    2.518    0.310    0.380   28.942
  533.250    2.471    0.312    0.364   27.323
  533.500    2.435    0.316    0.353   27.910
  533.750    2.399    0.321    0.363   27.814
  534.000    2.382    0.324    0.364   27.290
  534.250    2.356    0.331    0.366   25.855
  534.500    2.334    0.336    0.383   25.336
  534.750    2.309    0.338    0.399   25.000
  535.000    2.292    0.341    0.410   24.117
  535.250    2.292    0.337    0.401   23.351
  535.500    2.297    0.329    0.403   22.709
  535.750    2.319    0.322    0.404   22.497
  536.000    2.363    0.323    0.388   22.896
  536.250    2.441    0.317    0.367   23.529
  536.500    2.506    0.308    0.358   26.491
  536.750    2.568    0.303    0.369   34.403
  537.000    2.662    0.300    0.390   40.725
  537.250    2.759    0.300    0.396   46.865
  537.500    2.833    0.301    0.387   49.090
  537.750    2.887    0.298    0.384   49.731
  538.000    2.877    0.304    0.381   45.914
  538.250    2.787    0.309    0.383   40.694
  538.500    2.741    0.311    0.397   35.291
  538.750    2.681    0.316    0.396   32.017
  539.000    2.607    0.317    0.386   27.472
  539.250    2.511    0.315    0.395   25.239
  539.500    2.442    0.320    0.405   23.800
  539.750    2.379    0.320    0.387   25.299
  540.000    2.323    0.320    0.363   25.573
  540.250    2.276    0.324    0.367   23.523
  540.500    2.230    0.330    0.376   21.970
  540.750    2.193    0.335    0.372   22.611
  541.000    2.193    0.336    0.373   24.895
  541.250    2.206    0.320    0.394   30.916
  541.500    2.266    0.307    0.410   34.977
  541.750    2.274    0.314    0.423   36.840
  542.000    2.300    0.326    0.407   34.852
  542.250    2.305    0.334    0.395   33.663
  542.500    2.280    0.334    0.391   33.813
  542.750    2.263    0.317    0.387   32.499
  543.000    2.264    0.304    0.383   29.358
  543.250    2.290    0.299    0.370   27.549
  543.500    2.342    0.302    0.363   27.644
  543.750    2.410    0.314    0.368   27.488
  544.000    2.469    0.311    0.367   26.967
  544.250    2.507    0.308    0.353   25.961
  544.500    2.508    0.309    0.342   25.319
  544.750    2.513    0.302    0.350   26.508
  545.000    2.561    0.243    0.339   47.611
  545.250    2.625    0.197    0.319   76.657
  545.500    2.772    0.169    0.357   83.834
  545.750    2.928    0.168    0.420   81.786
  546.000    3.115    0.210    0.403   69.479
  546.250    3.302    0.271    0.365   50.573
  546.500    3.487    0.212    0.330   55.428
  546.750    3.649    0.144    0.327   83.801
  547.000    3.890    0.162    0.363   97.148
  547.250    4.123    0.199    0.387   75.496
  547.500    4.379    0.210    0.317   59.642
  547.750    4.625    0.185    0.317   53.502
  548.000    4.884    0.164    0.331   55.920
  548.250    5.236    0.158    0.342   56.313
  548.500    5.688    0.160    0.353   53.898
  548.750    5.996    0.166    0.336   44.890
  549.000    6.226    0.174    0.327   30.868
  549.250    6.345    0.180    0.341    3.718
  549.500    6.418    0.147    0.328   -4.191
  549.750    7.642    0.121    0.227   -6.788
  550.000   10.834   -0.019    0.200   -8.285
  550.250   14.765   -0.021    0.183   -8.929
  550.500   20.312   -0.019    0.182   -9.124
  550.750   26.119   -0.014    0.182   -9.232
  551.000   32.779   -0.007    0.187   -8.709
  551.250   40.145    0.001    0.216   -8.369
  551.500   48.890    0.007    0.243   -4.808
  551.750   58.326    0.014    0.256   -4.406
  552.000   63.117    0.019    0.257   -4.199
  552.250   59.234    0.025    0.258   -3.910
  552.500   53.437    0.029    0.258   -3.892
  552.750   51.096    0.007    0.259   -3.787
  553.000   53.662   -0.005    0.260   -3.587
  553.250   56.777    0.002    0.259   -3.314
  553.500   61.671    0.015    0.259   -3.083
  553.750   66.115    0.025    0.260   -3.069
  554.000   68.015    0.031    0.260   -3.036
  554.250   68.669    0.033    0.260   -3.009
  554.500   69.070    0.032    0.261   -2.975
  554.750   69.214    0.027    0.261   -3.373
  555.000   68.968    0.023    0.261   -3.824
