~VERSION INFORMATION
 VERS.                 2.0:   CWLS LOG ASCII STANDARD -VERSION 2.0
 WRAP.                  NO:   ONE LINE PER DEPTH STEP
~WELL INFORMATION BLOCK
#MNEM.UNIT           DATA                    DESCRIPTION OF MNEMONIC
#---------    -------------------            -------------------------------
# Generated from Intellog Unique Number	CW_70_72/WELL/3304
NULL.         -999.25                        : NULL_VALUE
WELL.         CHEVRON MGSU 1 MITSUE          : Well_name    - WELL              
LOC .         07-30-071-04W5                 : Location     - LOCATION          
UWI .         00/07-30-071-04W5/0            : Uwi          - UNIQUE WELL ID    
ENTR.         CAMPBELL                       : Entered      - ENTERED BY        
SRVC.         SCHLUMBERGER                   : Scn          - SERVICE COMPANY   
DATE.         24 MARCH 1982                  : Date         - LOG DATE          
STRT.M        610                            : top_depth    - START DEPTH       
STOP.M        755                            : bot_depth    - STOP DEPTH        
STEP.M        0.25                           : increment    - STEP LENGTH       
~CURVE INFORMATION BLOCK
#MNEM UNIT       ERCB CURVE CODE    CURVE DESCRIPTION
#-----------   ------------------   ----------------------------------
DEPT.M        00 001 00 00         : DEPTH        - DEPTH                       
ILD .OHMM     00 120 00 00         : RESD         - DEEP RESISTIVITY (DIL)      
DELT.US/F     00 520 00 00         : DELT         - SONIC TRAVEL TIME           
GR  .API      00 310 00 00         : GR           - GAMMA RAY                   
CALI.MM       00 280 01 00         : CAL          - CALIPER                     
~PARAMETER INFORMATION       
#MNEM.UNIT           DATA             DESCRIPTION OF MNEMONIC
#---------         -----------     ------------------------------
GL  .M        719.4                : gl           - GROUND LEVEL ELEVATION      
EREF.M        725.4                : kb           - ELEVATION OF DEPTH REFERENCE
DATM.M        725.4                : datum        - DATUM ELEVATION             
TDD .M        1835                 : tdd          - TOTAL DEPTH DRILLER         
RUN .         ONE                  : Run          - RUN NUMBER                  
ENG .         LOEWEN               : Engineer     - RECORDING ENGINEER          
WIT .         HALAS                : Witness      - WITNESSED BY                
MUD .         GEL                  : Mud_type     - MUD TYPE                    
MATR.         SANDSTONE            : Logunit      - NEUTRON MATRIX              
TMAX.C        52.7                 : BHT          - MAXIMUM RECORDED TEMPERATURE
BHTD.M        1835                 : BHTDEP       - MAXIMUM RECORDED TEMPERATURE
RMT .C        22.2222              : MDTP         - TEMPERATURE OF MUD          
MUDD.KG/M     1130                 : MWT          - MUD DENSITY                 
NEUT.         1                    : NEUTRON      - NEUTRON TYPE                
RESI.         0                    : RESIST       - RESISTIVITY TYPE            
RM  .OHMM     1.1                  : RM           - RESISTIVITY OF MUD          
RMC .OHMM     1.27                 : RMC          - RESISTIVITY OF MUD CAKE     
RMF .OHMM     1.1                  : RMF          - RESISTIVITY OF MUD FILTRATE 
SUFT.C        10                   : SUFT         - SURFACE TEMPERATURE         
~A  DEPTH     RESD     DELT       GR      CAL
# ...
  653.500    3.555  136.090   59.613  236.777
  653.750    3.556  136.467   59.053  236.846
  654.000    3.590  137.256   60.281  236.846
  654.250    3.659  137.837   58.219  236.460
  654.500    3.763  138.015   56.161  236.494
  654.750    3.800  138.400   55.895  236.494
  655.000    3.801  138.380   57.426  236.611
  655.250    3.803  138.363   58.658  236.652
  655.500    3.804  138.539   58.986  237.209
  655.750    3.806  137.916   57.824  237.271
  656.000    3.807  136.289   53.679  237.333
  656.250    3.809  134.661   53.712  237.381
  656.500    3.776  138.060   52.546  237.442
  656.750    3.742  140.249   53.176  237.993
  657.000    3.709  141.236   55.002  238.055
  657.250    3.643  140.212   57.130  238.606
  657.500    3.611  138.785   56.562  238.667
  657.750    3.580  136.552   56.898  238.715
  658.000    3.581  139.147   58.126  238.784
  658.250    3.649  146.765   56.665  239.342
  658.500    3.823  151.368   54.611  239.390
  658.750    4.118   36.966   55.839  244.983
  659.000    4.775   -2.657   55.270  243.536
  659.250    6.072   -7.500   47.835  241.572
  659.500    7.442    1.527   43.686  240.119
  659.750    8.791   28.041   46.407  238.672
  660.000    9.042   66.013   51.519  238.224
  660.250    8.479   87.907   53.345  238.272
  660.500    7.593  112.209   51.593  238.327
  660.750    6.676  154.403   53.718  238.389
  661.000    5.924  157.398   52.257  238.437
  661.250    5.354  155.966   48.402  239.001
  661.500    4.494  155.147   50.228  239.063
  661.750    4.062  153.118   54.443  239.118
  662.000    3.740  150.284   58.061  239.159
  662.250    3.508  146.041   58.999  239.214
  662.500    3.351  143.609   55.439  239.282
  662.750    3.171  141.577   53.978  239.840
  663.000    3.030  140.552   56.708  239.908
  663.250    2.976  140.736   52.256  240.452
  663.500    2.950  142.522   48.107  240.548
  663.750    2.951  143.909   49.633  240.576
  664.000    2.952  143.086   55.048  240.576
  664.250    2.953  141.257   55.973  240.692
  664.500    2.954  138.622   52.421  240.727
  664.750    2.956  136.391   50.065  240.781
  665.000    2.957  136.773   48.305  241.339
  665.250    2.958  137.557   52.226  241.904
  665.500    2.959  138.947   55.255  243.474
  665.750    2.961  142.545   56.474  244.018
  666.000    2.934  150.565   55.014  247.090
  666.250    2.909  158.788   57.437  254.184
  666.500    2.857  153.339   61.951  259.777
  666.750    2.806  147.088   67.365  263.855
  667.000    2.781  142.242   66.208  258.881
  667.250    2.782  139.207   62.652  253.405
  667.500    2.809  139.185   62.087  240.400
  667.750    2.863  141.982   64.514  236.425
  668.000    2.917  142.565   66.639  235.474
  668.250    2.973  143.349   69.360  236.528
  668.500    3.029  143.530   69.095  232.560
  668.750    3.059  144.113   67.634  234.626
  669.000    3.060  145.299   67.074  234.681
  669.250    3.061  146.483   67.704  236.244
  669.500    3.063  146.061   67.434  238.311
  669.750    3.064  144.835   67.770  239.874
  670.000    3.065  143.409   67.505  240.438
  670.250    3.038  142.384   68.438  240.500
  670.500    3.040  141.761   68.168  240.562
  670.750    3.041  141.136   67.309  240.603
  671.000    3.042  140.915   67.338  240.665
  671.250    3.043  141.500   68.566  240.713
  671.500    3.044  142.687   68.002  240.774
  671.750    3.045  143.471   66.844  240.822
  672.000    3.047  143.652   68.068  240.891
  672.250    3.076  143.027   68.997  241.449
  672.500    3.106  140.592   67.835  241.497
  672.750    3.136  138.965   67.570  241.551
  673.000    3.138  139.148   67.607  241.613
  673.250    3.139  140.533   68.237  241.165
  673.500    3.140  140.513   67.669  241.213
  673.750    3.141  139.692   69.503  240.765
  674.000    3.143  138.659   71.328  240.827
  674.250    3.144  139.647   73.452  240.875
  674.500    3.145  141.037   73.183  240.930
  674.750    3.176  141.218   72.025  240.991
  675.000    3.177  139.188   71.755  241.053
  675.250    3.178  139.166   75.680  240.605
  675.500    3.180  138.344   78.099  240.150
  675.750    3.181  136.717   78.729  239.702
  676.000    3.182  137.903   74.879  239.771
  676.250    3.184  138.888   72.223  239.316
  676.500    3.185  139.471   73.153  239.371
  676.750    3.186  140.255   75.584  239.433
  677.000    3.188  142.042   74.712  239.474
  677.250    3.189  142.622   72.957  239.535
  677.500    3.190  142.605   73.886  239.597
  677.750    3.162  142.982   71.525  239.652
  678.000    3.135  143.367   72.160  240.203
  678.250    3.136  143.749   76.376  240.264
  678.500    3.137  144.131   72.824  240.312
  678.750    3.109  143.508   70.766  240.374
  679.000    3.054  142.285   70.500  240.422
  679.250    3.055  140.856   74.122  240.477
  679.500    3.028  141.037   72.359  240.546
  679.750    3.030  143.030   65.525  240.600
  680.000    3.031  146.226   66.454  241.151
  680.250    3.032  149.221   69.475  241.709
  680.500    3.090  147.188   71.603  244.788
  680.750    3.120  145.159   72.528  247.350
  681.000    3.121  145.541   73.163  248.913
  681.250    3.122  147.126   70.204  248.472
  681.500    3.124  142.888   67.549  251.041
  681.750    3.125  140.856   66.690  254.616
  682.000    3.098  143.050   75.382  262.716
  682.250    3.099  149.663   82.593  274.343
  682.500    3.100  149.241   76.946  276.919
  682.750    3.101  147.814   71.896  272.441
  683.000    3.103  150.003   72.830  263.955
  683.250    3.104  146.161   71.967  261.992
  683.500    3.134  143.127   72.900  261.041
  683.750    3.135  141.702   73.829  260.097
  684.000    3.166  141.883   74.161  259.642
  684.250    3.196  141.864   74.190  259.194
  684.500    3.198  141.238   73.924  259.256
  684.750    3.199  141.221   71.866  261.322
  685.000    3.200  143.008   66.522  264.394
  685.250    3.202  143.390   67.750  277.020
  685.500    3.233  141.159   70.476  284.114
  685.750    3.264  138.725   72.600  298.255
  686.000    3.235  137.300   77.413  304.351
  686.250    3.177  141.702   81.628  303.400
  686.500    3.121  146.305   76.886  301.444
  686.750    3.151  150.705   72.135  301.492
  687.000    3.152  147.271   70.376  302.049
  687.250    3.183  144.638   75.786  298.088
  687.500    3.274  148.033   78.819  293.108
  687.750    3.336  148.819   75.259  284.615
  688.000    3.495  146.789   69.910  273.607
  688.250    3.628  144.152   67.259  267.628
  688.500    3.836  143.931   67.889  266.174
  688.750    3.982  144.112   66.134  266.236
  689.000    4.020  142.286   66.167  269.301
  689.250    4.022  141.259   66.798  273.378
  689.500    3.914  141.239   68.320  277.972
  689.750    3.844  141.018   71.050  281.044
  690.000    3.741  138.586   73.166  283.607
  690.250    3.707  133.742   79.481  284.164
  690.500    3.641  135.331   80.709  279.191
  690.750    3.643  134.708   81.336  263.155
  691.000    3.816  131.874   74.796  248.124
  691.250    4.035  132.857   70.054  244.150
  691.500    4.150  132.033   73.070  242.207
  691.750    4.114  129.802   57.867  241.752
  692.000    4.003  128.373   51.026  241.807
  692.250    3.789  130.767   55.847  241.869
  692.500    3.586  131.348   55.282  241.923
  692.750    3.333  132.132   55.315  241.978
  693.000    3.125  134.527   56.539  242.543
  693.250    2.931  141.341   57.771  242.584
  693.500    2.878  146.147   61.385  243.644
  693.750    2.880  150.951   66.202  245.718
  694.000    2.881  145.100   69.227  247.791
  694.250    2.882  139.249   68.666  249.850
  694.500    2.937  140.840   64.210  251.916
  694.750    2.965  143.031   61.853  257.502
  695.000    2.967  138.388   62.787  268.124
  695.250    2.968  119.269   60.127  278.235
  695.500    2.969  111.611   58.368  279.309
  695.750    2.970  109.378   58.704  278.352
  696.000    2.891  112.778   61.127  275.396
  696.250    2.839  120.194   66.537  268.398
  696.500    2.814  131.430   67.470  259.911
  696.750    2.764  137.443   64.516  254.435
