~VERSION INFORMATION
 VERS.                 2.0:   CWLS LOG ASCII STANDARD -VERSION 2.0
 WRAP.                  NO:   ONE LINE PER DEPTH STEP
~WELL INFORMATION BLOCK
#MNEM.UNIT           DATA                    DESCRIPTION OF MNEMONIC
#---------    -------------------            -------------------------------
# Generated from Intellog Unique Number	CN_94_101/WELL/2773
WELL.         PARAMOUNT LTD.                 : Well_name    - WELL
LOC .         00/04-23-094-21W4/0            : Location     - LOCATION
UWI .         00/04-23-094-21W4/0            : Uwi          - UNIQUE WELL ID
ENTR.         JOETTE                         : Entered      - ENTERED BY
SRVC.         COMPUTALOG                     : Scn          - SERVICE COMPANY
DATE.         07/03/92                       : Date         - LOG DATE
STRT.M        175                            : top_depth    - START DEPTH
STOP.M        350                            : bot_depth    - STOP DEPTH
STEP.M        0.25                           : increment    - STEP LENGTH
 NULL. -999.2500:NULL Value
~CURVE INFORMATION BLOCK
#MNEM UNIT       ERCB CURVE CODE    CURVE DESCRIPTION
#-----------   ------------------   ----------------------------------
DEPT.M        00 001 00 00         : DEPTH        - DEPTH
CALI.MM       00 280 01 00         : CAL          - CALIPER
GR  .API      00 310 00 00         : GR           - GAMMA RAY
NPHI.V/V      00 330 00 00         : PHIN         - NEUTRON POROSITY (SANDSTONE)
DPHI.V/V      00 890 00 00         : PHID         - DENSITY POROSITY (SANDSTONE)
ILD .OHMM     00 120 00 00         : RESD         - DEEP RESISTIVITY (DIL)
~PARAMETER INFORMATION
#MNEM.UNIT           DATA             DESCRIPTION OF MNEMONIC
#---------         -----------     ------------------------------
GL  .M        662.1                : gl           - GROUND LEVEL ELEVATION
EREF.M        665.5                : kb           - ELEVATION OF DEPTH REFERENCE
DATM.M        665.5                : datum        - DATUM ELEVATION
TDD .M        354.5                : tdd          - TOTAL DEPTH DRILLER
RUN .         ONE                  : Run          - RUN NUMBER
ENG .         JO                   : Engineer     - RECORDING ENGINEER
WIT .         TIM                  : Witness      - WITNESSED BY
MUD .         GEL                  : Mud_type     - MUD TYPE
MATR.         SANDSTONE            : Logunit      - NEUTRON MATRIX
TMAX.C        25                   : BHT          - MAXIMUM RECORDED TEMPERATURE
BHTD.M        354.5                : BHTDEP       - MAXIMUM RECORDED TEMPERATURE
RMT .C        7.8                  : MDTP         - TEMPERATURE OF MUD
MUDD.KG/M     1050                 : MWT          - MUD DENSITY
NEUT.         1                    : NEUTRON      - NEUTRON TYPE
RESI.         0                    : RESIST       - RESISTIVITY TYPE
RM  .OHMM     3.2                  : RM           - RESISTIVITY OF MUD
RMC .OHMM     3.2                  : RMC          - RESISTIVITY OF MUD CAKE
RMF .OHMM     3.2                  : RMF          - RESISTIVITY OF MUD FILTRATE
SUFT.C        4                    : SUFT         - SURFACE TEMPERATURE
~A  DEPTH      CAL       GR     PHIN     PHID     RESD
  175.000  166.449  126.068    0.392    0.219    4.386
  175.250  168.436  120.164    0.396    0.253    5.012
  175.500  174.392  118.998    0.403    0.261    5.107
  175.750  178.360  122.567    0.412    0.251    5.105
  176.000  176.424  127.324    0.423    0.247    4.816
  176.250  171.515  129.704    0.436    0.248    4.724
  176.500  165.641  130.910    0.442    0.244    4.543
  176.750  163.684  132.112    0.435    0.190    4.455
  177.000  163.713  130.354    0.427    0.165    4.452
  177.250  169.669  122.678    0.417    0.171    4.714
  177.500  169.699  117.962    0.402    0.217    4.804
  177.750  168.734  123.306    0.408    0.245    5.184
  178.000  172.725  128.655    0.417    0.251    5.382
  178.250  175.706  132.811    0.417    0.249    5.382
  178.500  175.743  136.384    0.415    0.247    5.276
  178.750  170.841  132.847    0.418    0.246    5.174
  179.000  165.939  128.726    0.426    0.247    4.881
  179.250  167.949  125.785    0.433    0.247    4.788
  179.500  169.937  124.023    0.438    0.250    4.694
  179.750  175.892  125.816    0.440    0.248    4.692
  180.000  177.887  127.610    0.439    0.244    4.689
  180.250  176.938  125.857    0.432    0.214    4.778
  180.500  171.050  122.915    0.429    0.184    4.962
  180.750  166.141  118.795    0.430    0.133    5.254
  181.000  161.239  115.850    0.425    0.126    5.670
  181.250  163.241  112.904    0.442    0.179    6.003
  181.500  169.189  112.926    0.447    0.211    6.355
  181.750  176.131  119.454    0.421    0.230    6.599
  182.000  178.133  124.798    0.425    0.237    6.469
  182.250  175.211  125.412    0.432    0.242    6.345
  182.500  177.214  124.838    0.437    0.243    6.222
  182.750  180.203  129.591    0.437    0.246    6.100
  183.000  181.226  130.200    0.444    0.248    6.098
  183.250  179.269  128.438    0.446    0.257    5.979
  183.500  175.360  127.277    0.432    0.260    5.975
  183.750  176.369  130.846    0.436    0.257    5.972
  184.000  178.379  133.227    0.431    0.247    5.857
  184.250  178.416  130.882    0.402    0.239    5.743
  184.500  176.459  126.161    0.392    0.239    5.525
  184.750  171.564  123.219    0.400    0.244    5.737
  185.000  177.512  119.095    0.411    0.247    5.959
  185.250  182.466  122.668    0.419    0.250    6.189
  185.500  184.476  132.159    0.429    0.253    6.186
  185.750  182.533  134.540    0.435    0.254    6.183
  186.000  180.583  135.741    0.440    0.249    6.062
  186.250  176.667  132.800    0.438    0.241    5.944
  186.500  174.732  128.084    0.403    0.222    5.828
  186.750  173.790  123.959    0.395    0.214    5.826
  187.000  173.805  117.467    0.327    0.219    6.534
  187.250  173.835  102.689    0.288    0.271   10.348
  187.500  171.899   61.276    0.271    0.292   23.591
  187.750  169.956   32.888    0.265    0.323   32.052
  188.000  168.006   37.048    0.282    0.341   35.257
  188.250  164.091   30.556    0.302    0.270   39.528
  188.500  164.120   35.905    0.319    0.281   40.284
  188.750  168.103   37.694    0.326    0.289   41.049
  189.000  171.092   35.940    0.334    0.289   38.726
  189.250  172.100   34.187    0.367    0.290   36.547
  189.500  172.130   34.788    0.383    0.297   34.491
  189.750  168.215   37.765    0.406    0.314   32.547
  190.000  164.299   39.558    0.401    0.310   30.709
  190.250  164.329   39.576    0.364    0.309   30.115
  190.500  169.290   37.819    0.350    0.319   28.968
  190.750  172.279   43.759    0.361    0.347   27.331
  191.000  177.248   56.209    0.368    0.356   24.820
  191.250  182.225   60.365    0.354    0.256   22.112
  191.500  183.233   63.342    0.330    0.247   18.597
  191.750  184.250   69.278    0.325    0.244   16.253
  192.000  181.320   77.582    0.334    0.241   15.046
  192.250  179.377   87.660    0.348    0.238   13.404
  192.500  179.415  100.707    0.365    0.237   11.941
  192.750  180.416  103.087    0.375    0.236    6.338
  193.000  181.447  102.513    0.384    0.236    6.095
  193.250  181.469  100.169    0.399    0.239    6.211
  193.500  180.505   98.411    0.390    0.242    6.329
  193.750  177.591   99.021    0.366    0.251    6.573
  194.000  175.641  101.401    0.355    0.260    6.959
  194.250  171.733  102.603    0.363    0.266    7.367
  194.500  169.775  101.437    0.381    0.220    7.651
  194.750  170.791   95.537    0.382    0.129    7.795
  195.000  173.780   82.535    0.358    0.169    7.792
  195.250  171.837   79.594    0.364    0.214    7.786
  195.500  166.942   92.632    0.397    0.249    7.637
  195.750  175.857   97.384    0.396    0.257    7.488
  196.000  174.900  104.512    0.383    0.256    6.931
  196.250  170.985  108.668    0.375    0.252    6.540
  196.500  171.014  112.242    0.378    0.245    6.292
  196.750  175.976  109.892    0.386    0.218    5.936
  197.000  176.992  107.538    0.394    0.182    5.934
  197.250  176.043  104.005    0.397    0.182    6.046
  197.500  174.085   77.984    0.389    0.214    6.160
  197.750  166.232   66.753    0.383    0.261    6.908
  198.000  162.316   60.853    0.365    0.347    7.455
  198.250  170.229   59.095    0.353    0.374    8.044
  198.500  189.015   76.876    0.339    0.294    8.042
  198.750  190.016   82.216    0.319    0.262    8.194
  199.000  181.168   87.560    0.324    0.262    8.349
  199.250  170.348   89.950    0.373    0.345    8.345
  199.500  170.386   89.963    0.384    0.387    8.341
  199.750  177.313   91.756    0.375    0.304    8.337
  200.000  183.275   92.958    0.377    0.260    8.657
  200.250  180.346   86.466    0.380    0.286    9.898
  200.500  176.423   71.689    0.336    0.294   11.757
  200.750  172.507   63.426    0.333    0.300   13.183
  201.000  171.558   66.398    0.339    0.289   13.688
  201.250  174.547   71.742    0.353    0.286   13.685
  201.500  175.556   71.764    0.365    0.285   13.677
  201.750  171.640   70.007    0.384    0.292   14.480
  202.000  166.746   66.474    0.358    0.300   15.929
  202.250  171.707   61.161    0.331    0.301   16.866
  202.500  174.696   48.751    0.316    0.250   18.555
  202.750  169.787   50.544    0.308    0.254   19.642
  203.000  163.906   55.893    0.316    0.286   19.633
  203.250  162.949   59.462    0.330    0.318   19.253
  203.500  164.945   61.255    0.343    0.322   18.878
  203.750  169.921   63.645    0.351    0.302   18.157
  204.000  169.936   64.851    0.345    0.306   18.497
  204.250  170.959   64.864    0.339    0.339   19.216
  204.500  170.003   64.286    0.334    0.378   19.957
  204.750  171.012   60.753    0.335    0.418   21.129
  205.000  174.994   53.077    0.340    0.430   22.803
  205.250  181.936   43.034    0.346    0.422   23.683
  205.500  171.108   41.873    0.344    0.415   24.597
  205.750  175.084   43.662    0.334    0.419   25.061
  206.000  181.032   46.047    0.321    0.433   25.534
  206.250  184.020   46.065    0.313    0.386   25.522
  206.500  178.132   44.904    0.310    0.345   25.510
  206.750  171.257   43.146    0.313    0.378   25.007
  207.000  178.199   41.980    0.334    0.423   24.523
  207.250  184.147   41.998    0.384    0.526   24.046
  207.500  188.115   44.975    0.403    0.530   23.578
  207.750  193.076   46.764    0.372    0.483   23.121
  208.000  197.051   45.598    0.371    0.462   22.671
  208.250  208.925   42.065    0.369    0.437   21.808
  208.500  217.832   49.189    0.343    0.432   20.974
  208.750  230.684   50.391    0.357    0.517   19.045
  209.000  226.769   46.858    0.370    0.597   17.632
  209.250  207.071   43.325    0.378    0.346   17.965
  209.500  170.606   45.710    0.385    0.314   18.304
  209.750  155.841   61.115    0.390    0.291   16.944
  210.000  159.824   83.029    0.390    0.253   14.251
  210.250  168.731   95.484    0.386    0.234   11.758
  210.500  175.657  107.334    0.388    0.231   10.081
  210.750  181.613  110.311    0.395    0.232    8.160
  211.000  182.636  116.247    0.418    0.234    6.996
  211.250  181.665  116.861    0.434    0.238    6.114
