~VERSION INFORMATION
 VERS.                 2.0:   CWLS LOG ASCII STANDARD -VERSION 2.0
 WRAP.                  NO:   ONE LINE PER DEPTH STEP
~WELL INFORMATION BLOCK
#MNEM.UNIT           DATA                    DESCRIPTION OF MNEMONIC
#---------    -------------------            -------------------------------
# Generated from Intellog Unique Number	CC_80_83/WELL/1049
WELL.         GULF PONY                      : Well_name    - WELL
LOC .         00/04-15-081-09W4/0            : Location     - LOCATION
UWI .         00/04-15-081-09W400            : Uwi          - UNIQUE WELL ID
ENTR.         DW                             : Entered      - ENTERED BY
SRVC.         SCHLUMBERGER                   : Scn          - SERVICE COMPANY
STRT.M        243.84                         : top_depth    - START DEPTH
STOP.M        487.34                         : bot_depth    - STOP DEPTH
STEP.M        0.25                           : increment    - STEP LENGTH
 NULL. -999.2500:NULL Value
~CURVE INFORMATION BLOCK
#MNEM UNIT       ERCB CURVE CODE    CURVE DESCRIPTION
#-----------   ------------------   ----------------------------------
DEPT.M        00 001 00 00         : DEPTH        - DEPTH
GR  .API      00 310 00 00         : GR           - GAMMA RAY
DPHI.V/V      00 890 00 00         : PHID         - DENSITY POROSITY (SANDSTONE)
NPHI.V/V      00 330 00 00         : PHIN         - NEUTRON POROSITY (SANDSTONE)
ILD .OHMM     00 120 00 00         : RESD         - DEEP RESISTIVITY (DIL)
~PARAMETER INFORMATION
#MNEM.UNIT           DATA             DESCRIPTION OF MNEMONIC
#---------         -----------     ------------------------------
GL  .M        701.528              : gl           - GROUND LEVEL ELEVATION
EREF.M        705.338              : kb           - ELEVATION OF DEPTH REFERENCE
DATM.M        705.338              : datum        - DATUM ELEVATION
TDD .M        489.204              : tdd          - TOTAL DEPTH DRILLER
RUN .         ONE                  : Run          - RUN NUMBER
ENG .         BILL                 : Engineer     - RECORDING ENGINEER
WIT .         JIM                  : Witness      - WITNESSED BY
MUD .         GEL                  : Mud_type     - MUD TYPE
MATR.         SANDSTONE            : Logunit      - NEUTRON MATRIX
TMAX.C        23.8889              : BHT          - MAXIMUM RECORDED TEMPERATURE
BHTD.M        487.68               : BHTDEP       - MAXIMUM RECORDED TEMPERATURE
MATR.         1                    : LOGUNIT      - NEUTRON MATRIX
RMT .C        25                   : MDTP         - TEMPERATURE OF MUD
NEUT.         1                    : NEUTRON      - NEUTRON TYPE
RESI.         0                    : RESIST       - RESISTIVITY TYPE
RMC .OHMM     0.25                 : RMC          - RESISTIVITY OF MUD CAKE
RMF .OHMM     0.25                 : RMF          - RESISTIVITY OF MUD FILTRATE
SUFT.C        4                    : SUFT         - SURFACE TEMPERATURE
~A  DEPTH       GR     PHID     PHIN     RESD
# ...
  461.340   88.640    0.224    0.382   20.662
  461.590   85.282    0.240    0.393   22.056
  461.840   81.056    0.259    0.413   23.878
  462.090   77.766    0.282    0.405   25.203
  462.340   77.922    0.296    0.393   24.776
  462.590   81.954    0.279    0.378   25.168
  462.840   86.013    0.256    0.377   28.462
  463.090   82.598    0.256    0.407   36.003
  463.340   75.504    0.288    0.438   46.447
  463.590   77.564    0.322    0.433   55.608
  463.840   81.990    0.315    0.437   62.114
  464.090   91.231    0.307    0.429   67.675
  464.340  103.748    0.300    0.427   59.328
  464.590  118.568    0.276    0.433   36.566
  464.840  134.495    0.237    0.422   19.351
  465.090  142.967    0.198    0.411   16.874
  465.340  144.635    0.183    0.405   14.073
  465.590  145.876    0.184    0.403   11.353
  465.840  147.990    0.176    0.406   10.575
  466.090  146.542    0.169    0.414    9.977
  466.340  140.721    0.178    0.417    9.681
  466.590  138.031    0.164    0.422    9.429
  466.840  134.158    0.155    0.430    9.996
  467.090  121.656    0.168    0.440   10.697
  467.340  108.049    0.189    0.443   11.557
  467.590  102.713    0.208    0.430   12.816
  467.840  101.935    0.220    0.401   13.015
  468.090  117.435    0.194    0.389   12.513
  468.340  128.909    0.177    0.409   11.695
  468.590  130.182    0.177    0.430   10.706
  468.840  128.196    0.169    0.438   10.075
  469.090  121.677    0.160    0.448   10.296
  469.340  110.998    0.173    0.453   10.861
  469.590  107.053    0.208    0.451   12.185
  469.840  103.308    0.226    0.426   13.570
  470.090   95.609    0.232    0.425   14.844
  470.340   85.793    0.260    0.470   16.201
  470.590   74.243    0.291    0.476   17.434
  470.840   74.595    0.303    0.450   19.927
  471.090   74.232    0.290    0.439   22.478
  471.340   66.281    0.298    0.439   23.516
  471.590   57.144    0.329    0.427   20.937
  471.840   53.348    0.338    0.424   15.042
  472.090   54.967    0.353    0.471   11.435
  472.340   59.702    0.340    0.478    9.518
  472.590   62.205    0.316    0.422    8.186
  472.840   61.669    0.297    0.386    7.190
  473.090   60.575    0.291    0.408    6.494
  473.340   59.058    0.311    0.419    6.010
  473.590   57.318    0.326    0.430    5.687
  473.840   57.297    0.321    0.425    5.658
  474.090   57.830    0.314    0.407    5.839
  474.340   58.742    0.313    0.389    5.968
  474.590   60.824    0.307    0.379    5.944
  474.840   61.006    0.300    0.377    5.933
  475.090   58.846    0.287    0.403    5.943
  475.340   56.087    0.299    0.421    5.881
  475.590   53.840    0.318    0.419    5.774
  475.840   51.835    0.315    0.412    5.678
  476.090   51.415    0.308    0.402    5.585
  476.340   56.666    0.290    0.386    5.623
  476.590   61.896    0.267    0.372    5.956
  476.840   69.963    0.230    0.356    6.566
  477.090   79.524    0.195    0.338    7.322
  477.340   73.595    0.144    0.322    8.502
  477.590   45.426    0.013    0.281   10.860
  477.840   39.275   -0.001    0.152   15.092
  478.090   42.697    0.017    0.110   26.028
  478.340   44.967    0.006    0.143   45.792
  478.590   49.216   -0.001    0.150   59.582
  478.840   51.552   -0.000    0.163   53.739
  479.090   52.579    0.000    0.170   50.209
  479.340   53.725    0.000    0.172   46.832
  479.590   53.961    0.000    0.173   46.932
  479.840   53.201    0.000    0.165   50.282
  480.090   49.757   -0.000    0.141   55.049
  480.340   41.344   -0.000    0.117   67.469
  480.590   39.209    0.000    0.112   79.426
  480.840   42.176   -0.000    0.117   91.089
  481.090   47.333   -0.000    0.123   99.539
  481.340   51.473    0.000    0.129  102.593
  481.590   44.331    0.000    0.130  102.069
  481.840   19.318   -0.000    0.128   96.121
  482.090    8.767    0.000    0.127   89.417
  482.340    7.976   -0.001    0.129   80.516
  482.590    6.428    0.002    0.133   74.050
  482.840    6.172    0.014    0.140   73.677
  483.090    6.168    0.020    0.151   72.367
  483.340    6.568    0.008    0.157   71.700
  483.590    7.446    0.000    0.161   67.056
  483.840    8.538    0.000    0.167   60.321
  484.090    9.473    0.002    0.173   55.330
  484.340   12.492    0.006    0.173   51.197
  484.590   22.625    0.011    0.171   47.184
  484.840   36.035    0.015    0.170   45.569
  485.090   42.101    0.018    0.169   46.623
  485.340   41.576    0.018    0.168   51.683
  485.590   41.177    0.014    0.168   60.688
  485.840   41.178    0.008    0.169   70.664
  486.090   42.868    0.002    0.169   81.752
  486.340   46.483    0.000    0.169   89.045
  486.590   54.841   -0.000    0.167   92.052
  486.840   75.545    0.000    0.163   92.430
  487.090  101.036   -0.000    0.149   90.585
  487.340  104.007   -0.000    0.122   87.701
