~VERSION INFORMATION
 VERS.                 2.0:   CWLS LOG ASCII STANDARD -VERSION 2.0
 WRAP.                  NO:   ONE LINE PER DEPTH STEP
~WELL INFORMATION BLOCK
#MNEM.UNIT           DATA                    DESCRIPTION OF MNEMONIC
#---------    -------------------            -------------------------------
# Generated from Intellog Unique Number	CW_76_78/WELL/416
WELL.         RR CHIEFCO PELICAN 06-03       : Well_name    - WELL
LOC .         00/06-03-077-22W4/0            : Location     - LOCATION
UWI .         00/06-03-077-22W4/0            : Uwi          - UNIQUE WELL ID
ENTR.         os                             : Entered      - ENTERED BY
SRVC.         SCHLUMBERGER                   : Scn          - SERVICE COMPANY
DATE.         25 JAN 1974                    : Date         - LOG DATE
STRT.M        438.912                        : top_depth    - START DEPTH
STOP.M        661.412                        : bot_depth    - STOP DEPTH
STEP.M        0.25                           : increment    - STEP LENGTH
 NULL. -999.2500:NULL Value
~CURVE INFORMATION BLOCK
#MNEM UNIT       ERCB CURVE CODE    CURVE DESCRIPTION
#-----------   ------------------   ----------------------------------
DEPT.M        00 001 00 00         : DEPTH        - DEPTH
ILD .OHMM     00 120 00 00         : RESD         - DEEP RESISTIVITY (DIL)
NPHI.V/V      00 330 00 00         : PHIN         - NEUTRON POROSITY (SANDSTONE)
DPHI.V/V      00 890 00 00         : PHID         - DENSITY POROSITY (SANDSTONE)
GR  .API      00 310 00 00         : GR           - GAMMA RAY
CALI.MM       00 280 01 00         : CAL          - CALIPER
~PARAMETER INFORMATION
#MNEM.UNIT           DATA             DESCRIPTION OF MNEMONIC
#---------         -----------     ------------------------------
GL  .M        756.94               : gl           - GROUND LEVEL ELEVATION
EREF.M        760.293              : kb           - ELEVATION OF DEPTH REFERENCE
DATM.M        756.94               : datum        - DATUM ELEVATION
TDD .M        675.742              : tdd          - TOTAL DEPTH DRILLER
RUN .         ONE                  : Run          - RUN NUMBER
ENG .         SIROIS & SMILEY      : Engineer     - RECORDING ENGINEER
WIT .         TAHMAZIAN            : Witness      - WITNESSED BY
BASE.         EDMONTON             : Branch       - HOME BASE OF LOGGING UNIT
MUD .         GEL CHEM             : Mud_type     - MUD TYPE
MATR.         SANDSTONE            : Logunit      - NEUTRON MATRIX
TMAX.C        28.8889              : BHT          - MAXIMUM RECORDED TEMPERATURE
BHTD.M        675.742              : BHTDEP       - MAXIMUM RECORDED TEMPERATURE
RMT .C        8.88889              : MDTP         - TEMPERATURE OF MUD
MUDD.KG/M     1080                 : MWT          - MUD DENSITY
NEUT.         1                    : NEUTRON      - NEUTRON TYPE
RESI.         0                    : RESIST       - RESISTIVITY TYPE
RM  .OHMM     4.42                 : RM           - RESISTIVITY OF MUD
RMC .OHMM     2.5                  : RMC          - RESISTIVITY OF MUD CAKE
RMF .OHMM     4.8                  : RMF          - RESISTIVITY OF MUD FILTRATE
SUFT.C        4.5                  : SUFT         - SURFACE TEMPERATURE
~A  DEPTH     RESD     PHIN     PHID       GR      CAL
# ...
  584.912    6.016    0.437    0.243   95.522  157.326
  585.162    7.180    0.425    0.216   92.596  160.805
  585.412    8.978    0.413    0.147   83.592  164.174
  585.662   13.777    0.380    0.120   73.608  167.115
  585.912   17.682    0.252    0.065   67.738  170.176
  586.162   18.770    0.222    0.036   64.935  170.523
  586.412   15.270    0.224    0.043   65.019  169.420
  586.662   12.239    0.243    0.048   72.597  169.253
  586.912   10.239    0.265    0.068   79.249  169.598
  587.162    8.439    0.298    0.095   87.316  169.119
  587.412    7.112    0.363    0.142   96.796  168.435
  587.662    6.591    0.409    0.181  101.119  167.119
  587.912    6.447    0.419    0.171  103.779  164.139
  588.162    6.484    0.430    0.166  106.812  163.451
  588.412    6.365    0.437    0.181  105.056  163.905
  588.662    6.180    0.447    0.190  104.034  166.965
  588.912    5.989    0.454    0.166  107.066  168.667
  589.162    5.868    0.443    0.155  108.135  167.462
  589.412    5.859    0.433    0.176  106.314  165.625
  589.662    5.859    0.446    0.180  104.004  163.684
  589.912    5.993    0.463    0.187  107.159  163.518
  590.162    6.141    0.461    0.195  103.314  162.104
  590.412    6.327    0.439    0.198  102.908  163.598
  590.662    6.593    0.420    0.205  102.683  164.891
  590.912    6.768    0.420    0.201  100.500  165.242
  591.162    6.820    0.417    0.182  100.952  166.945
  591.412    6.847    0.415    0.177  101.405  167.706
  591.662    6.697    0.414    0.160  100.814  168.056
  591.912    6.382    0.416    0.149  101.144  166.641
  592.162    6.149    0.422    0.169  100.550  165.428
  592.412    6.015    0.435    0.187  101.309  166.931
  592.662    5.938    0.434    0.176  103.236  167.482
  592.912    5.797    0.433    0.184  104.431  167.313
  593.162    5.639    0.436    0.176  107.212  165.381
  593.412    5.629    0.436    0.177  106.560  163.551
  593.662    5.683    0.434    0.175  105.356  161.401
  593.912    5.716    0.440    0.186  104.830  160.401
  594.162    5.727    0.443    0.185  103.684  162.416
  594.412    5.644    0.440    0.174  104.504  162.977
  594.662    5.634    0.443    0.158  106.799  166.758
  594.912    5.709    0.439    0.180  105.660  167.112
  595.162    5.764    0.430    0.193  105.985  163.611
  595.412    5.765    0.417    0.203  109.447  164.585
  595.662    5.787    0.425    0.192  115.428  167.224
  595.912    5.714    0.426    0.179  119.813  168.830
  596.162    5.599    0.417    0.180  117.317  168.967
  596.412    5.456    0.416    0.172  114.514  168.490
  596.662    5.436    0.432    0.170  114.846  166.866
  596.912    5.509    0.442    0.159  113.760  166.491
  597.162    5.561    0.447    0.161  111.696  168.607
  597.412    5.511    0.450    0.171  113.503  169.059
  597.662    5.430    0.459    0.168  116.901  171.288
  597.912    5.301    0.462    0.176  112.995  171.842
  598.162    5.166    0.454    0.175  111.607  171.464
  598.412    4.978    0.449    0.171  112.674  172.024
  598.662    4.762    0.445    0.183  117.669  171.647
  598.912    4.631    0.437    0.204  115.485  170.333
  599.162    4.615    0.438    0.165  111.084  169.753
  599.412    4.659    0.444    0.142  110.370  170.101
  599.662    4.739    0.444    0.156  112.296  171.078
  599.912    4.784    0.448    0.170  110.542  171.641
  600.162    4.811    0.453    0.177  111.672  171.890
  600.412    4.921    0.431    0.163  113.593  171.197
  600.662    5.108    0.422    0.167  111.839  170.400
  600.912    5.363    0.431    0.185  109.529  169.196
  601.162    5.567    0.422    0.166  107.585  167.156
  601.412    5.758    0.412    0.182  104.537  165.321
  601.662    5.867    0.417    0.197  102.905  162.974
  601.912    6.012    0.415    0.195  102.619  161.559
  602.162    6.024    0.409    0.205   97.239  161.592
  602.412    6.014    0.406    0.194   93.395  161.946
  602.662    5.948    0.394    0.180   91.513  161.357
  602.912    5.785    0.393    0.156   95.228  160.978
  603.162    5.523    0.407    0.162  100.525  162.477
  603.412    5.273    0.412    0.176  107.485  164.287
  603.662    5.187    0.421    0.163  112.789  167.232
  603.912    5.445    0.429    0.171  114.348  170.188
  604.162    5.988    0.422    0.160  116.949  172.096
  604.412    6.524    0.406    0.151  118.694  171.935
  604.662    7.215    0.416    0.142  116.014  169.994
  604.912    7.631    0.394    0.138  106.642  166.389
  605.162    7.675    0.361    0.140   98.744  162.893
  605.412    7.591    0.339    0.133   96.251  163.034
  605.662    7.383    0.358    0.143  103.890  164.427
  605.912    6.984    0.371    0.160  107.289  165.300
  606.162    6.895    0.373    0.168  109.584  165.667
  606.412    7.012    0.372    0.154  112.676  165.895
  606.662    6.821    0.370    0.129  117.430  166.766
  606.912    6.646    0.372    0.141  118.434  168.266
  607.162    6.489    0.394    0.159  116.060  169.446
  607.412    6.526    0.401    0.171  118.909  170.106
  607.662    6.625    0.400    0.175  116.967  169.107
  607.912    6.865    0.390    0.172  111.280  167.594
  608.162    7.233    0.376    0.178  111.495  166.701
  608.412    8.427    0.390    0.191  111.022  166.422
  608.662    9.477    0.413    0.174  108.649  166.454
  608.912   10.345    0.409    0.159  104.311  166.092
  609.162   10.760    0.363    0.136   96.044  166.014
  609.412   10.583    0.272    0.090   86.676  167.205
  609.662   10.123    0.320    0.044   82.522  168.696
  609.912    9.700    0.348    0.087   88.074  169.251
  610.162    9.090    0.366    0.110   93.742  167.313
  610.412    8.792    0.376    0.158   95.736  165.692
  610.662    8.489    0.356    0.147   98.396  166.456
  610.912    7.955    0.343    0.126   98.604  169.198
  611.162    7.468    0.369    0.111   97.400  170.490
  611.412    7.012    0.381    0.138  102.948  169.381
  611.662    6.707    0.385    0.175  103.766  168.495
  611.912    6.355    0.405    0.177  105.450  168.634
  612.162    5.934    0.425    0.151  112.472  170.653
  612.412    5.665    0.439    0.143  116.303  172.984
  612.662    5.687    0.435    0.136  115.157  173.947
  612.912    5.784    0.431    0.141  115.303  173.886
  613.162    5.850    0.427    0.142  117.483  173.195
  613.412    5.884    0.428    0.154  116.211  173.336
  613.662    5.885    0.422    0.149  114.270  173.379
  613.912    5.692    0.417    0.164  115.772  172.704
  614.162    5.715    0.419    0.156  116.033  172.005
  614.412    5.801    0.412    0.144  109.243  172.034
  614.662    5.846    0.402    0.128  107.730  172.389
  614.912    5.825    0.396    0.144  111.071  172.849
  615.162    5.645    0.405    0.145  113.423  174.030
  615.412    5.319    0.406    0.154  114.985  173.445
  615.662    5.088    0.405    0.155  115.501  172.339
  615.912    4.777    0.402    0.153  117.058  171.439
  616.162    4.655    0.407    0.157  119.721  170.342
  616.412    4.502    0.421    0.148  120.787  170.171
  616.662    4.180    0.429    0.152  119.764  170.629
  616.912    3.484    0.419    0.148  113.464  170.970
  617.162    2.792    0.417    0.148  110.662  171.017
  617.412    2.367    0.437    0.140  111.306  169.391
  617.662    1.848    0.462    0.169  113.600  167.034
  617.912    1.578    0.528    0.222  116.386  163.641
  618.162    1.716    0.560    0.254  117.570  161.399
  618.412    2.095    0.575    0.249  111.883  162.269
  618.662    2.514    0.542    0.231  106.995  163.452
  618.912    3.554    0.506    0.215  101.675  163.073
  619.162    4.997    0.397    0.209   93.902  163.737
  619.412    8.109    0.356    0.201   79.556  165.032
  619.662   10.027    0.345    0.191   77.491  165.373
  619.912   10.428    0.346    0.196   75.917  166.248
  620.162    9.593    0.332    0.197   74.959  165.761
  620.412    8.565    0.323    0.219   75.601  166.217
  620.662    7.138    0.331    0.242   76.973  167.094
  620.912    6.016    0.360    0.267   81.971  167.131
  621.162    5.233    0.370    0.242   89.237  167.482
