~VERSION INFORMATION
 VERS.                 2.0:   CWLS LOG ASCII STANDARD -VERSION 2.0
 WRAP.                  NO:   ONE LINE PER DEPTH STEP
~WELL INFORMATION BLOCK
#MNEM.UNIT           DATA                    DESCRIPTION OF MNEMONIC
#---------    -------------------            -------------------------------
# Generated from Intellog Unique Number	CS_71_72/WELL/810
WELL.         BVI ET AL CHARRON              : Well_name    - WELL
LOC .         00/07-12-071-15W4/0            : Location     - LOCATION
UWI .         00/07-12-071-15W4/0            : Uwi          - UNIQUE WELL ID
ENTR.         SP                             : Entered      - ENTERED BY
SRVC.         SCHLUMBERGER                   : Scn          - SERVICE COMPANY
STRT.M        305                            : top_depth    - START DEPTH
STOP.M        510                            : bot_depth    - STOP DEPTH
STEP.M        0.25                           : increment    - STEP LENGTH
 NULL. -999.2500:NULL Value
~CURVE INFORMATION BLOCK
#MNEM UNIT       ERCB CURVE CODE    CURVE DESCRIPTION
#-----------   ------------------   ----------------------------------
DEPT.M        00 001 00 00         : DEPTH        - DEPTH
ILD .OHMM     00 120 00 00         : RESD         - DEEP RESISTIVITY (DIL)
DPHI.V/V      00 890 00 00         : PHID         - DENSITY POROSITY (LIMESTONE)
NPHI.V/V      00 330 00 00         : PHIN         - NEUTRON POROSITY (LIMESTONE)
GR  .API      00 310 00 00         : GR           - GAMMA RAY
~PARAMETER INFORMATION
#MNEM.UNIT           DATA             DESCRIPTION OF MNEMONIC
#---------         -----------     ------------------------------
GL  .M        618.3                : gl           - GROUND LEVEL ELEVATION
EREF.M        621.8                : kb           - ELEVATION OF DEPTH REFERENCE
DATM.M        618.3                : datum        - DATUM ELEVATION
TDD .M        517                  : tdd          - TOTAL DEPTH DRILLER
RUN .         ONE                  : Run          - RUN NUMBER
ENG .         BILL                 : Engineer     - RECORDING ENGINEER
WIT .         JIM                  : Witness      - WITNESSED BY
MUD .         GEL                  : Mud_type     - MUD TYPE
MATR.         LIMESTONE            : Logunit      - NEUTRON MATRIX
TMAX.C        27                   : BHT          - MAXIMUM RECORDED TEMPERATURE
BHTD.M        517                  : BHTDEP       - MAXIMUM RECORDED TEMPERATURE
MATR.         1                    : LOGUNIT      - NEUTRON MATRIX
RMT .C        25                   : MDTP         - TEMPERATURE OF MUD
NEUT.         1                    : NEUTRON      - NEUTRON TYPE
RESI.         0                    : RESIST       - RESISTIVITY TYPE
RMC .OHMM     0.25                 : RMC          - RESISTIVITY OF MUD CAKE
RMF .OHMM     0.25                 : RMF          - RESISTIVITY OF MUD FILTRATE
SUFT.C        15                   : SUFT         - SURFACE TEMPERATURE
~A  DEPTH     RESD     PHID     PHIN       GR
# ...
  392.000    3.410    0.253    0.484   84.702
  392.250    3.527    0.270    0.489   81.505
  392.500    3.669    0.283    0.486   83.081
  392.750    3.745    0.304    0.476   84.718
  393.000    3.669    0.335    0.459   85.328
  393.250    3.874    0.338    0.446   83.399
  393.500    3.940    0.319    0.447   70.532
  393.750    4.060    0.308    0.453   67.213
  394.000    4.286    0.300    0.460   67.338
  394.250    4.359    0.304    0.472   68.432
  394.500    4.230    0.313    0.468   68.739
  394.750    4.097    0.234    0.328   59.920
  395.000    4.359    0.176    0.303   51.525
  395.250    4.989    0.225    0.374   52.135
  395.500    6.031    0.283    0.417   60.541
  395.750    7.414    0.306    0.450   67.073
  396.000    9.131    0.266    0.471   71.853
  396.250   11.079    0.147    0.451   71.435
  396.500   12.446    0.096    0.219   65.820
  396.750   13.191    0.057    0.201   61.474
  397.000   11.522    0.050    0.189   57.552
  397.250    8.389    0.043    0.179   55.501
  397.500    6.028    0.063    0.171   60.160
  397.750    4.986    0.129    0.211   65.122
  398.000    4.203    0.196    0.275   70.748
  398.250    3.790    0.267    0.390   74.742
  398.500    3.748    0.302    0.432   68.824
  398.750    3.783    0.311    0.445   66.231
  399.000    3.825    0.313    0.454   66.235
  399.250    3.920    0.317    0.461   67.087
  399.500    4.009    0.323    0.470   66.850
  399.750    4.100    0.332    0.470   66.674
  400.000    4.146    0.338    0.459   64.746
  400.250    4.053    0.332    0.450   62.455
  400.500    4.008    0.321    0.463   61.614
  400.750    4.053    0.311    0.473   63.190
  401.000    4.114    0.309    0.470   66.581
  401.250    4.192    0.317    0.470   68.519
  401.500    4.271    0.323    0.471   71.305
  401.750    4.344    0.315    0.458   76.266
  402.000    4.434    0.300    0.433   82.315
  402.250    4.501    0.275    0.424   87.034
  402.500    4.569    0.263    0.423   88.007
  402.750    4.664    0.256    0.436   87.106
  403.000    4.672    0.262    0.441   84.936
  403.250    4.663    0.252    0.446   86.451
  403.500    4.637    0.231    0.469   88.995
  403.750    4.585    0.232    0.477   89.604
  404.000    4.499    0.246    0.479   90.517
  404.250    4.382    0.244    0.466   93.362
  404.500    4.244    0.241    0.449   96.389
  404.750    4.165    0.262    0.462   93.554
  405.000    4.072    0.286    0.470   88.483
  405.250    4.026    0.300    0.425   83.956
  405.500    3.981    0.291    0.407   80.636
  405.750    3.958    0.281    0.416   77.136
  406.000    3.943    0.269    0.438   71.582
  406.250    3.935    0.272    0.465   72.555
  406.500    3.958    0.269    0.452   74.372
  406.750    4.040    0.268    0.456   75.465
  407.000    4.124    0.277    0.467   76.076
  407.250    4.346    0.291    0.463   76.262
  407.500    4.521    0.285    0.466   76.389
  407.750    4.615    0.269    0.455   75.910
  408.000    4.615    0.255    0.434   74.406
  408.250    4.597    0.245    0.431   73.745
  408.500    4.597    0.255    0.431   75.986
  408.750    4.571    0.251    0.451   79.557
  409.000    4.579    0.258    0.470   84.036
  409.250    4.596    0.254    0.475   86.397
  409.500    4.596    0.245    0.457   85.738
  409.750    4.674    0.246    0.442   83.931
  410.000    4.682    0.251    0.445   83.511
  410.250    4.726    0.254    0.462   83.820
  410.500    4.780    0.256    0.472   84.974
  410.750    4.879    0.254    0.476   86.187
  411.000    4.981    0.246    0.465   85.104
  411.250    5.103    0.238    0.449   85.775
  411.500    5.200    0.226    0.436   85.659
  411.750    5.219    0.213    0.426   84.213
  412.000    5.248    0.204    0.430   83.373
  412.250    5.248    0.194    0.439   84.466
  412.500    5.248    0.204    0.453   85.198
  412.750    5.228    0.208    0.443   85.020
  413.000    5.149    0.203    0.435   83.877
  413.250    5.072    0.203    0.429   85.817
  413.500    5.034    0.211    0.423   89.026
  413.750    4.959    0.216    0.439   91.267
  414.000    4.912    0.222    0.444   93.993
  414.250    4.875    0.226    0.449   93.695
  414.500    4.875    0.229    0.457   90.316
  414.750    4.930    0.224    0.453   88.266
  415.000    4.939    0.211    0.439   86.035
  415.250    4.911    0.215    0.424   87.068
  415.500    4.801    0.252    0.419   84.837
  415.750    4.738    0.274    0.421   82.365
  416.000    4.641    0.280    0.425   78.744
  416.250    4.615    0.270    0.428   76.392
  416.500    4.571    0.266    0.429   75.913
  416.750    4.537    0.262    0.420   77.853
  417.000    4.520    0.260    0.420   79.672
  417.250    4.502    0.265    0.428   80.765
  417.500    4.519    0.273    0.435   80.528
  417.750    4.527    0.284    0.441   82.770
  418.000    4.502    0.284    0.448   79.511
  418.250    4.183    0.282    0.441   78.126
  418.500    3.801    0.282    0.438   79.642
  418.750    3.364    0.275    0.439   82.186
  419.000    2.804    0.279    0.451   85.334
  419.250    2.440    0.286    0.440   88.966
  419.500    2.255    0.264    0.433   93.867
  419.750    2.092    0.249    0.506   97.800
  420.000    1.992    0.277    0.601  101.433
  420.250    1.936    0.280    0.601  101.920
  420.500    1.973    0.268    0.588  100.173
  420.750    2.143    0.282    0.581   96.371
  421.000    2.453    0.271    0.582   95.530
  421.250    2.771    0.261    0.572   96.925
  421.500    3.202    0.254    0.533   97.233
  421.750    3.679    0.250    0.483   96.694
  422.000    4.219    0.252    0.475   95.249
  422.250    4.548    0.247    0.480   78.755
  422.500    4.704    0.234    0.468   74.227
  422.750    4.686    0.231    0.443   80.276
  423.000    4.513    0.246    0.432   86.447
  423.250    4.258    0.253    0.436   91.226
  423.500    4.178    0.243    0.440   93.165
  423.750    4.093    0.243    0.444   91.842
  424.000    4.054    0.250    0.449   91.725
  424.250    4.031    0.254    0.453   92.155
  424.500    4.008    0.259    0.453   91.615
  424.750    4.008    0.261    0.461   87.995
  425.000    4.031    0.267    0.472   82.197
  425.250    4.030    0.256    0.456   78.698
  425.500    3.985    0.250    0.429   76.950
  425.750    3.918    0.267    0.437   75.868
  426.000    3.745    0.278    0.432   76.538
  426.250    3.593    0.276    0.426   77.329
  426.500    3.526    0.310    0.433   75.098
  426.750    3.422    0.333    0.444   67.548
  427.000    3.308    0.345    0.446   57.763
  427.250    3.198    0.355    0.435   53.478
  427.500    3.115    0.348    0.425   51.730
  427.750    3.045    0.344    0.426   53.609
  428.000    2.977    0.349    0.421   55.428
  428.250    2.922    0.348    0.416   56.097
  428.500    2.867    0.340    0.412   55.619
  428.750    2.867    0.333    0.409   54.476
  429.000    2.867    0.334    0.416   53.696
  429.250    2.883    0.339    0.426   54.487
  429.500    2.893    0.344    0.430   56.729
  429.750    2.899    0.347    0.434   57.701
  430.000    2.920    0.342    0.443   57.827
  430.250    2.937    0.333    0.447   57.711
  430.500    2.953    0.322    0.439   59.046
  430.750    2.947    0.320    0.433   60.260
  431.000    2.953    0.336    0.425   62.565
  431.250    2.953    0.342    0.420   63.596
  431.500    2.952    0.340    0.413   64.325
  431.750    2.952    0.339    0.428   64.755
  432.000    2.947    0.340    0.440   64.577
  432.250    2.985    0.343    0.442   64.584
  432.500    3.002    0.335    0.447   65.011
  432.750    3.059    0.339    0.458   66.346
  433.000    3.134    0.346    0.459   68.164
  433.250    3.230    0.340    0.458   71.011
  433.500    3.328    0.307    0.453   74.462
  433.750    3.449    0.248    0.433   77.852
  434.000    3.507    0.220    0.418   80.031
  434.250    3.540    0.221    0.431   82.999
  434.500    3.580    0.223    0.446   86.087
  434.750    3.634    0.218    0.457   87.179
  435.000    3.696    0.245    0.468   85.794
  435.250    3.737    0.262    0.457   81.690
