~VERSION INFORMATION
 VERS.                 2.0:   CWLS LOG ASCII STANDARD -VERSION 2.0
 WRAP.                  NO:   ONE LINE PER DEPTH STEP
~WELL INFORMATION BLOCK
#MNEM.UNIT           DATA                    DESCRIPTION OF MNEMONIC
#---------    -------------------            -------------------------------
# Generated from Intellog Unique Number	CW_76_78/WELL/200
WELL.         AMOCO UN-TEX MARTEN HILLS DD-1 : Well_name    - WELL
LOC .         00/06-30-076-02W5/0            : Location     - LOCATION
UWI .         00/06-30-076-02W5/0            : Uwi          - UNIQUE WELL ID
ENTR.         JJ                             : Entered      - ENTERED BY
SRVC.         SCHLUMBERGER                   : Scn          - SERVICE COMPANY
DATE.         22 MAR 72                      : Date         - LOG DATE
STRT.M        670.56                         : top_depth    - START DEPTH
STOP.M        804.56                         : bot_depth    - STOP DEPTH
STEP.M        0.25                           : increment    - STEP LENGTH
 NULL. -999.2500:NULL Value
~CURVE INFORMATION BLOCK
#MNEM UNIT       ERCB CURVE CODE    CURVE DESCRIPTION
#-----------   ------------------   ----------------------------------
DEPT.M        00 001 00 00         : DEPTH        - DEPTH
DELT.US/F     00 520 00 00         : DELT         - SONIC TRAVEL TIME
GR  .API      00 310 00 00         : GR           - GAMMA RAY
CALI.MM       00 280 01 00         : CAL          - CALIPER
ILD .OHMM     00 120 00 00         : RESD         - DEEP RESISTIVITY (DIL)
~PARAMETER INFORMATION
#MNEM.UNIT           DATA             DESCRIPTION OF MNEMONIC
#---------         -----------     ------------------------------
GL  .M        886.054              : gl           - GROUND LEVEL ELEVATION
EREF.M        889.711              : kb           - ELEVATION OF DEPTH REFERENCE
DATM.M        889.711              : datum        - DATUM ELEVATION
TDD .M        804.062              : tdd          - TOTAL DEPTH DRILLER
RUN .         ONE                  : Run          - RUN NUMBER
ENG .         ANDERSON             : Engineer     - RECORDING ENGINEER
WIT .         DESAULNIERS          : Witness      - WITNESSED BY
BASE.         EDM                  : Branch       - HOME BASE OF LOGGING UNIT
MUD .         GEL                  : Mud_type     - MUD TYPE
MATR.         SANDSTONE            : Logunit      - NEUTRON MATRIX
TMAX.C        30                   : BHT          - MAXIMUM RECORDED TEMPERATURE
BHTD.M        802.843              : BHTDEP       - MAXIMUM RECORDED TEMPERATURE
RMT .C        10                   : MDTP         - TEMPERATURE OF MUD
MUDD.KG/M     1128                 : MWT          - MUD DENSITY
NEUT.         1                    : NEUTRON      - NEUTRON TYPE
RESI.         0                    : RESIST       - RESISTIVITY TYPE
RM  .OHMM     6.68                 : RM           - RESISTIVITY OF MUD
RMC .OHMM     13.5                 : RMC          - RESISTIVITY OF MUD CAKE
RMF .OHMM     3.48                 : RMF          - RESISTIVITY OF MUD FILTRATE
SUFT.C        5                    : SUFT         - SURFACE TEMPERATURE
~A  DEPTH     DELT       GR      CAL     RESD
# ...
  714.060  380.876   68.495  231.857    4.636
  714.310  381.743   69.930  228.255    4.878
  714.560  388.524   73.653  226.091    5.121
  714.810  387.771   74.964  225.437    5.481
  715.060  383.301   70.907  225.006    5.840
  715.310  371.740   65.644  225.892    6.356
  715.560  380.675   63.269  228.316    6.912
  715.810  383.494   60.598  230.736    7.467
  716.060  374.208   59.261  227.347    8.219
  716.310  366.350   57.853  224.257    8.970
  716.560  368.777   54.041  220.347   10.507
  716.810  300.216   50.530  215.103   11.611
  717.060  280.715   46.894  207.413   12.284
  717.310  222.105   44.946  204.637   11.977
  717.560  199.025   44.197  206.654   10.181
  717.810  212.314   49.319  211.727    9.443
  718.060  311.119   52.550  220.180    8.156
  718.310  342.175   56.095  224.942    7.379
  718.560  375.777   58.670  222.884    7.269
  718.810  375.405   59.926  225.605    7.431
  719.060  365.013   59.965  227.514    7.635
  719.310  355.140   59.347  221.480    7.523
  719.560  347.423   57.701  223.683    6.943
  719.810  339.630   60.943  229.067    6.243
  720.060  333.988   64.722  232.111    5.623
  720.310  345.924   69.662  232.380    5.238
  720.560  366.761   71.691  232.063    4.931
  720.810  376.090   73.368  231.613    4.742
  721.060  379.231   73.467  230.777    4.630
  721.310  376.515   69.229  230.329    4.519
  721.560  374.071   66.615  231.033    4.448
  721.810  372.524   66.423  232.119    4.259
  722.060  373.723   67.191  235.153    4.109
  722.310  377.119   70.435  236.149    4.037
  722.560  380.067   73.907  235.610    4.045
  722.810  383.078   78.537  234.984    4.169
  723.060  386.028   75.571  234.351    4.411
  723.310  388.335   70.666  234.210    4.614
  723.560  390.179   69.750  233.559    4.817
  723.810  387.330   70.698  232.912    4.981
  724.060  381.561   72.242  232.169    5.144
  724.310  374.558   71.444  231.936    5.347
  724.560  368.915   69.016  231.818    5.510
  724.810  382.081   67.183  231.471    5.831
  725.060  400.579   62.342  225.520    6.112
  725.310  403.202   55.452  217.221    6.628
  725.560  396.911   60.983  222.199    8.203
  725.810  410.730   72.852  224.728   10.406
  726.060  404.823   75.428  224.800   11.667
  726.310  379.337   70.465  224.465   12.379
  726.560  363.743   60.615  224.945   13.327
  726.810  355.890   57.643  225.633   13.844
  727.060  346.279   58.415  226.522   14.127
  727.310  335.818   60.401  227.722   14.092
  727.560  322.307   61.393  229.024   12.649
  727.810  313.155   62.828  230.117   11.558
  728.060  328.658   64.923  231.314   12.270
  728.310  345.142   66.957  231.092   12.670
  728.560  353.493   68.576  231.267   12.676
  728.810  334.055   69.052  232.046   12.252
  729.060  305.837   68.420  234.372   11.906
  729.310  277.224   65.020  235.063   11.443
  729.560  290.327   65.424  232.280   10.900
  729.810  346.439   69.038  229.906   10.397
  730.060  362.272   70.947  229.776    9.895
  730.310  342.966   72.499  231.893    9.588
  730.560  317.802   71.752  233.077    9.359
  730.810  280.794   65.643  231.925    8.699
  731.060  297.998   70.278  230.268    8.275
  731.310  345.976   73.573  229.540    8.125
  731.560  358.295   74.226  229.000    8.209
  731.810  352.263   73.119  228.677    8.414
  732.060  349.938   70.995  228.440    8.459
  732.310  341.959   70.674  228.497    8.388
  732.560  338.268   71.566  229.088    8.238
  732.810  333.667   73.776  229.878    7.695
  733.060  331.869   75.571  230.357    7.232
  733.310  349.781   74.047  230.838    6.847
  733.560  366.918   72.823  231.010    6.657
  733.810  360.886   74.681  230.170    6.625
  734.060  360.509   76.287  227.700    6.631
  734.310  364.045   76.640  225.212    6.678
  734.560  367.128   74.207  224.974    6.724
  734.810  367.540   72.439  227.604    6.809
  735.060  360.923   75.379  230.042    6.894
  735.310  360.880   74.213  231.031    7.058
  735.560  361.026   73.600  231.199    7.262
  735.810  341.980   75.513  231.386    7.385
  736.060  332.303   71.274  231.756    7.235
  736.310  336.624   65.160  231.833    7.086
  736.560  350.631   69.677  232.625    7.092
  736.810  360.023   72.547  233.517    7.178
  737.060  369.414   73.743  234.092    7.183
  737.310  372.228   71.555  234.268    7.191
  737.560  363.925   72.076  234.750    7.197
  737.810  345.074   70.252  234.628    7.165
  738.060  321.540   68.726  233.077    7.132
  738.310  330.605   71.127  231.398    6.943
  738.560  347.282   79.670  228.513    6.755
  738.810  361.621   78.877  228.178    6.643
  739.060  363.004   75.599  230.093    6.730
  739.310  361.203   79.023  234.247    6.931
  739.560  363.957   80.873  236.366    7.371
  739.810  368.921   82.968  234.199    7.768
  740.060  368.093   85.434  230.095    8.207
  740.310  358.358   83.415  228.318    8.685
  740.560  341.849   77.732  227.786    9.122
  740.810  324.368   73.252  228.053    9.481
  741.060  319.897   68.590  231.610    9.175
  741.310  339.179   66.041  235.666    8.594
  741.560  359.828   67.238  239.207    8.091
  741.810  316.315   64.745  238.973    7.666
  742.060  312.036   63.395  237.212    7.164
  742.310  343.881   75.083  236.058    6.740
  742.560  360.039   80.915  235.733    6.510
  742.810  366.042   79.093  235.594    6.243
  743.060  367.429   74.670  235.679    6.132
  743.310  367.318   73.929  236.165    6.138
  743.560  367.733   78.316  236.531    6.422
  743.810  369.705   74.258  237.734    6.622
  744.060  368.361   77.685  239.233    6.903
  744.310  361.476   81.225  239.830    7.263
  744.560  358.317   82.716  239.701    7.545
  744.810  367.506   81.490  238.035    7.865
  745.060  364.473   81.838  235.461    8.226
  745.310  355.510   80.622  233.788    8.663
  745.560  346.813   76.379  234.271    9.023
  745.810  356.260   73.528  235.464    9.069
  746.060  362.926   70.861  235.436    8.801
  746.310  373.945   68.070  232.669    9.163
  746.560  385.418   65.633  230.891    9.402
  746.810  396.174   70.447  229.847    9.606
  747.060  403.873   70.488  229.317    9.495
  747.310  391.008   68.176  229.383    9.385
  747.560  375.217   65.206  229.552    9.195
  747.810  346.087   61.992  229.623    8.888
  748.060  310.508   59.984  230.009    8.620
  748.310  303.831   60.997  229.583    8.235
  748.560  327.798   63.819  229.441    8.046
  748.810  355.931   67.233  233.903    8.327
  749.060  374.366   65.960  233.781    9.354
  749.310  376.727   63.286  231.709   10.183
  749.560  371.217   61.093  229.029   11.131
  749.810  357.377   61.380  228.277   12.353
  750.060  386.224   63.471  230.598   13.262
  750.310  406.095   67.135  232.012   14.249
  750.560  419.059   66.274  230.658   14.922
  750.810  288.676   58.663  229.706   15.635
  751.060  264.360   51.283  228.852   16.622
  751.310  310.518   50.668  228.739   17.295
  751.560  422.139   56.679  228.707   18.321
  751.810  397.432   62.273  228.877   19.348
  752.060  425.239   57.913  229.558   22.338
  752.310  437.485   50.056  230.760   23.896
  752.560  412.851   48.111  232.066   22.727
  752.810  299.446   49.183  232.043   20.000
  753.060  263.352   47.110  231.602   16.494
  753.310  275.151   54.038  230.859   16.761
  753.560  281.485   60.112  228.681   15.239
  753.810  316.579   64.130  225.381   14.934
  754.060  323.108   63.337  222.610   15.135
  754.310  348.115   61.081  222.585   15.535
  754.560  368.565   60.161  223.667   15.698
  754.810  360.065   61.651  224.982   15.156
  755.060  349.218   62.669  225.035   12.418
  755.310  341.685   59.869  222.981   10.817
  755.560  346.978   55.516  220.799   10.079
  755.810  340.491   53.506  217.910    8.753
  756.060  332.445   53.976  217.985    7.623
  756.310  334.484   55.885  222.557    7.042
  756.560  353.505   58.112  226.503    6.970
  756.810  353.130   58.873  229.543    7.094
  757.060  344.174   60.064  232.076    7.376
  757.310  361.373   62.574  233.572    7.813
