~VERSION INFORMATION
 VERS.                 2.0:   CWLS LOG ASCII STANDARD -VERSION 2.0
 WRAP.                  NO:   ONE LINE PER DEPTH STEP
~WELL INFORMATION BLOCK
#MNEM.UNIT           DATA                    DESCRIPTION OF MNEMONIC
#---------    -------------------            -------------------------------
# Generated from Intellog Unique Number	CS_67_68/WELL/769
WELL.         FISHER CREEK                   : Well_name    - WELL
LOC .         00/07-08-068-05W4/0            : Location     - LOCATION
UWI .         00/07-08-068-05W4/0            : Uwi          - UNIQUE WELL ID
ENTR.         SP                             : Entered      - ENTERED BY
SRVC.         SCHLUMBERGER                   : Scn          - SERVICE COMPANY
STRT.M        350                            : top_depth    - START DEPTH
STOP.M        560                            : bot_depth    - STOP DEPTH
STEP.M        0.25                           : increment    - STEP LENGTH
 NULL. -999.2500:NULL Value
~CURVE INFORMATION BLOCK
#MNEM UNIT       ERCB CURVE CODE    CURVE DESCRIPTION
#-----------   ------------------   ----------------------------------
DEPT.M        00 001 00 00         : DEPTH        - DEPTH
ILD .OHMM     00 120 00 00         : RESD         - DEEP RESISTIVITY (DIL)
DPHI.V/V      00 890 00 00         : PHID         - DENSITY POROSITY (LIMESTONE)
NPHI.V/V      00 330 00 00         : PHIN         - NEUTRON POROSITY (LIMESTONE)
GR  .API      00 310 00 00         : GR           - GAMMA RAY
~PARAMETER INFORMATION
#MNEM.UNIT           DATA             DESCRIPTION OF MNEMONIC
#---------         -----------     ------------------------------
GL  .M        690.6                : gl           - GROUND LEVEL ELEVATION
EREF.M        694.1                : kb           - ELEVATION OF DEPTH REFERENCE
DATM.M        690.6                : datum        - DATUM ELEVATION
TDD .M        570                  : tdd          - TOTAL DEPTH DRILLER
RUN .         ONE                  : Run          - RUN NUMBER
ENG .         BILL                 : Engineer     - RECORDING ENGINEER
WIT .         JIM                  : Witness      - WITNESSED BY
MUD .         GEL                  : Mud_type     - MUD TYPE
MATR.         LIMESTONE            : Logunit      - NEUTRON MATRIX
TMAX.C        25                   : BHT          - MAXIMUM RECORDED TEMPERATURE
BHTD.M        570                  : BHTDEP       - MAXIMUM RECORDED TEMPERATURE
MATR.         1                    : LOGUNIT      - NEUTRON MATRIX
RMT .C        25                   : MDTP         - TEMPERATURE OF MUD
NEUT.         1                    : NEUTRON      - NEUTRON TYPE
RESI.         0                    : RESIST       - RESISTIVITY TYPE
RMC .OHMM     0.25                 : RMC          - RESISTIVITY OF MUD CAKE
RMF .OHMM     0.25                 : RMF          - RESISTIVITY OF MUD FILTRATE
SUFT.C        15                   : SUFT         - SURFACE TEMPERATURE
~A  DEPTH     RESD     PHID     PHIN       GR
# ...
  437.000    6.627    0.320    0.448   84.510
  437.250    6.553    0.318    0.449   83.984
  437.500    6.529    0.315    0.449   86.056
  437.750    6.554    0.304    0.453   89.698
  438.000    6.616    0.298    0.456   93.403
  438.250    6.741    0.290    0.473   91.186
  438.500    6.804    0.289    0.470   92.290
  438.750    6.641    0.294    0.478   96.416
  439.000    6.231    0.295    0.474   98.791
  439.250    5.643    0.272    0.470   98.870
  439.500    5.091    0.234    0.469  100.640
  439.750    4.777    0.213    0.475  101.987
  440.000    4.653    0.249    0.493   97.171
  440.250    4.645    0.281    0.496   92.416
  440.500    4.831    0.282    0.475   94.367
  440.750    4.941    0.264    0.490   97.588
  441.000    5.178    0.251    0.514   98.392
  441.250    5.498    0.258    0.526   94.663
  441.500    5.740    0.261    0.506   93.293
  441.750    5.893    0.253    0.475   93.070
  442.000    5.960    0.246    0.453   94.054
  442.250    6.038    0.238    0.465   95.826
  442.500    6.061    0.242    0.456   98.137
  442.750    6.084    0.235    0.451   99.424
  443.000    6.061    0.227    0.448   98.958
  443.250    5.960    0.231    0.448   98.919
  443.500    5.817    0.239    0.461  100.262
  443.750    5.500    0.246    0.474  103.664
  444.000    5.209    0.240    0.487  105.615
  444.250    4.934    0.241    0.494  101.407
  444.500    4.682    0.249    0.494  101.422
  444.750    4.552    0.252    0.507  109.778
  445.000    4.410    0.242    0.516  117.833
  445.250    4.288    0.240    0.456  104.802
  445.500    4.193    0.240    0.422   99.501
  445.750    4.185    0.235    0.417   96.076
  446.000    4.320    0.233    0.429   94.401
  446.250    4.709    0.230    0.443   95.025
  446.500    5.095    0.226    0.453   97.884
  446.750    5.240    0.208    0.461   98.806
  447.000    5.240    0.230    0.458   97.918
  447.250    5.029    0.243    0.450   96.485
  447.500    4.790    0.248    0.440   94.388
  447.750    4.562    0.244    0.435   90.484
  448.000    4.453    0.244    0.433   87.778
  448.250    4.321    0.249    0.449   95.893
  448.500    4.226    0.258    0.481  101.650
  448.750    4.101    0.265    0.494   98.711
  449.000    3.987    0.275    0.508   93.411
  449.250    3.988    0.294    0.523   87.936
  449.500    4.101    0.317    0.517   85.174
  449.750    4.298    0.333    0.490   83.497
  450.000    4.624    0.345    0.475   81.881
  450.250    5.116    0.329    0.470   78.577
  450.500    5.566    0.155    0.233   72.069
  450.750    6.286    0.039    0.191   51.426
  451.000    7.454    0.002    0.192   44.073
  451.250    9.527    0.006    0.279   53.273
  451.500   10.800    0.043    0.343   60.362
  451.750    9.928    0.237    0.403   64.429
  452.000    7.441    0.317    0.428   66.801
  452.250    6.056    0.339    0.446   68.993
  452.500    5.362    0.348    0.455   70.281
  452.750    5.070    0.350    0.466   70.902
  453.000    5.051    0.344    0.459   70.195
  453.250    5.214    0.343    0.448   70.518
  453.500    5.323    0.349    0.459   71.198
  453.750    5.485    0.354    0.482   71.880
  454.000    5.568    0.349    0.476   70.267
  454.250    5.578    0.346    0.458   67.809
  454.500    5.578    0.348    0.458   67.284
  454.750    5.558    0.348    0.471   66.877
  455.000    5.579    0.343    0.471   66.354
  455.250    5.631    0.323    0.464   66.070
  455.500    5.935    0.259    0.453   60.649
  455.750    6.591    0.123    0.293   54.686
  456.000    7.642    0.052    0.274   50.595
  456.250    8.778    0.055    0.292   56.534
  456.500    9.550    0.121    0.327   64.527
  456.750    9.356    0.293    0.382   69.500
  457.000    7.671    0.340    0.417   69.758
  457.250    6.326    0.361    0.433   69.898
  457.500    5.728    0.340    0.433   73.299
  457.750    5.446    0.326    0.440   71.262
  458.000    5.446    0.317    0.428   68.260
  458.250    5.539    0.311    0.421   70.937
  458.500    5.697    0.314    0.427   73.069
  458.750    5.805    0.325    0.436   75.444
  459.000    5.970    0.338    0.443   77.818
  459.250    6.004    0.347    0.451   79.106
  459.500    5.740    0.341    0.456   78.944
  459.750    5.571    0.266    0.457   77.570
  460.000    5.603    0.242    0.458   74.809
  460.250    5.882    0.231    0.383   71.990
  460.500    6.050    0.261    0.399   71.884
  460.750    5.927    0.291    0.433   72.144
  461.000    5.645    0.331    0.447   72.947
  461.250    5.448    0.329    0.454   79.068
  461.500    5.551    0.319    0.467   82.409
  461.750    5.656    0.317    0.483   83.816
  462.000    5.807    0.321    0.495   82.263
  462.250    5.972    0.323    0.469   76.544
  462.500    6.040    0.322    0.451   74.203
  462.750    6.097    0.318    0.449   76.275
  463.000    5.984    0.313    0.457   79.013
  463.250    5.511    0.309    0.463   79.452
  463.500    5.328    0.321    0.471   77.961
  463.750    5.369    0.329    0.469   80.153
  464.000    5.522    0.336    0.459   84.220
  464.250    5.616    0.339    0.453   85.688
  464.500    5.722    0.335    0.459   85.586
  464.750    5.907    0.330    0.465   86.871
  465.000    6.053    0.325    0.468   88.642
  465.250    6.087    0.320    0.457   89.326
  465.500    6.008    0.312    0.452   89.343
  465.750    5.787    0.294    0.461   91.596
  466.000    5.020    0.273    0.464   96.632
  466.250    4.322    0.254    0.460   99.849
  466.500    3.611    0.248    0.460  102.887
  466.750    3.028    0.254    0.470  105.382
  467.000    2.742    0.262    0.490  107.818
  467.250    2.544    0.271    0.513  109.407
  467.500    2.405    0.278    0.529  107.731
  467.750    2.365    0.282    0.536  101.227
  468.000    2.321    0.273    0.526   96.230
  468.250    2.326    0.269    0.517   96.186
  468.500    2.352    0.266    0.515  100.012
  468.750    2.428    0.280    0.516  100.814
  469.000    2.521    0.294    0.521   98.174
  469.250    2.632    0.299    0.550   96.499
  469.500    2.795    0.283    0.550  100.389
  469.750    2.962    0.271    0.534  103.248
  470.000    3.115    0.266    0.525  104.953
  470.250    3.192    0.271    0.516  106.299
  470.500    3.277    0.281    0.510  105.229
  470.750    3.327    0.296    0.516   94.255
  471.000    3.506    0.315    0.476   86.720
  471.250    4.142    0.331    0.427   82.143
  471.500    4.757    0.350    0.433   77.631
  471.750    5.274    0.332    0.447   77.891
  472.000    5.506    0.314    0.464   80.386
  472.250    5.444    0.303    0.483   81.491
  472.500    5.042    0.294    0.502   81.811
  472.750    4.803    0.275    0.486   82.554
  473.000    4.696    0.251    0.466   83.176
  473.250    4.644    0.253    0.467   80.597
  473.500    4.653    0.268    0.472   80.616
  473.750    4.723    0.284    0.457   83.472
  474.000    4.858    0.279    0.446   84.760
  474.250    5.129    0.271    0.450   84.480
  474.500    5.365    0.276    0.457   84.734
  474.750    5.549    0.282    0.463   85.356
  475.000    5.739    0.283    0.466   83.320
  475.250    5.870    0.284    0.464   82.856
  475.500    5.970    0.283    0.453   86.865
  475.750    5.970    0.278    0.441   89.356
  476.000    5.870    0.271    0.455   90.402
  476.250    5.665    0.260    0.469   89.694
  476.500    5.498    0.249    0.483   89.772
  476.750    5.227    0.244    0.475   90.035
  477.000    4.988    0.244    0.450   89.388
  477.250    4.841    0.247    0.458   87.352
  477.500    4.743    0.250    0.474   85.374
  477.750    4.672    0.259    0.487   84.303
  478.000    4.699    0.263    0.502   88.551
  478.250    4.906    0.266    0.530   92.376
  478.500    5.170    0.278    0.528   91.004
  478.750    5.367    0.270    0.481   86.493
  479.000    5.520    0.237    0.453   83.850
  479.250    5.459    0.218    0.453   88.762
  479.500    5.229    0.237    0.465   93.554
  479.750    5.151    0.245    0.475   94.176
  480.000    5.190    0.248    0.484   92.079
  480.250    5.742    0.246    0.480   92.220
