~VERSION INFORMATION
 VERS.                 2.0:   CWLS LOG ASCII STANDARD -VERSION 2.0
 WRAP.                  NO:   ONE LINE PER DEPTH STEP
~WELL INFORMATION BLOCK
#MNEM.UNIT           DATA                    DESCRIPTION OF MNEMONIC
#---------    -------------------            -------------------------------
# Generated from Intellog Unique Number	CW_79_81/WELL/2452
WELL.         GULF AMOCO HOOLE               : Well_name    - WELL
LOC .         00/06-20-081-24W4/0            : Location     - LOCATION
UWI .         00/06-20-081-24W4/0            : Uwi          - UNIQUE WELL ID
ENTR.         MAX                            : Entered      - ENTERED BY
SRVC.         COMPUTALOG                     : Scn          - SERVICE COMPANY
STRT.M        210                            : top_depth    - START DEPTH
STOP.M        474.75                         : bot_depth    - STOP DEPTH
STEP.M        0.25                           : increment    - STEP LENGTH
 NULL. -999.2500:NULL Value
~CURVE INFORMATION BLOCK
#MNEM UNIT       ERCB CURVE CODE    CURVE DESCRIPTION
#-----------   ------------------   ----------------------------------
DEPT.M        00 001 00 00         : DEPTH        - DEPTH
ILD .OHMM     00 120 00 00         : RESD         - DEEP RESISTIVITY (DIL)
NPHI.V/V      00 330 00 00         : PHIN         - NEUTRON POROSITY (SANDSTONE)
DPHI.V/V      00 890 00 00         : PHID         - DENSITY POROSITY (SANDSTONE)
GR  .API      00 310 00 00         : GR           - GAMMA RAY
CALI.MM       00 280 01 00         : CAL          - CALIPER
~PARAMETER INFORMATION
#MNEM.UNIT           DATA             DESCRIPTION OF MNEMONIC
#---------         -----------     ------------------------------
GL  .M        599.05               : gl           - GROUND LEVEL ELEVATION
EREF.M        603.3                : kb           - ELEVATION OF DEPTH REFERENCE
DATM.M        599.05               : datum        - DATUM ELEVATION
TDD .M        487                  : tdd          - TOTAL DEPTH DRILLER
RUN .         ONE                  : Run          - RUN NUMBER
ENG .         BILL                 : Engineer     - RECORDING ENGINEER
WIT .         JIM                  : Witness      - WITNESSED BY
MUD .         GEL                  : Mud_type     - MUD TYPE
MATR.         SANDSTONE            : Logunit      - NEUTRON MATRIX
TMAX.C        24                   : BHT          - MAXIMUM RECORDED TEMPERATURE
BHTD.M        487                  : BHTDEP       - MAXIMUM RECORDED TEMPERATURE
MATR.         1                    : LOGUNIT      - NEUTRON MATRIX
RMT .C        17.8                 : MDTP         - TEMPERATURE OF MUD
NEUT.         1                    : NEUTRON      - NEUTRON TYPE
RESI.         0                    : RESIST       - RESISTIVITY TYPE
RMC .OHMM     5                    : RMC          - RESISTIVITY OF MUD CAKE
RMF .OHMM     5.8                  : RMF          - RESISTIVITY OF MUD FILTRATE
SUFT.C        -20                  : SUFT         - SURFACE TEMPERATURE
~A  DEPTH     RESD     PHIN     PHID       GR      CAL
# ...
  283.000   14.604    0.397    0.349   50.231  221.385
  283.250   14.103    0.402    0.336   50.766  221.411
  283.500   14.216    0.387    0.324   49.784  221.433
  283.750   14.754    0.385    0.329   48.122  221.455
  284.000   15.480    0.389    0.333   48.078  221.478
  284.250   16.133    0.396    0.336   48.930  221.702
  284.500   16.533    0.403    0.339   50.020  222.125
  284.750   16.662    0.403    0.342   50.654  222.548
  285.000   16.667    0.397    0.344   50.170  222.572
  285.250   16.672    0.399    0.345   50.187  222.599
  285.500   16.678    0.402    0.348   50.201  222.322
  285.750   16.684    0.402    0.350   49.975  222.146
  286.000   16.688    0.401    0.352   49.510  221.972
  286.250   16.669    0.405    0.350   48.799  221.201
  286.500   16.545    0.405    0.349   47.569  221.228
  286.750   16.551    0.416    0.349   46.386  221.648
  287.000   16.465    0.417    0.351   47.000  221.771
  287.250   16.348    0.409    0.352   48.570  221.796
  287.500   16.262    0.398    0.352   50.018  221.821
  287.750   16.294    0.393    0.353   49.685  221.848
  288.000   16.425    0.399    0.354   47.955  221.875
  288.250   16.430    0.406    0.356   47.011  221.896
  288.500   16.435    0.410    0.357   46.965  221.918
  288.750   16.440    0.415    0.357   47.699  221.940
  289.000   16.323    0.418    0.358   48.671  221.765
  289.250   15.731    0.416    0.362   48.974  220.830
  289.500   15.144    0.419    0.362   49.239  220.026
  289.750   14.488    0.427    0.360   51.167  218.852
  290.000   14.099    0.426    0.359   51.660  216.783
  290.250   13.949    0.419    0.358   51.554  215.611
  290.500   13.978    0.408    0.359   51.449  215.632
  290.750   14.130    0.403    0.359   51.556  215.745
  291.000   14.354    0.408    0.360   50.823  216.187
  291.250   14.466    0.430    0.361   48.445  217.008
  291.500   14.578    0.446    0.360   47.142  217.830
  291.750   14.690    0.454    0.359   46.916  218.453
  292.000   14.857    0.449    0.360   47.469  218.876
  292.250   15.244    0.423    0.365   48.207  219.384
  292.500   15.488    0.400    0.367   48.220  219.821
  292.750   15.491    0.396    0.361   48.711  219.843
  293.000   15.668    0.394    0.356   48.845  219.866
  293.250   15.848    0.397    0.354   48.262  220.089
  293.500   15.941    0.404    0.351   47.260  220.611
  293.750   15.971    0.409    0.348   46.649  221.437
  294.000   16.100    0.407    0.347   45.915  221.462
  294.250   16.225    0.401    0.342   44.733  221.087
  294.500   16.260    0.390    0.337   44.271  220.712
  294.750   16.265    0.386    0.333   44.167  220.337
  295.000   16.270    0.389    0.330   44.300  219.863
  295.250   16.301    0.397    0.330   44.894  219.016
  295.500   16.433    0.399    0.335   45.404  218.623
  295.750   16.438    0.400    0.344   45.660  218.646
  296.000   16.534    0.407    0.354   45.554  218.668
  296.250   16.784    0.401    0.358   44.132  218.692
  296.500   17.073    0.378    0.341   40.975  218.716
  296.750   16.973    0.349    0.284   35.859  218.658
  297.000   16.465    0.349    0.277   34.130  218.269
  297.250   15.517    0.372    0.297   37.253  218.291
  297.500   14.048    0.398    0.313   44.863  218.316
  297.750   12.878    0.417    0.320   49.783  218.339
  298.000   12.103    0.424    0.318   50.397  218.362
  298.250   11.483    0.421    0.321   50.701  218.393
  298.500   11.399    0.420    0.322   50.965  218.418
  298.750   11.829    0.414    0.316   50.261  218.439
  299.000   12.748    0.385    0.308   51.712  218.464
  299.250   13.935    0.344    0.290   51.248  218.687
  299.500   15.188    0.306    0.261   48.332  219.008
  299.750   16.496    0.281    0.202   46.104  219.037
  300.000   17.151    0.260    0.071   46.867  219.061
  300.250   17.283    0.268    0.066   49.990  219.085
  300.500   17.320    0.286    0.119   58.317  219.109
  300.750   17.325    0.313    0.172   68.860  219.131
  301.000   17.266    0.347    0.197   77.487  218.954
  301.250   16.914    0.387    0.184   77.495  218.022
  301.500   16.408    0.412    0.168   70.281  217.216
  301.750   15.932    0.422    0.221   66.467  216.841
  302.000   15.559    0.426    0.268   62.653  216.763
  302.250   15.223    0.424    0.295   58.480  217.184
  302.500   14.922    0.419    0.303   54.727  217.807
  302.750   14.777    0.419    0.310   53.112  217.757
  303.000   15.128    0.426    0.317   52.129  217.364
  303.250   15.357    0.424    0.328   49.989  216.989
  303.500   15.677    0.425    0.341   47.489  216.612
  303.750   15.975    0.427    0.351   43.914  216.434
  304.000   16.218    0.427    0.355   40.220  216.457
  304.250   16.491    0.417    0.353   39.092  216.404
  304.500   16.624    0.403    0.349   39.356  216.014
  304.750   16.507    0.404    0.348   39.370  215.644
  305.000   16.390    0.400    0.353   39.385  215.266
  305.250   16.213    0.392    0.361   38.801  214.689
  305.500   15.981    0.389    0.366   37.738  213.916
  305.750   15.728    0.415    0.365   37.385  213.063
  306.000   15.614    0.424    0.363   39.144  212.670
  306.250   15.503    0.426    0.363   41.793  212.300
  306.500   15.308    0.423    0.362   42.643  212.221
  306.750   15.145    0.419    0.363   43.135  212.243
  307.000   15.037    0.414    0.363   44.167  212.366
  307.250   14.886    0.414    0.365   46.296  212.794
  307.500   14.664    0.416    0.367   47.306  212.818
  307.750   14.560    0.411    0.368   47.800  212.844
  308.000   14.377    0.422    0.368   46.678  213.166
  308.250   14.170    0.433    0.366   46.334  213.188
  308.500   13.966    0.438    0.363   47.007  212.913
  308.750   13.724    0.433    0.358   46.583  212.942
  309.000   13.519    0.426    0.354   45.601  212.966
  309.250   12.838    0.424    0.350   46.334  212.589
  309.500   12.191    0.419    0.346   47.784  212.514
  309.750   11.446    0.414    0.342   49.831  212.539
  310.000   10.617    0.412    0.336   52.237  212.563
  310.250    9.628    0.416    0.320   55.396  212.508
  310.500    8.855    0.414    0.312   59.149  212.118
  310.750    8.346    0.431    0.304   62.272  211.743
  311.000    8.229    0.440    0.298   65.397  211.669
  311.250    8.443    0.443    0.294   66.368  212.887
  311.500    8.911    0.440    0.297   63.810  215.300
  311.750    9.589    0.429    0.322   56.630  217.471
  312.000   10.286    0.421    0.323   54.152  216.247
  312.250   10.911    0.419    0.323   54.884  217.069
  312.500   11.329    0.416    0.323   55.256  217.594
  312.750   11.290    0.415    0.323   55.509  217.819
  313.000   10.800    0.420    0.322   56.181  217.840
  313.250    9.869    0.436    0.317   58.961  217.867
  313.500    8.807    0.448    0.311   63.211  217.894
  313.750    7.994    0.450    0.294   67.292  217.918
  314.000    7.428    0.447    0.270   71.912  218.242
  314.250    7.060    0.442    0.254   76.712  218.464
  314.500    6.859    0.443    0.250   79.120  218.585
  314.750    6.810    0.459    0.252   73.403  219.017
  315.000    6.813    0.459    0.251   68.683  219.042
  315.250    6.715    0.449    0.247   77.549  219.061
  315.500    6.618    0.444    0.244   80.495  219.082
  315.750    6.523    0.441    0.240   80.271  219.305
  316.000    6.429    0.442    0.236   79.149  219.629
  316.250    6.288    0.446    0.234   78.925  219.742
  316.500    6.054    0.449    0.231   78.940  220.187
  316.750    5.791    0.458    0.228   80.629  220.607
  317.000    5.604    0.463    0.226   83.753  221.923
  317.250    5.544    0.455    0.229   84.964  222.743
  317.500    5.667    0.441    0.241   82.706  221.871
  317.750    6.145    0.433    0.274   76.372  217.979
  318.000    6.591    0.422    0.290   72.149  216.342
  318.250    7.197    0.417    0.295   61.159  215.964
  318.500    7.780    0.413    0.297   56.626  215.888
  318.750    8.322    0.406    0.297   54.846  215.712
  319.000    8.818    0.398    0.299   53.724  215.536
  319.250    9.335    0.395    0.303   52.932  216.046
