~VERSION INFORMATION
 VERS.                 2.0:   CWLS LOG ASCII STANDARD -VERSION 2.0
 WRAP.                  NO:   ONE LINE PER DEPTH STEP
~WELL INFORMATION BLOCK
#MNEM.UNIT           DATA                    DESCRIPTION OF MNEMONIC
#---------    -------------------            -------------------------------
# Generated from Intellog Unique Number	CS_77_79/WELL/857
WELL.         HB THORNBURY LAKE              : Well_name    - WELL
LOC .         00/05-19-078-12W4/0            : Location     - LOCATION
UWI .         00/05-19-078-12W4/0            : Uwi          - UNIQUE WELL ID
ENTR.         JHS                            : Entered      - ENTERED BY
SRVC.         SCHLUMBERGER                   : Scn          - SERVICE COMPANY
STRT.M        243.84                         : top_depth    - START DEPTH
STOP.M        456.84                         : bot_depth    - STOP DEPTH
STEP.M        0.25                           : increment    - STEP LENGTH
 NULL. -999.2500:NULL Value
~CURVE INFORMATION BLOCK
#MNEM UNIT       ERCB CURVE CODE    CURVE DESCRIPTION
#-----------   ------------------   ----------------------------------
DEPT.M        00 001 00 00         : DEPTH        - DEPTH
RHOB.KG/M3    00 350 00 00         : DENS         - BULK DENSITY
GR  .API      00 310 00 00         : GR           - GAMMA RAY
DPHI.V/V      00 890 00 00         : PHID         - DENSITY POROSITY (SANDSTONE)
NPHI.V/V      00 330 00 00         : PHIN         - NEUTRON POROSITY (SANDSTONE)
ILD .OHMM     00 120 00 00         : RESD         - DEEP RESISTIVITY (DIL)
~PARAMETER INFORMATION
#MNEM.UNIT           DATA             DESCRIPTION OF MNEMONIC
#---------         -----------     ------------------------------
GL  .M        685.19               : gl           - GROUND LEVEL ELEVATION
EREF.M        685.19               : kb           - ELEVATION OF DEPTH REFERENCE
DATM.M        685.19               : datum        - DATUM ELEVATION
TDD .M        466.344              : tdd          - TOTAL DEPTH DRILLER
RUN .         ONE                  : Run          - RUN NUMBER
ENG .         BILL                 : Engineer     - RECORDING ENGINEER
WIT .         JIM                  : Witness      - WITNESSED BY
MUD .         GEL                  : Mud_type     - MUD TYPE
MATR.         SANDSTONE            : Logunit      - NEUTRON MATRIX
TMAX.C        26.6667              : BHT          - MAXIMUM RECORDED TEMPERATURE
BHTD.M        466.344              : BHTDEP       - MAXIMUM RECORDED TEMPERATURE
MATR.         1                    : LOGUNIT      - NEUTRON MATRIX
RMT .C        25                   : MDTP         - TEMPERATURE OF MUD
NEUT.         1                    : NEUTRON      - NEUTRON TYPE
RESI.         0                    : RESIST       - RESISTIVITY TYPE
RMC .OHMM     0.25                 : RMC          - RESISTIVITY OF MUD CAKE
RMF .OHMM     0.25                 : RMF          - RESISTIVITY OF MUD FILTRATE
SUFT.C        15                   : SUFT         - SURFACE TEMPERATURE
~A  DEPTH     DENS       GR     PHID     PHIN     RESD
  243.840    0.000   96.990    0.273    0.553    3.000
  244.090    0.000   95.131    0.263    0.535    3.062
  244.340    0.000   94.819    0.254    0.529    3.064
  244.590    0.000   97.583    0.264    0.550    3.012
  244.840    0.000   95.688    0.259    0.558    2.913
  245.090    0.000   93.709    0.274    0.557    2.960
  245.340    0.000   91.126    0.260    0.558    3.004
  245.590    0.000   90.608    0.250    0.555    3.101
  245.840    0.000   87.705    0.243    0.547    3.200
  246.090    0.000   86.829    0.224    0.532    3.314
  246.340    0.000   90.916    0.216    0.531    3.256
  246.590    0.000   93.541    0.227    0.543    3.200
  246.840    0.000   93.553    0.250    0.555    3.161
  247.090    0.000   92.531    0.266    0.564    3.140
  247.340    0.000   91.734    0.249    0.557    3.267
  247.590    0.000   92.086    0.228    0.550    3.336
  247.840    0.000   91.017    0.242    0.551    3.562
  248.090    0.000   90.574    0.228    0.501    3.722
  248.340    0.000   90.536    0.224    0.517    3.923
  248.590    0.000   91.263    0.232    0.552    4.041
  248.840    0.000   93.875    0.239    0.559    4.169
  249.090    0.000   95.614    0.217    0.540    4.270
  249.340    0.000   97.339    0.221    0.545    4.265
  249.590    0.000   97.133    0.222    0.564    4.193
  249.840    0.000   93.972    0.207    0.565    4.064
  250.090    0.000   91.287    0.235    0.532    3.900
  250.340    0.000   88.929    0.234    0.534    3.786
  250.590    0.000   89.731    0.226    0.549    3.688
  250.840    0.000   90.156    0.246    0.542    3.696
  251.090    0.000   89.020    0.229    0.525    3.697
  251.340    0.000   85.618    0.212    0.543    3.805
  251.590    0.000   83.190    0.213    0.560    3.912
  251.840    0.000   82.586    0.242    0.534    4.119
  252.090    0.000   83.642    0.238    0.498    4.240
  252.340    0.000   85.062    0.228    0.495    4.314
  252.590    0.000   86.487    0.247    0.509    4.317
  252.840    0.000   80.215    0.250    0.507    4.320
  253.090    0.000   67.143    0.234    0.481    4.460
  253.340    0.000   56.093    0.229    0.464    4.791
  253.590    0.000   48.843    0.223    0.393    6.035
  253.840    0.000   42.691    0.213    0.307    8.337
  254.090    0.000   43.079    0.235    0.290   12.289
  254.340    0.000   46.817    0.299    0.293   17.238
  254.590    0.000   47.851    0.316    0.313   21.257
  254.840    0.000   49.502    0.288    0.352   20.663
  255.090    0.000   57.761    0.268    0.364   17.427
  255.340    0.000   64.772    0.262    0.387   14.627
  255.590    0.000   67.544    0.257    0.408   12.981
  255.840    0.000   66.688    0.249    0.428   12.022
  256.090    0.000   64.967    0.239    0.431   11.288
  256.340    0.000   66.372    0.234    0.406   11.294
  256.590    0.000   69.790    0.228    0.416   11.769
  256.840    0.000   69.201    0.236    0.425   12.464
  257.090    0.000   67.636    0.229    0.398   12.003
  257.340    0.000   68.405    0.241    0.381   11.183
  257.590    0.000   74.000    0.248    0.383   10.592
  257.840    0.000   79.462    0.241    0.402    9.667
  258.090    0.000   78.509    0.216    0.434    8.900
  258.340    0.000   76.742    0.222    0.448    8.402
  258.590    0.000   80.243    0.238    0.434    8.170
  258.840    0.000   84.199    0.240    0.437    7.987
  259.090    0.000   85.774    0.225    0.455    7.837
  259.340    0.000   85.347    0.226    0.452    7.609
  259.590    0.000   84.078    0.212    0.452    7.387
  259.840    0.000   80.999    0.199    0.461    7.169
  260.090    0.000   81.167    0.209    0.440    7.235
  260.340    0.000   86.271    0.201    0.422    7.643
  260.590    0.000   85.989    0.190    0.441    7.869
  260.840    0.000   82.773    0.200    0.449    8.034
  261.090    0.000   84.171    0.202    0.425    8.207
  261.340    0.000   83.613    0.190    0.430    8.325
  261.590    0.000   81.497    0.204    0.453    8.597
  261.840    0.000   77.765    0.222    0.451    8.874
  262.090    0.000   73.525    0.237    0.430    9.035
  262.340    0.000   74.764    0.217    0.420    9.030
  262.590    0.000   77.517    0.196    0.428    9.038
  262.840    0.000   78.311    0.193    0.437    8.902
  263.090    0.000   79.651    0.201    0.448    8.501
  263.340    0.000   84.645    0.206    0.466    8.123
  263.590    0.000   87.053    0.228    0.479    7.636
  263.840    0.000   88.400    0.234    0.496    7.366
  264.090    0.000   86.212    0.239    0.504    7.160
  264.340    0.000   82.923    0.222    0.513    6.870
  264.590    0.000   74.807    0.209    0.509    6.761
  264.840    0.000   67.772    0.213    0.484    6.887
  265.090    0.000   72.912    0.249    0.465    7.085
  265.340    0.000   77.788    0.244    0.467    7.309
  265.590    0.000   78.938    0.226    0.483    7.428
  265.840    0.000   85.626    0.245    0.479    7.560
  266.090    0.000   93.334    0.231    0.509    7.315
  266.340    0.000   95.714    0.209    0.537    6.954
  266.590    0.000   95.376    0.204    0.509    6.735
  266.840    0.000   97.003    0.208    0.490    6.440
  267.090    0.000   97.025    0.198    0.486    6.442
  267.340    0.000   97.063    0.198    0.503    6.441
  267.590    0.000   99.617    0.202    0.508    6.558
  267.840    0.000  103.292    0.189    0.504    6.619
  268.090    0.000  102.190    0.196    0.506    6.839
  268.340    0.000   98.009    0.202    0.523    6.842
  268.590    0.000   97.265    0.212    0.552    6.609
  268.840    0.000   98.348    0.222    0.566    6.475
  269.090    0.000   99.400    0.230    0.571    6.268
  269.340    0.000   99.465    0.213    0.573    6.245
  269.590    0.000   97.249    0.209    0.545    6.371
  269.840    0.000   95.191    0.195    0.534    6.529
  270.090    0.000   96.039    0.194    0.534    6.647
  270.340    0.000   95.988    0.196    0.526    6.751
  270.590    0.000   95.797    0.198    0.512    6.898
  270.840    0.000   94.035    0.207    0.513    6.880
  271.090    0.000   91.608    0.206    0.523    6.765
  271.340    0.000   87.225    0.206    0.511    6.767
  271.590    0.000   82.617    0.214    0.488    6.923
  271.840    0.000   77.196    0.218    0.475    7.111
  272.090    0.000   72.556    0.230    0.444    7.667
  272.340    0.000   72.611    0.234    0.437    8.038
  272.590    0.000   76.368    0.229    0.435    8.096
  272.840    0.000   82.217    0.226    0.426    7.990
  273.090    0.000   85.636    0.220    0.421    7.630
  273.340    0.000   90.481    0.215    0.426    7.407
  273.590    0.000   92.111    0.215    0.434    7.193
  273.840    0.000   90.867    0.226    0.443    6.973
  274.090    0.000   82.013    0.234    0.453    6.969
  274.340    0.000   78.567    0.249    0.467    6.973
  274.590    0.000   79.568    0.259    0.489    6.963
  274.840    0.000   81.058    0.224    0.483    7.117
  275.090    0.000   75.019    0.206    0.455    7.258
  275.340    0.000   78.156    0.186    0.445    7.257
  275.590    0.000   83.622    0.179    0.448    7.262
  275.840    0.000   84.315    0.204    0.458    7.273
  276.090    0.000   77.812    0.224    0.466    7.128
  276.340    0.000   77.200    0.241    0.491    7.121
  276.590    0.000   81.010    0.278    0.482    7.020
  276.840    0.000   83.668    0.238    0.452    6.981
  277.090    0.000   86.961    0.211    0.443    6.622
  277.340    0.000   88.147    0.197    0.456    6.441
  277.590    0.000   84.623    0.210    0.488    6.292
  277.840    0.000   81.749    0.221    0.497    6.304
  278.090    0.000   76.928    0.216    0.486    6.379
  278.340    0.000   62.841    0.233    0.474    7.059
  278.590    0.000   47.504    0.265    0.457    8.524
  278.840    0.000   36.658    0.315    0.431   11.074
  279.090    0.000   36.906    0.298    0.414   14.137
  279.340    0.000   38.569    0.268    0.424   18.406
  279.590    0.000   40.643    0.244    0.440   24.281
  279.840    0.000   45.694    0.228    0.421   24.733
  280.090    0.000   49.417    0.259    0.396   23.614
