~VERSION INFORMATION
 VERS.                 2.0:   CWLS LOG ASCII STANDARD -VERSION 2.0
 WRAP.                  NO:   ONE LINE PER DEPTH STEP
~WELL INFORMATION BLOCK
#MNEM.UNIT           DATA                    DESCRIPTION OF MNEMONIC
#---------    -------------------            -------------------------------
# Generated from Intellog Unique Number	CW_82_90/WELL/3063
WELL.         PARA ET AL LIVOCK 07-19        : Well_name    - WELL
LOC .         00/07-19-085-19W4/0            : Location     - LOCATION
UWI .         00/07-19-085-19W4/0            : Uwi          - UNIQUE WELL ID
ENTR.         JAYE                           : Entered      - ENTERED BY
SRVC.         COMPUTALOG                     : Scn          - SERVICE COMPANY
DATE.         21 FEB 78                      : Date         - LOG DATE
STRT.M        192.024                        : top_depth    - START DEPTH
STOP.M        347.524                        : bot_depth    - STOP DEPTH
STEP.M        0.25                           : increment    - STEP LENGTH
 NULL. -999.2500:NULL Value
~CURVE INFORMATION BLOCK
#MNEM UNIT       ERCB CURVE CODE    CURVE DESCRIPTION
#-----------   ------------------   ----------------------------------
DEPT.M        00 001 00 00         : DEPTH        - DEPTH
CALI.MM       00 280 01 00         : CAL          - CALIPER
GR  .API      00 310 00 00         : GR           - GAMMA RAY
DPHI.V/V      00 890 00 00         : PHID         - DENSITY POROSITY (SANDSTONE)
NPHI.V/V      00 330 00 00         : PHIN         - NEUTRON POROSITY (SANDSTONE)
ILD .OHMM     00 120 00 00         : RESD         - DEEP RESISTIVITY (DLL)
~PARAMETER INFORMATION
#MNEM.UNIT           DATA             DESCRIPTION OF MNEMONIC
#---------         -----------     ------------------------------
GL  .M        610.057              : gl           - GROUND LEVEL ELEVATION
EREF.M        613.105              : kb           - ELEVATION OF DEPTH REFERENCE
DATM.M        610.057              : datum        - DATUM ELEVATION
TDD .M        350.215              : tdd          - TOTAL DEPTH DRILLER
RUN .         ONE                  : Run          - RUN NUMBER
ENG .         DOPF                 : Engineer     - RECORDING ENGINEER
WIT .         GEORGE               : Witness      - WITNESSED BY
BASE.         EDMONTON             : Branch       - HOME BASE OF LOGGING UNIT
MUD .         GEL CHEM             : Mud_type     - MUD TYPE
MATR.         SANDSTONE            : Logunit      - NEUTRON MATRIX
TMAX.C        15.5556              : BHT          - MAXIMUM RECORDED TEMPERATURE
BHTD.M        350.215              : BHTDEP       - MAXIMUM RECORDED TEMPERATURE
RMT .C        18.3333              : MDTP         - TEMPERATURE OF MUD
MUDD.KG/M     9300                 : MWT          - MUD DENSITY
NEUT.         0                    : NEUTRON      - NEUTRON TYPE
RESI.         1                    : RESIST       - RESISTIVITY TYPE
RM  .OHMM     4.1                  : RM           - RESISTIVITY OF MUD
RMC .OHMM     4.2                  : RMC          - RESISTIVITY OF MUD CAKE
RMF .OHMM     4.5                  : RMF          - RESISTIVITY OF MUD FILTRATE
SUFT.C        -17.7778             : SUFT         - SURFACE TEMPERATURE
~A  DEPTH      CAL       GR     PHID     PHIN     RESD
  192.024  160.437   50.141    0.239    0.299   13.676
  192.274  162.836   58.740    0.262    0.441    7.842
  192.524  166.494   63.375    0.301    0.489    5.777
  192.774  173.294   76.430    0.237    0.572    4.884
  193.024  177.790   93.137    0.230    0.603    3.983
  193.274  183.333   96.348    0.235    0.578    3.594
  193.524  188.561   96.155    0.226    0.561    3.459
  193.774  190.436   95.095    0.234    0.571    3.380
  194.024  191.893   91.869    0.234    0.615    3.325
  194.274  193.449   91.863    0.248    0.635    3.280
  194.524  194.174   93.836    0.259    0.649    3.281
  194.774  195.525   97.543    0.255    0.669    3.374
  195.024  197.189   97.598    0.237    0.681    3.450
  195.274  198.644   92.019    0.218    0.664    3.501
  195.524  199.366   93.559    0.215    0.618    3.544
  195.774  199.669   87.362    0.220    0.613    3.579
  196.024  198.082   87.354    0.238    0.667    3.662
  196.274  196.289   90.751    0.248    0.688    3.812
  196.524  190.512   85.793    0.291    0.668    3.985
  196.774  181.065   79.904    0.294    0.647    4.224
  197.024  173.716   77.729    0.267    0.621    4.682
  197.274  166.678   68.623    0.267    0.605    5.515
  197.524  161.112   59.887    0.294    0.593    6.811
  197.774  154.704   54.123    0.306    0.570    9.126
  198.024  148.927   48.296    0.305    0.537   10.846
  198.274  146.922   47.794    0.301    0.490   10.384
  198.524  146.177   52.801    0.294    0.473    7.578
  198.774  146.375   58.549    0.274    0.494    6.498
  199.024  149.715   62.319    0.253    0.531    5.549
  199.274  152.221   79.522    0.236    0.556    5.355
  199.524  155.666   84.715    0.239    0.589    5.325
  199.774  158.588   82.850    0.261    0.595    5.499
  200.024  159.520   69.410    0.258    0.533    6.193
  200.274  157.726   62.035    0.208    0.447    7.400
  200.524  151.635   57.819    0.263    0.467    9.316
  200.774  145.961   54.716    0.284    0.503    9.742
  201.024  143.958   57.062    0.276    0.526    9.964
  201.274  143.211   59.343    0.264    0.544   10.521
  201.524  144.773   59.769    0.301    0.544   10.914
  201.774  148.114   58.030    0.309    0.529   11.697
  202.024  149.779   50.347    0.313    0.519   13.670
  202.274  151.025   48.049    0.326    0.535   16.147
  202.524  151.430   47.733    0.338    0.558   17.232
  202.774  151.942   48.838    0.347    0.550   17.886
  203.024  151.617   49.699    0.340    0.541   18.279
  203.274  150.661   48.639    0.334    0.519   18.591
  203.524  149.286   46.714    0.334    0.503   18.895
  203.774  148.328   49.305    0.335    0.505   19.206
  204.024  148.318   50.475    0.334    0.532   19.323
  204.274  148.198   49.601    0.337    0.559   19.317
  204.524  148.397   48.108    0.338    0.530   19.360
  204.774  148.485   51.256    0.342    0.509   19.338
  205.024  148.685   51.931    0.345    0.516   19.171
  205.274  148.986   48.024    0.340    0.526   19.075
  205.524  149.186   45.231    0.341    0.511   19.020
  205.774  149.490   50.609    0.343    0.503   18.974
  206.024  149.371   51.531    0.340    0.499   19.262
  206.274  149.570   51.029    0.334    0.500   19.354
  206.524  149.558   47.988    0.334    0.509   19.315
  206.774  149.021   45.133    0.342    0.497   19.163
  207.024  149.219   46.673    0.340    0.497   18.831
  207.274  148.891   47.409    0.339    0.505   18.558
  207.524  148.566   45.731    0.347    0.483   18.503
  207.774  148.134   45.660    0.350    0.489   18.538
  208.024  147.596   48.315    0.344    0.489   18.556
  208.274  147.375   49.237    0.340    0.491   18.462
  208.524  146.944   51.025    0.344    0.497   18.342
  208.774  145.358   47.922    0.341    0.506   18.255
  209.024  145.450   47.111    0.325    0.492   18.192
  209.274  148.165   49.765    0.313    0.469   18.056
  209.524  148.781   49.635    0.321    0.452   18.099
  209.774  148.559   46.532    0.323    0.438   18.118
  210.024  148.127   46.276    0.323    0.456   18.088
  210.274  148.010   48.746    0.335    0.461   17.936
  210.524  147.576   49.728    0.334    0.469   17.613
  210.774  147.357   49.165    0.328    0.488   17.257
  211.024  147.344   48.909    0.334    0.497   16.771
  211.274  146.912   48.469    0.337    0.474   16.220
  211.524  146.271   47.286    0.324    0.461   15.791
  211.774  145.526   47.092    0.296    0.583   15.598
  212.024  144.779   48.881    0.263    0.599   15.544
  212.274  144.034   55.002    0.316    0.562   15.538
  212.524  142.554   62.237    0.342    0.525   15.801
  212.774  140.654   67.492    0.347    0.524   16.227
  213.024  143.054   65.813    0.338    0.539   16.872
  213.274  144.821   55.715    0.350    0.575   16.826
  213.524  145.754   50.571    0.352    0.580   15.966
  213.774  146.685   54.773    0.347    0.577   15.878
  214.024  147.512   57.551    0.345    0.543   15.938
  214.274  145.508   58.225    0.357    0.551   16.234
  214.524  143.609   49.242    0.351    0.554   16.432
  214.774  143.912   46.820    0.357    0.564   16.630
  215.024  143.059   44.522    0.348    0.560   16.787
  215.274  142.207   48.539    0.335    0.578   16.993
  215.524  141.673   48.098    0.346    0.527   17.174
  215.774  140.927   48.771    0.341    0.527   17.347
  216.024  139.342   51.426    0.335    0.535   17.643
  216.274  136.605   52.347    0.332    0.530   18.150
  216.524  133.657   53.144    0.323    0.557   18.820
  216.774  132.806   53.013    0.335    0.550   19.425
  217.024  134.995   50.222    0.332    0.548   19.891
  217.274  138.862   50.894    0.320    0.543   20.447
  217.524  142.833   52.930    0.277    0.416   20.596
  217.774  147.013   45.928    0.164    0.346   20.713
  218.024  150.563   42.888    0.080    0.212   20.439
  218.274  151.180   42.570    0.050    0.192   19.236
  218.524  151.061   41.758    0.072    0.230   18.701
  218.774  150.528   42.184    0.156    0.390   17.963
  219.024  148.628   47.563    0.319    0.495   17.119
  219.274  147.986   48.484    0.335    0.553   16.487
  219.524  147.869   49.406    0.338    0.550   16.107
  219.774  148.069   51.937    0.335    0.542   15.620
  220.024  152.878   50.196    0.333    0.560   15.240
  220.274  157.059   48.455    0.336    0.526   14.958
  220.524  158.094   48.448    0.333    0.564   14.863
  220.774  159.128   47.141    0.330    0.577   14.817
  221.024  160.376   45.400    0.328    0.547   14.811
  221.274  161.727   43.969    0.327    0.545   14.781
  221.524  163.915   44.334    0.329    0.558   14.710
  221.774  165.161   46.369    0.328    0.562   14.647
  222.024  165.148   44.814    0.325    0.574   14.536
  222.274  164.089   47.717    0.320    0.587   14.384
  222.524  162.714   52.104    0.320    0.577   14.305
  222.774  162.071   51.167    0.330    0.558   14.218
  223.024  160.486   48.190    0.338    0.569   14.139
  223.274  159.008   47.191    0.337    0.572   14.036
  223.524  160.985   45.699    0.337    0.565   13.940
  223.774  162.964   44.082    0.335    0.566   13.829
  224.024  163.373   44.756    0.339    0.515   13.685
  224.274  162.310   45.864    0.340    0.515   13.484
  224.524  161.251   46.103    0.334    0.558   13.234
  224.774  159.562   53.587    0.323    0.556   13.049
  225.024  157.979   56.489    0.323    0.574   12.986
  225.274  157.021   49.486    0.328    0.570   12.899
  225.524  157.952   50.284    0.335    0.553   12.870
  225.774  161.715   51.762    0.339    0.573   12.847
  226.024  168.307   52.312    0.334    0.568   12.809
  226.274  170.075   52.862    0.334    0.569   12.812
  226.524  167.547   53.536    0.335    0.589   12.798
  226.774  163.238   52.848    0.327    0.591   12.800
  227.024  158.823   47.083    0.299    0.611   12.795
  227.274  158.182   46.333    0.318    0.608   12.846
  227.524  160.789   52.269    0.321    0.588   12.816
  227.774  163.817   58.452    0.332    0.597   12.484
  228.024  169.674   58.816    0.345    0.585   12.007
  228.274  172.178   58.623    0.340    0.537   11.277
