~VERSION INFORMATION
 VERS.                 2.0:   CWLS LOG ASCII STANDARD -VERSION 2.0
 WRAP.                  NO:   ONE LINE PER DEPTH STEP
~WELL INFORMATION BLOCK
#MNEM.UNIT           DATA                    DESCRIPTION OF MNEMONIC
#---------    -------------------            -------------------------------
# Generated from Intellog Unique Number	CX_WELLS/WELL/3134
WELL.         UNEX RES CANOXY WATCHUK        : Well_name    - WELL
LOC .         00/06-18-083-03W4/0            : Location     - LOCATION
UWI .         00/06-18-083-03W400            : Uwi          - UNIQUE WELL ID
ENTR.         TIM                            : Entered      - ENTERED BY
SRVC.         SCHLUMBERGER                   : Scn          - SERVICE COMPANY
STRT.F        350                            : top_depth    - START DEPTH
STOP.F        1029.95                        : bot_depth    - STOP DEPTH
STEP.F        0.82                           : increment    - STEP LENGTH
 NULL. -999.2500:NULL Value
~CURVE INFORMATION BLOCK
#MNEM UNIT       ERCB CURVE CODE    CURVE DESCRIPTION
#-----------   ------------------   ----------------------------------
DEPT.F        00 001 00 00         : DEPTH        - DEPTH
GR  .API      00 310 00 00         : GR           - GAMMA RAY
NPHI.V/V      00 330 00 00         : PHIN         - NEUTRON POROSITY (SANDSTONE)
DPHI.V/V      00 890 00 00         : PHID         - DENSITY POROSITY (SANDSTONE)
ILD .OHMM     00 120 00 00         : RESD         - DEEP RESISTIVITY (OTHER)
~PARAMETER INFORMATION
#MNEM.UNIT           DATA             DESCRIPTION OF MNEMONIC
#---------         -----------     ------------------------------
GL  .F        1569                 : gl           - GROUND LEVEL ELEVATION
EREF.F        1581                 : kb           - ELEVATION OF DEPTH REFERENCE
DATM.F        1581                 : datum        - DATUM ELEVATION
TDD .F        1080                 : tdd          - TOTAL DEPTH DRILLER
RUN .         ONE                  : Run          - RUN NUMBER
ENG .         BILL                 : Engineer     - RECORDING ENGINEER
WIT .         JIM                  : Witness      - WITNESSED BY
MUD .         GEL                  : Mud_type     - MUD TYPE
MATR.         SANDSTONE            : Logunit      - NEUTRON MATRIX
TMAX.F        71.6                 : BHT          - MAXIMUM RECORDED TEMPERATURE
BHTD.F        1080                 : BHTDEP       - MAXIMUM RECORDED TEMPERATURE
MATR.         1                    : LOGUNIT      - NEUTRON MATRIX
RMT .F        77                   : MDTP         - TEMPERATURE OF MUD
NEUT.         1                    : NEUTRON      - NEUTRON TYPE
RESI.         5.1                  : RESIST       - RESISTIVITY TYPE
RMC .OHMM     6                    : RMC          - RESISTIVITY OF MUD CAKE
RMF .OHMM     6                    : RMF          - RESISTIVITY OF MUD FILTRATE
SUFT.F        32                   : SUFT         - SURFACE TEMPERATURE
~A  DEPTH       GR     PHIN     PHID     RESD
# ...
  635.433   77.141    0.457    0.243    6.217
  636.253   79.546    0.454    0.231    6.118
  637.073   83.083    0.462    0.204    6.130
  637.894   86.635    0.468    0.203    6.142
  638.714   87.861    0.471    0.216    6.154
  639.534   87.954    0.474    0.222    6.166
  640.354   88.031    0.475    0.229    6.178
  641.175   88.078    0.474    0.235    6.193
  641.995   87.542    0.469    0.237    6.089
  642.815   87.038    0.465    0.240    6.101
  643.635   87.085    0.461    0.243    6.115
  644.455   87.177    0.454    0.246    6.127
  645.276   87.224    0.451    0.247    6.027
  646.096   87.317    0.456    0.248    5.932
  646.916   86.766    0.458    0.250    5.832
  647.736   86.262    0.463    0.251    5.739
  648.556   85.726    0.464    0.254    5.441
  649.377   85.207    0.462    0.255    5.159
  650.197   84.105    0.468    0.255    4.714
  651.017   83.019    0.497    0.260    4.150
  651.837   84.244    0.524    0.265    3.723
  652.657   86.082    0.536    0.271    3.105
  653.478   86.129    0.549    0.274    2.836
  654.298   86.175    0.562    0.278    2.741
  655.118   85.671    0.569    0.280    2.956
  655.938   83.437    0.569    0.284    3.072
  656.759   82.886    0.567    0.281    3.503
  657.579   82.948    0.561    0.274    4.071
  658.399   85.337    0.544    0.259    4.388
  659.219   86.562    0.511    0.242    4.646
  660.039   85.461    0.480    0.229    4.740
  660.860   83.778    0.472    0.214    4.929
  661.680   82.722    0.471    0.221    5.127
  662.500   82.753    0.470    0.228    5.134
  663.320   83.428    0.467    0.233    5.147
  664.140   84.041    0.461    0.240    4.973
  664.961   84.103    0.461    0.243    4.798
  665.781   85.328    0.466    0.250    4.551
  666.601   87.182    0.500    0.245    4.238
  667.421   89.540    0.533    0.239    3.945
  668.241   91.929    0.555    0.243    3.878
  669.062   94.900    0.547    0.242    3.679
  669.882   93.248    0.534    0.238    3.619
  670.702   90.967    0.515    0.235    3.560
  671.522   87.538    0.524    0.233    3.565
  672.343   84.109    0.535    0.231    3.572
  673.163   85.917    0.546    0.228    3.584
  673.983   88.903    0.547    0.226    3.587
  674.803   90.695    0.539    0.227    3.594
  675.623   93.130    0.515    0.228    3.601
  676.444   94.325    0.512    0.228    3.608
  677.264   94.969    0.517    0.229    3.615
  678.084   95.046    0.526    0.230    3.560
  678.904   95.690    0.530    0.231    3.500
  679.724   95.752    0.536    0.235    3.444
  680.545   93.486    0.532    0.247    3.449
  681.365   92.967    0.516    0.250    3.522
  682.185   93.044    0.502    0.236    3.659
  683.005   93.121    0.476    0.228    3.949
  683.825   93.152    0.464    0.224    4.181
  684.646   93.230    0.462    0.223    4.269
  685.466   93.292    0.470    0.215    4.359
  686.286   92.803    0.490    0.208    4.363
  687.106   92.834    0.493    0.201    4.374
  687.927   91.763    0.485    0.191    4.382
  688.747   91.212    0.467    0.184    4.313
  689.567   87.217    0.435    0.185    4.319
  690.387   83.191    0.423    0.212    4.248
  691.207   77.436    0.420    0.235    3.956
  692.028   73.441    0.417    0.260    3.617
  692.848   70.594    0.411    0.271    3.490
  693.668   67.747    0.401    0.287    3.189
  694.488   66.048    0.395    0.305    2.914
  695.308   62.619    0.383    0.309    2.616
  696.129   54.536    0.377    0.292    2.436
  696.949   48.780    0.372    0.289    2.351
  697.769   45.933    0.367    0.291    2.273
  698.589   42.520    0.365    0.291    2.233
  699.409   40.821    0.365    0.288    2.199
  700.230   38.556    0.366    0.287    2.202
  701.050   38.051    0.363    0.284    2.206
  701.870   38.680    0.363    0.288    2.212
  702.690   40.487    0.370    0.301    2.217
  703.510   42.922    0.383    0.304    2.221
  704.331   42.953    0.389    0.305    2.226
  705.151   42.449    0.384    0.305    2.228
  705.971   41.929    0.381    0.305    2.232
  706.791   41.991    0.381    0.301    2.239
  707.612   42.650    0.381    0.298    2.244
  708.432   43.263    0.381    0.296    2.248
  709.252   43.922    0.381    0.297    2.251
  710.072   45.148    0.382    0.298    2.256
  710.892   45.807    0.385    0.298    2.260
  711.713   45.287    0.386    0.298    2.224
  712.533   44.767    0.384    0.298    2.231
  713.353   44.248    0.381    0.298    2.233
  714.173   43.146    0.381    0.300    2.237
  714.993   43.223    0.387    0.300    2.242
  715.814   43.270    0.392    0.302    2.248
  716.634   43.363    0.396    0.304    2.250
  717.454   43.991    0.399    0.306    2.255
  718.274   43.471    0.389    0.307    2.261
  719.094   42.936    0.382    0.304    2.307
  719.915   40.702    0.373    0.298    2.312
  720.735   40.166    0.366    0.284    2.359
  721.555   39.646    0.361    0.283    2.409
  722.375   42.035    0.362    0.282    2.457
  723.196   45.006    0.368    0.282    2.557
  724.016   51.483    0.407    0.256    2.657
  724.836   58.527    0.419    0.228    2.762
  725.656   71.403    0.397    0.215    2.979
  726.476   79.028    0.401    0.207    3.395
  727.297   87.251    0.407    0.205    4.015
  728.117   91.385    0.412    0.204    4.928
  728.937   91.463    0.410    0.202    5.029
  729.757   89.779    0.412    0.208    4.952
  730.577   89.259    0.414    0.219    4.957
  731.398   88.739    0.415    0.211    4.876
  732.218   89.414    0.416    0.202    4.895
  733.038   90.609    0.420    0.193    4.900
  733.858   93.013    0.423    0.190    4.998
  734.678   94.836    0.427    0.192    5.013
  735.499   96.061    0.431    0.195    5.013
  736.319   96.690    0.441    0.199    5.034
  737.139   96.752    0.449    0.195    5.138
  737.959   95.665    0.453    0.191    5.241
  738.780   94.579    0.451    0.191    5.249
  739.600   93.478    0.446    0.198    5.362
  740.420   91.197    0.441    0.205    5.370
  741.240   86.605    0.438    0.212    5.378
  742.060   88.994    0.440    0.219    5.391
  742.881   93.128    0.443    0.221    5.401
  743.701   95.517    0.444    0.221    5.412
  744.521   93.299    0.447    0.205    5.425
  745.341   92.166    0.450    0.196    5.435
  746.161   91.662    0.446    0.195    5.448
  746.982   91.724    0.438    0.195    5.459
  747.802   90.040    0.421    0.194    5.470
  748.622   88.357    0.411    0.194    5.585
  749.442   87.822    0.407    0.194    5.593
  750.262   88.465    0.416    0.194    5.607
  751.083   92.631    0.422    0.193    5.612
  751.903   95.586    0.423    0.194    5.631
  752.723   94.484    0.430    0.194    5.637
  753.543   92.801    0.433    0.193    5.650
  754.364   91.715    0.439    0.193    5.664
  755.184   90.031    0.450    0.192    5.672
  756.004   87.169    0.461    0.188    5.680
  756.824   87.262    0.473    0.190    5.694
  757.644   89.651    0.483    0.195    5.711
  758.465   91.443    0.485    0.196    5.716
  759.285   93.832    0.485    0.198    5.728
  760.105   93.894    0.478    0.203    5.739
  760.925   94.568    0.479    0.208    5.645
  761.745   95.778    0.486    0.208    5.454
  762.566   98.183    0.491    0.211    5.267
  763.386   99.975    0.448    0.222    5.181
  764.206   98.291    0.436    0.233    5.003
  765.026   96.042    0.437    0.229    5.018
  765.846   90.852    0.447    0.227    5.023
  766.667   93.854    0.474    0.228    5.131
  767.487   96.258    0.462    0.226    5.139
  768.307   97.453    0.445    0.222    5.349
  769.127   95.188    0.444    0.218    5.357
  769.948   95.847    0.450    0.209    5.462
  770.768   98.252    0.457    0.200    5.375
  771.588  100.641    0.465    0.195    5.096
  772.408  102.448    0.471    0.193    4.919
  773.228   99.004    0.472    0.200    4.498
  774.049   93.248    0.468    0.221    4.186
  774.869   86.328    0.458    0.246    3.691
  775.689   71.830    0.421    0.257    3.497
  776.509   63.747    0.414    0.267    3.316
  777.329   58.573    0.414    0.278    3.086
