~VERSION INFORMATION
 VERS.                 2.0:   CWLS LOG ASCII STANDARD -VERSION 2.0
 WRAP.                  NO:   ONE LINE PER DEPTH STEP
~WELL INFORMATION BLOCK
#MNEM.UNIT           DATA                    DESCRIPTION OF MNEMONIC
#---------    -------------------            -------------------------------
# Generated from Intellog Unique Number	CS_67_68/WELL/2186
WELL.         GLOBEL ATMORE                  : Well_name    - WELL
LOC .         00/08-26-067-18W4/0            : Location     - LOCATION
UWI .         00/08-26-067-18W4/0            : Uwi          - UNIQUE WELL ID
ENTR.         JHS                            : Entered      - ENTERED BY
SRVC.         SCHLUMBERGER                   : Scn          - SERVICE COMPANY
STRT.M        350                            : top_depth    - START DEPTH
STOP.M        560                            : bot_depth    - STOP DEPTH
STEP.M        0.25                           : increment    - STEP LENGTH
 NULL. -999.2500:NULL Value
~CURVE INFORMATION BLOCK
#MNEM UNIT       ERCB CURVE CODE    CURVE DESCRIPTION
#-----------   ------------------   ----------------------------------
DEPT.M        00 001 00 00         : DEPTH        - DEPTH
DPHI.V/V      00 890 00 00         : PHID         - DENSITY POROSITY (LIMESTONE)
NPHI.V/V      00 330 00 00         : PHIN         - NEUTRON POROSITY (LIMESTONE)
CALI.MM       00 280 01 00         : CAL          - CALIPER
GR  .API      00 310 00 00         : GR           - GAMMA RAY
ILD .OHMM     00 120 00 00         : RESD         - DEEP RESISTIVITY (DIL)
~PARAMETER INFORMATION
#MNEM.UNIT           DATA             DESCRIPTION OF MNEMONIC
#---------         -----------     ------------------------------
GL  .M        583.7                : gl           - GROUND LEVEL ELEVATION
EREF.M        586.6                : kb           - ELEVATION OF DEPTH REFERENCE
DATM.M        586.6                : datum        - DATUM ELEVATION
TDD .M        575                  : tdd          - TOTAL DEPTH DRILLER
RUN .         ONE                  : Run          - RUN NUMBER
ENG .         BILL                 : Engineer     - RECORDING ENGINEER
WIT .         JIM                  : Witness      - WITNESSED BY
MUD .         GEL                  : Mud_type     - MUD TYPE
MATR.         LIMESTONE            : Logunit      - NEUTRON MATRIX
TMAX.C        19.4                 : BHT          - MAXIMUM RECORDED TEMPERATURE
BHTD.M        574                  : BHTDEP       - MAXIMUM RECORDED TEMPERATURE
MATR.         1                    : LOGUNIT      - NEUTRON MATRIX
RMT .C        25                   : MDTP         - TEMPERATURE OF MUD
NEUT.         1                    : NEUTRON      - NEUTRON TYPE
RESI.         0                    : RESIST       - RESISTIVITY TYPE
RMC .OHMM     0.25                 : RMC          - RESISTIVITY OF MUD CAKE
RMF .OHMM     0.25                 : RMF          - RESISTIVITY OF MUD FILTRATE
SUFT.C        15                   : SUFT         - SURFACE TEMPERATURE
~A  DEPTH     PHID     PHIN      CAL       GR     RESD
# ...
  496.000    0.134    0.385  158.872  111.204    6.076
  496.250    0.155    0.373  159.085  111.271    5.767
  496.500    0.153    0.367  159.298  107.795    5.352
  496.750    0.163    0.371  159.919  103.587    4.957
  497.000    0.181    0.384  160.235  100.355    4.540
  497.250    0.106    0.388  160.343   99.933    4.325
  497.500    0.119    0.387  160.048  105.008    4.135
  497.750    0.144    0.406  159.752  111.548    3.962
  498.000    0.147    0.424  159.251  113.935    3.796
  498.250    0.143    0.424  158.751  113.819    3.691
  498.500    0.155    0.421  158.561  113.520    3.596
  498.750    0.163    0.416  158.669  112.792    3.544
  499.000    0.160    0.403  158.882  111.515    3.498
  499.250    0.165    0.405  159.196  114.086    3.434
  499.500    0.170    0.440  160.021  114.885    3.378
  499.750    0.159    0.469  160.742  115.562    3.366
  500.000    0.147    0.489  161.667  114.163    3.405
  500.250    0.140    0.460  162.795  116.490    3.484
  500.500    0.141    0.441  163.618  120.098    3.611
  500.750    0.145    0.450  163.121  123.280    3.750
  501.000    0.148    0.458  162.314  118.094    3.786
  501.250    0.153    0.453  160.389  107.167    3.816
  501.500    0.065    0.434  159.076  105.584    3.839
  501.750    0.086    0.425  159.390  116.401    3.898
  502.000    0.124    0.429  160.824  120.071    3.965
  502.250    0.149    0.434  161.241  120.504    3.981
  502.500    0.158    0.449  160.842  115.684    3.982
  502.750    0.145    0.422  159.731  111.170    3.909
  503.000    0.125    0.375  159.945  113.068    3.859
  503.250    0.109    0.386  160.158  124.862    3.846
  503.500    0.111    0.431  160.473  131.586    4.131
  503.750    0.144    0.463  160.382  126.644    4.651
  504.000    0.176    0.349  160.185  111.381    5.295
  504.250    0.176    0.307  159.685   94.285    5.785
  504.500    0.172    0.291  158.779   83.053    6.272
  504.750    0.108    0.299  158.279   81.043    6.625
  505.000    0.100    0.313  157.677   83.492    6.727
  505.250    0.131    0.328  157.382   86.490    6.641
  505.500    0.171    0.333  157.288   88.388    6.531
  505.750    0.162    0.334  157.196   87.234    6.950
  506.000    0.148    0.324  156.594   82.169    7.869
  506.250    0.170    0.310  154.771   76.128    9.267
  506.500    0.205    0.300  152.541   70.393   10.669
  506.750    0.237    0.293  150.413   66.551   12.238
  507.000    0.247    0.287  149.607   68.205   14.992
  507.250    0.078    0.295  149.514   66.501   17.424
  507.500    0.016    0.265  149.320   57.957   19.911
  507.750    0.000    0.231  149.126   52.526   23.404
  508.000    0.000    0.202  149.338   45.813   27.717
  508.250    0.000    0.180  149.958   36.290   31.674
  508.500    0.000    0.170  151.697   29.455   36.061
  508.750    0.000    0.168  154.253   25.369   39.618
  509.000    0.000    0.182  156.195   18.595   42.398
  509.250    0.000    0.205  158.545   19.150   44.113
  509.500    0.000    0.216  160.081   21.659   42.262
  509.750    0.000    0.207  158.768   27.407   34.070
  510.000    0.000    0.210  157.150   37.062   27.057
  510.250    0.000    0.218  155.630   56.428   22.018
  510.500    0.008    0.223  154.927   65.839   19.278
  510.750    0.040    0.238  154.427   73.113   17.955
  511.000    0.074    0.263  154.640   77.943   16.353
  511.250    0.132    0.284  155.057   83.079   15.873
  511.500    0.135    0.297  156.490   84.063   15.612
  511.750    0.132    0.305  157.925   79.243   15.823
  512.000    0.128    0.288  157.426   84.317   16.036
  512.250    0.117    0.280  156.520   82.674   16.131
  512.500    0.106    0.267  155.815   77.549   16.135
  512.750    0.096    0.266  154.908   81.891   16.019
  513.000    0.109    0.294  154.205   99.181   15.667
  513.250    0.140    0.312  153.602  100.714   15.495
  513.500    0.225    0.322  152.799   91.985   15.269
  513.750    0.256    0.334  152.298   81.914   14.962
  514.000    0.263    0.347  152.411   77.154   14.742
  514.250    0.257    0.343  152.622   70.748   14.554
  514.500    0.244    0.353  153.547   67.577   14.750
  514.750    0.191    0.349  154.473   61.902   16.205
  515.000    0.000    0.275  155.907   58.549   18.381
  515.250    0.000    0.247  157.239   50.125   20.499
  515.500    0.000    0.222  156.639   36.145   22.185
  515.750    0.023    0.203  156.240   26.622   23.921
  516.000    0.041    0.213  155.434   24.857   23.928
  516.250    0.056    0.230  155.138   30.421   23.139
  516.500    0.058    0.240  155.148   33.785   21.073
  516.750    0.044    0.244  154.549   33.851   18.870
  517.000    0.031    0.258  154.149   27.322   17.544
  517.250    0.045    0.281  153.446   22.991   16.651
  517.500    0.045    0.291  152.742   18.843   16.132
  517.750    0.034    0.255  152.345   21.231   16.167
  518.000    0.040    0.302  151.945   24.229   16.203
  518.250    0.094    0.340  151.242   20.570   16.236
  518.500    0.135    0.357  150.641   16.789   12.189
  518.750    0.156    0.359  150.549   20.766    9.956
  519.000    0.117    0.333  150.762   23.518    6.946
  519.250    0.072    0.304  151.279   26.761    5.127
  519.500    0.044    0.290  152.003   29.943    3.849
  519.750    0.092    0.342  152.010   30.375    3.234
  520.000    0.141    0.369  151.715   23.846    2.874
  520.250    0.172    0.395  150.908   20.370    2.652
  520.500    0.193    0.408  149.493   21.841    2.531
  520.750    0.205    0.438  148.585   22.763    2.561
  521.000    0.217    0.465  147.883   22.341    2.547
  521.250    0.221    0.439  147.892   21.247    2.543
  521.500    0.224    0.383  148.918   23.207    2.534
  521.750    0.223    0.393  150.964   24.251    2.437
  522.000    0.218    0.430  152.092   18.577    2.321
  522.250    0.213    0.451  153.018   15.956    2.174
  522.500    0.214    0.448  153.435   16.084    2.044
  522.750    0.225    0.458  152.935   16.639    1.908
  523.000    0.219    0.455  152.028   15.423    1.828
  523.250    0.218    0.442  149.593   13.474    1.751
  523.500    0.241    0.454  148.280   12.074    1.713
  523.750    0.240    0.466  147.781   12.080    1.729
  524.000    0.223    0.474  148.298   12.818    1.844
  524.250    0.209    0.475  148.613   13.862    2.022
  524.500    0.202    0.465  148.927   14.723    2.188
  524.750    0.172    0.452  149.447   15.034    2.377
  525.000    0.151    0.403  149.862   15.039    2.510
  525.250    0.140    0.389  150.481   16.144    2.637
  525.500    0.141    0.396  152.221   17.127    2.545
  525.750    0.152    0.398  153.859   17.254    2.224
  526.000    0.184    0.433  154.173   15.490    2.041
  526.250    0.207    0.452  153.368   14.151    1.904
  526.500    0.204    0.425  150.222   12.813    1.818
  526.750    0.223    0.429  151.148   12.147    1.774
  527.000    0.242    0.448  152.278   13.129    1.829
  527.250    0.234    0.444  154.220   14.478    1.917
  527.500    0.214    0.418  155.654   15.766    1.965
  527.750    0.190    0.421  154.646   15.894    2.064
  528.000    0.178    0.432  153.331   15.777    2.176
  528.250    0.197    0.415  153.748   14.439    2.294
  528.500    0.127    0.361  154.163   12.979    2.450
  528.750    0.070    0.334  154.275   11.885    2.677
  529.000    0.052    0.329  155.098   11.036    2.935
  529.250    0.086    0.349  155.616   11.651    3.100
  529.500    0.096    0.349  155.625   16.727    3.281
  529.750    0.098    0.356  155.126   21.435    3.439
  530.000    0.103    0.337  154.016   25.960    3.538
  530.250    0.092    0.310  152.702   29.813    3.572
  530.500    0.086    0.300  153.118   32.446    3.527
  530.750    0.101    0.334  153.941   32.328    3.436
  531.000    0.123    0.382  154.358   29.525    3.336
  531.250    0.174    0.405  153.450   27.820    3.256
  531.500    0.205    0.417  152.340   26.726    3.221
  531.750    0.182    0.405  151.740   24.533    3.173
  532.000    0.173    0.388  151.342   21.301    2.837
  532.250    0.193    0.374  151.146   23.018    2.657
