~VERSION INFORMATION
 VERS.                 2.0:   CWLS LOG ASCII STANDARD -VERSION 2.0
 WRAP.                  NO:   ONE LINE PER DEPTH STEP
~WELL INFORMATION BLOCK
#MNEM.UNIT           DATA                    DESCRIPTION OF MNEMONIC
#---------    -------------------            -------------------------------
# Generated from Intellog Unique Number	CN_94_101/WELL/3368
WELL.         SHELL CANADA LTD.              : Well_name    - WELL
LOC .         00/08-07-095-15W4/0            : Location     - LOCATION
UWI .         00/08-07-095-15W400            : Uwi          - UNIQUE WELL ID
ENTR.         JOETTE                         : Entered      - ENTERED BY
SRVC.         SCHLUMBERGER                   : Scn          - SERVICE COMPANY
DATE.         07/24/92                       : Date         - LOG DATE
STRT.F        300                            : top_depth    - START DEPTH
STOP.F        1049.67                        : bot_depth    - STOP DEPTH
STEP.F        0.82                           : increment    - STEP LENGTH
 NULL. -999.2500:NULL Value
~CURVE INFORMATION BLOCK
#MNEM UNIT       ERCB CURVE CODE    CURVE DESCRIPTION
#-----------   ------------------   ----------------------------------
DEPT.F        00 001 00 00         : DEPTH        - DEPTH
ILD .OHMM     00 120 00 00         : RESD         - DEEP RESISTIVITY (DIL)
GR  .API      00 310 00 00         : GR           - GAMMA RAY
DPHI.V/V      00 890 00 00         : PHID         - DENSITY POROSITY (SANDSTONE)
NPHI.V/V      00 330 00 00         : PHIN         - NEUTRON POROSITY (SANDSTONE)
~PARAMETER INFORMATION
#MNEM.UNIT           DATA             DESCRIPTION OF MNEMONIC
#---------         -----------     ------------------------------
GL  .F        1870.5               : gl           - GROUND LEVEL ELEVATION
EREF.F        1880.7               : kb           - ELEVATION OF DEPTH REFERENCE
DATM.F        1880.7               : datum        - DATUM ELEVATION
TDD .F        1063                 : tdd          - TOTAL DEPTH DRILLER
RUN .         ONE                  : Run          - RUN NUMBER
ENG .         JO                   : Engineer     - RECORDING ENGINEER
WIT .         TIM                  : Witness      - WITNESSED BY
MUD .         GEL                  : Mud_type     - MUD TYPE
MATR.         SANDSTONE            : Logunit      - NEUTRON MATRIX
TMAX.F        55                   : BHT          - MAXIMUM RECORDED TEMPERATURE
BHTD.F        1063                 : BHTDEP       - MAXIMUM RECORDED TEMPERATURE
RMT .F        50                   : MDTP         - TEMPERATURE OF MUD
MUDD.LB/G     9.6                  : MWT          - MUD DENSITY
NEUT.         1                    : NEUTRON      - NEUTRON TYPE
RESI.         0                    : RESIST       - RESISTIVITY TYPE
RM  .OHMM     1.5                  : RM           - RESISTIVITY OF MUD
RMC .OHMM     1.5                  : RMC          - RESISTIVITY OF MUD CAKE
RMF .OHMM     1.5                  : RMF          - RESISTIVITY OF MUD FILTRATE
SUFT.F        39.2                 : SUFT         - SURFACE TEMPERATURE
~A  DEPTH     RESD       GR     PHID     PHIN
# ...
  442.717   13.153   69.965    0.301    0.000
  443.537   12.031   74.851    0.298    0.000
  444.357   11.409   78.517    0.297    0.000
  445.177    9.366   73.692    0.307    0.000
  445.997    9.209   73.103    0.325    0.000
  446.818    9.553   80.412    0.338    0.000
  447.638    9.562   84.697    0.345    0.000
  448.458    9.395   86.542    0.325    0.000
  449.278    9.234   90.810    0.316    0.000
  450.098    9.242   90.227    0.307    0.000
  450.919    9.417   94.500    0.308    0.000
  451.739    9.595  101.815    0.329    0.000
  452.559   11.291   99.417    0.337    0.000
  453.379   11.098   97.007    0.345    0.000
  454.199   10.711   92.176    0.350    0.000
  455.020    9.117   88.564    0.346    0.000
  455.840    7.622   86.768    0.343    0.000
  456.660    7.358   83.757    0.343    0.000
  457.480    8.815   81.954    0.346    0.000
  458.301    9.652   76.516    0.349    0.000
  459.121    9.488   72.904    0.343    0.000
  459.941    8.995   80.820    0.327    0.000
  460.761    8.377   92.984    0.328    0.000
  461.581    7.942   94.835    0.334    0.000
  462.402    7.530   90.605    0.343    0.000
  463.222    7.402   84.565    0.349    0.000
  464.042    9.029   80.347    0.351    0.000
  464.862   10.434   83.400    0.343    0.000
  465.682   12.276   94.957    0.330    0.000
  466.503   11.851  102.265    0.335    0.000
  467.323    9.219  101.082    0.331    0.000
  468.143    7.174   94.429    0.329    0.000
  468.963    8.143   90.812    0.326    0.000
  469.783    7.184   85.373    0.307    0.000
  470.604    5.489   92.681    0.311    0.000
  471.424    6.458  106.667    0.333    0.000
  472.244    7.600  110.345    0.338    0.000
  473.064    6.950  113.398    0.324    0.000
  473.885    6.244  120.707    0.319    0.000
  474.705    5.509  120.124    0.315    0.000
  475.525    6.600  112.870    0.308    0.000
  476.345    7.491  111.687    0.315    0.000
  477.165    8.056  114.139    0.325    0.000
  477.986    8.208  115.378    0.335    0.000
  478.806    7.783  115.402    0.334    0.000
  479.626    6.993  112.998    0.313    0.000
  480.446    6.061  111.202    0.308    0.000
  481.266    6.755  111.232    0.306    0.000
  482.087    8.092  109.429    0.310    0.000
  482.907    7.673  113.096    0.314    0.000
  483.727    6.770  116.762    0.321    0.000
  484.547    5.867  113.157    0.327    0.000
  485.367    6.310  112.562    0.332    0.000
  486.188    6.093  114.407    0.340    0.000
  487.008    5.673  116.860    0.319    0.000
  487.828    8.900  123.567    0.312    0.000
  488.648    9.571  130.274    0.303    0.000
  489.469    8.913  128.472    0.294    0.000
  490.289    5.294  129.716    0.295    0.000
  491.109    4.270  124.271    0.300    0.000
  491.929    4.049  117.012    0.314    0.000
  492.749    3.839  108.538    0.325    0.000
  493.570    3.641  103.100    0.328    0.000
  494.390    5.920  121.953    0.330    0.000
  495.210    9.803  120.150    0.336    0.000
  496.030   14.315  113.510    0.334    0.000
  496.850   18.762  113.522    0.331    0.000
  497.671   22.075  112.333    0.340    0.000
  498.491   22.908  109.328    0.347    0.000
  499.311   25.078  103.282    0.351    0.000
  500.131   26.487   89.947    0.357    0.000
  500.951   26.511   79.659    0.371    0.000
  501.772   24.248   68.144    0.382    0.000
  502.592   22.577   59.070    0.384    0.000
  503.412   22.598   57.273    0.381    0.000
  504.232   23.024   52.441    0.387    0.000
  505.052   23.463   54.287    0.383    0.000
  505.873   23.911   57.953    0.378    0.000
  506.693   24.358   63.440    0.377    0.000
  507.513   25.268   64.679    0.374    0.000
  508.333   25.282   59.859    0.374    0.000
  509.154   26.708   57.456    0.381    0.000
  509.974   28.214   55.653    0.385    0.000
  510.794   27.731   53.249    0.386    0.000
  511.614   26.775   50.239    0.387    0.000
  512.434   26.785   52.697    0.386    0.000
  513.255   26.331   51.508    0.386    0.000
  514.075   26.833   49.098    0.389    0.000
  514.895   28.866   50.955    0.389    0.000
  515.715   30.477   50.367    0.388    0.000
  516.535   32.775   49.177    0.388    0.000
  517.356   33.394   54.057    0.386    0.000
  518.176   34.018   53.481    0.387    0.000
  518.996   31.126   52.892    0.388    0.000
  519.816   28.986   53.536    0.388    0.000
  520.636   28.485   51.745    0.388    0.000
  521.457   28.505   51.763    0.388    0.000
  522.277   28.531   55.430    0.388    0.000
  523.097   28.546   58.483    0.387    0.000
  523.917   29.096   59.727    0.391    0.000
  524.738   28.587   58.538    0.395    0.000
  525.558   25.686   56.134    0.392    0.000
  526.378   23.494   50.696    0.370    0.000
  527.198   23.511   54.362    0.350    0.000
  528.018   23.108   56.814    0.330    0.000
  528.839   20.026   56.839    0.306    0.000
  529.659   23.146   57.470    0.226    0.000
  530.479   23.579   67.212    0.273    0.000
  531.299   24.032   72.706    0.345    0.000
  532.119   24.050   63.619    0.380    0.000
  532.940   24.072   53.931    0.380    0.000
  533.760   24.080   57.598    0.380    0.000
  534.580   24.539   58.229    0.382    0.000
  535.400   24.553   56.439    0.383    0.000
  536.220   24.579   54.642    0.383    0.000
  537.041   24.593   52.852    0.383    0.000
  537.861   24.619   52.263    0.380    0.000
  538.681   24.632   53.507    0.378    0.000
  539.501   24.646   55.960    0.374    0.000
  540.322   24.228   56.591    0.366    0.000
  541.142   23.389   56.008    0.363    0.000
  541.962   23.414   54.212    0.365    0.000
  542.782   23.005   53.629    0.374    0.000
  543.602   21.816   53.046    0.375    0.000
  544.423   21.443   53.071    0.372    0.000
  545.243   22.648   54.922    0.372    0.000
  546.063   19.623   56.161    0.378    0.000
  546.883   11.044   57.399    0.372    0.000
  547.703    6.106   59.851    0.329    0.000
  548.524    9.074   73.229    0.316    0.000
  549.344    9.246  103.002    0.317    0.000
  550.164    9.087  114.560    0.326    0.000
  550.984    9.602  113.977    0.331    0.000
  551.804    7.204  103.076    0.266    0.000
  552.625    4.854  103.713    0.223    0.000
  553.445    4.439  111.021    0.218    0.000
  554.265    4.364  124.399    0.253    0.000
  555.085    4.366  131.101    0.279    0.000
  555.906    4.215  133.559    0.320    0.000
  556.726    3.997  136.011    0.295    0.000
  557.546    3.930  139.678    0.280    0.455
  558.366    3.932  140.315    0.283    0.486
  559.186    4.007  138.519    0.294    0.436
  560.007    4.082  137.341    0.300    0.443
  560.827    4.471  138.573    0.298    0.467
  561.647    4.637  137.985    0.300    0.490
  562.467    4.724  134.974    0.300    0.494
  563.287    4.480  127.715    0.304    0.513
  564.108    4.404  135.023    0.314    0.536
  564.928    4.735  135.660    0.305    0.456
  565.748    5.002  131.436    0.306    0.465
  566.568    4.334  133.281    0.314    0.460
  567.388    4.109  132.705    0.322    0.430
  568.209    4.113  131.509    0.327    0.417
  569.029    4.116  130.319    0.325    0.423
  569.849    4.120  139.454    0.315    0.434
  570.669    4.049  137.051    0.304    0.442
  571.490    4.051  135.254    0.300    0.453
  572.310    4.055  143.777    0.312    0.468
  573.130    4.058  147.449    0.322    0.480
  573.950    4.060  143.825    0.327    0.452
  574.770    4.065  137.780    0.330    0.419
  575.591    4.140  133.555    0.309    0.406
  576.411    4.143  130.545    0.308    0.428
  577.231    4.299  128.153    0.310    0.434
  578.051    4.460  131.813    0.305    0.422
  578.871    4.543  133.052    0.313    0.415
  579.692    4.714  131.255    0.312    0.412
  580.512    4.803  127.644    0.312    0.406
  581.332    4.720  125.234    0.316    0.441
  582.152    4.640  124.651    0.305    0.473
  582.972    4.990  124.682    0.308    0.489
  583.793    5.563  125.319    0.311    0.489
  584.613    5.876  122.302    0.315    0.480
