~VERSION INFORMATION
 VERS.                 2.0:   CWLS LOG ASCII STANDARD -VERSION 2.0
 WRAP.                  NO:   ONE LINE PER DEPTH STEP
~WELL INFORMATION BLOCK
#MNEM.UNIT           DATA                    DESCRIPTION OF MNEMONIC
#---------    -------------------            -------------------------------
# Generated from Intellog Unique Number	CW_82_90/WELL/693
WELL.         08-34-083-24W4                 : Well_name    - WELL
LOC .         00/08-34-083-24W4/0            : Location     - LOCATION
UWI .         00/08-34-083-24W4/0            : Uwi          - UNIQUE WELL ID
ENTR.         JAYE                           : Entered      - ENTERED BY
SRVC.         SCHLUMBERGER                   : Scn          - SERVICE COMPANY
DATE.         01 MAR 86                      : Date         - LOG DATE
STRT.M        180                            : top_depth    - START DEPTH
STOP.M        395                            : bot_depth    - STOP DEPTH
STEP.M        0.25                           : increment    - STEP LENGTH
 NULL. -999.2500:NULL Value
~CURVE INFORMATION BLOCK
#MNEM UNIT       ERCB CURVE CODE    CURVE DESCRIPTION
#-----------   ------------------   ----------------------------------
DEPT.M        00 001 00 00         : DEPTH        - DEPTH
CALI.MM       00 280 01 00         : CAL          - CALIPER
GR  .API      00 310 00 00         : GR           - GAMMA RAY
NPHI.V/V      00 330 00 00         : PHIN         - NEUTRON POROSITY (SANDSTONE)
DPHI.V/V      00 890 00 00         : PHID         - DENSITY POROSITY (SANDSTONE)
ILD .OHMM     00 120 00 00         : RESD         - DEEP RESISTIVITY (DIL)
~PARAMETER INFORMATION
#MNEM.UNIT           DATA             DESCRIPTION OF MNEMONIC
#---------         -----------     ------------------------------
GL  .M        564.16               : gl           - GROUND LEVEL ELEVATION
EREF.M        567.76               : kb           - ELEVATION OF DEPTH REFERENCE
DATM.M        564.16               : datum        - DATUM ELEVATION
TDD .M        398                  : tdd          - TOTAL DEPTH DRILLER
RUN .         ONE                  : Run          - RUN NUMBER
ENG .         MILROSS              : Engineer     - RECORDING ENGINEER
WIT .         DZIUBA               : Witness      - WITNESSED BY
BASE.         SL                   : Branch       - HOME BASE OF LOGGING UNIT
MUD .         GEL CHEM             : Mud_type     - MUD TYPE
MATR.         SANDSTONE            : Logunit      - NEUTRON MATRIX
TMAX.C        21                   : BHT          - MAXIMUM RECORDED TEMPERATURE
BHTD.M        398                  : BHTDEP       - MAXIMUM RECORDED TEMPERATURE
RMT .C        18                   : MDTP         - TEMPERATURE OF MUD
MUDD.KG/M     1130                 : MWT          - MUD DENSITY
NEUT.         1                    : NEUTRON      - NEUTRON TYPE
RESI.         0                    : RESIST       - RESISTIVITY TYPE
RM  .OHMM     4.99                 : RM           - RESISTIVITY OF MUD
RMC .OHMM     0                    : RMC          - RESISTIVITY OF MUD CAKE
RMF .OHMM     4.75                 : RMF          - RESISTIVITY OF MUD FILTRATE
SUFT.C        0                    : SUFT         - SURFACE TEMPERATURE
~A  DEPTH      CAL       GR     PHIN     PHID     RESD
# ...
  326.000  280.393   75.376    0.391    0.170   19.680
  326.250  280.413   76.227    0.396    0.179   19.362
  326.500  281.252   79.514    0.413    0.181   18.841
  326.750  281.252   82.732    0.425    0.184   18.094
  327.000  281.388   84.327    0.417    0.193   17.471
  327.250  281.198   83.868    0.399    0.189   16.441
  327.500  279.191   83.287    0.385    0.171   16.024
  327.750  275.627   82.329    0.394    0.158   15.591
  328.000  275.627   80.685    0.405    0.156   15.400
  328.250  264.547   78.478    0.425    0.162   15.498
  328.500  264.622   70.098    0.311    0.152   15.682
  328.750  266.137   59.972    0.237    0.041   17.594
  329.000  269.753   54.339    0.193    0.016   20.035
  329.250  270.421   57.933    0.170    0.014   23.468
  329.500  269.866   66.518    0.213    0.040   27.951
  329.750  269.174   87.386    0.256    0.106   30.204
  330.000  268.233   84.806    0.354    0.120   29.389
  330.250  269.131   78.111    0.370    0.102   27.339
  330.500  275.678   79.895    0.364    0.071   22.812
  330.750  277.156   82.434    0.357    0.084   19.688
  331.000  279.946   82.913    0.373    0.105   17.874
  331.250  282.070   83.070    0.395    0.147   16.412
  331.500  283.693   82.921    0.415    0.167   15.584
  331.750  287.241   82.649    0.440    0.174   14.742
  332.000  287.875   83.812    0.452    0.174   13.922
  332.250  290.021   85.348    0.425    0.168   13.495
  332.500  292.809   88.010    0.382    0.158   13.230
  332.750  294.727   90.916    0.407    0.160   13.142
  333.000  298.243   90.522    0.420    0.181   13.198
  333.250  299.530   87.751    0.412    0.189   13.260
  333.500  299.956   83.304    0.418    0.186   13.467
  333.750  298.938   80.160    0.412    0.171   14.045
  334.000  292.382   82.197    0.394    0.103   14.618
  334.250  288.586   83.548    0.381    0.119   15.709
  334.500  282.651   82.594    0.406    0.166   16.754
  334.750  279.794   78.699    0.397    0.158   17.668
  335.000  276.949   77.116    0.359    0.142   18.703
  335.250  277.852   81.649    0.344    0.136   19.576
  335.500  279.993   85.057    0.384    0.208   20.532
  335.750  279.993   86.466    0.391    0.215   21.251
  336.000  280.035   85.636    0.382    0.209   21.709
  336.250  278.761   85.550    0.370    0.218   21.888
  336.500  279.655   87.521    0.357    0.250   21.778
  336.750  281.262   88.308    0.345    0.243   21.313
  337.000  282.888   87.599    0.355    0.229   21.168
  337.250  284.244   86.204    0.365    0.209   20.829
  337.500  284.578   86.805    0.378    0.205   20.191
  337.750  284.578   86.909    0.373    0.206   19.137
  338.000  285.444   85.450    0.365    0.209   18.618
  338.250  280.142   83.248    0.382    0.196   18.599
  338.500  278.100   81.289    0.407    0.143   19.071
  338.750  273.187   77.464    0.330    0.041   19.665
  339.000  274.911   81.991    0.264    0.018   20.315
  339.250  280.169   87.956    0.277    0.087   20.178
  339.500  284.805   92.861    0.406    0.141   19.304
  339.750  289.233   93.774    0.419    0.187   17.558
  340.000  293.036   92.818    0.417    0.182   15.703
  340.250  288.853   89.362    0.402    0.178   13.888
  340.500  285.078   90.088    0.388    0.178   13.614
  340.750  284.314   91.689    0.395    0.181   14.118
  341.000  284.187   90.795    0.402    0.178   14.723
  341.250  283.519   87.213    0.402    0.166   15.039
  341.500  282.860   80.145    0.389    0.146   15.363
  341.750  281.305   83.055    0.361    0.090   15.782
  342.000  281.224   85.588    0.375    0.121   15.565
  342.250  281.224   85.507    0.415    0.125   15.401
  342.500  281.472   86.040    0.418    0.142   15.408
  342.750  283.235   83.464    0.438    0.159   16.159
  343.000  283.468   77.513    0.341    0.134   17.008
  343.250  283.788   77.865    0.311    0.069   17.904
  343.500  283.908   82.460    0.313    0.088   18.531
  343.750  284.081   86.237    0.355    0.139   18.269
  344.000  285.023   89.088    0.414    0.178   17.125
  344.250  285.365   89.690    0.425    0.193   16.261
  344.500  285.365   89.046    0.429    0.198   15.501
  344.750  287.576   87.775    0.433    0.194   14.887
  345.000  288.778   86.691    0.429    0.179   14.588
  345.250  289.885   86.917    0.413    0.156   13.907
  345.500  290.780   89.323    0.390    0.128   13.380
  345.750  292.006   92.917    0.396    0.129   13.044
  346.000  292.006   95.513    0.410    0.159   12.763
  346.250  293.171   94.744    0.425    0.174   12.488
  346.500  293.980   92.792    0.429    0.154   12.289
  346.750  294.669   92.952    0.410    0.115   12.181
  347.000  295.337   92.808    0.406    0.123   12.213
  347.250  297.584   93.345    0.405    0.151   12.524
  347.500  300.244   93.947    0.402    0.166   12.988
  347.750  302.208   93.176    0.403    0.167   13.292
  348.000  302.876   93.655    0.409    0.157   13.501
  348.250  303.982   94.002    0.404    0.140   13.740
  348.500  304.356   94.350    0.415    0.143   13.983
  348.750  304.853   93.770    0.406    0.162   14.259
  349.000  305.635   92.936    0.397    0.162   14.216
  349.250  306.115   94.473    0.437    0.152   13.859
  349.500  306.284   93.200    0.424    0.142   13.361
  349.750  306.284   91.994    0.391    0.135   12.975
  350.000  306.430   93.159    0.390    0.144   12.717
  350.250  306.939   95.315    0.387    0.147   12.400
  350.500  306.559   99.034    0.383    0.138   12.314
  350.750  306.003  103.441    0.387    0.127   12.324
  351.000  305.565  103.369    0.385    0.136   12.378
  351.250  305.208  101.775    0.384    0.162   12.527
  351.500  303.558   91.024    0.385    0.177   12.702
  351.750  303.256   89.569    0.375    0.180   12.951
  352.000  300.737   88.925    0.377    0.171   13.354
  352.250  298.723   86.715    0.390    0.160   14.057
  352.500  295.901   81.203    0.347    0.146   15.304
  352.750  291.602   78.375    0.323    0.130   17.202
  353.000  286.488   80.722    0.334    0.175   19.335
  353.250  283.421   82.951    0.350    0.190   21.326
  353.500  278.816   84.607    0.365    0.183   22.916
  353.750  274.415   86.838    0.374    0.197   23.326
  354.000  270.240   87.491    0.379    0.206   23.341
  354.250  267.916   79.053    0.384    0.212   23.799
  354.500  265.802   71.985    0.380    0.203   25.148
  354.750  264.717   64.601    0.311    0.072   27.120
  355.000  264.269   61.964    0.288    0.018   29.972
  355.250  265.164   64.183    0.253    0.002   34.973
  355.500  267.839   65.528    0.247    0.027   44.565
  355.750  270.280   64.633    0.262    0.066   62.011
  356.000  270.975   60.434    0.282    0.124   67.522
  356.250  272.082   58.357    0.307    0.121   69.359
  356.500  274.323   58.020    0.288    0.079   67.870
  356.750  274.496   59.308    0.257    0.060   65.789
  357.000  270.953   61.713    0.231    0.048   64.011
  357.250  270.165   66.370    0.229    0.049   58.988
  357.500  270.958   74.516    0.341    0.179   45.755
  357.750  273.729   79.231    0.369    0.197   34.898
  358.000  276.285   81.459    0.380    0.212   28.580
  358.250  275.833   79.380    0.385    0.216   24.529
  358.500  273.033   75.547    0.396    0.216   22.563
  358.750  272.445   69.226    0.407    0.189   22.201
  359.000  271.789   64.653    0.398    0.154   23.153
  359.250  270.704   58.582    0.354    0.020   25.638
  359.500  271.131   50.137    0.252   -0.005   31.466
  359.750  271.463   46.372    0.226   -0.006   54.003
  360.000  273.396   47.409    0.214    0.006   66.907
  360.250  275.643   54.622    0.207    0.026   69.513
  360.500  274.881   64.577    0.231    0.046   66.628
  360.750  273.289   72.161    0.272    0.054   61.403
  361.000  272.422   76.069    0.303    0.065   49.444
  361.250  271.972   76.358    0.347    0.123   34.729
  361.500  272.246   76.589    0.400    0.179   34.729
  361.750  273.040   77.064    0.388    0.170   22.312
  362.000  273.007   80.346    0.376    0.160   20.179
  362.250  272.700   84.873    0.391    0.157   18.285
