~VERSION INFORMATION
 VERS.                 2.0:   CWLS LOG ASCII STANDARD -VERSION 2.0
 WRAP.                  NO:   ONE LINE PER DEPTH STEP
~WELL INFORMATION BLOCK
#MNEM.UNIT           DATA                    DESCRIPTION OF MNEMONIC
#---------    -------------------            -------------------------------
# Generated from Intellog Unique Number	CS_77_79/WELL/2978
WELL.         CDNOXY VINEFRED                : Well_name    - WELL
LOC .         00/06-03-077-03W4/0            : Location     - LOCATION
UWI .         00/06-03-077-03W4/0            : Uwi          - UNIQUE WELL ID
ENTR.         TIM                            : Entered      - ENTERED BY
SRVC.         SCHLUMBERGER                   : Scn          - SERVICE COMPANY
STRT.M        210                            : top_depth    - START DEPTH
STOP.M        485                            : bot_depth    - STOP DEPTH
STEP.M        0.25                           : increment    - STEP LENGTH
 NULL. -999.2500:NULL Value
~CURVE INFORMATION BLOCK
#MNEM UNIT       ERCB CURVE CODE    CURVE DESCRIPTION
#-----------   ------------------   ----------------------------------
DEPT.M        00 001 00 00         : DEPTH        - DEPTH
GR  .API      00 310 00 00         : GR           - GAMMA RAY
NPHI.V/V      00 330 00 00         : PHIN         - NEUTRON POROSITY (DOLOMITE)
DPHI.V/V      00 890 00 00         : PHID         - DENSITY POROSITY (DOLOMITE)
ILD .OHMM     00 120 00 00         : RESD         - DEEP RESISTIVITY (DIL)
~PARAMETER INFORMATION
#MNEM.UNIT           DATA             DESCRIPTION OF MNEMONIC
#---------         -----------     ------------------------------
GL  .M        587.4                : gl           - GROUND LEVEL ELEVATION
EREF.M        590.4                : kb           - ELEVATION OF DEPTH REFERENCE
DATM.M        590.4                : datum        - DATUM ELEVATION
TDD .M        492.2                : tdd          - TOTAL DEPTH DRILLER
RUN .         ONE                  : Run          - RUN NUMBER
ENG .         BILL                 : Engineer     - RECORDING ENGINEER
WIT .         JIM                  : Witness      - WITNESSED BY
MUD .         GEL                  : Mud_type     - MUD TYPE
MATR.         DOLOMITE             : Logunit      - NEUTRON MATRIX
TMAX.C        20                   : BHT          - MAXIMUM RECORDED TEMPERATURE
BHTD.M        492                  : BHTDEP       - MAXIMUM RECORDED TEMPERATURE
MATR.         1                    : LOGUNIT      - NEUTRON MATRIX
RMT .C        20                   : MDTP         - TEMPERATURE OF MUD
NEUT.         1                    : NEUTRON      - NEUTRON TYPE
RESI.         4.33                 : RESIST       - RESISTIVITY TYPE
RMC .OHMM     3.65                 : RMC          - RESISTIVITY OF MUD CAKE
RMF .OHMM     3.62                 : RMF          - RESISTIVITY OF MUD FILTRATE
SUFT.C        15                   : SUFT         - SURFACE TEMPERATURE
~A  DEPTH       GR     PHIN     PHID     RESD
# ...
  384.000   48.102    0.363    0.308    2.650
  384.250   43.806    0.355    0.314    2.602
  384.500   38.282    0.354    0.326    2.555
  384.750   42.583    0.363    0.319    2.556
  385.000   50.569    0.371    0.314    2.509
  385.250   49.344    0.380    0.325    2.464
  385.500   45.662    0.374    0.332    2.465
  385.750   41.367    0.366    0.337    2.420
  386.000   35.229    0.365    0.337    2.422
  386.250   34.618    0.371    0.335    2.423
  386.500   34.622    0.372    0.333    2.424
  386.750   34.624    0.361    0.332    2.380
  387.000   35.241    0.355    0.328    2.381
  387.250   37.701    0.359    0.322    2.382
  387.500   40.159    0.364    0.319    2.383
  387.750   49.374    0.366    0.319    2.384
  388.000   53.675    0.361    0.319    2.385
  388.250   52.450    0.355    0.320    2.386
  388.500   37.100    0.355    0.321    2.388
  388.750   33.419    0.361    0.322    2.389
  389.000   30.352    0.365    0.322    2.390
  389.250   31.582    0.365    0.321    2.391
  389.500   35.271    0.354    0.319    2.392
  389.750   38.344    0.356    0.319    2.348
  390.000   40.803    0.364    0.320    2.350
  390.250   42.649    0.365    0.321    2.307
  390.500   43.265    0.363    0.324    2.308
  390.750   42.654    0.359    0.319    2.309
  391.000   41.430    0.363    0.317    2.311
  391.250   41.431    0.369    0.317    2.268
  391.500   42.049    0.375    0.325    2.269
  391.750   42.666    0.377    0.332    2.271
  392.000   42.668    0.380    0.334    2.272
  392.250   42.671    0.380    0.328    2.273
  392.500   42.060    0.377    0.330    2.274
  392.750   42.678    0.373    0.337    2.275
  393.000   43.295    0.366    0.339    2.276
  393.250   43.297    0.366    0.344    2.277
  393.500   43.302    0.370    0.344    2.235
  393.750   40.848    0.373    0.345    2.237
  394.000   39.622    0.378    0.343    2.196
  394.250   37.783    0.387    0.342    2.197
  394.500   40.242    0.397    0.343    2.198
  394.750   42.087    0.404    0.350    2.199
  395.000   44.547    0.400    0.355    2.159
  395.250   45.163    0.393    0.354    2.160
  395.500   45.166    0.388    0.349    2.161
  395.750   44.557    0.387    0.347    2.162
  396.000   44.559    0.389    0.349    2.123
  396.250   44.562    0.397    0.351    2.124
  396.500   42.723    0.393    0.353    2.125
  396.750   40.882    0.387    0.355    2.126
  397.000   38.429    0.392    0.356    2.127
  397.250   40.275    0.395    0.356    2.128
  397.500   42.121    0.394    0.351    2.169
  397.750   43.352    0.383    0.345    2.211
  398.000   44.582    0.362    0.342    2.254
  398.250   45.198    0.360    0.342    2.341
  398.500   45.816    0.361    0.342    2.431
  398.750   45.818    0.365    0.340    2.622
  399.000   47.050    0.368    0.340    2.828
  399.250   48.895    0.367    0.337    2.936
  399.500   52.583    0.366    0.333    3.107
  399.750   58.726    0.366    0.320    3.288
  400.000   64.870    0.371    0.287    3.481
  400.250   72.242    0.378    0.255    3.483
  400.500   77.772    0.385    0.249    3.419
  400.750   79.003    0.381    0.251    3.295
  401.000   75.936    0.382    0.259    3.059
  401.250   70.412    0.392    0.266    2.947
  401.500   63.045    0.403    0.282    2.736
  401.750   57.521    0.394    0.325    2.539
  402.000   50.155    0.379    0.349    2.447
  402.250   41.560    0.371    0.343    2.358
  402.500   33.580    0.372    0.337    2.315
  402.750   36.041    0.371    0.338    2.274
  403.000   37.272    0.368    0.344    2.232
  403.250   37.275    0.368    0.351    2.233
  403.500   37.892    0.367    0.354    2.193
  403.750   38.508    0.362    0.355    2.194
  404.000   37.282    0.373    0.355    2.155
  404.250   31.759    0.383    0.355    2.155
  404.500   25.620    0.383    0.355    2.116
  404.750   39.748    0.382    0.350    2.078
  405.000   47.120    0.384    0.349    2.079
  405.250   51.421    0.387    0.345    2.041
  405.500   54.495    0.384    0.344    2.042
  405.750   55.112    0.380    0.344    2.043
  406.000   50.816    0.376    0.346    2.044
  406.250   45.292    0.372    0.349    2.045
  406.500   35.470    0.374    0.351    2.046
  406.750   34.246    0.379    0.354    2.047
  407.000   36.090    0.380    0.355    2.048
  407.250   39.164    0.379    0.354    2.049
  407.500   40.394    0.384    0.352    2.050
  407.750   41.012    0.391    0.352    2.051
  408.000   41.014    0.396    0.352    2.052
  408.250   39.789    0.383    0.351    2.053
  408.500   37.335    0.371    0.345    2.092
  408.750   36.724    0.378    0.343    2.094
  409.000   37.956    0.389    0.345    2.094
  409.250   39.187    0.394    0.350    2.135
  409.500   42.875    0.399    0.356    2.136
  409.750   45.948    0.406    0.369    2.137
  410.000   47.793    0.419    0.388    2.178
  410.250   52.095    0.435    0.377    2.221
  410.500   56.396    0.419    0.357    2.264
  410.750   62.540    0.384    0.351    2.264
  411.000   66.227    0.358    0.338    2.308
  411.250   67.459    0.318    0.316    2.398
  411.500   61.934    0.299    0.294    2.444
  411.750   50.269    0.311    0.280    2.491
  412.000   46.588    0.337    0.306    2.588
  412.250   44.135    0.349    0.310    2.738
  412.500   47.208    0.358    0.304    2.844
  412.750   59.494    0.345    0.291    2.954
  413.000   63.181    0.339    0.278    3.068
  413.250   68.710    0.346    0.280    3.128
  413.500   71.170    0.350    0.279    3.188
  413.750   72.402    0.357    0.276    3.189
  414.000   74.861    0.368    0.282    3.132
  414.250   77.320    0.378    0.290    3.075
  414.500   73.024    0.384    0.297    3.020
  414.750   73.027    0.383    0.297    2.965
  415.000   76.715    0.384    0.285    2.966
  415.250   73.646    0.390    0.291    2.968
  415.500   66.894    0.394    0.299    2.969
  415.750   66.284    0.374    0.306    2.970
  416.000   78.569    0.377    0.271    2.972
  416.250   81.028    0.400    0.254    2.973
  416.500   85.329    0.402    0.258    2.974
  416.750   85.332    0.410    0.285    2.921
  417.000   69.983    0.395    0.297    2.922
  417.250   58.318    0.384    0.323    2.923
  417.500   54.636    0.385    0.300    2.925
  417.750   55.253    0.389    0.291    2.926
  418.000   58.940    0.386    0.285    2.927
  418.250   64.471    0.374    0.279    2.928
  418.500   67.543    0.362    0.264    2.929
  418.750   71.846    0.369    0.254    2.771
  419.000   73.691    0.383    0.269    2.572
  419.250   61.412    0.375    0.300    2.433
  419.500   58.345    0.366    0.327    2.389
  419.750   55.277    0.362    0.347    2.345
  420.000   51.595    0.373    0.347    2.346
  420.250   47.914    0.372    0.341    2.348
  420.500   46.689    0.373    0.336    2.349
  420.750   46.691    0.380    0.333    2.350
  421.000   50.378    0.386    0.328    2.351
  421.250   57.136    0.391    0.323    2.396
  421.500   63.894    0.374    0.322    2.397
  421.750   70.038    0.379    0.320    2.399
  422.000   68.813    0.377    0.323    2.400
  422.250   60.833    0.370    0.328    2.356
  422.500   65.749    0.368    0.329    2.314
  422.750   68.823    0.370    0.330    2.272
  423.000   71.282    0.372    0.329    2.272
  423.250   74.356    0.373    0.329    2.231
  423.500   76.815    0.376    0.329    2.232
  423.750   76.204    0.380    0.329    2.233
  424.000   73.135    0.385    0.329    2.235
  424.250   68.226    0.385    0.329    2.235
  424.500   63.929    0.390    0.328    2.279
  424.750   60.248    0.389    0.327    2.280
  425.000   57.181    0.384    0.328    2.281
  425.250   55.955    0.379    0.330    2.282
  425.500   54.730    0.378    0.334    2.326
  425.750   53.506    0.376    0.336    2.327
  426.000   52.280    0.376    0.339    2.328
  426.250   49.212    0.373    0.340    2.329
  426.500   49.829    0.367    0.335    2.330
  426.750   66.413    0.364    0.329    2.332
  427.000   95.892    0.372    0.333    2.333
  427.250   77.472    0.380    0.333    2.291
