~VERSION INFORMATION
 VERS.                 2.0:   CWLS LOG ASCII STANDARD -VERSION 2.0
 WRAP.                  NO:   ONE LINE PER DEPTH STEP
~WELL INFORMATION BLOCK
#MNEM.UNIT           DATA                    DESCRIPTION OF MNEMONIC
#---------    -------------------            -------------------------------
# Generated from Intellog Unique Number	CS_77_79/WELL/900
WELL.         DOME PETROLEUM LIMITED         : Well_name    - WELL
LOC .         00/07-19-077-16W4/0            : Location     - LOCATION
UWI .         00/07-19-077-16W4/0            : Uwi          - UNIQUE WELL ID
ENTR.         SP                             : Entered      - ENTERED BY
SRVC.         SCHLUMBERGER                   : Scn          - SERVICE COMPANY
STRT.M        240                            : top_depth    - START DEPTH
STOP.M        460                            : bot_depth    - STOP DEPTH
STEP.M        0.25                           : increment    - STEP LENGTH
 NULL. -999.2500:NULL Value
~CURVE INFORMATION BLOCK
#MNEM UNIT       ERCB CURVE CODE    CURVE DESCRIPTION
#-----------   ------------------   ----------------------------------
DEPT.M        00 001 00 00         : DEPTH        - DEPTH
ILD .OHMM     00 120 00 00         : RESD         - DEEP RESISTIVITY (DIL)
DPHI.V/V      00 890 00 00         : PHID         - DENSITY POROSITY (LIMESTONE)
NPHI.V/V      00 330 00 00         : PHIN         - NEUTRON POROSITY (LIMESTONE)
GR  .API      00 310 00 00         : GR           - GAMMA RAY
~PARAMETER INFORMATION
#MNEM.UNIT           DATA             DESCRIPTION OF MNEMONIC
#---------         -----------     ------------------------------
GL  .M        624.8                : gl           - GROUND LEVEL ELEVATION
EREF.M        628.94               : kb           - ELEVATION OF DEPTH REFERENCE
DATM.M        624.8                : datum        - DATUM ELEVATION
TDD .M        467                  : tdd          - TOTAL DEPTH DRILLER
RUN .         ONE                  : Run          - RUN NUMBER
ENG .         BILL                 : Engineer     - RECORDING ENGINEER
WIT .         JIM                  : Witness      - WITNESSED BY
MUD .         GEL                  : Mud_type     - MUD TYPE
MATR.         LIMESTONE            : Logunit      - NEUTRON MATRIX
TMAX.C        21                   : BHT          - MAXIMUM RECORDED TEMPERATURE
BHTD.M        467                  : BHTDEP       - MAXIMUM RECORDED TEMPERATURE
MATR.         1                    : LOGUNIT      - NEUTRON MATRIX
RMT .C        25                   : MDTP         - TEMPERATURE OF MUD
NEUT.         1                    : NEUTRON      - NEUTRON TYPE
RESI.         0                    : RESIST       - RESISTIVITY TYPE
RMC .OHMM     0.25                 : RMC          - RESISTIVITY OF MUD CAKE
RMF .OHMM     0.25                 : RMF          - RESISTIVITY OF MUD FILTRATE
SUFT.C        15                   : SUFT         - SURFACE TEMPERATURE
~A  DEPTH     RESD     PHID     PHIN       GR
# ...
  283.500    9.445    0.302    0.434  102.533
  283.750    9.104    0.287    0.435   92.180
  284.000    8.938    0.274    0.443   94.639
  284.250    8.614    0.274    0.450   98.922
  284.500    8.301    0.267    0.456  100.761
  284.750    8.151    0.266    0.462  101.388
  285.000    8.157    0.270    0.468  100.793
  285.250    8.160    0.267    0.468  101.418
  285.500    8.015    0.249    0.473  102.041
  285.750    8.018    0.238    0.483  102.663
  286.000    7.874    0.236    0.473  105.127
  286.250    7.878    0.231    0.460  106.964
  286.500    7.881    0.225    0.453  110.633
  286.750    8.037    0.237    0.444  117.357
  287.000    8.191    0.246    0.436  121.639
  287.250    8.832    0.246    0.446  116.780
  287.500    9.705    0.273    0.457  112.525
  287.750   10.082    0.296    0.462  108.878
  288.000   10.276    0.325    0.465   96.696
  288.250    9.720    0.344    0.456   86.344
  288.500    9.024    0.358    0.443   80.871
  288.750    8.697    0.370    0.431   71.129
  289.000    9.204    0.363    0.430   65.047
  289.250    9.740    0.336    0.441   66.281
  289.500   11.753    0.324    0.451   69.956
  289.750   14.449    0.314    0.448   73.023
  290.000   16.478    0.302    0.440   74.252
  290.250   17.439    0.275    0.432   74.875
  290.500   17.449    0.236    0.423   69.407
  290.750   16.817    0.222    0.385   63.933
  291.000   15.322    0.213    0.296   59.678
  291.250   13.960    0.226    0.274   56.035
  291.500   12.722    0.241    0.297   54.831
  291.750   12.259    0.273    0.343   57.889
  292.000   11.816    0.304    0.419   65.220
  292.250   11.820    0.320    0.445   63.410
  292.500   11.827    0.337    0.442   67.690
  292.750   11.614    0.342    0.430   66.489
  293.000   11.405    0.310    0.408   67.723
  293.250   11.199    0.294    0.387   68.953
  293.500   11.205    0.287    0.369   68.362
  293.750   11.213    0.279    0.391   67.765
  294.000   11.218    0.282    0.417   66.555
  294.250   11.436    0.305    0.442   64.745
  294.500   11.661    0.319    0.460   64.152
  294.750   11.664    0.326    0.472   64.775
  295.000   11.890    0.314    0.466   66.619
  295.250   11.896    0.315    0.458   67.854
  295.500   11.466    0.321    0.440   68.478
  295.750   11.259    0.323    0.429   68.487
  296.000   11.055    0.317    0.429   67.284
  296.250   10.856    0.311    0.428   67.296
  296.500   10.464    0.305    0.447   67.921
  296.750   10.276    0.310    0.461   69.154
  297.000   10.089    0.316    0.474   72.220
  297.250    9.193    0.324    0.470   74.066
  297.500    8.695    0.334    0.470   74.689
  297.750    8.072    0.343    0.467   75.920
  298.000    7.782    0.329    0.468   78.374
  298.250    7.785    0.312    0.465   81.441
  298.500    7.935    0.293    0.468   83.891
  298.750    8.400    0.278    0.478   88.175
  299.000    8.723    0.277    0.485   91.847
  299.250    8.893    0.275    0.474   97.964
  299.500    9.067    0.274    0.459  101.030
  299.750    8.739    0.280    0.437  102.257
  300.000    8.580    0.288    0.424   89.466
  300.250    8.269    0.279    0.419   85.823
  300.500    7.677    0.278    0.420   87.056
  300.750    7.261    0.275    0.420   90.733
  301.000    6.741    0.267    0.424   93.190
  301.250    6.620    0.258    0.442   94.417
  301.500    6.499    0.251    0.455   96.264
  301.750    6.751    0.250    0.467   97.498
  302.000    7.560    0.246    0.483   99.339
  302.250    7.850    0.241    0.493  101.184
  302.500    7.709    0.232    0.494   99.978
  302.750    7.291    0.226    0.470   92.678
  303.000    6.770    0.213    0.456   89.641
  303.250    6.524    0.204    0.473   90.266
  303.500    6.406    0.215    0.482   93.944
  303.750    6.175    0.223    0.486   96.392
  304.000    6.177    0.225    0.487  100.072
  304.250    6.067    0.226    0.479  100.689
  304.500    6.069    0.227    0.471   99.490
  304.750    5.850    0.226    0.474   98.888
  305.000    5.638    0.236    0.476   99.520
  305.250    5.433    0.249    0.473  100.750
  305.500    5.436    0.267    0.466  101.378
  305.750    5.438    0.295    0.476  100.776
  306.000    6.687    0.320    0.507   95.305
  306.250    7.211    0.340    0.530   92.269
  306.500    7.777    0.354    0.551   86.188
  306.750    7.928    0.334    0.551   84.370
  307.000    8.235    0.316    0.541   83.173
  307.250    8.239    0.304    0.551   83.182
  307.500    8.399    0.290    0.553   83.203
  307.750    8.402    0.285    0.539   83.216
  308.000    8.250    0.282    0.515   83.228
  308.250    7.952    0.274    0.496   83.240
  308.500    7.809    0.270    0.507   83.865
  308.750    7.667    0.269    0.518   84.488
  309.000    7.670    0.289    0.508   85.727
  309.250    7.676    0.293    0.484   86.347
  309.500    7.679    0.290    0.460   85.141
  309.750    7.829    0.295    0.447   75.398
  310.000    7.835    0.312    0.446   71.144
  310.250    7.837    0.311    0.448   68.110
  310.500    7.990    0.300    0.448   65.690
  310.750    8.145    0.295    0.462   65.706
  311.000    8.148    0.295    0.468   66.324
  311.250    8.464    0.301    0.474   66.951
  311.500    8.793    0.308    0.465   66.963
  311.750    8.796    0.317    0.443   66.985
  312.000    8.968    0.324    0.432   66.388
  312.250    8.971    0.319    0.424   65.791
  312.500    9.148    0.315    0.438   64.591
  312.750    9.327    0.318    0.442   63.989
  313.000    9.506    0.319    0.432   63.396
  313.250    9.513    0.320    0.428   63.406
  313.500    9.340    0.321    0.424   62.822
  313.750    9.345    0.321    0.419   62.227
  314.000    9.348    0.320    0.417   61.629
  314.250    9.181    0.311    0.419   61.032
  314.500    9.187    0.307    0.410   61.048
  314.750    9.191    0.313    0.406   60.450
  315.000    9.195    0.321    0.417   61.071
  315.250    9.201    0.327    0.432   62.303
  315.500    9.035    0.334    0.429   65.369
  315.750    9.039    0.337    0.417   66.600
  316.000    9.043    0.343    0.413   67.228
  316.250    9.051    0.317    0.407   66.631
  316.500    9.055    0.311    0.413   62.990
  316.750    9.058    0.303    0.407   62.391
  317.000    9.235    0.305    0.413   62.417
  317.250    9.416    0.310    0.427   61.819
  317.500    9.419    0.317    0.434   61.830
  317.750    9.605    0.324    0.442   60.624
  318.000    9.790    0.329    0.447   60.636
  318.250    9.794    0.335    0.429   60.039
  318.500    9.986    0.339    0.414   59.448
  318.750    9.989    0.343    0.412   58.855
  319.000    9.998    0.344    0.423   58.871
  319.250    9.817    0.336    0.435   58.279
  319.500    9.821    0.334    0.441   57.685
  319.750    9.827    0.330    0.446   57.697
  320.000    9.649    0.327    0.440   57.097
  320.250    9.653    0.336    0.439   56.496
  320.500    9.658    0.345    0.429   55.298
  320.750    9.485    0.352    0.420   55.316
  321.000    9.489    0.350    0.418   55.331
  321.250    9.495    0.343    0.421   55.956
  321.500    9.681    0.341    0.423   55.971
  321.750    9.685    0.339    0.420   56.592
  322.000    9.692    0.334    0.424   56.599
  322.250    9.879    0.330    0.424   59.053
  322.500    9.882    0.335    0.418   59.682
  322.750    9.887    0.337    0.411   59.692
  323.000   10.083    0.357    0.409   58.488
  323.250   10.087    0.364    0.411   57.281
  323.500   10.090    0.372    0.419   57.304
  323.750   10.098    0.368    0.421   57.321
  324.000   10.102    0.364    0.414   57.333
  324.250   10.111    0.359    0.405   57.954
  324.500   10.115    0.354    0.403   57.357
  324.750   10.119    0.350    0.415   57.373
  325.000   10.123    0.349    0.421   57.996
  325.250   10.322    0.352    0.428   58.620
  325.500   10.325    0.350    0.432   59.247
  325.750   10.332    0.347    0.428   59.256
  326.000   10.335    0.342    0.429   58.658
  326.250   10.341    0.339    0.433   59.284
  326.500   10.346    0.342    0.428   59.300
  326.750   10.352    0.340    0.416   58.702
