~VERSION INFORMATION
 VERS.                 2.0:   CWLS LOG ASCII STANDARD -VERSION 2.0
 WRAP.                  NO:   ONE LINE PER DEPTH STEP
~WELL INFORMATION BLOCK
#MNEM.UNIT           DATA                    DESCRIPTION OF MNEMONIC
#---------    -------------------            -------------------------------
# Generated from Intellog Unique Number	CS_73_76/WELL/1973
WELL.         AMOCO                          : Well_name    - WELL
LOC .         00/08-04-073-04W4/0            : Location     - LOCATION
UWI .         00/08-04-073-04W4/0            : Uwi          - UNIQUE WELL ID
ENTR.         T                              : Entered      - ENTERED BY
SRVC.         SCHLUMBERGER                   : Scn          - SERVICE COMPANY
STRT.M        325                            : top_depth    - START DEPTH
STOP.M        520                            : bot_depth    - STOP DEPTH
STEP.M        0.25                           : increment    - STEP LENGTH
 NULL. -999.2500:NULL Value
~CURVE INFORMATION BLOCK
#MNEM UNIT       ERCB CURVE CODE    CURVE DESCRIPTION
#-----------   ------------------   ----------------------------------
DEPT.M        00 001 00 00         : DEPTH        - DEPTH
GR  .API      00 310 00 00         : GR           - GAMMA RAY
NPHI.V/V      00 330 00 00         : PHIN         - NEUTRON POROSITY (SANDSTONE)
DPHI.V/V      00 890 00 00         : PHID         - DENSITY POROSITY (SANDSTONE)
ILD .OHMM     00 120 00 00         : RESD         - DEEP RESISTIVITY (DIL)
~PARAMETER INFORMATION
#MNEM.UNIT           DATA             DESCRIPTION OF MNEMONIC
#---------         -----------     ------------------------------
GL  .M        707                  : gl           - GROUND LEVEL ELEVATION
EREF.M        711                  : kb           - ELEVATION OF DEPTH REFERENCE
DATM.M        711                  : datum        - DATUM ELEVATION
TDD .M        535                  : tdd          - TOTAL DEPTH DRILLER
RUN .         ONE                  : Run          - RUN NUMBER
ENG .         BILL                 : Engineer     - RECORDING ENGINEER
WIT .         JIM                  : Witness      - WITNESSED BY
MUD .         GEL                  : Mud_type     - MUD TYPE
MATR.         SANDSTONE            : Logunit      - NEUTRON MATRIX
TMAX.C        13                   : BHT          - MAXIMUM RECORDED TEMPERATURE
BHTD.M        535                  : BHTDEP       - MAXIMUM RECORDED TEMPERATURE
MATR.         1                    : LOGUNIT      - NEUTRON MATRIX
RMT .C        25                   : MDTP         - TEMPERATURE OF MUD
NEUT.         1                    : NEUTRON      - NEUTRON TYPE
RESI.         0                    : RESIST       - RESISTIVITY TYPE
RMC .OHMM     3.53                 : RMC          - RESISTIVITY OF MUD CAKE
RMF .OHMM     4.12                 : RMF          - RESISTIVITY OF MUD FILTRATE
SUFT.C        15                   : SUFT         - SURFACE TEMPERATURE
~A  DEPTH       GR     PHIN     PHID     RESD
  325.000   98.738    0.537    0.208    3.840
  325.250   99.336    0.535    0.214    3.769
  325.500  100.527    0.538    0.226    3.701
  325.750  102.314    0.544    0.230    3.633
  326.000  102.317    0.550    0.220    3.634
  326.250  100.535    0.549    0.215    3.635
  326.500   98.753    0.539    0.215    3.637
  326.750   98.160    0.530    0.215    3.638
  327.000   98.757    0.516    0.215    3.571
  327.250   98.759    0.517    0.215    3.572
  327.500   98.167    0.521    0.212    3.507
  327.750   96.385    0.522    0.200    3.508
  328.000   93.413    0.514    0.186    3.575
  328.250   89.252    0.505    0.140    3.576
  328.500   88.065    0.490    0.114    3.646
  328.750   92.826    0.463    0.152    3.646
  329.000   95.802    0.453    0.165    3.580
  329.250   98.184    0.462    0.197    3.515
  329.500   98.186    0.471    0.223    3.515
  329.750   96.999    0.486    0.234    3.934
  330.000   95.217    0.497    0.244    6.281
  330.250   93.436    0.483    0.256    8.163
  330.500   92.249    0.472    0.268   10.608
  330.750   89.872    0.458    0.282   11.016
  331.000   86.305    0.446    0.297   10.419
  331.250   82.144    0.441    0.325    9.143
  331.500   80.957    0.448    0.332    7.875
  331.750   80.364    0.481    0.350    7.447
  332.000   79.772    0.527    0.373    8.180
  332.250   76.206    0.572    0.286   10.832
  332.500   71.449    0.549    0.257   13.310
  332.750   63.719    0.527    0.276   14.082
  333.000   57.179    0.429    0.289   13.826
  333.250   51.233    0.391    0.302   13.829
  333.500   50.046    0.396    0.303   13.326
  333.750   51.238    0.398    0.300   13.082
  334.000   51.241    0.397    0.287   12.607
  334.250   56.596    0.402    0.292   11.923
  334.500   62.547    0.406    0.299   11.275
  334.750   68.497    0.403    0.261   11.071
  335.000   73.258    0.410    0.260   11.073
  335.250   79.804    0.422    0.260   11.076
  335.500   80.995    0.439    0.254   11.079
  335.750   82.187    0.442    0.260   11.082
  336.000   85.164    0.439    0.274   11.087
  336.250   87.545    0.437    0.283   10.884
  336.500   88.142    0.433    0.287   10.686
  336.750   89.335    0.431    0.283   10.492
  337.000   90.527    0.427    0.272   10.493
  337.250   91.719    0.422    0.278   10.497
  337.500   92.316    0.421    0.279   10.306
  337.750   92.913    0.417    0.283   10.117
  338.000   92.916    0.414    0.284    9.750
  338.250   92.918    0.413    0.281    9.395
  338.500   93.516    0.413    0.276    8.885
  338.750   94.112    0.427    0.268    8.247
  339.000   98.279    0.445    0.262    8.096
  339.250  100.066    0.445    0.254    8.099
  339.500  100.069    0.440    0.238    8.101
  339.750  100.072    0.434    0.199    8.103
  340.000  100.073    0.423    0.194    8.106
  340.250  100.670    0.416    0.192    7.958
  340.500   98.888    0.414    0.197    7.961
  340.750   95.917    0.410    0.224    7.815
  341.000   92.350    0.404    0.233    7.673
  341.250   91.758    0.399    0.257    7.533
  341.500   95.924    0.411    0.279    7.397
  341.750  100.090    0.424    0.292    7.261
  342.000  104.256    0.430    0.284    7.129
  342.250  105.448    0.430    0.265    6.999
  342.500  104.856    0.432    0.231    6.871
  342.750  104.264    0.435    0.188    6.498
  343.000  104.266    0.436    0.151    6.379
  343.250  103.673    0.445    0.103    5.921
  343.500  102.487    0.458    0.151    5.295
  343.750  104.868    0.475    0.165    5.007
  344.000  109.629    0.488    0.187    4.735
  344.250  113.200    0.497    0.203    4.234
  344.500  114.987    0.506    0.209    3.930
  344.750  114.990    0.512    0.193    3.515
  345.000  114.993    0.516    0.197    3.386
  345.250  114.994    0.516    0.201    3.202
  345.500  114.402    0.514    0.209    2.973
  345.750  112.025    0.510    0.215    2.865
  346.000  109.648    0.509    0.218    2.812
  346.250  107.272    0.506    0.225    3.088
  346.500  103.705    0.501    0.228    3.656
  346.750   97.759    0.491    0.233    4.327
  347.000   90.624    0.486    0.240    5.122
  347.250   84.084    0.484    0.251    5.840
  347.500   76.948    0.475    0.277    6.179
  347.750   71.003    0.452    0.293    6.181
  348.000   65.652    0.420    0.304    6.068
  348.250   61.491    0.383    0.315    5.632
  348.500   61.494    0.348    0.326    5.326
  348.750   62.685    0.350    0.337    5.328
  349.000   64.472    0.355    0.355    5.330
  349.250   66.259    0.349    0.349    5.332
  349.500   66.262    0.337    0.334    5.333
  349.750   65.670    0.340    0.340    5.236
  350.000   65.671    0.345    0.349    5.045
  350.250   66.863    0.347    0.346    4.861
  350.500   69.246    0.347    0.344    4.429
  350.750   72.222    0.355    0.339    4.267
  351.000   73.413    0.364    0.339    4.112
  351.250   76.985    0.378    0.340    3.889
  351.500   78.772    0.391    0.341    3.678
  351.750   77.584    0.403    0.333    3.611
  352.000   73.423    0.413    0.333    3.545
  352.250   66.883    0.421    0.325    3.480
  352.500   56.179    0.419    0.328    3.481
  352.750   50.828    0.408    0.364    3.482
  353.000   48.451    0.370    0.369    3.483
  353.250   48.453    0.357    0.347    3.686
  353.500   50.241    0.375    0.312    3.827
  353.750   53.217    0.396    0.293    3.688
  354.000   55.599    0.403    0.201    3.554
  354.250   57.386    0.352    0.140    3.488
  354.500   56.793    0.341    0.129    3.299
  354.750   56.797    0.388    0.232    3.179
  355.000   56.798    0.416    0.289    3.064
  355.250   56.800    0.421    0.302    3.064
  355.500   57.397    0.418    0.297    3.008
  355.750   58.589    0.416    0.291    2.953
  356.000   58.592    0.414    0.285    2.954
  356.250   59.189    0.410    0.276    2.955
  356.500   59.191    0.406    0.269    3.012
  356.750   59.790    0.404    0.272    3.247
  357.000   60.982    0.403    0.274    3.372
  357.250   62.769    0.400    0.277    3.567
  357.500   65.150    0.394    0.272    3.704
  357.750   69.910    0.390    0.267    3.993
  358.000   78.835    0.383    0.261    4.070
  358.250   84.785    0.377    0.252    4.071
  358.500   89.546    0.373    0.244    4.072
  358.750   94.307    0.382    0.238    3.998
  359.000   97.878    0.395    0.234    3.781
  359.250   99.666    0.423    0.240    3.782
  359.500  101.453    0.436    0.240    3.645
  359.750  101.455    0.458    0.230    3.646
  360.000   99.078    0.486    0.217    3.646
  360.250   98.486    0.498    0.211    3.648
  360.500   98.488    0.502    0.212    3.718
  360.750   98.490    0.503    0.215    3.789
  361.000   97.898    0.512    0.213    3.791
  361.250   96.116    0.515    0.210    3.791
  361.500   96.713    0.512    0.210    3.793
  361.750   99.096    0.509    0.213    3.723
  362.000   99.692    0.505    0.217    3.724
  362.250   97.316    0.501    0.223    3.657
  362.500   94.938    0.497    0.225    3.727
  362.750   95.536    0.489    0.224    3.798
  363.000   96.727    0.489    0.218    3.799
  363.250   99.109    0.488    0.213    3.730
  363.500  100.302    0.484    0.213    3.731
  363.750  100.304    0.480    0.210    3.663
  364.000  100.306    0.473    0.206    3.664
  364.250  100.310    0.470    0.200    3.597
  364.500   99.716    0.466    0.194    3.598
  364.750   98.529    0.463    0.194    3.599
  365.000   94.368    0.456    0.202    3.600
  365.250   91.991    0.452    0.208    3.470
  365.500   91.398    0.444    0.215    3.406
  365.750   90.807    0.435    0.224    3.282
  366.000   90.214    0.420    0.231    3.222
  366.250   87.837    0.415    0.252    3.105
  366.500   84.271    0.412    0.261    3.049
  366.750   85.463    0.413    0.269    3.049
  367.000   92.603    0.413    0.266    3.167
  367.250   93.795    0.414    0.242    3.288
  367.500   94.392    0.415    0.229    3.544
  367.750   95.584    0.417    0.224    3.821
  368.000   98.560    0.419    0.227    3.894
  368.250   97.968    0.421    0.232    3.895
