~VERSION INFORMATION
 VERS.                 2.0:   CWLS LOG ASCII STANDARD -VERSION 2.0
 WRAP.                  NO:   ONE LINE PER DEPTH STEP
~WELL INFORMATION BLOCK
#MNEM.UNIT           DATA                    DESCRIPTION OF MNEMONIC
#---------    -------------------            -------------------------------
# Generated from Intellog Unique Number	CC_80_83/WELL/1049
WELL.         GULF PONY                      : Well_name    - WELL
LOC .         00/04-15-081-09W4/0            : Location     - LOCATION
UWI .         00/04-15-081-09W400            : Uwi          - UNIQUE WELL ID
ENTR.         DW                             : Entered      - ENTERED BY
SRVC.         SCHLUMBERGER                   : Scn          - SERVICE COMPANY
STRT.M        243.84                         : top_depth    - START DEPTH
STOP.M        487.34                         : bot_depth    - STOP DEPTH
STEP.M        0.25                           : increment    - STEP LENGTH
 NULL. -999.2500:NULL Value
~CURVE INFORMATION BLOCK
#MNEM UNIT       ERCB CURVE CODE    CURVE DESCRIPTION
#-----------   ------------------   ----------------------------------
DEPT.M        00 001 00 00         : DEPTH        - DEPTH
GR  .API      00 310 00 00         : GR           - GAMMA RAY
DPHI.V/V      00 890 00 00         : PHID         - DENSITY POROSITY (SANDSTONE)
NPHI.V/V      00 330 00 00         : PHIN         - NEUTRON POROSITY (SANDSTONE)
ILD .OHMM     00 120 00 00         : RESD         - DEEP RESISTIVITY (DIL)
~PARAMETER INFORMATION
#MNEM.UNIT           DATA             DESCRIPTION OF MNEMONIC
#---------         -----------     ------------------------------
GL  .M        701.528              : gl           - GROUND LEVEL ELEVATION
EREF.M        705.338              : kb           - ELEVATION OF DEPTH REFERENCE
DATM.M        705.338              : datum        - DATUM ELEVATION
TDD .M        489.204              : tdd          - TOTAL DEPTH DRILLER
RUN .         ONE                  : Run          - RUN NUMBER
ENG .         BILL                 : Engineer     - RECORDING ENGINEER
WIT .         JIM                  : Witness      - WITNESSED BY
MUD .         GEL                  : Mud_type     - MUD TYPE
MATR.         SANDSTONE            : Logunit      - NEUTRON MATRIX
TMAX.C        23.8889              : BHT          - MAXIMUM RECORDED TEMPERATURE
BHTD.M        487.68               : BHTDEP       - MAXIMUM RECORDED TEMPERATURE
MATR.         1                    : LOGUNIT      - NEUTRON MATRIX
RMT .C        25                   : MDTP         - TEMPERATURE OF MUD
NEUT.         1                    : NEUTRON      - NEUTRON TYPE
RESI.         0                    : RESIST       - RESISTIVITY TYPE
RMC .OHMM     0.25                 : RMC          - RESISTIVITY OF MUD CAKE
RMF .OHMM     0.25                 : RMF          - RESISTIVITY OF MUD FILTRATE
SUFT.C        4                    : SUFT         - SURFACE TEMPERATURE
~A  DEPTH       GR     PHID     PHIN     RESD
# ...
  330.840   64.360    0.341    0.469   21.125
  331.090   66.523    0.351    0.473   21.323
  331.340   68.345    0.357    0.463   21.314
  331.590   68.348    0.363    0.457   21.353
  331.840   67.569    0.368    0.458   20.715
  332.090   65.717    0.365    0.463   20.481
  332.340   64.170    0.361    0.465   20.415
  332.590   64.037    0.358    0.466   20.104
  332.840   64.017    0.348    0.471   20.134
  333.090   63.073    0.358    0.473   20.103
  333.340   61.978    0.359    0.476   20.390
  333.590   61.181    0.359    0.474   20.519
  333.840   61.002    0.363    0.470   20.597
  334.090   60.894    0.358    0.465   20.921
  334.340   59.831    0.351    0.458   20.905
  334.590   59.952    0.345    0.458   20.935
  334.840   61.605    0.344    0.467   20.687
  335.090   63.728    0.348    0.471   20.469
  335.340   64.639    0.354    0.465   20.519
  335.590   63.394    0.359    0.460   20.511
  335.840   61.320    0.364    0.461   20.517
  336.090   60.356    0.357    0.460   20.469
  336.340   60.706    0.346    0.458   20.688
  336.590   62.342    0.348    0.460   20.944
  336.840   64.177    0.358    0.461   20.884
  337.090   63.609    0.358    0.459   20.882
  337.340   60.658    0.353    0.461   21.192
  337.590   58.460    0.353    0.465   21.476
  337.840   57.682    0.350    0.469   22.038
  338.090   58.311    0.348    0.468   22.595
  338.340   59.804    0.351    0.458   22.524
  338.590   59.335    0.347    0.450   22.522
  338.840   58.867    0.345    0.448   22.530
  339.090   60.291    0.346    0.456   22.529
  339.340   62.173    0.349    0.461   22.517
  339.590   62.923    0.354    0.461   22.538
  339.840   63.420    0.357    0.474   22.538
  340.090   63.907    0.360    0.483   21.968
  340.340   64.472    0.356    0.488   20.783
  340.590   64.730    0.353    0.498   19.572
  340.840   64.653    0.355    0.506   20.308
  341.090   65.398    0.359    0.502   22.593
  341.340   67.543    0.359    0.489   21.952
  341.590   67.865    0.358    0.469   20.217
  341.840   70.408    0.357    0.477   19.373
  342.090   70.225    0.356    0.496   19.473
  342.340   66.076    0.358    0.497   20.386
  342.590   66.478    0.360    0.492   21.676
  342.840   67.086    0.361    0.496   20.861
  343.090   67.149    0.363    0.502   19.611
  343.340   67.103    0.364    0.494   19.477
  343.590   67.164    0.362    0.477   20.525
  343.840   66.332    0.358    0.466   21.765
  344.090   63.698    0.360    0.469   22.105
  344.340   63.319    0.365    0.473   21.844
  344.590   63.483    0.358    0.475   21.314
  344.840   63.708    0.345    0.479   20.456
  345.090   65.098    0.342    0.482   19.598
  345.340   67.135    0.346    0.484   19.365
  345.590   68.671    0.346    0.492   19.612
  345.840   69.925    0.348    0.503   20.356
  346.090   70.075    0.337    0.510   21.674
  346.340   69.342    0.308    0.495   22.766
  346.590   68.971    0.246    0.437   22.924
  346.840   69.473    0.151    0.366   22.568
  347.090   70.746    0.177    0.394   21.870
  347.340   70.008    0.283    0.459   21.356
  347.590   70.164    0.339    0.478   20.076
  347.840   72.585    0.336    0.470   17.076
  348.090   75.175    0.341    0.490   12.937
  348.340   79.748    0.326    0.498    8.961
  348.590   84.110    0.318    0.495    6.184
  348.840   96.729    0.298    0.503    4.930
  349.090  107.727    0.258    0.528    4.483
  349.340  107.257    0.233    0.552    4.192
  349.590  108.398    0.242    0.561    4.207
  349.840  112.204    0.247    0.570    4.323
  350.090  112.761    0.250    0.559    4.539
  350.340  112.521    0.257    0.541    4.657
  350.590  113.794    0.258    0.549    4.784
  350.840  114.115    0.251    0.577    5.097
  351.090  113.240    0.252    0.572    5.243
  351.340  110.295    0.262    0.549    5.610
  351.590  105.666    0.262    0.533    6.097
  351.840  100.596    0.258    0.525    6.546
  352.090   96.479    0.262    0.539    6.931
  352.340   94.634    0.267    0.585    7.017
  352.590   95.807    0.272    0.565    6.373
  352.840   98.841    0.282    0.533    5.515
  353.090  104.968    0.292    0.527    4.929
  353.340  110.060    0.279    0.542    4.656
  353.590  109.075    0.251    0.569    4.641
  353.840  104.400    0.256    0.589    5.010
  354.090   93.900    0.271    0.593    5.537
  354.340   89.663    0.288    0.576    5.941
  354.590   90.397    0.280    0.546    7.264
  354.840   87.722    0.254    0.519    9.258
  355.090   84.293    0.258    0.502   10.188
  355.340   86.478    0.275    0.489   10.737
  355.590   89.373    0.292    0.489   10.577
  355.840   91.669    0.302    0.490    8.819
  356.090   94.321    0.315    0.485    6.182
  356.340   97.455    0.322    0.480    4.321
  356.590  102.357    0.293    0.477    3.596
  356.840  110.878    0.278    0.503    3.296
  357.090  116.932    0.264    0.560    2.855
  357.340  117.452    0.264    0.596    2.559
  357.590  115.700    0.276    0.602    2.595
  357.840  115.391    0.272    0.624    2.630
  358.090  116.157    0.291    0.635    2.658
  358.340  118.960    0.301    0.644    2.820
  358.590  118.991    0.281    0.647    2.929
  358.840  116.476    0.265    0.650    2.961
  359.090  116.140    0.274    0.635    2.999
  359.340  118.723    0.263    0.580    2.949
  359.590  122.582    0.249    0.570    2.926
  359.840  123.351    0.243    0.596    3.035
  360.090  120.384    0.242    0.616    3.170
  360.340  116.245    0.247    0.604    3.368
  360.590  113.526    0.257    0.579    3.699
  360.840  113.394    0.263    0.593    3.921
  361.090  114.416    0.260    0.603    4.373
  361.340  112.560    0.268    0.577    5.011
  361.590  109.889    0.270    0.546    5.544
  361.840  110.976    0.258    0.539    5.669
  362.090  114.622    0.264    0.536    5.389
  362.340  115.625    0.270    0.522    5.334
  362.590  110.434    0.267    0.494    5.548
  362.840  104.245    0.244    0.487    5.821
  363.090  103.914    0.217    0.508    6.327
  363.340  105.508    0.210    0.529    7.022
  363.590   99.170    0.230    0.538    7.139
  363.840   98.410    0.267    0.530    7.010
  364.090  104.384    0.290    0.495    6.446
  364.340  111.261    0.276    0.477    5.810
  364.590  114.349    0.250    0.497    5.548
  364.840  113.611    0.243    0.511    5.475
  365.090  114.949    0.231    0.512    5.557
  365.340  115.808    0.248    0.516    5.627
  365.590  110.278    0.258    0.524    5.812
  365.840  104.015    0.246    0.544    6.095
  366.090  104.623    0.245    0.561    6.253
  366.340  105.713    0.247    0.531    6.338
  366.590  104.087    0.254    0.507    6.687
  366.840   99.118    0.264    0.515    7.185
  367.090   95.777    0.272    0.521    7.481
  367.340   96.031    0.276    0.506    7.556
  367.590   96.548    0.275    0.497    7.681
  367.840   98.424    0.275    0.495    7.808
  368.090  100.852    0.262    0.495    7.849
  368.340  101.230    0.260    0.496    7.770
  368.590   98.332    0.269    0.492    7.640
  368.840   95.187    0.272    0.480    7.524
  369.090   95.822    0.267    0.469    7.407
  369.340   96.835    0.262    0.472    7.312
  369.590   98.056    0.254    0.479    7.073
  369.840   98.118    0.245    0.481    6.654
  370.090   96.982    0.235    0.475    6.309
  370.340   96.568    0.233    0.465    6.121
  370.590   96.419    0.243    0.465    5.737
  370.840   98.229    0.260    0.486    5.648
  371.090  101.734    0.269    0.491    5.719
  371.340  101.911    0.268    0.483    5.869
  371.590   97.091    0.264    0.484    6.169
  371.840   93.127    0.264    0.481    6.460
  372.090   91.455    0.262    0.480    6.760
  372.340   90.154    0.258    0.489    7.131
  372.590   90.328    0.259    0.508    7.698
  372.840   92.220    0.262    0.514    8.224
  373.090   94.262    0.264    0.496    8.444
  373.340   96.456    0.269    0.489    8.705
  373.590   95.732    0.269    0.513    9.012
  373.840   93.120    0.265    0.520    9.133
  374.090   91.199    0.261    0.504    9.049
