~VERSION INFORMATION
 VERS.                 2.0:   CWLS LOG ASCII STANDARD -VERSION 2.0
 WRAP.                  NO:   ONE LINE PER DEPTH STEP
~WELL INFORMATION BLOCK
#MNEM.UNIT           DATA                    DESCRIPTION OF MNEMONIC
#---------    -------------------            -------------------------------
# Generated from Intellog Unique Number	CW_70_72/WELL/3015
NULL.         -999.25                        : NULL_VALUE
WELL.         CHIEFCO POR ET AL DANCING 07-0 : Well_name    - WELL              
LOC .         07-01-070-27W4                 : Location     - LOCATION          
UWI .         00/07-01-070-27W4/0            : Uwi          - UNIQUE WELL ID    
ENTR.         J                              : Entered      - ENTERED BY        
SRVC.         SCHLUMBERGER                   : Scn          - SERVICE COMPANY   
DATE.         20 DEC 75                      : Date         - LOG DATE          
STRT.M        484.632                        : top_depth    - START DEPTH       
STOP.M        737.632                        : bot_depth    - STOP DEPTH        
STEP.M        0.25                           : increment    - STEP LENGTH       
~CURVE INFORMATION BLOCK
#MNEM UNIT       ERCB CURVE CODE    CURVE DESCRIPTION
#-----------   ------------------   ----------------------------------
DEPT.M        00 001 00 00         : DEPTH        - DEPTH                       
ILD .OHMM     00 120 00 00         : RESD         - DEEP RESISTIVITY (DIL)      
CALI.MM       00 280 01 00         : CAL          - CALIPER                     
GR  .API      00 310 00 00         : GR           - GAMMA RAY                   
NPHI.V/V      00 330 00 00         : PHIN         - NEUTRON POROSITY (SANDSTONE)
DPHI.V/V      00 890 00 00         : PHID         - DENSITY POROSITY (SANDSTONE)
~PARAMETER INFORMATION       
#MNEM.UNIT           DATA             DESCRIPTION OF MNEMONIC
#---------         -----------     ------------------------------
GL  .M        648.005              : gl           - GROUND LEVEL ELEVATION      
EREF.M        650.748              : kb           - ELEVATION OF DEPTH REFERENCE
DATM.M        648.005              : datum        - DATUM ELEVATION             
TDD .M        754.38               : tdd          - TOTAL DEPTH DRILLER         
RUN .         ONE                  : Run          - RUN NUMBER                  
ENG .         ROBSON               : Engineer     - RECORDING ENGINEER          
BASE.         RD                   : Branch       - HOME BASE OF LOGGING UNIT   
MUD .         GEL                  : Mud_type     - MUD TYPE                    
MATR.         SANDSTONE            : Logunit      - NEUTRON MATRIX              
TMAX.C        27.7778              : BHT          - MAXIMUM RECORDED TEMPERATURE
BHTD.M        754.075              : BHTDEP       - MAXIMUM RECORDED TEMPERATURE
RMT .C        17.7778              : MDTP         - TEMPERATURE OF MUD          
MUDD.KG/M     1176                 : MWT          - MUD DENSITY                 
NEUT.         1                    : NEUTRON      - NEUTRON TYPE                
RESI.         0                    : RESIST       - RESISTIVITY TYPE            
RM  .OHMM     3.72                 : RM           - RESISTIVITY OF MUD          
RMC .OHMM     2.5                  : RMC          - RESISTIVITY OF MUD CAKE     
RMF .OHMM     4.21                 : RMF          - RESISTIVITY OF MUD FILTRATE 
SUFT.C        -17.7778             : SUFT         - SURFACE TEMPERATURE         
~A  DEPTH     RESD      CAL       GR     PHIN     PHID
# ...
  557.632    2.449  158.028   66.844    0.401    0.247
  557.882    2.731  158.154   74.813    0.417    0.227
  558.132    2.947  158.590   79.198    0.435    0.207
  558.382    3.076  158.924   76.358    0.430    0.188
  558.632    2.773  159.048   71.695    0.415    0.195
  558.882    2.346  159.280   65.941    0.411    0.213
  559.132    2.043  159.096   62.372    0.418    0.243
  559.382    1.744  159.223   59.048    0.424    0.277
  559.632    1.598  159.349   56.813    0.418    0.293
  559.882    1.518  159.164   54.579    0.420    0.291
  560.132    1.461  159.290   53.200    0.421    0.291
  560.382    1.493  159.108   54.243    0.421    0.300
  560.632    1.579  159.654   56.807    0.420    0.304
  560.882    1.731  160.288   59.372    0.420    0.296
  561.132    1.898  160.618   62.301    0.433    0.285
  561.382    2.097  158.488   65.775    0.442    0.275
  561.632    2.300  157.786   71.560    0.441    0.268
  561.882    2.459  156.783   76.251    0.428    0.265
  562.132    2.606  156.086   79.845    0.413    0.256
  562.382    2.658  163.820   86.357    0.434    0.218
  562.632    2.581  186.569   90.864    0.491    0.236
  562.882    2.343  194.304   88.753    0.501    0.233
  563.132    2.081  185.897   87.856    0.502    0.221
  563.382    1.946  184.995   87.445    0.516    0.238
  563.632    1.959  190.984   85.152    0.532    0.253
  563.882    2.064  197.691   81.644    0.538    0.267
  564.132    2.223  194.116   79.167    0.523    0.282
  564.382    2.453  182.312   76.994    0.499    0.273
  564.632    2.523  183.263   75.794    0.505    0.238
  564.882    2.611  177.427   75.079    0.510    0.278
  565.132    2.508  171.689   76.006    0.502    0.259
  565.382    2.409  161.224   79.115    0.475    0.257
  565.632    2.318  157.443   86.537    0.409    0.261
  565.882    2.223  156.748   88.251    0.429    0.209
  566.132    2.166  156.769   76.484    0.441    0.216
  566.382    2.254  157.616   67.753    0.431    0.240
  566.632    2.485  158.359   67.101    0.419    0.261
  566.882    2.847  159.002   66.445    0.389    0.237
  567.132    3.226  159.228   65.976    0.306    0.119
  567.382    3.622  159.974   66.050    0.268    0.098
  567.632    3.254  160.512   66.244    0.302    0.112
  567.882    2.722  160.738   66.017    0.353    0.165
  568.132    2.333  160.661   64.997    0.419    0.203
  568.382    2.057  160.481   64.038    0.440    0.280
  568.632    1.888  159.989   63.446    0.428    0.279
  568.882    1.940  159.496   62.610    0.434    0.272
  569.132    2.041  158.905   63.354    0.450    0.271
  569.382    2.138  158.208   64.582    0.454    0.273
  569.632    2.337  158.126   67.755    0.459    0.271
  569.882    2.498  157.845   70.379    0.466    0.261
  570.132    2.695  157.660   72.701    0.457    0.249
  570.382    2.930  157.580   74.904    0.439    0.243
  570.632    3.104  157.606   76.132    0.437    0.238
  570.882    3.259  157.939   76.994    0.428    0.229
  571.132    3.422  158.374   78.040    0.417    0.207
  571.382    3.495  158.810   78.536    0.428    0.196
  571.632    3.507  158.828   78.915    0.425    0.189
  571.882    3.450  158.750   78.564    0.412    0.169
  572.132    3.399  158.157   78.214    0.407    0.153
  572.382    3.356  158.488   79.504    0.416    0.171
  572.632    3.378  159.128   80.853    0.426    0.193
  572.882    3.482  160.596   81.656    0.431    0.195
  573.132    3.704  162.159   82.220    0.429    0.182
  573.382    3.846  163.419   81.321    0.410    0.156
  573.632    3.938  164.570   81.394    0.410    0.152
  573.882    3.957  165.623   82.139    0.413    0.151
  574.132    3.957  165.850   82.639    0.414    0.167
  574.382    3.948  164.436   83.016    0.417    0.176
  574.632    3.911  164.049   82.909    0.424    0.170
  574.882    3.771  164.687   83.770    0.435    0.164
  575.132    3.622  166.357   86.214    0.444    0.161
  575.382    3.398  166.688   80.460    0.454    0.163
  575.632    3.164  165.375   74.946    0.463    0.180
  575.882    2.879  161.492   67.977    0.460    0.216
  576.132    2.666  159.560   64.348    0.451    0.257
  576.382    2.382  158.863   67.884    0.429    0.296
  576.632    2.218  158.887   69.600    0.427    0.285
  576.882    2.073  158.913   65.726    0.422    0.265
  577.132    1.907  158.937   64.833    0.414    0.285
  577.382    1.789  158.550   65.327    0.433    0.280
  577.632    1.791  158.572   66.922    0.426    0.293
  577.882    1.964  159.006   69.183    0.418    0.293
  578.132    2.210  159.339   71.807    0.418    0.280
  578.382    2.402  159.360   74.734    0.425    0.265
  578.632    2.732  159.384   78.513    0.430    0.245
  578.882    3.039  159.614   83.631    0.434    0.225
  579.132    3.226  159.741   86.133    0.436    0.211
  579.382    3.254  160.592   85.175    0.437    0.195
  579.632    3.326  161.330   82.759    0.439    0.201
  579.882    3.411  162.486   84.898    0.444    0.192
  580.132    3.453  163.642   87.341    0.450    0.173
  580.382    3.414  164.385   87.780    0.437    0.182
  580.632    3.352  164.610   87.369    0.442    0.174
  580.882    3.302  164.640   85.682    0.449    0.170
  581.132    3.213  164.457   82.054    0.464    0.194
  581.382    3.131  163.861   77.577    0.487    0.238
  581.632    2.921  162.652   73.642    0.508    0.265
  581.882    2.677  162.054   68.007    0.546    0.328
  582.132    2.356  160.953   60.733    0.588    0.415
  582.382    2.012  160.153   59.897    0.515    0.443
  582.632    1.729  159.350   58.759    0.465    0.369
  582.882    1.495  158.860   57.314    0.417    0.281
  583.132    1.367  158.784   55.810    0.417    0.302
  583.382    1.323  158.705   55.096    0.427    0.312
  583.632    1.335  158.414   55.108    0.436    0.305
  583.882    1.381  158.139   56.762    0.420    0.302
  584.132    1.430  158.255   59.813    0.409    0.303
  584.382    1.479  158.285   59.098    0.413    0.304
  584.632    1.550  157.892   62.879    0.424    0.301
  584.882    1.572  157.504   65.258    0.429    0.303
  585.132    1.532  156.399   68.313    0.441    0.306
  585.382    1.505  155.292   67.715    0.460    0.322
  585.632    1.499  154.185   62.689    0.458    0.319
  585.882    1.515  153.899   60.825    0.444    0.303
  586.132    1.533  153.613   60.110    0.436    0.292
  586.382    1.645  153.224   59.698    0.436    0.303
  586.632    1.778  153.453   58.987    0.447    0.283
  586.882    2.143  153.683   58.812    0.461    0.269
  587.132    2.469  154.018   59.008    0.452    0.272
  587.382    3.103  154.453   59.873    0.401    0.267
  587.632    3.607  155.194   60.372    0.365    0.223
  587.882    3.898  155.937   60.688    0.327    0.178
  588.132    3.869  156.678   60.946    0.304    0.146
  588.382    3.291  157.938   61.810    0.333    0.199
  588.632    2.917  158.372   62.551    0.377    0.261
  588.882    2.583  158.602   63.599    0.406    0.273
  589.132    2.341  158.726   66.284    0.425    0.263
  589.382    2.248  158.235   71.155    0.436    0.251
  589.632    2.167  158.261   71.655    0.457    0.245
  589.882    2.078  158.388   66.934    0.465    0.262
  590.132    1.978  158.511   63.121    0.462    0.277
  590.382    1.883  158.743   60.767    0.452    0.299
  590.632    1.917  158.969   65.699    0.434    0.303
  590.882    2.114  160.538   72.939    0.420    0.288
  591.132    2.409  161.795   78.601    0.405    0.245
  591.382    2.556  162.125   78.676    0.392    0.213
  591.632    2.575  161.737   74.865    0.402    0.168
  591.882    2.565  158.781   69.534    0.432    0.192
  592.132    2.568  156.441   62.989    0.443    0.242
  592.382    2.614  155.741   63.490    0.420    0.270
  592.632    2.750  155.870   63.988    0.397    0.250
  592.882    2.988  157.125   60.783    0.337    0.217
  593.132    3.121  158.587   65.717    0.336    0.181
  593.382    3.030  157.793   74.414    0.373    0.166
  593.632    2.782  155.344   66.594    0.395    0.199
  593.882    2.530  154.238   69.830    0.421    0.228
