~VERSION INFORMATION
 VERS.                 2.0:   CWLS LOG ASCII STANDARD -VERSION 2.0
 WRAP.                  NO:   ONE LINE PER DEPTH STEP
~WELL INFORMATION BLOCK
#MNEM.UNIT           DATA                    DESCRIPTION OF MNEMONIC
#---------    -------------------            -------------------------------
# Generated from Intellog Unique Number	CW_82_90/WELL/3433
WELL.         TEXEX WOODEN                   : Well_name    - WELL
LOC .         00/07-35-088-24W4/0            : Location     - LOCATION
UWI .         00/07-35-088-24W4/0            : Uwi          - UNIQUE WELL ID
ENTR.         MAX                            : Entered      - ENTERED BY
SRVC.         SCHLUMBERGER                   : Scn          - SERVICE COMPANY
STRT.M        60.96                          : top_depth    - START DEPTH
STOP.M        304.71                         : bot_depth    - STOP DEPTH
STEP.M        0.25                           : increment    - STEP LENGTH
 NULL. -999.2500:NULL Value
~CURVE INFORMATION BLOCK
#MNEM UNIT       ERCB CURVE CODE    CURVE DESCRIPTION
#-----------   ------------------   ----------------------------------
DEPT.M        00 001 00 00         : DEPTH        - DEPTH
ILD .OHMM     00 120 00 00         : RESD         - DEEP RESISTIVITY (DIL)
NPHI.V/V      00 330 00 00         : PHIN         - NEUTRON POROSITY (SANDSTONE)
DPHI.V/V      00 890 00 00         : PHID         - DENSITY POROSITY (SANDSTONE)
CALI.MM       00 280 01 00         : CAL          - CALIPER
GR  .API      00 310 00 00         : GR           - GAMMA RAY
~PARAMETER INFORMATION
#MNEM.UNIT           DATA             DESCRIPTION OF MNEMONIC
#---------         -----------     ------------------------------
GL  .M        524.866              : gl           - GROUND LEVEL ELEVATION
EREF.M        527.914              : kb           - ELEVATION OF DEPTH REFERENCE
DATM.M        524.866              : datum        - DATUM ELEVATION
TDD .M        304.495              : tdd          - TOTAL DEPTH DRILLER
RUN .         ONE                  : Run          - RUN NUMBER
ENG .         BILL                 : Engineer     - RECORDING ENGINEER
WIT .         JIM                  : Witness      - WITNESSED BY
MUD .         GEL                  : Mud_type     - MUD TYPE
MATR.         SANDSTONE            : Logunit      - NEUTRON MATRIX
TMAX.C        14.4444              : BHT          - MAXIMUM RECORDED TEMPERATURE
BHTD.M        304.495              : BHTDEP       - MAXIMUM RECORDED TEMPERATURE
MATR.         1                    : LOGUNIT      - NEUTRON MATRIX
RMT .C        6.66667              : MDTP         - TEMPERATURE OF MUD
NEUT.         1                    : NEUTRON      - NEUTRON TYPE
RESI.         0                    : RESIST       - RESISTIVITY TYPE
RMC .OHMM     4.24                 : RMC          - RESISTIVITY OF MUD CAKE
RMF .OHMM     4.24                 : RMF          - RESISTIVITY OF MUD FILTRATE
SUFT.C        -23.3333             : SUFT         - SURFACE TEMPERATURE
~A  DEPTH     RESD     PHIN     PHID      CAL       GR
# ...
  133.960   12.992    0.394    0.273  215.937   19.764
  134.210   13.103    0.404    0.267  216.438   22.885
  134.460   13.216    0.408    0.267  218.537   24.120
  134.710   13.570    0.423    0.280  220.104   26.304
  134.960   13.685    0.427    0.283  220.076   32.569
  135.210   13.312    0.411    0.268  220.042   39.144
  135.460   12.162    0.396    0.261  220.014   42.896
  135.710    9.199    0.372    0.249  219.987   43.507
  135.960    7.820    0.354    0.244  221.551   45.689
  136.210    7.208    0.374    0.233  223.657   51.638
  136.460    7.012    0.420    0.224  227.347   65.750
  136.710    7.009    0.443    0.222  239.016   67.302
  136.960    7.261    0.420    0.239  241.115   62.262
  137.210    7.798    0.407    0.223  241.084   60.676
  137.460    8.153    0.387    0.201  240.525   64.739
  137.710    8.148    0.389    0.223  239.962   68.802
  137.960    8.217    0.397    0.239  240.463   67.844
  138.210    8.212    0.382    0.233  241.502   67.828
  138.460    8.358    0.380    0.210  243.066   68.126
  138.710    8.428    0.391    0.202  246.228   66.853
  138.960    8.499    0.404    0.184  249.387   65.893
  139.210    8.572    0.410    0.194  244.578   65.873
  139.460    8.567    0.421    0.210  239.765   65.859
  139.710    8.562    0.447    0.220  234.949   65.216
  139.960    8.405    0.420    0.227  228.542   64.254
  140.210    8.031    0.407    0.223  224.793   64.236
  140.460    7.470    0.453    0.209  224.762   64.222
  140.710    5.909    0.487    0.201  231.117   64.519
  140.960    4.847    0.509    0.235  242.779   64.499
  141.210    3.904    0.527    0.253  243.287   65.112
  141.460    3.566    0.540    0.242  243.256   66.354
  141.710    3.532    0.524    0.234  241.637   67.590
  141.960    3.760    0.498    0.249  238.416   67.573
  142.210    4.300    0.484    0.259  233.600   67.559
  142.460    4.831    0.474    0.245  230.382   67.539
  142.710    5.475    0.447    0.235  226.633   67.524
  142.960    6.042    0.414    0.248  223.415   66.564
  143.210    6.848    0.427    0.234  223.388   64.980
  143.460    8.047    0.440    0.228  224.420   65.276
  143.710    8.878    0.464    0.234  223.326   64.945
  143.960    8.794    0.459    0.235  221.171   61.161
  144.210    8.555    0.442    0.225  220.612   57.059
  144.460    8.398    0.435    0.208  221.116   55.789
  144.710    8.319    0.433    0.223  222.148   55.457
  144.960    8.166    0.432    0.231  223.181   56.383
  145.210    8.015    0.430    0.240  223.688   56.364
  145.460    8.011    0.426    0.274  225.256   54.152
  145.710    8.079    0.421    0.252  225.760   50.680
  145.960    8.221    0.435    0.241  226.257   48.780
  146.210    8.366    0.435    0.284  226.226   49.392
  146.460    8.590    0.424    0.241  226.737   49.685
  146.710    8.742    0.433    0.225  227.227   48.101
  146.960    8.976    0.439    0.241  227.210   45.885
  147.210    9.215    0.436    0.245  227.182   45.239
  147.460    9.463    0.427    0.237  226.619   43.964
  147.710    9.628    0.432    0.224  226.060   43.008
  147.960    9.710    0.430    0.247  224.969   42.678
  148.210    9.792    0.418    0.276  223.871   42.974
  148.460    9.965    0.415    0.270  223.316   43.271
  148.710   10.232    0.420    0.265  222.225   43.569
  148.960   10.792    0.425    0.259  221.665   43.862
  149.210   11.384    0.426    0.249  221.099   43.536
  149.460   12.227    0.416    0.227  220.540   42.264
  149.710   13.014    0.372    0.175  219.984   39.730
  149.960   12.105    0.246    0.115  219.953   38.776
  150.210   10.107    0.221    0.042  220.457   42.213
  150.460    8.670    0.322    0.072  220.961   47.848
  150.710    8.063    0.397    0.169  221.997   55.051
  150.960    8.205    0.430    0.240  223.557   56.605
  151.210    8.501    0.453    0.280  222.466   51.565
  151.460    8.967    0.427    0.278  220.316   45.895
  151.710    9.291    0.434    0.261  219.753   44.309
  151.960    9.285    0.459    0.254  219.725   44.293
  152.210    9.281    0.468    0.244  219.691   48.358
  152.460    9.109    0.473    0.241  219.670   54.303
  152.710    9.105    0.456    0.245  220.164   56.485
  152.960    9.019    0.443    0.241  220.143   56.154
  153.210    9.014    0.441    0.248  220.116   57.080
  153.460    8.929    0.445    0.247  220.616   59.889
  153.710    9.005    0.437    0.245  220.589   57.359
  153.960    9.000    0.427    0.240  220.554   55.145
  154.210    8.522    0.431    0.245  220.533   52.615
  154.460    7.116    0.451    0.259  221.559   52.285
  154.710    4.832    0.464    0.264  222.066   54.152
  154.960    3.927    0.477    0.257  222.570   57.276
  155.210    3.338    0.522    0.237  229.986   61.027
  155.460    3.050    0.547    0.211  239.528   64.463
  155.710    2.862    0.529    0.237  260.767   64.448
  155.960    2.835    0.522    0.234  254.891   64.430
  156.210    2.859    0.532    0.229  257.522   65.356
  156.460    2.936    0.544    0.217  250.579   67.223
  156.710    3.041    0.559    0.224  242.038   66.891
  156.960    3.151    0.570    0.222  242.014   64.991
  157.210    3.324    0.557    0.240  241.983   63.718
  157.460    3.506    0.534    0.234  242.490   63.074
  157.710    3.699    0.518    0.220  247.776   62.112
  157.960    4.044    0.521    0.205  255.192   62.412
  158.210    4.343    0.504    0.228  245.594   64.279
  158.460    4.665    0.497    0.226  240.782   62.063
  158.710    5.055    0.480    0.237  227.991   57.337
  158.960    5.782    0.440    0.219  222.643   53.865
  159.210    6.673    0.416    0.131  223.682   52.905
  159.460    6.376    0.445    0.212  228.436   54.145
  159.710    5.670    0.480    0.227  239.042   56.640
  159.960    4.692    0.476    0.239  251.242   55.998
  160.210    3.988    0.494    0.298  271.418   54.410
  160.460    3.546    0.539    0.414  287.872   53.763
  160.710    3.358    0.566    0.475  324.529   55.319
  160.960    3.357    0.544    0.456  366.502   60.322
  161.210    3.416    0.517    0.406  278.216   62.816
  161.460    3.539    0.502    0.330  225.547   64.373
  161.710    3.634    0.509    0.256  230.304   66.865
  161.960    3.867    0.507    0.254  238.786   68.732
  162.210    3.971    0.496    0.295  249.917   70.600
  162.460    3.969    0.491    0.292  244.576   73.095
  162.710    3.861    0.483    0.266  242.422   73.391
  162.960    3.965    0.489    0.228  244.517   70.863
  163.210    4.220    0.495    0.256  247.145   69.276
  163.460    4.572    0.510    0.243  251.905   68.634
  163.710    4.911    0.507    0.256  258.789   65.474
  163.960    5.180    0.485    0.254  243.872   62.634
  164.210    5.319    0.470    0.240  245.436   59.792
  164.460    5.316    0.466    0.262  244.345   58.832
  164.710    5.172    0.486    0.276  252.292   60.383
  164.960    4.987    0.479    0.214  250.670   62.881
  165.210    4.638    0.472    0.189  242.664   66.946
  165.460    4.432    0.475    0.171  251.146   70.379
  165.710    4.235    0.484    0.158  255.900   70.991
  165.960    4.083    0.508    0.155  249.492   71.605
  166.210    4.008    0.527    0.168  243.613   72.531
  166.460    3.970    0.538    0.178  246.240   73.766
  166.710    3.968    0.543    0.177  249.406   74.376
  166.960    4.001    0.544    0.184  254.163   74.675
  167.210    3.999    0.544    0.180  255.731   75.287
  167.460    4.033    0.545    0.133  254.630   74.955
  167.710    4.067    0.540    0.188  257.267   74.938
  167.960    4.101    0.519    0.217  276.911   74.292
  168.210    4.099    0.545    0.257  269.972   73.022
  168.460    4.097    0.554    0.246  259.308   72.064
  168.710    4.132    0.552    0.253  249.175   70.478
  168.960    4.243    0.519    0.242  246.489   69.203
  169.210    4.516    0.496    0.269  244.335   67.931
  169.460    4.937    0.478    0.251  241.649   65.713
  169.710    5.162    0.460    0.209  238.956   63.499
  169.960    5.348    0.457    0.242  235.207   60.031
  170.210    5.541    0.450    0.224  230.398   56.873
