~VERSION INFORMATION
 VERS.                 2.0:   CWLS LOG ASCII STANDARD -VERSION 2.0
 WRAP.                  NO:   ONE LINE PER DEPTH STEP
~WELL INFORMATION BLOCK
#MNEM.UNIT           DATA                    DESCRIPTION OF MNEMONIC
#---------    -------------------            -------------------------------
# Generated from Intellog Unique Number	CS_67_68/WELL/2176
WELL.         07-08-067-02W4                 : Well_name    - WELL
LOC .         00/07-08-067-02W4/0            : Location     - LOCATION
UWI .         00/07-08-067-02W4/0            : Uwi          - UNIQUE WELL ID
ENTR.         SP                             : Entered      - ENTERED BY
SRVC.         SCHLUMBERGER                   : Scn          - SERVICE COMPANY
STRT.M        345                            : top_depth    - START DEPTH
STOP.M        606                            : bot_depth    - STOP DEPTH
STEP.M        0.25                           : increment    - STEP LENGTH
 NULL. -999.2500:NULL Value
~CURVE INFORMATION BLOCK
#MNEM UNIT       ERCB CURVE CODE    CURVE DESCRIPTION
#-----------   ------------------   ----------------------------------
DEPT.M        00 001 00 00         : DEPTH        - DEPTH
ILD .OHMM     00 120 00 00         : RESD         - DEEP RESISTIVITY (DIL)
DPHI.V/V      00 890 00 00         : PHID         - DENSITY POROSITY (LIMESTONE)
NPHI.V/V      00 330 00 00         : PHIN         - NEUTRON POROSITY (LIMESTONE)
GR  .API      00 310 00 00         : GR           - GAMMA RAY
CALI.MM       00 280 01 00         : CAL          - CALIPER
~PARAMETER INFORMATION
#MNEM.UNIT           DATA             DESCRIPTION OF MNEMONIC
#---------         -----------     ------------------------------
GL  .M        644.3                : gl           - GROUND LEVEL ELEVATION
EREF.M        648.1                : kb           - ELEVATION OF DEPTH REFERENCE
DATM.M        648.1                : datum        - DATUM ELEVATION
TDD .M        613.8                : tdd          - TOTAL DEPTH DRILLER
RUN .         ONE                  : Run          - RUN NUMBER
ENG .         BILL                 : Engineer     - RECORDING ENGINEER
WIT .         JIM                  : Witness      - WITNESSED BY
MUD .         GEL                  : Mud_type     - MUD TYPE
MATR.         LIMESTONE            : Logunit      - NEUTRON MATRIX
TMAX.C        25.5                 : BHT          - MAXIMUM RECORDED TEMPERATURE
BHTD.M        618.3                : BHTDEP       - MAXIMUM RECORDED TEMPERATURE
MATR.         1                    : LOGUNIT      - NEUTRON MATRIX
RMT .C        25                   : MDTP         - TEMPERATURE OF MUD
NEUT.         1                    : NEUTRON      - NEUTRON TYPE
RESI.         0                    : RESIST       - RESISTIVITY TYPE
RMC .OHMM     0.25                 : RMC          - RESISTIVITY OF MUD CAKE
RMF .OHMM     0.25                 : RMF          - RESISTIVITY OF MUD FILTRATE
SUFT.C        15                   : SUFT         - SURFACE TEMPERATURE
~A  DEPTH     RESD     PHID     PHIN       GR      CAL
# ...
  454.500    7.506    0.380    0.463   53.075  154.489
  454.750    7.366    0.369    0.474   56.467  153.975
  455.000    7.187    0.363    0.463   57.742  153.459
  455.250    7.040    0.365    0.441   58.053  152.844
  455.500    6.960    0.367    0.455   57.575  152.026
  455.750    7.037    0.373    0.469   58.972  151.105
  456.000    7.141    0.380    0.456   58.798  150.593
  456.250    7.261    0.385    0.446   58.322  150.180
  456.500    7.288    0.369    0.460   57.483  150.269
  456.750    7.451    0.360    0.456   57.611  150.869
  457.000    7.506    0.364    0.442   58.948  150.962
  457.250    7.463    0.369    0.447   60.465  151.256
  457.500    7.602    0.372    0.456   62.468  151.449
  457.750    7.802    0.374    0.454   63.987  151.542
  458.000    7.948    0.368    0.452   63.871  151.533
  458.250    7.887    0.359    0.459   63.032  151.219
  458.500    7.754    0.370    0.465   63.825  151.213
  458.750    7.595    0.378    0.456   63.348  150.900
  459.000    7.509    0.371    0.450   62.811  150.588
  459.250    7.466    0.362    0.447   63.846  150.476
  459.500    7.436    0.355    0.441   65.123  150.469
  459.750    7.477    0.355    0.440   65.614  150.257
  460.000    7.560    0.356    0.436   66.345  150.046
  460.250    7.629    0.358    0.436   67.440  150.038
  460.500    7.685    0.360    0.439   67.266  150.332
  460.750    7.727    0.362    0.444   65.883  150.221
  461.000    7.711    0.359    0.450   63.774  150.719
  461.250    7.638    0.343    0.455   63.963  151.013
  461.500    7.551    0.324    0.462   65.481  151.106
  461.750    7.410    0.332    0.473   66.334  150.895
  462.000    7.354    0.336    0.474   66.825  150.481
  462.250    7.379    0.335    0.471   67.013  150.372
  462.500    8.025    0.326    0.462   67.141  150.767
  462.750    7.460    0.323    0.451   67.329  150.151
  463.000    7.904    0.321    0.455   68.909  149.940
  463.250    7.771    0.318    0.462   70.305  150.132
  463.500    7.668    0.313    0.445   70.131  151.035
  463.750    7.595    0.317    0.435   68.566  151.429
  464.000    7.622    0.324    0.423   66.639  151.825
  464.250    7.765    0.331    0.412   65.196  152.322
  464.500    7.880    0.340    0.410   62.604  152.415
  464.750    7.997    0.347    0.416   61.705  152.404
  465.000    8.132    0.350    0.418   58.328  152.800
  465.250    8.206    0.351    0.427   55.011  153.298
  465.500    8.220    0.351    0.441   59.973  153.997
  465.750    8.158    0.347    0.448   63.486  154.391
  466.000    7.990    0.340    0.433   66.213  154.988
  466.250    7.885    0.333    0.441   68.456  155.585
  466.500    7.665    0.319    0.449   70.336  155.981
  466.750    7.273    0.312    0.459   71.250  156.278
  467.000    7.098    0.301    0.466   72.466  156.372
  467.250    7.123    0.286    0.445   74.165  156.565
  467.500    7.188    0.281    0.438   70.727  156.657
  467.750    7.405    0.299    0.441   68.377  156.750
  468.000    7.473    0.318    0.443   70.680  157.045
  468.250    7.334    0.331    0.430   75.885  157.338
  468.500    7.129    0.316    0.430   78.672  157.532
  468.750    6.957    0.304    0.445   76.323  157.623
  469.000    6.738    0.309    0.456   76.511  157.717
  469.250    6.625    0.313    0.473   79.117  157.302
  469.500    6.562    0.302    0.455   83.659  157.597
  469.750    6.536    0.297    0.445   85.718  157.791
  470.000    6.572    0.302    0.447   85.364  158.085
  470.250    6.657    0.315    0.455   78.359  158.178
  470.500    6.545    0.325    0.442   76.372  158.372
  470.750    6.176    0.323    0.431   79.884  159.070
  471.000    5.530    0.312    0.441   84.847  160.174
  471.250    4.887    0.301    0.452   86.607  161.582
  471.500    4.451    0.288    0.463   84.317  163.999
  471.750    4.000    0.277    0.473   81.303  166.721
  472.000    3.636    0.278    0.482   81.310  170.858
  472.250    3.635    0.282    0.494   81.981  173.682
  472.500    3.830    0.299    0.508   82.655  175.594
  472.750    4.073    0.327    0.522   83.990  175.787
  473.000    4.307    0.311    0.511   82.607  171.329
  473.250    4.529    0.301    0.489   82.251  166.567
  473.500    4.657    0.286    0.471   90.297  163.322
  473.750    4.664    0.270    0.468   97.012  161.493
  474.000    4.586    0.252    0.468  103.184  159.762
  474.250    4.263    0.237    0.478  107.602  159.450
  474.500    3.775    0.232    0.485  110.450  160.050
  474.750    3.489    0.234    0.493  109.973  161.458
  475.000    3.249    0.237    0.501  107.442  163.875
  475.250    3.177    0.234    0.496  103.762  164.979
  475.500    3.194    0.239    0.501  100.385  165.273
  475.750    3.278    0.243    0.513   98.641  164.959
  476.000    3.396    0.249    0.528   96.350  164.649
  476.250    3.591    0.260    0.543   92.067  163.225
  476.500    4.123    0.267    0.508   78.898  161.800
  476.750    4.813    0.276    0.483   76.549  159.868
  477.000    5.464    0.287    0.468   73.292  158.748
  477.250    6.392    0.299    0.453   72.393  158.435
  477.500    7.435    0.284    0.434   71.856  158.729
  477.750    8.795    0.299    0.448   70.835  159.227
  478.000    9.745    0.308    0.440   70.480  159.216
  478.250   10.539    0.296    0.434   71.032  159.310
  478.500   10.537    0.282    0.437   72.186  159.198
  478.750    9.613    0.279    0.449   75.034  159.394
  479.000    8.738    0.281    0.456   74.255  159.484
  479.250    7.898    0.274    0.459   70.455  159.882
  479.500    7.494    0.266    0.451   68.588  160.176
  479.750    7.437    0.274    0.459   67.810  160.166
  480.000    7.449    0.287    0.448   69.630  160.462
  480.250    7.546    0.285    0.435   71.873  160.858
  480.500    7.672    0.262    0.425   75.689  162.668
  480.750    7.700    0.260    0.434   77.447  164.683
  481.000    7.443    0.283    0.447   77.817  168.112
  481.250    6.932    0.300    0.463   74.984  170.834
  481.500    6.408    0.298    0.481   73.238  172.039
  481.750    5.967    0.298    0.506   74.878  169.501
  482.000    5.516    0.290    0.461   76.456  166.660
  482.250    5.735    0.286    0.451   80.209  164.730
  482.500    5.887    0.284    0.465   79.492  163.607
  482.750    6.087    0.283    0.469   79.619  163.095
  483.000    6.259    0.277    0.459   78.599  162.580
  483.250    6.447    0.269    0.466   78.847  162.166
  483.500    6.519    0.255    0.474   80.426  162.158
  483.750    6.518    0.242    0.481   82.125  162.248
  484.000    6.289    0.257    0.475   82.798  162.646
  484.250    6.126    0.250    0.465   82.805  162.941
  484.500    5.933    0.252    0.460   83.294  162.830
  484.750    5.801    0.253    0.451   82.516  162.518
  485.000    5.997    0.257    0.448   79.804  162.207
  485.250    6.110    0.262    0.451   79.690  161.892
  485.500    6.365    0.259    0.453   82.356  161.783
  485.750    6.508    0.252    0.465   84.539  161.370
  486.000    6.692    0.250    0.450   85.513  160.855
  486.250    6.855    0.242    0.441   85.399  160.443
  486.500    7.022    0.229    0.442   87.763  160.026
  486.750    7.302    0.220    0.456   89.402  159.917
  487.000    7.636    0.258    0.474   84.695  159.707
  487.250    8.227    0.284    0.506   79.566  159.902
  487.500    8.980    0.316    0.473   78.182  160.095
  487.750    9.876    0.302    0.448   77.646  159.581
  488.000   10.760    0.297    0.440   78.681  159.167
  488.250   11.294    0.297    0.458   78.747  158.853
  488.500   12.168    0.302    0.474   78.331  158.846
  488.750   12.915    0.252    0.323   62.685  158.837
  489.000   14.072    0.085    0.281   47.221  158.727
  489.250   16.096    0.067    0.255   41.486  158.516
  489.500   18.548    0.277    0.286   48.867  158.404
  489.750   20.629    0.290    0.376   59.148  158.600
  490.000   22.645    0.294    0.455   65.803  158.994
  490.250   21.810    0.298    0.452   68.650  159.289
  490.500   18.569    0.306    0.457   72.525  160.090
  490.750   15.344    0.303    0.461   77.367  162.104
