~VERSION INFORMATION
 VERS.                 2.0:   CWLS LOG ASCII STANDARD -VERSION 2.0
 WRAP.                  NO:   ONE LINE PER DEPTH STEP
~WELL INFORMATION BLOCK
#MNEM.UNIT           DATA                    DESCRIPTION OF MNEMONIC
#---------    -------------------            -------------------------------
# Generated from Intellog Unique Number	CW_70_72/WELL/773
NULL.         -999.25                        : NULL_VALUE
WELL.         CANOXY SMITH 06-29             : Well_name    - WELL              
LOC .         06-29-071-01W5                 : Location     - LOCATION          
UWI .         00/06-29-071-01W5/0            : Uwi          - UNIQUE WELL ID    
ENTR.         JAYE                           : Entered      - ENTERED BY        
SRVC.         SCHLUMBERGER                   : Scn          - SERVICE COMPANY   
DATE.         31 DEC 76                      : Date         - LOG DATE          
STRT.M        387.096                        : top_depth    - START DEPTH       
STOP.M        646.096                        : bot_depth    - STOP DEPTH        
STEP.M        0.25                           : increment    - STEP LENGTH       
~CURVE INFORMATION BLOCK
#MNEM UNIT       ERCB CURVE CODE    CURVE DESCRIPTION
#-----------   ------------------   ----------------------------------
DEPT.M        00 001 00 00         : DEPTH        - DEPTH                       
DPHI.V/V      00 890 00 00         : PHID         - DENSITY POROSITY (SANDSTONE)
NPHI.V/V      00 330 00 00         : PHIN         - NEUTRON POROSITY (SANDSTONE)
GR  .API      00 310 00 00         : GR           - GAMMA RAY                   
CALI.MM       00 280 01 00         : CAL          - CALIPER                     
ILD .OHMM     00 120 00 00         : RESD         - DEEP RESISTIVITY (DIL)      
~PARAMETER INFORMATION       
#MNEM.UNIT           DATA             DESCRIPTION OF MNEMONIC
#---------         -----------     ------------------------------
GL  .M        585.826              : gl           - GROUND LEVEL ELEVATION      
EREF.M        588.874              : kb           - ELEVATION OF DEPTH REFERENCE
DATM.M        585.826              : datum        - DATUM ELEVATION             
TDD .M        660.806              : tdd          - TOTAL DEPTH DRILLER         
RUN .         ONE                  : Run          - RUN NUMBER                  
BASE.         EDM                  : Branch       - HOME BASE OF LOGGING UNIT   
MATR.         SANDSTONE            : Logunit      - NEUTRON MATRIX              
TMAX.C        27.2222              : BHT          - MAXIMUM RECORDED TEMPERATURE
BHTD.M        660.502              : BHTDEP       - MAXIMUM RECORDED TEMPERATURE
RMT .C        8.33333              : MDTP         - TEMPERATURE OF MUD          
MUDD.KG/M     0                    : MWT          - MUD DENSITY                 
NEUT.         1                    : NEUTRON      - NEUTRON TYPE                
RESI.         0                    : RESIST       - RESISTIVITY TYPE            
RM  .OHMM     4.28                 : RM           - RESISTIVITY OF MUD          
RMC .OHMM     0                    : RMC          - RESISTIVITY OF MUD CAKE     
RMF .OHMM     3.46                 : RMF          - RESISTIVITY OF MUD FILTRATE 
SUFT.C        -17.7778             : SUFT         - SURFACE TEMPERATURE         
~A  DEPTH     PHID     PHIN       GR      CAL     RESD
# ...
  460.096    0.263    0.423   66.534  165.921    2.122
  460.346    0.254    0.412   67.530  166.170    2.185
  460.596    0.265    0.459   65.974  166.316    2.271
  460.846    0.281    0.456   61.565  166.561    2.347
  461.096    0.289    0.441   61.408  166.810    2.440
  461.346    0.282    0.428   64.103  166.747    2.517
  461.596    0.260    0.430   67.710  166.790    2.587
  461.846    0.246    0.443   71.682  166.825    2.660
  462.096    0.258    0.467   73.655  167.071    2.699
  462.346    0.246    0.461   73.433  167.215    2.664
  462.596    0.237    0.451   70.907  167.367    2.577
  462.846    0.241    0.444   69.168  167.614    2.492
  463.096    0.250    0.472   68.771  167.762    2.424
  463.346    0.235    0.489   69.825  167.791    2.380
  463.596    0.231    0.488   72.704  168.040    2.357
  463.846    0.249    0.460   74.916  168.185    2.331
  464.096    0.271    0.450   76.275  168.747    2.310
  464.346    0.287    0.445   77.635  169.094    2.276
  464.596    0.278    0.443   78.391  169.136    2.209
  464.846    0.262    0.440   74.345  169.180    2.113
  465.096    0.259    0.433   68.296  169.216    2.025
  465.346    0.287    0.416   63.399  169.362    1.898
  465.596    0.286    0.413   65.125  169.400    1.843
  465.846    0.303    0.439   66.608  169.449    1.812
  466.096    0.282    0.434   64.749  169.388    1.816
  466.346    0.286    0.422   64.529  169.318    1.822
  466.596    0.294    0.407   65.830  169.259    1.835
  466.846    0.279    0.406   67.069  169.200    1.849
  467.096    0.259    0.419   68.309  169.141    1.866
  467.346    0.276    0.422   65.235  169.072    1.869
  467.596    0.297    0.406   61.131  168.912    1.869
  467.846    0.286    0.415   64.494  169.162    1.869
  468.096    0.299    0.431   64.883  169.309    1.875
  468.346    0.311    0.446   64.240  169.351    1.875
  468.596    0.304    0.438   66.025  169.380    1.871
  468.846    0.295    0.426   68.602  169.121    1.871
  469.096    0.295    0.436   68.807  169.462    1.881
  469.346    0.297    0.441   65.492  169.606    1.895
  469.596    0.304    0.433   62.539  169.853    1.923
  469.846    0.310    0.424   64.446  169.799    1.937
  470.096    0.320    0.416   66.292  169.733    2.010
  470.346    0.299    0.419   66.867  169.568    2.312
  470.596    0.272    0.436   67.255  169.301    2.971
  470.846    0.241    0.429   67.703  169.035    3.652
  471.096    0.199    0.417   65.177  168.974    4.287
  471.346    0.125    0.409   63.319  169.218    4.914
  471.596    0.088    0.348   65.650  172.040    5.368
  471.846    0.056    0.313   64.947  176.089    5.559
  472.096    0.065    0.332   64.545  169.137    5.620
  472.346    0.104    0.348   65.601  166.300    5.239
  472.596    0.152    0.369   67.509  166.649    4.647
  472.846    0.111    0.401   70.085  167.103    3.864
  473.096    0.096    0.396   72.296  167.558    3.090
  473.346    0.141    0.405   75.539  167.597    2.701
  473.596    0.176    0.450   79.632  167.532    2.494
  473.846    0.250    0.437   84.515  168.196    2.426
  474.096    0.233    0.420   85.695  168.442    2.390
  474.346    0.230    0.422   80.495  168.177    2.381
  474.596    0.237    0.428   82.892  167.494    2.390
  474.846    0.247    0.430   84.554  166.824    2.403
  475.096    0.253    0.421   79.477  166.656    2.438
  475.346    0.240    0.422   73.547  166.486    2.479
  475.596    0.247    0.432   74.121  166.321    2.497
  475.846    0.256    0.453   76.453  166.054    2.515
  476.096    0.267    0.453   77.327  165.690    2.524
  476.346    0.276    0.444   75.894  165.622    2.524
  476.596    0.287    0.421   73.306  165.771    2.519
  476.846    0.291    0.415   75.151  166.019    2.533
  477.096    0.286    0.428   75.480  166.366    2.575
  477.346    0.271    0.439   73.621  166.718    2.608
  477.596    0.253    0.439   70.367  166.867    2.642
  477.846    0.242    0.413   65.592  166.899    2.686
  478.096    0.258    0.407   65.865  166.744    2.665
  478.346    0.231    0.423   66.737  166.478    2.597
  478.596    0.240    0.429   66.759  166.407    2.540
  478.846    0.251    0.423   65.267  166.252    2.480
  479.096    0.261    0.424   62.314  166.488    2.425
  479.346    0.274    0.400   62.641  166.752    2.376
  479.596    0.266    0.408   64.245  166.790    2.332
  479.846    0.263    0.424   67.609  166.832    2.319
  480.096    0.270    0.438   63.625  166.872    2.281
  480.346    0.277    0.422   58.914  166.917    2.256
  480.596    0.293    0.402   60.943  166.943    2.243
  480.846    0.274    0.403   66.130  166.882    2.239
  481.096    0.271    0.408   70.343  166.823    2.234
  481.346    0.271    0.415   65.875  167.066    2.226
  481.596    0.293    0.413   60.556  167.009    2.201
  481.846    0.302    0.417   59.607  167.048    2.189
  482.096    0.304    0.423   59.876  166.881    2.180
  482.346    0.292    0.407   61.964  166.924    2.192
  482.596    0.276    0.409   65.146  166.973    2.212
  482.846    0.268    0.414   68.328  167.008    2.245
  483.096    0.269    0.411   65.924  167.566    2.368
  483.346    0.257    0.411   65.585  167.914    2.744
  483.596    0.262    0.414   64.455  168.165    3.037
  483.846    0.260    0.415   62.655  168.312    2.884
  484.096    0.259    0.398   63.106  168.347    2.654
  484.346    0.228    0.381   64.103  168.282    2.451
  484.596    0.206    0.390   67.225  168.123    2.319
  484.846    0.238    0.411   69.860  167.954    2.206
  485.096    0.253    0.424   68.064  167.899    2.122
  485.346    0.250    0.432   67.053  167.735    2.052
  485.596    0.271    0.420   66.531  167.572    2.026
  485.846    0.276    0.405   66.923  167.501    2.052
  486.096    0.264    0.394   66.947  167.442    2.109
  486.346    0.267    0.401   66.665  167.175    2.176
  486.596    0.260    0.405   64.504  167.010    2.233
  486.846    0.247    0.404   60.215  166.847    2.208
  487.096    0.227    0.402   61.702  166.582    2.136
  487.346    0.202    0.399   63.909  166.624    2.108
  487.596    0.217    0.397   67.820  166.664    2.089
  487.846    0.227    0.394   68.695  166.806    2.119
  488.096    0.235    0.392   63.801  167.066    2.273
  488.346    0.247    0.391   63.521  167.101    2.474
  488.596    0.234    0.388   62.695  167.342    2.809
  488.846    0.191    0.388   58.650  167.588    3.208
  489.096    0.167    0.375   55.578  166.397    3.030
  489.346    0.158    0.317   55.237  163.454    2.757
  489.596    0.122    0.296   59.577  165.036    2.547
  489.846    0.100    0.380   62.756  169.192    2.374
  490.096    0.233    0.413   65.999  166.257    2.189
  490.346    0.266    0.429   69.487  164.852    2.090
  490.596    0.261    0.431   70.786  164.181    2.033
  490.846    0.250    0.428   67.471  164.216    2.032
  491.096    0.244    0.412   64.398  164.369    2.066
  491.346    0.250    0.401   64.481  164.708    2.108
  491.596    0.258    0.408   66.759  165.062    2.171
  491.846    0.250    0.424   68.538  165.107    2.228
  492.096    0.255    0.437   72.213  165.147    2.320
  492.346    0.252    0.426   75.088  165.189    2.398
  492.596    0.241    0.413   78.696  165.335    2.525
  492.846    0.217    0.404   82.484  165.471    2.678
  493.096    0.193    0.410   85.970  166.032    2.804
  493.346    0.178    0.496   85.812  168.022    2.909
  493.596    0.225    0.512   83.773  172.383    3.024
  493.846    0.226    0.477   80.645  173.146    3.201
  494.096    0.234    0.457   79.996  165.888    3.364
  494.346    0.277    0.438   80.444  165.616    3.189
  494.596    0.329    0.463   85.814  165.866    2.818
  494.846    0.370    0.538   88.513  166.322    2.458
  495.096    0.416    0.598   86.714  166.670    2.196
  495.346    0.423    0.526   85.103  166.298    2.062
  495.596    0.337    0.472   85.976  165.417    2.021
  495.846    0.302    0.430   86.239  164.531    2.020
  496.096    0.282    0.444   83.106  164.059    2.031
  496.346    0.242    0.437   78.760  164.204    2.043
