~VERSION INFORMATION
 VERS.                 2.0:   CWLS LOG ASCII STANDARD -VERSION 2.0
 WRAP.                  NO:   ONE LINE PER DEPTH STEP
~WELL INFORMATION BLOCK
#MNEM.UNIT           DATA                    DESCRIPTION OF MNEMONIC
#---------    -------------------            -------------------------------
# Generated from Intellog Unique Number	CS_67_68/WELL/714
WELL.         ET AL TWEEDIE                  : Well_name    - WELL
LOC .         00/06-31-068-12W4/0            : Location     - LOCATION
UWI .         00/06-31-068-12W4/0            : Uwi          - UNIQUE WELL ID
ENTR.         SP                             : Entered      - ENTERED BY
SRVC.         SCHLUMBERGER                   : Scn          - SERVICE COMPANY
STRT.M        289.56                         : top_depth    - START DEPTH
STOP.M        502.560                        : bot_depth    - STOP DEPTH
STEP.M        0.25                           : increment    - STEP LENGTH
 NULL. -999.2500:NULL Value
~CURVE INFORMATION BLOCK
#MNEM UNIT       ERCB CURVE CODE    CURVE DESCRIPTION
#-----------   ------------------   ----------------------------------
DEPT.M        00 001 00 00         : DEPTH        - DEPTH
GR  .API      00 310 00 00         : GR           - GAMMA RAY
DPHI.V/V      00 890 00 00         : PHID         - DENSITY POROSITY (SANDSTONE)
NPHI.V/V      00 330 00 00         : PHIN         - NEUTRON POROSITY (SANDSTONE)
ILD .OHMM     00 120 00 00         : RESD         - DEEP RESISTIVITY (DIL)
~PARAMETER INFORMATION
#MNEM.UNIT           DATA             DESCRIPTION OF MNEMONIC
#---------         -----------     ------------------------------
GL  .M        591.922              : gl           - GROUND LEVEL ELEVATION
EREF.M        594.665              : kb           - ELEVATION OF DEPTH REFERENCE
DATM.M        591.922              : datum        - DATUM ELEVATION
TDD .M        504.749              : tdd          - TOTAL DEPTH DRILLER
RUN .         ONE                  : Run          - RUN NUMBER
ENG .         BILL                 : Engineer     - RECORDING ENGINEER
WIT .         JIM                  : Witness      - WITNESSED BY
MUD .         GEL                  : Mud_type     - MUD TYPE
MATR.         SANDSTONE            : Logunit      - NEUTRON MATRIX
TMAX.C        22.2222              : BHT          - MAXIMUM RECORDED TEMPERATURE
BHTD.M        504.749              : BHTDEP       - MAXIMUM RECORDED TEMPERATURE
MATR.         1                    : LOGUNIT      - NEUTRON MATRIX
RMT .C        25                   : MDTP         - TEMPERATURE OF MUD
NEUT.         1                    : NEUTRON      - NEUTRON TYPE
RESI.         0                    : RESIST       - RESISTIVITY TYPE
RMC .OHMM     0.25                 : RMC          - RESISTIVITY OF MUD CAKE
RMF .OHMM     0.25                 : RMF          - RESISTIVITY OF MUD FILTRATE
SUFT.C        15                   : SUFT         - SURFACE TEMPERATURE
~A  DEPTH       GR     PHID     PHIN     RESD
  289.560  114.791    0.238    0.540    2.531
  289.810  116.689    0.239    0.546    2.500
  290.060  118.380    0.215    0.563    2.539
  290.310  118.123    0.196    0.587    2.345
  290.560  116.190    0.209    0.616    2.345
  290.810  114.757    0.240    0.556    2.365
  291.060  115.606    0.220    0.552    2.503
  291.310  116.106    0.208    0.553    2.557
  291.560  115.501    0.215    0.547    2.590
  291.810  114.283    0.213    0.554    2.629
  292.060  112.181    0.211    0.547    2.668
  292.310  109.350    0.220    0.562    2.687
  292.560  108.386    0.227    0.555    2.717
  292.810  109.895    0.204    0.542    2.778
  293.060  111.247    0.202    0.530    2.814
  293.310  110.658    0.204    0.543    2.831
  293.560  111.566    0.192    0.558    2.821
  293.810  114.048    0.193    0.549    2.813
  294.060  117.062    0.182    0.548    2.798
  294.310  118.954    0.199    0.565    2.789
  294.560  119.194    0.214    0.581    2.771
  294.810  118.190    0.219    0.557    2.755
  295.060  116.504    0.214    0.566    2.758
  295.310  113.955    0.231    0.558    2.748
  295.560  112.138    0.245    0.549    2.732
  295.810  110.326    0.256    0.560    2.725
  296.060  109.711    0.270    0.569    2.703
  296.310  110.515    0.261    0.584    2.681
  296.560  111.069    0.241    0.566    2.642
  296.810  110.132    0.219    0.548    2.580
  297.060  104.668    0.220    0.553    2.551
  297.310  102.882    0.239    0.537    2.559
  297.560  100.911    0.192    0.426    2.601
  297.810   94.137    0.152    0.378    2.687
  298.060   88.599    0.211    0.383    3.039
  298.310   86.052    0.236    0.391    3.345
  298.560   88.453    0.233    0.386    3.636
  298.810   89.586    0.241    0.384    3.984
  299.060   89.972    0.255    0.385    4.158
  299.310   92.964    0.247    0.380    3.979
  299.560   99.906    0.225    0.391    3.753
  299.810  105.376    0.203    0.407    3.665
  300.060  109.967    0.218    0.427    3.674
  300.310  113.871    0.237    0.465    3.740
  300.560  114.284    0.236    0.465    3.843
  300.810  115.138    0.230    0.465    3.895
  301.060  115.404    0.232    0.475    3.974
  301.310  115.714    0.226    0.490    3.987
  301.560  115.679    0.221    0.500    3.945
  301.810  114.695    0.226    0.505    3.891
  302.060  112.485    0.229    0.482    3.848
  302.310  108.850    0.232    0.470    3.832
  302.560  102.652    0.247    0.468    3.728
  302.810   89.607    0.282    0.414    3.463
  303.060   80.700    0.302    0.382    3.229
  303.310   71.734    0.293    0.356    3.024
  303.560   63.045    0.283    0.379    2.790
  303.810   67.154    0.273    0.409    2.612
  304.060   72.380    0.269    0.425    2.471
  304.310   73.814    0.266    0.428    2.339
  304.560   72.031    0.289    0.431    2.237
  304.810   67.985    0.297    0.423    2.160
  305.060   62.707    0.279    0.409    2.129
  305.310   74.307    0.259    0.404    2.256
  305.560   84.904    0.233    0.425    2.473
  305.810   95.884    0.218    0.444    2.661
  306.060   97.626    0.209    0.441    2.817
  306.310   97.556    0.239    0.452    2.947
  306.560   93.231    0.266    0.467    2.988
  306.810   92.625    0.283    0.451    2.955
  307.060   92.310    0.285    0.442    2.850
  307.310   95.637    0.273    0.434    2.780
  307.560   99.988    0.282    0.430    2.784
  307.810  103.210    0.265    0.455    2.874
  308.060  108.026    0.240    0.486    3.048
  308.310  113.167    0.223    0.515    3.179
  308.560  117.479    0.246    0.544    3.263
  308.810  120.405    0.277    0.586    3.236
  309.060  123.018    0.282    0.617    3.086
  309.310  123.713    0.277    0.618    2.778
  309.560  121.201    0.254    0.617    2.524
  309.810  113.900    0.267    0.593    2.297
  310.060  100.972    0.292    0.562    2.175
  310.310   92.797    0.265    0.536    2.213
  310.560   85.375    0.239    0.517    2.268
  310.810   87.330    0.227    0.473    2.363
  311.060   91.475    0.240    0.466    2.526
  311.310   95.079    0.248    0.457    2.706
  311.560   97.822    0.249    0.455    2.891
  311.810   99.829    0.243    0.462    3.040
  312.060  102.002    0.238    0.479    3.175
  312.310  102.117    0.232    0.488    3.288
  312.560   99.419    0.241    0.479    3.375
  312.810   97.918    0.248    0.466    3.417
  313.060   98.443    0.242    0.464    3.437
  313.310  100.219    0.236    0.472    3.462
  313.560  102.230    0.227    0.460    3.487
  313.810  104.105    0.219    0.451    3.524
  314.060  106.541    0.214    0.458    3.593
  314.310  108.171    0.207    0.471    3.667
  314.560  110.559    0.203    0.486    3.723
  314.810  114.324    0.223    0.506    3.752
  315.060  116.971    0.270    0.522    3.727
  315.310  120.184    0.272    0.529    3.615
  315.560  122.322    0.276    0.533    3.472
  315.810  124.596    0.285    0.548    3.283
  316.060  127.204    0.296    0.528    3.172
  316.310  129.989    0.284    0.523    3.153
  316.560  130.933    0.262    0.538    3.272
  316.810  130.371    0.244    0.472    3.427
  317.060  126.762    0.252    0.414    3.625
  317.310  119.027    0.272    0.366    4.019
  317.560  108.842    0.313    0.334    4.423
  317.810  103.439    0.352    0.318    4.885
  318.060   97.836    0.341    0.360    5.281
  318.310   94.393    0.316    0.390    5.505
  318.560   98.769    0.298    0.415    5.384
  318.810  101.508    0.281    0.439    4.822
  319.060  104.334    0.282    0.447    4.244
  319.310  106.251    0.278    0.438    3.818
  319.560  107.872    0.266    0.440    3.321
  319.810  105.211    0.273    0.446    2.882
  320.060  106.570    0.263    0.443    2.832
  320.310  109.126    0.246    0.445    2.903
  320.560  111.078    0.235    0.454    2.949
  320.810  111.870    0.253    0.464    2.990
  321.060  110.768    0.252    0.454    3.010
  321.310  110.011    0.244    0.442    3.010
  321.560  107.281    0.257    0.435    3.004
  321.810  108.244    0.265    0.452    2.998
  322.060  114.159    0.272    0.477    2.991
  322.310  121.340    0.281    0.492    2.976
  322.560  127.689    0.266    0.505    2.965
  322.810  131.174    0.262    0.489    2.962
  323.060  133.353    0.275    0.487    2.961
  323.310  134.131    0.268    0.481    2.973
  323.560  135.807    0.261    0.478    3.001
  323.810  136.446    0.248    0.474    3.095
  324.060  128.320    0.202    0.446    3.247
  324.310  122.081    0.135    0.398    3.406
  324.560  119.032    0.110    0.350    3.516
  324.810  117.353    0.250    0.373    3.549
  325.060  118.255    0.304    0.416    3.524
  325.310  119.537    0.307    0.473    3.413
  325.560  120.270    0.298    0.506    3.202
  325.810  120.889    0.289    0.511    2.935
  326.060  120.494    0.295    0.516    2.696
  326.310  118.516    0.298    0.519    2.513
  326.560  118.093    0.298    0.503    2.394
  326.810  117.389    0.294    0.487    2.381
  327.060  115.573    0.289    0.482    2.431
  327.310  114.870    0.282    0.484    2.528
  327.560  116.350    0.274    0.468    2.629
  327.810  116.602    0.265    0.446    2.702
  328.060  117.022    0.259    0.430    2.740
  328.310  119.908    0.272    0.452    2.756
  328.560  120.216    0.272    0.469    2.742
  328.810  118.404    0.269    0.485    2.705
  329.060  118.790    0.273    0.495    2.643
  329.310  119.966    0.286    0.507    2.561
  329.560  120.670    0.267    0.514    2.472
  329.810  118.745    0.255    0.522    2.418
  330.060  113.023    0.269    0.514    2.375
  330.310  107.232    0.290    0.487    2.322
  330.560  102.399    0.285    0.473    2.302
  330.810   98.350    0.276    0.468    2.301
  331.060   93.926    0.290    0.476    2.327
  331.310   92.739    0.300    0.471    2.363
  331.560   95.916    0.305    0.463    2.402
  331.810   99.306    0.291    0.448    2.482
  332.060  102.086    0.273    0.437    2.600
  332.310  103.627    0.250    0.432    2.735
  332.560  104.197    0.221    0.443    2.878
  332.810  104.036    0.208    0.462    3.002
