~VERSION INFORMATION
 VERS.                 2.0:   CWLS LOG ASCII STANDARD -VERSION 2.0
 WRAP.                  NO:   ONE LINE PER DEPTH STEP
~WELL INFORMATION BLOCK
#MNEM.UNIT           DATA                    DESCRIPTION OF MNEMONIC
#---------    -------------------            -------------------------------
# Generated from Intellog Unique Number	CW_70_72/WELL/3018
NULL.         -999.25                        : NULL_VALUE
WELL.         DOME SULPETRO BOUVIER 07-31    : Well_name    - WELL              
LOC .         07-31-070-24W4                 : Location     - LOCATION          
UWI .         00/07-31-070-24W4/0            : Uwi          - UNIQUE WELL ID    
ENTR.         J                              : Entered      - ENTERED BY        
SRVC.         WESTERN ATLAS                  : Scn          - SERVICE COMPANY   
DATE.         22 FEB 80                      : Date         - LOG DATE          
STRT.M        450                            : top_depth    - START DEPTH       
STOP.M        635                            : bot_depth    - STOP DEPTH        
STEP.M        0.25                           : increment    - STEP LENGTH       
~CURVE INFORMATION BLOCK
#MNEM UNIT       ERCB CURVE CODE    CURVE DESCRIPTION
#-----------   ------------------   ----------------------------------
DEPT.M        00 001 00 00         : DEPTH        - DEPTH                       
ILD .OHMM     00 120 00 00         : RESD         - DEEP RESISTIVITY (DIL)      
CALI.MM       00 280 01 00         : CAL          - CALIPER                     
GR  .API      00 310 00 00         : GR           - GAMMA RAY                   
NPHI.V/V      00 330 00 00         : PHIN         - NEUTRON POROSITY (SANDSTONE)
DPHI.V/V      00 890 00 00         : PHID         - DENSITY POROSITY (SANDSTONE)
~PARAMETER INFORMATION       
#MNEM.UNIT           DATA             DESCRIPTION OF MNEMONIC
#---------         -----------     ------------------------------
GL  .M        655.9                : gl           - GROUND LEVEL ELEVATION      
EREF.M        659.5                : kb           - ELEVATION OF DEPTH REFERENCE
DATM.M        655.9                : datum        - DATUM ELEVATION             
TDD .M        645                  : tdd          - TOTAL DEPTH DRILLER         
RUN .         ONE                  : Run          - RUN NUMBER                  
ENG .         WEIERS/PETERSON      : Engineer     - RECORDING ENGINEER          
WIT .         TRAHAM               : Witness      - WITNESSED BY                
MUD .         GEL CHEM             : Mud_type     - MUD TYPE                    
MATR.         SANDSTONE            : Logunit      - NEUTRON MATRIX              
TMAX.C        23                   : BHT          - MAXIMUM RECORDED TEMPERATURE
BHTD.M        646.6                : BHTDEP       - MAXIMUM RECORDED TEMPERATURE
RMT .C        15                   : MDTP         - TEMPERATURE OF MUD          
MUDD.KG/M     9.5                  : MWT          - MUD DENSITY                 
NEUT.         1                    : NEUTRON      - NEUTRON TYPE                
RESI.         0                    : RESIST       - RESISTIVITY TYPE            
RM  .OHMM     3.4                  : RM           - RESISTIVITY OF MUD          
RMC .OHMM     3.7                  : RMC          - RESISTIVITY OF MUD CAKE     
RMF .OHMM     3.1                  : RMF          - RESISTIVITY OF MUD FILTRATE 
SUFT.C        0                    : SUFT         - SURFACE TEMPERATURE         
~A  DEPTH     RESD      CAL       GR     PHIN     PHID
# ...
  596.000    6.221  173.499  117.903    0.348    0.129
  596.250    6.187  174.100  120.789    0.357    0.133
  596.500    6.152  174.200  125.826    0.366    0.149
  596.750    6.141  174.805  127.234    0.369    0.152
  597.000    6.095  176.432  125.999    0.368    0.147
  597.250    6.039  177.451  126.855    0.359    0.144
  597.500    5.983  179.183  129.001    0.361    0.145
  597.750    5.972  180.610  131.087    0.366    0.148
  598.000    6.005  181.421  132.249    0.353    0.166
  598.250    6.128  180.592  128.247    0.343    0.172
  598.500    6.539  178.427  121.354    0.326    0.179
  598.750    7.133  177.396  112.861    0.316    0.174
  599.000    7.826  175.130  105.599    0.306    0.171
  599.250    8.569  172.353   99.258    0.298    0.157
  599.500    9.630  170.295   95.933    0.287    0.154
  599.750   10.351  168.544   92.299    0.277    0.149
  600.000   11.127  167.510   91.615    0.271    0.149
  600.250   11.292  167.500   92.411    0.269    0.138
  600.500   11.064  168.516   89.576    0.267    0.130
  600.750   10.198  170.967   88.648    0.268    0.116
  601.000    9.522  171.366   92.455    0.274    0.105
  601.250    9.007  169.000   95.708    0.296    0.120
  601.500    8.825  166.942   95.703    0.308    0.123
  601.750    9.006  169.904   93.484    0.296    0.091
  602.000    9.346  172.049   90.650    0.282    0.061
  602.250   10.027  172.347   91.380    0.264    0.046
  602.500   10.899  168.851   90.945    0.254    0.041
  602.750   11.650  164.846   89.893    0.244    0.054
  603.000   12.157  168.422   88.966    0.238    0.070
  603.250   11.226  171.591   88.593    0.245    0.064
  603.500   10.366  173.530   88.403    0.251    0.053
  603.750    9.751  175.159   89.750    0.262    0.047
  604.000    8.628  175.253   92.635    0.280    0.053
  604.250    7.996  173.809   95.212    0.302    0.069
  604.500    7.329  169.802   98.834    0.322    0.099
  604.750    6.730  168.972  101.658    0.331    0.119
  605.000    6.249  169.884  105.589    0.338    0.124
  605.250    6.044  170.903  106.567    0.344    0.126
  605.500    6.180  173.764  104.593    0.349    0.126
  605.750    6.449  175.804  105.818    0.354    0.129
  606.000    6.680  176.308  107.226    0.358    0.126
  606.250    6.944  173.940  107.589    0.356    0.126
  606.500    7.193  171.881  107.646    0.350    0.120
  606.750    7.382  171.258  106.534    0.345    0.115
  607.000    7.478  170.836  105.113    0.343    0.133
  607.250    7.506  172.365  105.292    0.343    0.132
  607.500    7.533  174.507  105.902    0.344    0.125
  607.750    7.450  175.831  107.618    0.348    0.135
  608.000    7.533  176.951  110.504    0.351    0.113
  608.250    7.673  176.940  112.958    0.351    0.098
  608.500    7.659  176.727  115.289    0.344    0.108
  608.750    7.380  176.204  118.911    0.338    0.096
  609.000    6.916  174.863  115.954    0.323    0.091
  609.250    6.398  173.830  106.417    0.301    0.083
  609.500    5.693  173.923   94.356    0.279    0.058
  609.750    4.891  174.324   88.817    0.249    0.045
  610.000    3.815  175.749   81.677    0.228    0.046
  610.250    2.873  177.479   82.225    0.220    0.052
  610.500    2.288  177.983   87.078    0.222    0.070
  610.750    1.811  178.385   92.915    0.241    0.089
  611.000    1.364  178.682  101.642    0.268    0.089
  611.250    1.135  178.879  108.463    0.290    0.106
  611.500    1.008  178.769  116.575    0.311    0.105
  611.750    0.992  178.860  114.172    0.313    0.095
  612.000    0.977  178.852  105.925    0.281    0.085
  612.250    0.959  176.896   99.524    0.259    0.066
  612.500    0.917  174.118   93.368    0.237    0.057
  612.750    0.857  173.187   94.100    0.233    0.069
  613.000    0.806  173.791  100.368    0.243    0.083
  613.250    0.758  175.319  109.895    0.264    0.103
  613.500    1.040  176.746  112.717    0.277    0.125
  613.750    1.972  177.967  114.004    0.294    0.119
  614.000    2.299  179.085  115.227    0.305    0.111
  614.250    2.717  179.794  117.683    0.312    0.101
  614.500    3.204  180.092  120.875    0.319    0.097
  614.750    3.950  179.673  123.081    0.324    0.097
  615.000    4.860  178.536  122.278    0.319    0.102
  615.250    5.806  177.707  117.107    0.314    0.100
  615.500    6.873  178.926  120.422    0.308    0.094
  615.750    7.767  179.225  121.584    0.295    0.094
  616.000    8.473  179.112  115.430    0.283    0.087
  616.250    8.728  179.002  106.937    0.260    0.066
  616.500    8.520  178.173   93.832    0.242    0.057
  616.750    7.823  176.931   92.043    0.233    0.077
  617.000    6.708  175.486  101.817    0.260    0.110
  617.250    5.625  174.350  119.276    0.316    0.120
  617.500    4.495  173.624  129.049    0.358    0.135
  617.750    3.840  172.998  138.268    0.428    0.142
  618.000    3.398  173.095  140.538    0.461    0.153
  618.250    3.103  173.084  134.567    0.457    0.161
  618.500    3.178  173.484  126.258    0.405    0.148
  618.750    3.448  174.092  122.749    0.381    0.124
  619.000    3.854  175.004  117.454    0.337    0.120
  619.250    4.469  175.508  119.415    0.314    0.102
  619.500    5.051  176.934  121.808    0.310    0.099
  619.750    5.359  177.744  126.046    0.321    0.107
  620.000    5.469  178.760  129.115    0.347    0.093
  620.250    5.378  178.649  129.788    0.362    0.104
  620.500    5.289  178.332  124.923    0.374    0.068
  620.750    5.270  178.423  119.320    0.373    0.056
  621.000    5.418  178.519  119.316    0.360    0.080
  621.250    5.889  178.406  124.906    0.343    0.062
  621.500    6.157  178.701  128.406    0.332    0.055
  621.750    6.460  179.307  122.005    0.308    0.033
  622.000    6.804  179.506  110.746    0.282    0.042
  622.250    6.983  179.495  108.465    0.287    0.065
  622.500    6.995  179.589  112.333    0.303    0.091
  622.750    6.753  178.965  115.771    0.318    0.119
  623.000    6.519  178.650  117.365    0.334    0.101
  623.250    6.519  177.716  110.102    0.349    0.061
  623.500    6.943  177.299  105.915    0.338    0.037
  623.750    7.285  176.979  103.511    0.320    0.024
  624.000    7.477  176.767  104.242    0.311    0.044
  624.250    7.532  176.756  105.468    0.310    0.066
  624.500    7.421  176.953  108.659    0.315    0.090
  624.750    7.151  176.431  114.496    0.328    0.098
  625.000    6.802  176.217  123.655    0.343    0.094
  625.250    6.506  176.312  126.601    0.354    0.087
  625.500    6.362  175.685  125.673    0.358    0.080
  625.750    6.398  175.265  125.913    0.360    0.076
  626.000    6.469  174.847  129.104    0.354    0.082
  626.250    6.663  174.632  132.483    0.341    0.096
  626.500    6.864  174.110  139.857    0.324    0.093
  626.750    7.018  173.690  145.202    0.307    0.078
  627.000    7.350  173.578  150.055    0.296    0.070
  627.250    7.585  173.367  152.754    0.289    0.055
  627.500    7.871  173.665  153.979    0.293    0.061
  627.750    8.004  174.168  152.068    0.306    0.065
  628.000    7.915  174.467  132.259    0.317    0.081
  628.250    7.669  174.970  133.115    0.330    0.084
  628.500    7.349  174.756  134.401    0.338    0.077
  628.750    6.939  174.848  127.139    0.348    0.058
  629.000    6.649  174.427  126.826    0.361    0.067
  629.250    6.442  174.113  128.480    0.367    0.067
  629.500    6.231  174.309  130.442    0.372    0.097
  629.750    6.162  175.013  132.834    0.375    0.100
  630.000    6.071  175.212  134.858    0.376    0.079
  630.250    6.004  175.101  136.699    0.376    0.079
  630.500    5.959  174.988  139.644    0.371    0.057
  630.750    5.970  175.184  141.053    0.365    0.051
  631.000    6.026  175.483  141.601    0.355    0.049
  631.250    6.288  175.576  141.474    0.316    0.049
  631.500    6.911  175.463  138.823    0.287    0.047
  631.750    8.104  175.762  121.475    0.253    0.068
  632.000   10.427  176.061   93.058    0.231    0.078
  632.250   14.771  176.256   65.869    0.134    0.115
