~VERSION INFORMATION
 VERS.                 2.0:   CWLS LOG ASCII STANDARD -VERSION 2.0
 WRAP.                  NO:   ONE LINE PER DEPTH STEP
~WELL INFORMATION BLOCK
#MNEM.UNIT           DATA                    DESCRIPTION OF MNEMONIC
#---------    -------------------            -------------------------------
# Generated from Intellog Unique Number	CW_73_75/WELL/642
LOC .         00/07-02-075-24W4/0            : Location     - LOCATION
UWI .         00/07-02-075-24W4/0            : Uwi          - UNIQUE WELL ID
ENTR.         JAYE                           : Entered      - ENTERED BY
SRVC.         SCHLUMBERGER                   : Scn          - SERVICE COMPANY
DATE.         1 MAR 75                       : Date         - LOG DATE
STRT.M        426.72                         : top_depth    - START DEPTH
STOP.M        621.72                         : bot_depth    - STOP DEPTH
STEP.M        0.25                           : increment    - STEP LENGTH
 NULL. -999.2500:NULL Value
~CURVE INFORMATION BLOCK
#MNEM UNIT       ERCB CURVE CODE    CURVE DESCRIPTION
#-----------   ------------------   ----------------------------------
DEPT.M        00 001 00 00         : DEPTH        - DEPTH
ILD .OHMM     00 120 00 00         : RESD         - DEEP RESISTIVITY (DIL)
CALI.MM       00 280 01 00         : CAL          - CALIPER
GR  .API      00 310 00 00         : GR           - GAMMA RAY
DPHI.V/V      00 890 00 00         : PHID         - DENSITY POROSITY (SANDSTONE)
NPHI.V/V      00 330 00 00         : PHIN         - NEUTRON POROSITY (SANDSTONE)
~PARAMETER INFORMATION
#MNEM.UNIT           DATA             DESCRIPTION OF MNEMONIC
#---------         -----------     ------------------------------
GL  .M        702.107              : gl           - GROUND LEVEL ELEVATION
EREF.M        706.222              : kb           - ELEVATION OF DEPTH REFERENCE
DATM.M        702.107              : datum        - DATUM ELEVATION
TDD .M        623.316              : tdd          - TOTAL DEPTH DRILLER
RUN .         ONE                  : Run          - RUN NUMBER
ENG .         EARLE                : Engineer     - RECORDING ENGINEER
WIT .         BRYANT               : Witness      - WITNESSED BY
BASE.         EDM                  : Branch       - HOME BASE OF LOGGING UNIT
MATR.         SANDSTONE            : Logunit      - NEUTRON MATRIX
TMAX.C        29.4444              : BHT          - MAXIMUM RECORDED TEMPERATURE
BHTD.M        622.706              : BHTDEP       - MAXIMUM RECORDED TEMPERATURE
RMT .C        20                   : MDTP         - TEMPERATURE OF MUD
MUDD.KG/M     0                    : MWT          - MUD DENSITY
NEUT.         1                    : NEUTRON      - NEUTRON TYPE
RESI.         0                    : RESIST       - RESISTIVITY TYPE
RM  .OHMM     3.85                 : RM           - RESISTIVITY OF MUD
RMC .OHMM     0                    : RMC          - RESISTIVITY OF MUD CAKE
RMF .OHMM     4.96                 : RMF          - RESISTIVITY OF MUD FILTRATE
SUFT.C        -17.7778             : SUFT         - SURFACE TEMPERATURE
~A  DEPTH     RESD      CAL       GR     PHID     PHIN
# ...
  499.720    4.299  223.606  103.602    0.248    0.489
  499.970    4.283  224.859  104.281    0.239    0.482
  500.220    4.274  225.699  106.673    0.224    0.487
  500.470    4.274  225.916  109.127    0.213    0.512
  500.720    4.258  225.719  109.499    0.213    0.545
  500.970    4.258  225.006  107.670    0.233    0.554
  501.220    4.312  224.393  103.273    0.252    0.495
  501.470    4.513  223.057   96.855    0.273    0.480
  501.720    4.775  221.307   90.072    0.294    0.468
  501.970    5.184  219.868   85.612    0.299    0.456
  502.220    5.658  218.946   81.643    0.237    0.428
  502.470    6.382  218.439   78.162    0.202    0.360
  502.720    6.487  218.138   75.109    0.161    0.320
  502.970    5.921  217.734   78.359    0.138    0.351
  503.220    5.023  217.642   79.526    0.150    0.397
  503.470    4.308  217.651   80.267    0.270    0.420
  503.720    3.675  217.766   79.906    0.309    0.462
  503.970    3.366  217.879   77.709    0.302    0.502
  504.220    3.181  217.891   72.027    0.288    0.491
  504.470    3.089  217.901   68.240    0.284    0.486
  504.720    3.022  217.808   69.837    0.299    0.498
  504.970    2.978  218.234   71.923    0.305    0.496
  505.220    2.961  218.760   72.908    0.307    0.482
  505.470    2.961  219.807   71.814    0.323    0.481
  505.720    3.004  220.855   69.066    0.318    0.483
  505.970    3.042  221.695   66.198    0.307    0.482
  506.220    3.070  222.428   63.879    0.303    0.477
  506.470    3.087  222.750   62.234    0.295    0.476
  506.720    3.109  222.864   62.424    0.284    0.474
  506.970    3.143  222.772   63.287    0.245    0.456
  507.220    3.166  222.470   64.027    0.251    0.455
  507.470    3.188  222.067   65.133    0.329    0.472
  507.720    3.194  222.079   66.424    0.309    0.473
  507.970    3.194  221.778   67.594    0.292    0.470
  508.220    3.211  221.476   68.456    0.283    0.464
  508.470    3.216  221.799   69.624    0.286    0.458
  508.720    3.228  221.809   69.997    0.298    0.454
  508.970    3.228  221.404   70.921    0.301    0.506
  509.220    3.233  221.313   74.231    0.299    0.500
  509.470    3.257  221.115   77.479    0.301    0.487
  509.720    3.268  220.919   79.137    0.317    0.477
  509.970    3.286  220.515   80.060    0.300    0.473
  510.220    3.268  220.216   80.250    0.286    0.474
  510.470    3.309  219.706   79.646    0.282    0.470
  510.720    3.333  219.199   78.673    0.289    0.444
  510.970    3.357  218.590   78.251    0.288    0.445
  511.220    3.363  218.184   78.440    0.284    0.450
  511.470    3.394  217.678   78.692    0.284    0.458
  511.720    3.443  217.584   78.514    0.294    0.464
  511.970    3.506  217.700   78.520    0.307    0.466
  512.220    3.558  217.915   78.465    0.287    0.447
  512.470    3.590  218.237   79.389    0.288    0.442
  512.720    3.737  218.972   81.169    0.297    0.443
  512.970    4.161  220.435   82.949    0.230    0.451
  513.220    4.985  221.272   81.915    0.168    0.393
  513.470    5.854  222.113   74.948    0.122    0.354
  513.720    6.274  222.537   75.628    0.091    0.322
  513.970    6.015  222.858   77.102    0.149    0.380
  514.220    5.746  223.075   79.493    0.218    0.419
  514.470    5.509  223.085   85.495    0.253    0.472
  514.720    5.321  222.370   88.375    0.271    0.494
  514.970    5.215  221.139   79.573    0.230    0.480
  515.220    5.101  220.010   78.539    0.182    0.447
  515.470    5.036  219.400   85.581    0.147    0.362
  515.720    5.008  219.515   90.664    0.184    0.427
  515.970    5.053  219.215   94.829    0.227    0.452
  516.220    5.127  218.914   92.817    0.241    0.464
  516.470    5.318  218.718   89.765    0.231    0.449
  516.720    5.637  218.626   88.180    0.219    0.417
  516.970    6.008  218.739   87.819    0.187    0.392
  517.220    5.942  218.541   88.744    0.217    0.435
  517.470    5.564  218.344   90.402    0.235    0.455
  517.720    5.267  218.355   92.488    0.217    0.458
  517.970    5.040  218.053   95.248    0.232    0.446
  518.220    4.763  218.065   97.271    0.222    0.435
  518.470    4.575  218.075   99.664    0.213    0.444
  518.720    4.426  218.190  101.504    0.231    0.457
  518.970    4.314  218.199  102.978    0.221    0.462
  519.220    4.251  219.037  106.717    0.207    0.453
  519.470    4.166  220.706  109.231    0.223    0.441
  519.720    4.135  222.790  111.195    0.236    0.441
  519.970    4.097  224.249  112.424    0.226    0.463
  520.220    4.067  226.022  113.164    0.211    0.476
  520.470    4.030  227.377  110.662    0.202    0.467
  520.720    3.986  229.148  107.610    0.194    0.471
  520.970    3.978  229.989  108.718    0.177    0.483
  521.220    3.985  229.999  111.048    0.189    0.492
  521.470    4.088  229.180  115.214    0.206    0.490
  521.720    4.309  227.949  110.693    0.226    0.483
  521.970    4.535  226.818   99.138    0.247    0.474
  522.220    4.790  225.794   84.218    0.259    0.459
  522.470    4.923  224.872   74.437    0.248    0.427
  522.720    4.833  223.433   78.725    0.221    0.408
  522.970    4.719  222.200   84.299    0.208    0.436
  523.220    4.525  220.760   88.587    0.241    0.452
  523.470    4.307  219.322   92.630    0.258    0.468
  523.720    4.144  218.295   95.329    0.237    0.482
  523.970    4.106  217.373   94.722    0.239    0.479
  524.220    4.235  217.176   91.609    0.269    0.453
  524.470    4.523  217.292   93.389    0.292    0.436
  524.720    4.973  218.026   93.762    0.225    0.425
  524.970    5.733  219.073   88.385    0.189    0.404
  525.220    7.268  219.808   81.968    0.097    0.349
  525.470   10.133  221.063   74.756    0.083    0.295
  525.720   10.860  222.006   72.072    0.094    0.267
  525.970   10.662  223.053   77.399    0.140    0.306
  526.220    9.983  223.891   83.033    0.192    0.432
  526.470    8.897  224.522   87.199    0.232    0.402
  526.720    8.407  225.361   83.963    0.193    0.303
  526.970    7.886  225.890   76.506    0.087    0.276
  527.220    7.356  226.211   73.209    0.051    0.287
  527.470    6.751  225.599   76.764    0.090    0.385
  527.720    6.263  224.782   80.256    0.178    0.447
  527.970    5.896  223.446   82.281    0.284    0.443
  528.220    5.094  222.213   83.939    0.288    0.452
  528.470    4.322  221.912   86.698    0.285    0.473
  528.720    3.944  222.234   91.170    0.284    0.472
  528.970    3.923  223.385   94.785    0.273    0.444
  529.220    4.076  223.912   99.930    0.242    0.449
  529.470    4.305  224.650  103.851    0.205    0.464
  529.720    4.656  225.280  102.145    0.196    0.443
  529.970    4.908  225.394   99.092    0.218    0.444
  530.220    5.026  225.923   96.590    0.226    0.463
  530.470    4.989  226.141   97.820    0.219    0.478
  530.720    4.916  226.256  101.130    0.221    0.487
  530.970    4.889  226.473  101.747    0.238    0.463
  531.220    4.924  226.172   97.777    0.227    0.461
  531.470    4.978  225.976   90.810    0.213    0.442
  531.720    5.097  225.364   84.393    0.213    0.418
  531.970    5.666  224.753   79.689    0.232    0.386
  532.220    6.989  223.728   74.434    0.210    0.348
  532.470    9.360  222.392   72.666    0.151    0.317
  532.720   11.010  221.264   74.387    0.114    0.265
  532.970   12.741  220.964   75.677    0.104    0.250
  533.220   11.480  220.871   79.353    0.102    0.256
  533.470   10.213  220.881   87.434    0.105    0.297
  533.720    8.354  220.890   91.844    0.121    0.361
  533.970    7.126  221.110   92.952    0.145    0.450
  534.220    6.421  221.430   90.695    0.180    0.437
  534.470    6.339  221.750   87.337    0.229    0.405
  534.720    6.327  222.488   83.427    0.197    0.380
  534.970    6.246  222.912   83.005    0.173    0.376
  535.220    5.966  223.440   90.047    0.140    0.405
  535.470    5.710  223.866   96.476    0.174    0.447
  535.720    5.395  224.395  102.232    0.184    0.481
  535.970    5.135  224.925  107.009    0.183    0.453
