~VERSION INFORMATION
 VERS.                 2.0:   CWLS LOG ASCII STANDARD -VERSION 2.0
 WRAP.                  NO:   ONE LINE PER DEPTH STEP
~WELL INFORMATION BLOCK
#MNEM.UNIT           DATA                    DESCRIPTION OF MNEMONIC
#---------    -------------------            -------------------------------
# Generated from Intellog Unique Number	CS_73_76/WELL/1998
WELL.         ASHLAND OIL CANADA             : Well_name    - WELL
LOC .         00/06-31-076-18W4/0            : Location     - LOCATION
UWI .         00/06-31-076-18W4/0            : Uwi          - UNIQUE WELL ID
ENTR.         SP                             : Entered      - ENTERED BY
SRVC.         SCHLUMBERGER                   : Scn          - SERVICE COMPANY
STRT.M        207.264                        : top_depth    - START DEPTH
STOP.M        386.764                        : bot_depth    - STOP DEPTH
STEP.M        0.25                           : increment    - STEP LENGTH
 NULL. -999.2500:NULL Value
~CURVE INFORMATION BLOCK
#MNEM UNIT       ERCB CURVE CODE    CURVE DESCRIPTION
#-----------   ------------------   ----------------------------------
DEPT.M        00 001 00 00         : DEPTH        - DEPTH
GR  .API      00 310 00 00         : GR           - GAMMA RAY
DPHI.V/V      00 890 00 00         : PHID         - DENSITY POROSITY (SANDSTONE)
NPHI.V/V      00 330 00 00         : PHIN         - NEUTRON POROSITY (SANDSTONE)
ILD .OHMM     00 120 00 00         : RESD         - DEEP RESISTIVITY (DIL)
~PARAMETER INFORMATION
#MNEM.UNIT           DATA             DESCRIPTION OF MNEMONIC
#---------         -----------     ------------------------------
GL  .M        563.575              : gl           - GROUND LEVEL ELEVATION
EREF.M        567.538              : kb           - ELEVATION OF DEPTH REFERENCE
DATM.M        563.575              : datum        - DATUM ELEVATION
TDD .M        471.83               : tdd          - TOTAL DEPTH DRILLER
RUN .         ONE                  : Run          - RUN NUMBER
ENG .         BILL                 : Engineer     - RECORDING ENGINEER
WIT .         JIM                  : Witness      - WITNESSED BY
MUD .         GEL                  : Mud_type     - MUD TYPE
MATR.         SANDSTONE            : Logunit      - NEUTRON MATRIX
TMAX.C        23.3333              : BHT          - MAXIMUM RECORDED TEMPERATURE
BHTD.M        471.83               : BHTDEP       - MAXIMUM RECORDED TEMPERATURE
MATR.         1                    : LOGUNIT      - NEUTRON MATRIX
RMT .C        25                   : MDTP         - TEMPERATURE OF MUD
NEUT.         1                    : NEUTRON      - NEUTRON TYPE
RESI.         0                    : RESIST       - RESISTIVITY TYPE
RMC .OHMM     0.25                 : RMC          - RESISTIVITY OF MUD CAKE
RMF .OHMM     0.25                 : RMF          - RESISTIVITY OF MUD FILTRATE
SUFT.C        15                   : SUFT         - SURFACE TEMPERATURE
~A  DEPTH       GR     PHID     PHIN     RESD
# ...
  337.764   77.730    0.407    0.554    7.502
  338.014   75.307    0.168    0.490    9.118
  338.264   73.044    0.108    0.391   11.747
  338.514   69.949    0.076    0.320   13.949
  338.764   63.909    0.065    0.257   15.384
  339.014   62.001    0.079    0.255   15.812
  339.264   65.193    0.141    0.324   13.400
  339.514   68.418    0.250    0.412   10.170
  339.764   69.416    0.261    0.462    9.106
  340.014   69.738    0.257    0.561    7.997
  340.264   66.421    0.274    0.550    7.477
  340.514   65.424    0.301    0.542    7.151
  340.764   67.297    0.344    0.543    6.822
  341.014   69.468    0.386    0.552    6.495
  341.264   68.208    0.421    0.593    6.193
  341.514   67.233    0.415    0.615    6.207
  341.764   69.534    0.339    0.592    6.204
  342.014   71.112    0.291    0.568    6.201
  342.264   71.586    0.269    0.509    6.199
  342.514   72.015    0.254    0.520    6.198
  342.764   73.368    0.258    0.534    6.196
  343.014   74.885    0.257    0.541    6.167
  343.264   75.293    0.273    0.528    6.361
  343.514   75.728    0.285    0.520    5.988
  343.764   72.877    0.294    0.524    5.850
  344.014   71.280    0.295    0.528    5.740
  344.264   69.184    0.286    0.537    5.576
  344.514   68.154    0.274    0.545    5.463
  344.764   68.040    0.280    0.523    5.382
  345.014   68.029    0.269    0.515    5.376
  345.264   66.965    0.272    0.517    5.393
  345.514   66.689    0.281    0.517    5.159
  345.764   66.885    0.298    0.521    5.157
  346.014   63.556    0.307    0.527    5.464
  346.264   63.082    0.298    0.525    5.561
  346.514   63.453    0.295    0.509    5.726
  346.764   64.465    0.317    0.501    5.533
  347.014   65.450    0.302    0.527    5.558
  347.264   66.481    0.272    0.541    5.556
  347.514   66.664    0.296    0.523    5.552
  347.764   66.178    0.298    0.500    5.551
  348.014   62.917    0.283    0.522    5.547
  348.264   61.421    0.301    0.555    5.541
  348.514   62.039    0.326    0.544    5.698
  348.764   61.260    0.306    0.497    6.005
  349.014   60.606    0.250    0.488    6.551
  349.264   60.637    0.258    0.508    6.816
  349.514   60.584    0.244    0.434    7.129
  349.764   61.229    0.241    0.402    7.335
  350.014   60.925    0.223    0.429    7.303
  350.264   59.256    0.235    0.456    7.527
  350.514   57.113    0.224    0.452    7.899
  350.764   56.431    0.235    0.421    8.695
  351.014   56.627    0.201    0.389    9.224
  351.264   57.549    0.177    0.370    9.908
  351.514   58.885    0.167    0.350   10.332
  351.764   59.511    0.180    0.358   10.504
  352.014   59.523    0.221    0.372    9.826
  352.264   59.397    0.249    0.468    9.293
  352.514   59.371    0.268    0.498    8.489
  352.764   59.870    0.268    0.494    7.938
  353.014   59.286    0.262    0.482    7.900
  353.264   59.367    0.253    0.467    8.093
  353.514   59.691    0.235    0.436    8.616
  353.764   60.703    0.217    0.408    9.170
  354.014   61.707    0.205    0.378    9.472
  354.264   61.407    0.251    0.380    9.741
  354.514   61.135    0.308    0.417    9.212
  354.764   61.977    0.327    0.445    8.578
  355.014   65.286    0.342    0.473    7.662
  355.264   68.507    0.325    0.465    7.252
  355.514   70.840    0.307    0.495    6.702
  355.764   72.723    0.289    0.525    6.627
  356.014   74.332    0.246    0.552    6.275
  356.264   74.299    0.261    0.557    6.278
  356.514   74.350    0.263    0.527    6.277
  356.764   73.728    0.255    0.470    6.264
  357.014   73.428    0.247    0.456    6.463
  357.264   72.482    0.238    0.464    6.679
  357.514   71.994    0.235    0.473    6.827
  357.764   70.993    0.229    0.481    7.055
  358.014   69.990    0.225    0.493    7.270
  358.264   69.137    0.218    0.459    7.402
  358.514   70.183    0.205    0.438    7.689
  358.764   76.774    0.203    0.448    7.448
  359.014   80.811    0.210    0.467    7.329
  359.264   80.560    0.205    0.459    7.048
  359.514   79.675    0.213    0.464    6.848
  359.764   75.900    0.241    0.472    6.848
  360.014   73.486    0.290    0.472    6.839
  360.264   72.972    0.343    0.515    6.850
  360.514   75.881    0.386    0.576    6.635
  360.764   78.883    0.369    0.602    6.393
  361.014   81.862    0.353    0.590    6.067
  361.264   83.604    0.358    0.613    5.728
  361.514   83.791    0.372    0.640    5.649
  361.764   82.415    0.387    0.647    5.798
  362.014   79.903    0.383    0.634    6.260
  362.264   79.021    0.397    0.619    6.432
  362.514   81.499    0.413    0.581    6.946
  362.764   83.901    0.402    0.580    7.501
  363.014   86.749    0.427    0.598    7.804
  363.264   88.449    0.342    0.566    8.127
  363.514   88.541    0.273    0.469    8.425
  363.764   83.660    0.276    0.453    8.407
  364.014   80.185    0.320    0.459    8.404
  364.264   77.651    0.342    0.485    8.399
  364.514   77.616    0.380    0.542    8.557
  364.764   78.685    0.417    0.579    8.953
  365.014   78.259    0.276    0.424    9.623
  365.264   75.939    0.125    0.399   10.426
  365.514   77.836    0.118    0.387   11.086
  365.764   79.557    0.150    0.422   11.191
  366.014   80.253    0.171    0.414   10.619
  366.264   82.434    0.160    0.408    9.925
  366.514   84.341    0.152    0.412    9.589
  366.764   82.757    0.144    0.414   10.009
  367.014   79.471    0.148    0.404   10.727
  367.264   75.504    0.155    0.385   11.693
  367.514   73.028    0.138    0.341   13.375
  367.764   73.631    0.119    0.323   14.849
  368.014   76.384    0.129    0.303   15.547
  368.264   81.940    0.161    0.361   13.561
  368.514   86.779    0.191    0.377   11.927
  368.764   89.793    0.212    0.400   11.050
  369.014   86.512    0.247    0.422   10.010
  369.264   81.355    0.310    0.469    9.573
  369.514   78.953    0.360    0.547    9.147
  369.764   77.466    0.385    0.595    8.930
  370.014   75.877    0.426    0.564    8.966
  370.264   76.526    0.338    0.595    8.748
  370.514   77.305    0.357    0.593    8.514
  370.764   77.416    0.359    0.575    8.167
  371.014   74.138    0.430    0.608    8.059
  371.264   68.487    0.465    0.616    7.936
  371.514   66.613    0.484    0.616    7.481
  371.764   64.543    0.459    0.606    6.644
  372.014   67.452    0.467    0.593    6.135
  372.264   69.705    0.373    0.538    5.800
  372.514   72.511    0.357    0.564    5.406
  372.764   73.365    0.278    0.560    5.148
  373.014   75.048    0.368    0.534    4.365
  373.264   74.015    0.402    0.473    4.054
  373.514   69.509    0.437    0.560    3.384
  373.764   66.338    0.461    0.609    2.724
  374.014   66.315    0.468    0.621    2.065
  374.264   68.285    0.475    0.620    1.533
  374.514   70.915    0.475    0.612    1.421
  374.764   73.478    0.431    0.602    1.517
  375.014   75.462    0.312    0.538    1.590
  375.264   76.534    0.250    0.438    2.437
  375.514   75.206    0.212    0.371    3.478
  375.764   77.629    0.146    0.363    4.445
  376.014   79.171    0.160    0.379    5.710
  376.264   81.147    0.292    0.408    6.841
  376.514   80.309    0.319    0.458    7.436
  376.764   77.978    0.303    0.494    7.519
  377.014   76.711    0.355    0.510    7.685
  377.264   80.957    0.314    0.481    7.947
  377.514   83.005    0.292    0.474    7.460
  377.764   80.582    0.239    0.460    6.983
  378.014   78.509    0.184    0.461    6.539
  378.264   77.539    0.188    0.474    6.076
  378.514   75.027    0.184    0.458    5.516
  378.764   74.409    0.187    0.456    5.494
  379.014   73.472    0.183    0.470    5.274
  379.264   68.465    0.206    0.484    5.454
  379.514   67.521    0.225    0.475    5.927
  379.764   71.615    0.209    0.490    6.402
  380.014   75.036    0.270    0.507    7.061
  380.264   79.141    0.273    0.535    7.432
  380.514   81.368    0.304    0.538    6.890
  380.764   83.854    0.278    0.518    6.556
  381.014   84.716    0.266    0.493    6.453
