~VERSION INFORMATION
 VERS.                 2.0:   CWLS LOG ASCII STANDARD -VERSION 2.0
 WRAP.                  NO:   ONE LINE PER DEPTH STEP
~WELL INFORMATION BLOCK
#MNEM.UNIT           DATA                    DESCRIPTION OF MNEMONIC
#---------    -------------------            -------------------------------
# Generated from Intellog Unique Number	CS_77_79/WELL/916
WELL.         PCI PCEJ CHARD                 : Well_name    - WELL
LOC .         00/08-04-079-06W4/0            : Location     - LOCATION
UWI .         00/08-04-079-06W4/0            : Uwi          - UNIQUE WELL ID
ENTR.         JHS                            : Entered      - ENTERED BY
SRVC.         SCHLUMBERGER                   : Scn          - SERVICE COMPANY
STRT.M        80                             : top_depth    - START DEPTH
STOP.M        325                            : bot_depth    - STOP DEPTH
STEP.M        0.25                           : increment    - STEP LENGTH
 NULL. -999.2500:NULL Value
~CURVE INFORMATION BLOCK
#MNEM UNIT       ERCB CURVE CODE    CURVE DESCRIPTION
#-----------   ------------------   ----------------------------------
DEPT.M        00 001 00 00         : DEPTH        - DEPTH
DPHI.V/V      00 890 00 00         : PHID         - DENSITY POROSITY (LIMESTONE)
NPHI.V/V      00 330 00 00         : PHIN         - NEUTRON POROSITY (LIMESTONE)
GR  .API      00 310 00 00         : GR           - GAMMA RAY
ILD .OHMM     00 120 00 00         : RESD         - DEEP RESISTIVITY (DIL)
RHOB.KG/M3    00 350 00 00         : DENS         - BULK DENSITY
~PARAMETER INFORMATION
#MNEM.UNIT           DATA             DESCRIPTION OF MNEMONIC
#---------         -----------     ------------------------------
GL  .M        509.4                : gl           - GROUND LEVEL ELEVATION
EREF.M        512.4                : kb           - ELEVATION OF DEPTH REFERENCE
DATM.M        512.4                : datum        - DATUM ELEVATION
TDD .M        331                  : tdd          - TOTAL DEPTH DRILLER
RUN .         ONE                  : Run          - RUN NUMBER
ENG .         BILL                 : Engineer     - RECORDING ENGINEER
WIT .         JIM                  : Witness      - WITNESSED BY
MUD .         GEL                  : Mud_type     - MUD TYPE
MATR.         LIMESTONE            : Logunit      - NEUTRON MATRIX
TMAX.C        22                   : BHT          - MAXIMUM RECORDED TEMPERATURE
BHTD.M        331                  : BHTDEP       - MAXIMUM RECORDED TEMPERATURE
MATR.         1                    : LOGUNIT      - NEUTRON MATRIX
RMT .C        25                   : MDTP         - TEMPERATURE OF MUD
NEUT.         1                    : NEUTRON      - NEUTRON TYPE
RESI.         0                    : RESIST       - RESISTIVITY TYPE
RMC .OHMM     0.25                 : RMC          - RESISTIVITY OF MUD CAKE
RMF .OHMM     0.25                 : RMF          - RESISTIVITY OF MUD FILTRATE
SUFT.C        15                   : SUFT         - SURFACE TEMPERATURE
~A  DEPTH     PHID     PHIN       GR     RESD     DENS
# ...
  189.500    0.265    0.466   83.102    6.950    0.000
  189.750    0.265    0.465   85.542    6.331    0.000
  190.000    0.268    0.454   84.325    6.100    0.000
  190.250    0.266    0.446   80.058    6.336    0.000
  190.500    0.266    0.440   77.621    6.582    0.000
  190.750    0.270    0.436   79.452    7.099    0.000
  191.000    0.270    0.435   86.771    7.236    0.000
  191.250    0.268    0.435   90.431    7.105    0.000
  191.500    0.263    0.455   87.994    6.846    0.000
  191.750    0.261    0.454   82.508    6.597    0.000
  192.000    0.262    0.443   82.510    6.725    0.000
  192.250    0.265    0.447   80.682    6.855    0.000
  192.500    0.268    0.462   78.245    7.120    0.000
  192.750    0.274    0.438   74.588    7.537    0.000
  193.000    0.282    0.412   73.370    7.827    0.000
  193.250    0.285    0.419   73.983    8.442    0.000
  193.500    0.285    0.429   77.033    8.936    0.000
  193.750    0.278    0.428   79.473    8.938    0.000
  194.000    0.267    0.422   77.646    9.112    0.000
  194.250    0.266    0.430   81.916    8.947    0.000
  194.500    0.262    0.440   85.576    8.622    0.000
  194.750    0.256    0.454   91.066    8.306    0.000
  195.000    0.251    0.467   92.287    7.709    0.000
  195.250    0.252    0.474   92.290    6.637    0.000
  195.500    0.255    0.481   94.120    5.822    0.000
  195.750    0.255    0.490   96.561    5.204    0.000
  196.000    0.258    0.504  102.661    4.481    0.000
  196.250    0.271    0.543  103.272    3.858    0.000
  196.500    0.284    0.573   97.786    3.384    0.000
  196.750    0.283    0.573   95.958    3.141    0.000
  197.000    0.285    0.558   94.131    3.142    0.000
  197.250    0.299    0.501   86.816    3.203    0.000
  197.500    0.315    0.466   72.183    3.724    0.000
  197.750    0.335    0.444   69.136    4.411    0.000
  198.000    0.343    0.449   67.918    5.032    0.000
  198.250    0.347    0.463   69.140    6.672    0.000
  198.500    0.354    0.447   69.142    8.520    0.000
  198.750    0.355    0.454   67.314    8.850    0.000
  199.000    0.282    0.483   64.267    9.193    0.000
  199.250    0.238    0.425   64.878    9.730    0.000
  199.500    0.215    0.401   70.369   10.494    0.000
  199.750    0.218    0.407   75.248   10.303    0.000
  200.000    0.250    0.460   81.347    9.927    0.000
  200.250    0.283    0.490   85.618    9.566    0.000
  200.500    0.298    0.488   86.839    8.713    0.000
  200.750    0.306    0.479   86.231    7.789    0.000
  201.000    0.312    0.472   83.184    7.646    0.000
  201.250    0.310    0.492   80.747    7.368    0.000
  201.500    0.303    0.520   84.407    7.511    0.000
  201.750    0.288    0.500   85.628    7.657    0.000
  202.000    0.282    0.479   86.849    7.805    0.000
  202.250    0.277    0.480   89.290    7.956    0.000
  202.500    0.282    0.489   86.244    7.812    0.000
  202.750    0.280    0.498   84.416    7.528    0.000
  203.000    0.277    0.467   88.686    7.254    0.000
  203.250    0.271    0.445   92.346    7.122    0.000
  203.500    0.266    0.453   89.909    6.992    0.000
  203.750    0.267    0.461   86.252    6.612    0.000
  204.000    0.272    0.467   81.986    6.999    0.000
  204.250    0.277    0.479   81.988    7.134    0.000
  204.500    0.279    0.493   86.867    7.138    0.000
  204.750    0.274    0.468   90.528    7.008    0.000
  205.000    0.263    0.462   92.359    6.880    0.000
  205.250    0.260    0.482   93.580    6.506    0.000
  205.500    0.262    0.491   89.314    6.038    0.000
  205.750    0.279    0.467   96.023    5.499    0.000
  206.000    0.296    0.464  102.122    4.916    0.000
  206.250    0.305    0.514  105.173    4.077    0.000
  206.500    0.307    0.576  100.296    3.644    0.000
  206.750    0.307    0.597  100.298    3.079    0.000
  207.000    0.306    0.598   97.251    2.701    0.000
  207.250    0.304    0.603   92.375    2.507    0.000
  207.500    0.300    0.603   96.036    2.415    0.000
  207.750    0.290    0.575   95.427    2.372    0.000
  208.000    0.279    0.564   94.820    2.417    0.000
  208.250    0.271    0.569   94.821    2.559    0.000
  208.500    0.275    0.567   91.164    2.760    0.000
  208.750    0.283    0.556   87.508    2.976    0.000
  209.000    0.286    0.522   85.680    3.209    0.000
  209.250    0.284    0.494   84.463    3.461    0.000
  209.500    0.271    0.462   85.684    4.100    0.000
  209.750    0.271    0.477   86.295    4.505    0.000
  210.000    0.266    0.472   86.908    5.238    0.000
  210.250    0.263    0.462   85.079    5.755    0.000
  210.500    0.268    0.457   80.813    6.091    0.000
  210.750    0.261    0.475   77.156    6.211    0.000
  211.000    0.258    0.489   74.109    6.331    0.000
  211.250    0.273    0.473   78.989    6.453    0.000
  211.500    0.312    0.450   80.820    6.960    0.000
  211.750    0.327    0.455   79.602    7.366    0.000
  212.000    0.315    0.504   65.579    7.651    0.000
  212.250    0.202    0.364   52.166    8.098    0.000
  212.500    0.066    0.266   47.900    8.898    0.000
  212.750    0.064    0.234   58.268    9.780    0.000
  213.000    0.104    0.301   68.635    9.968    0.000
  213.250    0.232    0.369   77.784    9.788    0.000
  213.500    0.273    0.405   78.395    9.255    0.000
  213.750    0.284    0.448   74.129    8.273    0.000
  214.000    0.252    0.408   68.033    7.536    0.000
  214.250    0.218    0.372   68.035    7.539    0.000
  214.500    0.213    0.375   70.475    7.831    0.000
  214.750    0.259    0.412   73.526    7.983    0.000
  215.000    0.301    0.423   73.528    8.137    0.000
  215.250    0.256    0.441   72.920    8.295    0.000
  215.500    0.202    0.445   69.873    8.299    0.000
  215.750    0.186    0.414   73.533    8.302    0.000
  216.000    0.266    0.424   76.584    8.307    0.000
  216.250    0.301    0.456   80.244    8.155    0.000
  216.500    0.305    0.463   76.588    8.008    0.000
  216.750    0.302    0.445   72.930    7.862    0.000
  217.000    0.307    0.464   75.981    7.719    0.000
  217.250    0.313    0.489   77.202    7.579    0.000
  217.500    0.317    0.479   76.595    7.582    0.000
  217.750    0.319    0.461   77.206    7.586    0.000
  218.000    0.318    0.439   86.355    7.588    0.000
  218.250    0.310    0.434   90.624    7.178    0.000
  218.500    0.296    0.440   91.236    7.047    0.000
  218.750    0.288    0.438   88.799    6.917    0.000
  219.000    0.280    0.441   88.800    6.421    0.000
  219.250    0.274    0.443   92.461    6.304    0.000
  219.500    0.267    0.454   94.901    6.426    0.000
  219.750    0.262    0.465   92.465    6.429    0.000
  220.000    0.261    0.430   87.588    6.679    0.000
  220.250    0.263    0.409   83.932    6.680    0.000
  220.500    0.272    0.414   82.713    6.939    0.000
  220.750    0.281    0.438   81.496    7.208    0.000
  221.000    0.296    0.463   80.278    7.348    0.000
  221.250    0.308    0.472   80.890    7.214    0.000
  221.500    0.297    0.451   90.038    6.823    0.000
  221.750    0.292    0.438   89.430    6.333    0.000
  222.000    0.294    0.457   89.432    6.101    0.000
  222.250    0.288    0.470   91.263    5.662    0.000
  222.500    0.280    0.474   90.045    5.354    0.000
  222.750    0.273    0.462   88.218    5.063    0.000
  223.000    0.270    0.463   88.830    5.066    0.000
  223.250    0.269    0.473   90.660    5.067    0.000
  223.500    0.273    0.486   91.272    5.166    0.000
  223.750    0.278    0.499   90.664    5.072    0.000
  224.000    0.280    0.510   91.275    5.075    0.000
  224.250    0.276    0.530   92.497    4.890    0.000
  224.500    0.274    0.511   91.279    4.624    0.000
  224.750    0.274    0.510   89.452    4.540    0.000
  225.000    0.279    0.523   87.014    4.457 2233.090
  225.250    0.289    0.527   82.748    4.459 2216.310
  225.500    0.297    0.524   76.042    4.632 2201.630
  225.750    0.305    0.491   65.068    4.903 2189.050
