~VERSION INFORMATION
 VERS.                 2.0:   CWLS LOG ASCII STANDARD -VERSION 2.0
 WRAP.                  NO:   ONE LINE PER DEPTH STEP
~WELL INFORMATION BLOCK
#MNEM.UNIT           DATA                    DESCRIPTION OF MNEMONIC
#---------    -------------------            -------------------------------
# Generated from Intellog Unique Number	CS_67_68/WELL/782
WELL.         MURPHY OIL COMPANY LTD         : Well_name    - WELL
LOC .         00/07-30-068-17W4/0            : Location     - LOCATION
UWI .         00/07-30-068-17W4/0            : Uwi          - UNIQUE WELL ID
ENTR.         SP                             : Entered      - ENTERED BY
SRVC.         SCHLUMBERGER                   : Scn          - SERVICE COMPANY
STRT.M        298.704                        : top_depth    - START DEPTH
STOP.M        493.454                        : bot_depth    - STOP DEPTH
STEP.M        0.152                          : increment    - STEP LENGTH
 NULL. -999.2500:NULL Value
~CURVE INFORMATION BLOCK
#MNEM UNIT       ERCB CURVE CODE    CURVE DESCRIPTION
#-----------   ------------------   ----------------------------------
DEPT.M        00 001 00 00         : DEPTH        - DEPTH
GR  .API      00 310 00 00         : GR           - GAMMA RAY
NPHI.V/V      00 330 00 00         : PHIN         - NEUTRON POROSITY (SANDSTONE)
DPHI.V/V      00 890 00 00         : PHID         - DENSITY POROSITY (SANDSTONE)
ILD .OHMM     00 120 00 00         : RESD         - DEEP RESISTIVITY (DIL)
~PARAMETER INFORMATION
#MNEM.UNIT           DATA             DESCRIPTION OF MNEMONIC
#---------         -----------     ------------------------------
GL  .M        543.154              : gl           - GROUND LEVEL ELEVATION
EREF.M        547.116              : kb           - ELEVATION OF DEPTH REFERENCE
DATM.M        543.154              : datum        - DATUM ELEVATION
TDD .M        502.92               : tdd          - TOTAL DEPTH DRILLER
RUN .         ONE                  : Run          - RUN NUMBER
ENG .         BILL                 : Engineer     - RECORDING ENGINEER
WIT .         JIM                  : Witness      - WITNESSED BY
MUD .         GEL                  : Mud_type     - MUD TYPE
MATR.         SANDSTONE            : Logunit      - NEUTRON MATRIX
TMAX.C        22.2222              : BHT          - MAXIMUM RECORDED TEMPERATURE
BHTD.M        502.92               : BHTDEP       - MAXIMUM RECORDED TEMPERATURE
MATR.         1                    : LOGUNIT      - NEUTRON MATRIX
RMT .C        25                   : MDTP         - TEMPERATURE OF MUD
NEUT.         1                    : NEUTRON      - NEUTRON TYPE
RESI.         0                    : RESIST       - RESISTIVITY TYPE
RMC .OHMM     0.25                 : RMC          - RESISTIVITY OF MUD CAKE
RMF .OHMM     0.25                 : RMF          - RESISTIVITY OF MUD FILTRATE
SUFT.C        15                   : SUFT         - SURFACE TEMPERATURE
~A  DEPTH       GR     PHIN     PHID     RESD
# ...
  429.204  120.025    0.430    0.177    3.399
  429.454  117.065    0.427    0.182    3.492
  429.704  111.585    0.420    0.183    3.515
  429.954  105.677    0.408    0.164    3.550
  430.204   97.346    0.396    0.141    3.659
  430.454   89.229    0.393    0.123    3.739
  430.704   88.002    0.390    0.162    3.913
  430.954   89.436    0.379    0.197    4.194
  431.204   89.873    0.357    0.182    4.669
  431.454   89.219    0.325    0.142    5.284
  431.704   88.765    0.293    0.114    6.273
  431.954   86.726    0.296    0.095    7.420
  432.204   79.498    0.298    0.077    8.194
  432.454   74.534    0.264    0.054    8.870
  432.704   72.609    0.235    0.033    8.262
  432.954   78.733    0.238    0.035    7.190
  433.204   84.746    0.263    0.062    6.546
  433.454   91.070    0.289    0.084    5.698
  433.704   97.272    0.317    0.083    5.713
  433.954  101.331    0.345    0.097    6.449
  434.204  100.257    0.373    0.110    7.119
  434.454   94.374    0.270    0.105    8.022
  434.704   84.364    0.256    0.078    8.444
  434.954   70.620    0.234    0.057    7.921
  435.204   74.614    0.227    0.041    6.921
  435.454   88.146    0.229    0.020    6.003
  435.704  102.917    0.244    0.039    5.420
  435.954  119.583    0.284    0.108    4.873
  436.204  125.165    0.324    0.152    4.525
  436.454  123.104    0.356    0.164    4.383
  436.704  119.517    0.387    0.166    4.421
  436.954  115.334    0.384    0.168    4.476
  437.204  112.125    0.380    0.160    4.550
  437.454  110.147    0.377    0.141    4.546
  437.704  110.287    0.384    0.130    4.527
  437.954  112.877    0.387    0.145    4.402
  438.204  114.026    0.378    0.158    4.202
  438.454  113.851    0.379    0.166    4.073
  438.704  113.286    0.390    0.171    3.982
  438.954  112.422    0.393    0.176    3.960
  439.204  113.443    0.399    0.176    3.960
  439.454  114.110    0.409    0.161    3.971
  439.704  114.383    0.413    0.154    4.002
  439.954  113.744    0.408    0.145    4.026
  440.204  113.854    0.401    0.140    4.042
  440.454  115.883    0.395    0.159    4.060
  440.704  118.468    0.404    0.169    4.086
  440.954  119.976    0.404    0.171    4.106
  441.204  120.567    0.385    0.180    4.081
  441.454  121.142    0.381    0.155    4.055
  441.704  121.365    0.379    0.139    4.024
  441.954  119.998    0.376    0.156    4.001
  442.204  115.479    0.373    0.169    3.978
  442.454  108.730    0.388    0.146    3.933
  442.704  104.771    0.399    0.140    3.866
  442.954  106.721    0.390    0.157    3.662
  443.204  105.814    0.404    0.161    3.300
  443.454  106.042    0.445    0.164    2.983
  443.704  111.505    0.499    0.169    2.730
  443.954  116.789    0.519    0.184    2.411
  444.204  120.280    0.499    0.199    2.195
  444.454  120.716    0.488    0.205    2.056
  444.704  120.323    0.478    0.203    2.192
  444.954  117.401    0.475    0.209    2.433
  445.204  113.233    0.484    0.190    2.609
  445.454  108.547    0.456    0.169    3.019
  445.704  105.044    0.427    0.151    3.423
  445.954  104.720    0.413    0.134    3.776
  446.204  105.889    0.409    0.121    3.932
  446.454  106.527    0.401    0.110    4.005
  446.704  106.867    0.394    0.130    4.098
  446.954  106.859    0.387    0.144    4.284
  447.204  105.581    0.384    0.150    4.453
  447.454  100.744    0.375    0.132    4.737
  447.704   94.587    0.350    0.091    5.266
  447.954   89.652    0.328    0.056    5.670
  448.204   94.449    0.323    0.058    5.434
  448.454  103.860    0.281    0.098    5.147
  448.704  111.973    0.321    0.134    4.837
  448.954  117.409    0.357    0.165    4.690
  449.204  119.480    0.376    0.170    4.750
  449.454  121.314    0.381    0.164    5.084
  449.704  115.903    0.371    0.145    5.356
  449.954  110.413    0.365    0.124    5.592
  450.204  105.453    0.378    0.120    5.364
  450.454  102.992    0.387    0.156    4.887
  450.704  105.441    0.371    0.136    4.595
  450.954  109.805    0.355    0.122    4.386
  451.204  113.363    0.382    0.143    4.115
  451.454  116.421    0.410    0.162    3.812
  451.704  119.017    0.432    0.159    3.603
  451.954  120.688    0.430    0.149    3.399
  452.204  122.236    0.443    0.154    3.249
  452.454  122.963    0.444    0.154    3.165
  452.704  123.618    0.435    0.144    3.084
  452.954  125.695    0.443    0.154    3.029
  453.204  125.179    0.443    0.170    2.978
  453.454  122.304    0.439    0.164    2.938
  453.704  118.162    0.443    0.159    2.897
  453.954  114.291    0.433    0.143    2.853
  454.204  114.235    0.430    0.122    2.793
  454.454  122.098    0.448    0.125    2.734
  454.704  127.602    0.463    0.168    2.692
  454.954  129.359    0.458    0.178    2.640
  455.204  128.595    0.472    0.173    2.625
  455.454  129.321    0.477    0.162    2.699
  455.704  131.163    0.467    0.149    2.805
  455.954  131.088    0.456    0.142    2.899
  456.204  126.800    0.444    0.149    3.012
  456.454  123.416    0.441    0.132    3.088
  456.704  120.936    0.450    0.119    3.137
  456.954  123.715    0.450    0.144    3.192
  457.204  122.860    0.408    0.169    3.025
  457.454  120.699    0.396    0.183    2.769
  457.704  121.777    0.416    0.184    2.700
  457.954  125.205    0.453    0.175    2.571
  458.204  128.286    0.472    0.175    2.471
  458.454  129.135    0.467    0.169    2.458
  458.704  124.650    0.473    0.176    2.803
  458.954  119.606    0.463    0.189    3.190
  459.204  113.334    0.418    0.182    3.941
  459.454  106.700    0.388    0.148    4.810
  459.704   97.987    0.359    0.118    5.782
  459.954   91.051    0.329    0.101    6.749
  460.204   86.666    0.329    0.097    7.644
  460.454   89.529    0.355    0.139    8.122
  460.704   90.448    0.369    0.207    7.986
  460.954   88.195    0.349    0.183    7.619
  461.204   86.396    0.344    0.168    7.411
  461.454   84.437    0.354    0.160    7.504
  461.704   78.961    0.358    0.180    8.016
  461.954   75.314    0.359    0.201    8.522
  462.204   73.791    0.363    0.223    8.932
  462.454   74.208    0.361    0.202    9.502
  462.704   74.445    0.355    0.188   10.086
  462.954   73.285    0.349    0.204   10.711
  463.204   72.479    0.346    0.214   11.173
  463.454   73.191    0.346    0.206   11.477
  463.704   74.636    0.350    0.203   11.778
  463.954   76.640    0.353    0.204   11.979
  464.204   78.876    0.339    0.210   12.001
  464.454   80.041    0.330    0.212   11.647
  464.704   79.586    0.338    0.208   10.821
  464.954   77.359    0.348    0.214    9.709
  465.204   76.614    0.355    0.212    9.154
  465.454   79.537    0.342    0.203    8.550
  465.704   82.448    0.334    0.187    8.113
  465.954   83.404    0.328    0.173    7.728
  466.204   82.728    0.331    0.168    7.406
  466.454   82.525    0.336    0.159    6.435
  466.704   83.902    0.345    0.146    5.880
  466.954   86.451    0.339    0.169    5.372
  467.204   89.607    0.358    0.168    4.678
  467.454   94.741    0.375    0.182    4.173
  467.704  101.149    0.402    0.191    3.820
  467.954  107.459    0.442    0.177    3.462
  468.204  113.071    0.462    0.165    3.433
  468.454  118.965    0.419    0.166    3.673
  468.704  125.219    0.404    0.163    3.915
  468.954  132.936    0.392    0.157    4.188
  469.204  140.584    0.389    0.143    4.412
  469.454  141.301    0.392    0.137    4.601
  469.704  140.827    0.396    0.153    4.719
  469.954  141.307    0.409    0.177    4.680
  470.204  139.284    0.442    0.198    4.441
  470.454  133.295    0.480    0.254    4.211
  470.704  128.003    0.510    0.271    4.005
  470.954  120.548    0.410    0.217    3.912
  471.204  109.647    0.392    0.200    3.865
  471.454  102.515    0.382    0.192    4.042
  471.704  109.267    0.381    0.181    4.287
  471.954  117.542    0.375    0.169    4.652
  472.204  123.523    0.365    0.147    4.977
  472.454  129.331    0.356    0.129    5.212
