~VERSION INFORMATION
 VERS.                 2.0:   CWLS LOG ASCII STANDARD -VERSION 2.0
 WRAP.                  NO:   ONE LINE PER DEPTH STEP
~WELL INFORMATION BLOCK
#MNEM.UNIT           DATA                    DESCRIPTION OF MNEMONIC
#---------    -------------------            -------------------------------
# Generated from Intellog Unique Number	CX_WELLS/WELL/2499
WELL.         04-02-084-15W4                 : Well_name    - WELL
LOC .         00/04-02-084-15W4/0            : Location     - LOCATION
UWI .         00/04-02-084-15W400            : Uwi          - UNIQUE WELL ID
ENTR.         JHS                            : Entered      - ENTERED BY
SRVC.         SCHLUMBERGER                   : Scn          - SERVICE COMPANY
STRT.M        76                             : top_depth    - START DEPTH
STOP.M        280.75                         : bot_depth    - STOP DEPTH
STEP.M        0.25                           : increment    - STEP LENGTH
 NULL. -999.2500:NULL Value
~CURVE INFORMATION BLOCK
#MNEM UNIT       ERCB CURVE CODE    CURVE DESCRIPTION
#-----------   ------------------   ----------------------------------
DEPT.M        00 001 00 00         : DEPTH        - DEPTH
GR  .API      00 310 00 00         : GR           - GAMMA RAY
DPHI.V/V      00 890 00 00         : PHID         - DENSITY POROSITY (SANDSTONE)
NPHI.V/V      00 330 00 00         : PHIN         - NEUTRON POROSITY (SANDSTONE)
ILD .OHMM     00 120 00 00         : RESD         - DEEP RESISTIVITY (DIL)
~PARAMETER INFORMATION
#MNEM.UNIT           DATA             DESCRIPTION OF MNEMONIC
#---------         -----------     ------------------------------
GL  .M        552.1                : gl           - GROUND LEVEL ELEVATION
EREF.M        555.8                : kb           - ELEVATION OF DEPTH REFERENCE
DATM.M        555.8                : datum        - DATUM ELEVATION
TDD .M        281                  : tdd          - TOTAL DEPTH DRILLER
RUN .         ONE                  : Run          - RUN NUMBER
ENG .         BILL                 : Engineer     - RECORDING ENGINEER
WIT .         JIM                  : Witness      - WITNESSED BY
MUD .         GEL                  : Mud_type     - MUD TYPE
MATR.         SANDSTONE            : Logunit      - NEUTRON MATRIX
TMAX.C        20                   : BHT          - MAXIMUM RECORDED TEMPERATURE
BHTD.M        281                  : BHTDEP       - MAXIMUM RECORDED TEMPERATURE
MATR.         1                    : LOGUNIT      - NEUTRON MATRIX
RMT .C        25                   : MDTP         - TEMPERATURE OF MUD
NEUT.         1                    : NEUTRON      - NEUTRON TYPE
RESI.         0                    : RESIST       - RESISTIVITY TYPE
RMC .OHMM     0.25                 : RMC          - RESISTIVITY OF MUD CAKE
RMF .OHMM     0.25                 : RMF          - RESISTIVITY OF MUD FILTRATE
SUFT.C        15                   : SUFT         - SURFACE TEMPERATURE
~A  DEPTH       GR     PHID     PHIN     RESD
# ...
  250.000  118.107    0.207    0.327    5.899
  250.250  119.753    0.202    0.345    5.497
  250.500  120.864    0.208    0.410    4.810
  250.750  123.763    0.214    0.445    4.297
  251.000  127.095    0.212    0.442    4.110
  251.250  127.597    0.202    0.417    4.193
  251.500  125.389    0.188    0.365    4.638
  251.750  123.244    0.178    0.342    5.632
  252.000  116.044    0.172    0.350    7.158
  252.250  103.800    0.179    0.349    9.327
  252.500   95.271    0.145    0.322   11.830
  252.750   96.390    0.103    0.308   13.670
  253.000  101.613    0.155    0.337   14.934
  253.250  102.937    0.189    0.352   15.508
  253.500  102.752    0.183    0.361   15.109
  253.750  105.712    0.181    0.381   13.891
  254.000  107.795    0.188    0.364   12.778
  254.250  106.225    0.184    0.297   12.083
  254.500  107.041    0.176    0.268   11.555
  254.750  111.134    0.181    0.298   11.376
  255.000  113.692    0.185    0.313   11.117
  255.250  115.128    0.177    0.320   10.619
  255.500  110.423    0.176    0.333   10.256
  255.750   91.084    0.203    0.323   10.139
  256.000   65.258    0.249    0.285   10.163
  256.250   58.478    0.283    0.271   10.789
  256.500   58.137    0.285    0.297   11.574
  256.750   59.858    0.277    0.352   12.996
  257.000   61.898    0.270    0.368   14.887
  257.250   62.126    0.260    0.323   16.046
  257.500   63.833    0.250    0.299   16.486
  257.750   67.170    0.247    0.327   16.279
  258.000   66.793    0.251    0.332   15.806
  258.250   66.668    0.248    0.334   15.303
  258.500   70.779    0.246    0.334   14.237
  258.750   76.193    0.248    0.328   12.697
  259.000   78.383    0.240    0.351   11.414
  259.250   78.716    0.238    0.352   10.387
  259.500   81.261    0.245    0.345    9.618
  259.750   84.314    0.237    0.321    8.822
  260.000   89.579    0.218    0.303    8.056
  260.250   99.166    0.202    0.314    7.518
  260.500  106.268    0.185    0.328    7.195
  260.750  103.322    0.179    0.341    6.894
  261.000  102.999    0.184    0.349    6.399
  261.250  107.008    0.184    0.325    5.994
  261.500  110.210    0.181    0.324    5.576
  261.750  113.195    0.189    0.371    5.075
  262.000  118.948    0.200    0.378    4.710
  262.250  121.612    0.203    0.356    4.479
  262.500  118.635    0.209    0.354    4.437
  262.750  116.296    0.217    0.347    4.484
  263.000  116.830    0.223    0.346    4.391
  263.250  115.101    0.222    0.367    4.188
  263.500  108.671    0.205    0.370    4.068
  263.750  104.116    0.183    0.347    3.934
  264.000  104.700    0.181    0.319    3.953
  264.250  111.734    0.197    0.316    4.053
  264.500  122.867    0.213    0.345    4.049
  264.750  130.592    0.220    0.394    4.000
  265.000  129.841    0.216    0.443    4.074
  265.250  125.834    0.208    0.458    4.136
  265.500  115.955    0.189    0.447    4.276
  265.750  103.865    0.173    0.376    4.661
  266.000   91.068    0.143    0.321    5.497
  266.250   77.463    0.172    0.327    6.919
  266.500   67.866    0.316    0.331    8.557
  266.750   65.619    0.325    0.366    9.846
  267.000   63.572    0.283    0.395   11.416
  267.250   60.711    0.278    0.408   12.219
  267.500   58.551    0.284    0.416   12.269
  267.750   56.356    0.278    0.400   12.755
  268.000   54.438    0.285    0.347   13.625
  268.250   56.323    0.279    0.319   15.910
  268.500   58.134    0.267    0.365   17.781
  268.750   57.006    0.278    0.400   19.417
  269.000   55.065    0.299    0.401   21.031
  269.250   56.194    0.300    0.386   23.219
  269.500   59.848    0.291    0.337   28.627
  269.750   61.953    0.293    0.317   31.689
  270.000   68.718    0.293    0.337   33.413
  270.250   70.352    0.288    0.359   33.856
  270.500   67.766    0.286    0.372   32.748
  270.750   69.581    0.288    0.383   31.122
  271.000   73.165    0.291    0.389   29.788
  271.250   74.341    0.290    0.422   30.511
  271.500   74.617    0.279    0.434   32.689
  271.750   76.076    0.266    0.414   30.773
  272.000   79.779    0.254    0.357   26.939
  272.250   86.149    0.238    0.307   24.951
  272.500   96.158    0.213    0.327   21.806
  272.750  108.669    0.194    0.353   16.146
  273.000  111.264    0.197    0.346   13.438
  273.250  116.465    0.216    0.351   12.711
  273.500  123.243    0.235    0.368   13.545
  273.750  117.596    0.247    0.389   16.331
  274.000   99.892    0.248    0.410   21.011
  274.250   81.036    0.239    0.361   27.270
  274.500   74.956    0.234    0.350   36.026
  274.750   74.412    0.244    0.386   42.334
  275.000   73.343    0.263    0.384   42.052
  275.250   73.012    0.267    0.332   40.976
  275.500   73.039    0.250    0.301   41.809
  275.750   73.199    0.253    0.280   42.713
  276.000   71.668    0.248    0.247   41.148
  276.250   71.433    0.206    0.230   39.294
  276.500   71.506    0.177    0.228   33.787
  276.750   68.580    0.192    0.229   24.604
  277.000   69.918    0.210    0.244   18.905
  277.250   78.456    0.239    0.244   18.703
  277.500   36.833    0.227    0.253   19.561
  277.750    6.759    0.216    0.269   21.047
  278.000    7.801    0.240    0.271   24.330
  278.250    6.540    0.277    0.258   30.493
  278.500    6.152    0.300    0.253   38.956
  278.750    6.090    0.295    0.248   40.686
  279.000    6.574    0.291    0.248   39.941
  279.250    6.738    0.281    0.247   39.341
  279.500    6.894    0.263    0.244   38.979
  279.750    7.384    0.247    0.243   39.034
  280.000    7.324    0.235    0.247   39.055
  280.250    7.267    0.249    0.252   39.695
  280.500    7.699    0.270    0.268   39.882
  280.750    8.069    0.285    0.286   39.758
