~VERSION INFORMATION
 VERS.                 2.0:   CWLS LOG ASCII STANDARD -VERSION 2.0
 WRAP.                  NO:   ONE LINE PER DEPTH STEP
~WELL INFORMATION BLOCK
#MNEM.UNIT           DATA                    DESCRIPTION OF MNEMONIC
#---------    -------------------            -------------------------------
# Generated from Intellog Unique Number	CW_79_81/WELL/199
WELL.         CHEVRON ET AL HORIZON          : Well_name    - WELL
LOC .         00/04-02-079-19W4/0            : Location     - LOCATION
UWI .         00/04-02-079-19W4/0            : Uwi          - UNIQUE WELL ID
ENTR.         MAX                            : Entered      - ENTERED BY
SRVC.         SCHLUMBERGER                   : Scn          - SERVICE COMPANY
STRT.M        179.832                        : top_depth    - START DEPTH
STOP.M        382.332                        : bot_depth    - STOP DEPTH
STEP.M        0.25                           : increment    - STEP LENGTH
 NULL. -999.2500:NULL Value
~CURVE INFORMATION BLOCK
#MNEM UNIT       ERCB CURVE CODE    CURVE DESCRIPTION
#-----------   ------------------   ----------------------------------
DEPT.M        00 001 00 00         : DEPTH        - DEPTH
ILD .OHMM     00 120 00 00         : RESD         - DEEP RESISTIVITY (DIL)
NPHI.V/V      00 330 00 00         : PHIN         - NEUTRON POROSITY (SANDSTONE)
DPHI.V/V      00 890 00 00         : PHID         - DENSITY POROSITY (SANDSTONE)
CALI.MM       00 280 01 00         : CAL          - CALIPER
GR  .API      00 310 00 00         : GR           - GAMMA RAY
~PARAMETER INFORMATION
#MNEM.UNIT           DATA             DESCRIPTION OF MNEMONIC
#---------         -----------     ------------------------------
GL  .M        555.346              : gl           - GROUND LEVEL ELEVATION
EREF.M        558.698              : kb           - ELEVATION OF DEPTH REFERENCE
DATM.M        555.346              : datum        - DATUM ELEVATION
TDD .M        382.524              : tdd          - TOTAL DEPTH DRILLER
RUN .         ONE                  : Run          - RUN NUMBER
ENG .         BILL                 : Engineer     - RECORDING ENGINEER
WIT .         JIM                  : Witness      - WITNESSED BY
MUD .         GEL                  : Mud_type     - MUD TYPE
MATR.         SANDSTONE            : Logunit      - NEUTRON MATRIX
TMAX.C        25                   : BHT          - MAXIMUM RECORDED TEMPERATURE
BHTD.M        382.524              : BHTDEP       - MAXIMUM RECORDED TEMPERATURE
RMT .C        13.3333              : MDTP         - TEMPERATURE OF MUD
MUDD.KG/M     10300                : MWT          - MUD DENSITY
NEUT.         1                    : NEUTRON      - NEUTRON TYPE
RESI.         0                    : RESIST       - RESISTIVITY TYPE
RM  .OHMM     5.98                 : RM           - RESISTIVITY OF MUD
RMC .OHMM     5.98                 : RMC          - RESISTIVITY OF MUD CAKE
RMF .OHMM     6.05                 : RMF          - RESISTIVITY OF MUD FILTRATE
SUFT.C        -15                  : SUFT         - SURFACE TEMPERATURE
~A  DEPTH     RESD     PHIN     PHID      CAL       GR
# ...
  325.832    7.774    0.476    0.250  196.797   69.907
  326.082    7.795    0.457    0.236  195.908   68.513
  326.332    7.955    0.438    0.223  195.020   68.006
  326.582    8.054    0.420    0.176  194.175   66.319
  326.832    7.925    0.467    0.217  193.811   70.192
  327.082    7.599    0.486    0.235  193.418   73.782
  327.332    7.286    0.464    0.196  192.529   75.323
  327.582    7.176    0.461    0.180  192.165   76.571
  327.832    7.191    0.424    0.196  192.297   77.217
  328.082    7.477    0.437    0.174  192.399   76.701
  328.332    7.695    0.491    0.163  193.537   75.014
  328.582    8.069    0.509    0.182  193.639   72.458
  328.832    8.022    0.488    0.254  193.756   69.893
  329.082    7.756    0.476    0.274  193.407   66.459
  329.332    7.568    0.466    0.277  193.539   64.178
  329.582    7.524    0.453    0.276  193.539   61.915
  329.832    7.540    0.468    0.275  193.787   61.683
  330.082    7.491    0.491    0.269  194.385   62.639
  330.332    7.445    0.508    0.276  194.502   64.756
  330.582    7.460    0.517    0.267  194.634   64.541
  330.832    7.414    0.539    0.271  194.751   63.431
  331.082    7.435    0.547    0.269  194.358   63.518
  331.332    7.450    0.541    0.265  193.994   64.456
  331.582    7.471    0.537    0.258  194.140   63.957
  331.832    7.425    0.513    0.273  193.762   62.563
  332.082    7.376    0.492    0.257  193.849   61.160
  332.332    7.463    0.465    0.230  193.996   59.482
  332.582    7.683    0.406    0.178  194.098   59.542
  332.832    8.282    0.345    0.147  194.711   57.864
  333.082    8.917    0.312    0.126  195.834   56.178
  333.332    9.956    0.295    0.123  196.446   56.247
  333.582   11.420    0.307    0.116  197.569   56.032
  333.832   13.100    0.331    0.115  197.686   56.092
  334.082   13.246    0.375    0.121  197.322   57.926
  334.332   11.924    0.399    0.166  196.944   60.646
  334.582   10.450    0.447    0.204  196.594   61.008
  334.832    8.995    0.480    0.260  196.216   61.370
  335.082    7.954    0.518    0.297  195.823   61.447
  335.332    7.558    0.532    0.291  195.444   61.215
  335.582    7.442    0.536    0.292  194.585   61.586
  335.832    7.462    0.534    0.289  194.206   61.070
  336.082    7.545    0.558    0.266  193.813   61.724
  336.332    7.913    0.551    0.253  193.478   61.518
  336.582    8.296    0.523    0.232  193.566   60.399
  336.832    8.700    0.491    0.213  193.683   59.306
  337.082    9.040    0.456    0.218  194.325   59.083
  337.332    9.146    0.440    0.218  195.448   60.322
  337.582    8.769    0.492    0.229  196.060   62.741
  337.832    8.330    0.515    0.263  196.192   66.907
  338.082    7.985    0.528    0.263  196.280   68.448
  338.332    7.985    0.509    0.280  196.412   66.177
  338.582    7.891    0.500    0.288  196.529   65.953
  338.832    7.760    0.511    0.285  196.165   67.503
  339.082    7.641    0.518    0.293  196.267   66.685
  339.332    7.596    0.511    0.282  195.918   65.592
  339.582    7.477    0.523    0.271  196.020   65.067
  339.832    7.431    0.560    0.272  196.167   63.992
  340.082    7.316    0.566    0.271  195.773   62.296
  340.332    7.269    0.544    0.270  195.395   64.707
  340.582    7.222    0.512    0.272  195.016   65.662
  340.832    7.177    0.507    0.253  194.653   64.561
  341.082    7.194    0.509    0.250  194.289   63.743
  341.332    7.214    0.526    0.262  194.406   64.708
  341.582    7.363    0.522    0.269  194.508   65.070
  341.832    7.655    0.496    0.262  195.150   63.392
  342.082    7.951    0.473    0.231  195.763   63.151
  342.332    8.264    0.449    0.226  195.880   61.765
  342.582    8.359    0.476    0.249  196.011   60.672
  342.832    8.162    0.491    0.251  196.114   61.025
  343.082    7.960    0.490    0.242  195.750   63.152
  343.332    7.840    0.485    0.237  195.371   65.562
  343.582    7.932    0.477    0.220  195.503   68.868
  343.832    8.026    0.456    0.240  195.139   71.003
  344.082    8.043    0.459    0.245  195.344   70.185
  344.332    8.138    0.474    0.248  195.373   67.922
  344.582    8.157    0.488    0.228  195.490   67.104
  344.832    8.254    0.505    0.234  195.607   67.173
  345.082    8.276    0.504    0.231  195.724   68.706
  345.332    8.371    0.492    0.226  195.841   71.417
  345.582    8.394    0.491    0.214  196.002   75.592
  345.832    8.337    0.494    0.217  196.090   78.588
  346.082    8.209    0.465    0.208  195.711   78.373
  346.332    7.939    0.455    0.207  195.348   81.954
  346.582    7.612    0.489    0.206  195.465   85.543
  346.832    7.233    0.506    0.192  195.611   88.255
  347.082    6.931    0.503    0.196  195.699   90.364
  347.332    6.644    0.467    0.190  195.830   94.246
  347.582    6.429    0.457    0.184  196.939   95.202
  347.832    6.441    0.492    0.178  197.551   94.101
  348.082    6.517    0.487    0.196  198.689   96.227
  348.332    6.776    0.469    0.177  199.782   99.808
  348.582    7.106    0.464    0.174  200.919   97.544
  348.832    7.247    0.462    0.186  201.022   94.678
  349.082    7.532    0.462    0.200  201.154   93.878
  349.332    7.757    0.476    0.192  201.271   94.825
  349.582    8.059    0.472    0.187  200.892   95.196
  349.832    8.455    0.451    0.191  200.528   94.103
  350.082    8.869    0.441    0.187  200.631   92.993
  350.332    9.130    0.461    0.177  200.267   91.022
  350.582    9.572    0.459    0.149  200.398   88.741
  350.832    9.857    0.440    0.133  200.515   82.656
  351.082   10.251    0.439    0.139  202.119   76.597
  351.332   10.556    0.466    0.177  203.737   77.544
  351.582   10.674    0.442    0.221  205.851   79.661
  351.832   10.707    0.416    0.186  202.004   78.844
  352.082   10.539    0.365    0.122  199.629   75.401
  352.332   10.377    0.388    0.111  199.279   76.951
  352.582   10.218    0.411    0.183  199.367   81.986
  352.832   10.252    0.420    0.191  199.528   87.633
  353.082   10.554    0.425    0.164  199.120   86.532
  353.332   10.962    0.432    0.178  198.756   84.561
  353.582   12.027    0.441    0.162  198.888   82.582
  353.832   12.613    0.404    0.145  199.020   79.423
  354.082   12.640    0.362    0.131  199.122   76.273
  354.332   12.224    0.358    0.140  199.254   76.342
  354.582   11.204    0.420    0.151  199.356   80.809
  354.832   10.739    0.438    0.198  199.473   84.390
  355.082   10.672    0.442    0.192  199.605   86.224
  355.332   10.606    0.440    0.187  199.722   89.237
  355.582   10.534    0.443    0.183  199.854   87.834
  355.832   10.466    0.443    0.170  199.971   89.082
  356.082   10.404    0.426    0.186  200.088   91.209
  356.332   10.333    0.401    0.188  200.205   92.147
  356.582   10.178    0.398    0.155  199.841   91.932
  356.832    9.932    0.384    0.137  199.973   91.709
  357.082    9.523    0.419    0.152  200.075   92.372
  357.332    9.043    0.447    0.173  199.711   96.246
  357.582    8.214    0.474    0.192  199.857  101.591
  357.832    7.395    0.496    0.167  199.960  104.294
  358.082    6.777    0.498    0.161  199.567  104.079
  358.332    6.496    0.494    0.167  199.698  101.816
  358.582    6.283    0.495    0.179  198.824   99.535
  358.832    5.862    0.467    0.154  198.446   94.035
  359.082    5.184    0.417    0.149  197.586   84.757
  359.332    4.422    0.403    0.171  197.791   87.442
  359.582    3.705    0.463    0.168  197.325   92.788
  359.832    3.104    0.546    0.197  196.946   93.451
  360.082    2.510    0.567    0.259  197.078   92.349
  360.332    2.510    0.599    0.272  197.195   89.501
  360.582    2.526    0.604    0.264  196.321   85.757
  360.832    3.083    0.566    0.248  195.972   80.850
  361.082    3.565    0.421    0.177  196.103   76.823
  361.332    5.548    0.390    0.195  196.191   69.859
  361.582   12.141    0.383    0.195  196.818   62.905
  361.832   18.558    0.388    0.188  197.446   60.633
  362.082   20.360    0.395    0.210  197.563   58.369
