~VERSION INFORMATION
 VERS.                 2.0:   CWLS LOG ASCII STANDARD -VERSION 2.0
 WRAP.                  NO:   ONE LINE PER DEPTH STEP
~WELL INFORMATION BLOCK
#MNEM.UNIT           DATA                    DESCRIPTION OF MNEMONIC
#---------    -------------------            -------------------------------
# Generated from Intellog Unique Number	CW_79_81/WELL/200
WELL.         ALLIED ET AL 07-18             : Well_name    - WELL
LOC .         00/07-18-079-19W4/0            : Location     - LOCATION
UWI .         00/07-18-079-19W4/0            : Uwi          - UNIQUE WELL ID
ENTR.         JJ                             : Entered      - ENTERED BY
SRVC.         SCHLUMBERGER                   : Scn          - SERVICE COMPANY
DATE.         15 MAR 72                      : Date         - LOG DATE
STRT.M        252.984                        : top_depth    - START DEPTH
STOP.M        380.984                        : bot_depth    - STOP DEPTH
STEP.M        0.25                           : increment    - STEP LENGTH
 NULL. -999.2500:NULL Value
~CURVE INFORMATION BLOCK
#MNEM UNIT       ERCB CURVE CODE    CURVE DESCRIPTION
#-----------   ------------------   ----------------------------------
DEPT.M        00 001 00 00         : DEPTH        - DEPTH
ILD .OHMM     00 120 00 00         : RESD         - DEEP RESISTIVITY (DIL)
CALI.MM       00 280 01 00         : CAL          - CALIPER
GR  .API      00 310 00 00         : GR           - GAMMA RAY
DELT.US/F     00 520 00 00         : DELT         - SONIC TRAVEL TIME
~PARAMETER INFORMATION
#MNEM.UNIT           DATA             DESCRIPTION OF MNEMONIC
#---------         -----------     ------------------------------
GL  .M        564.794              : gl           - GROUND LEVEL ELEVATION
EREF.M        567.995              : kb           - ELEVATION OF DEPTH REFERENCE
DATM.M        567.995              : datum        - DATUM ELEVATION
TDD .M        853.44               : tdd          - TOTAL DEPTH DRILLER
RUN .         ONE                  : Run          - RUN NUMBER
ENG .         LYE                  : Engineer     - RECORDING ENGINEER
WIT .         PENDRY & CONNELLY    : Witness      - WITNESSED BY
BASE.         RED DEER             : Branch       - HOME BASE OF LOGGING UNIT
MUD .         GEL CHEM             : Mud_type     - MUD TYPE
MATR.         SANDSTONE            : Logunit      - NEUTRON MATRIX
TMAX.C        31.6667              : BHT          - MAXIMUM RECORDED TEMPERATURE
BHTD.M        852.221              : BHTDEP       - MAXIMUM RECORDED TEMPERATURE
RMT .C        14.4444              : MDTP         - TEMPERATURE OF MUD
MUDD.KG/M     1200                 : MWT          - MUD DENSITY
NEUT.         1                    : NEUTRON      - NEUTRON TYPE
RESI.         0                    : RESIST       - RESISTIVITY TYPE
RM  .OHMM     0                    : RM           - RESISTIVITY OF MUD
RMC .OHMM     0                    : RMC          - RESISTIVITY OF MUD CAKE
RMF .OHMM     1.97                 : RMF          - RESISTIVITY OF MUD FILTRATE
SUFT.C        5                    : SUFT         - SURFACE TEMPERATURE
~A  DEPTH     RESD      CAL       GR     DELT
  252.984   18.824  219.900   47.667  426.019
  253.234   19.023  219.953   48.173  425.005
  253.484   19.115  220.104   48.746  424.192
  253.734   19.212  220.050   49.808  423.510
  253.984   19.132  219.990   50.199  423.940
  254.234   19.054  220.138   51.919  425.607
  254.484   18.839  220.304   47.774  428.915
  254.734   18.592  220.333   50.283  433.269
  254.984   18.384  221.130   48.495  437.297
  255.234   18.171  221.462   48.343  436.028
  255.484   18.063  221.718   52.724  428.212
  255.734   17.890  221.863   48.884  425.764
  255.984   17.788  221.291   46.554  430.572
  256.234   17.679  221.034   46.338  436.433
  256.484   17.386  220.978   47.036  441.767
  256.734   17.218  221.439   46.576  445.593
  256.984   16.960  221.489   43.703  445.633
  257.234   16.768  221.641   45.129  444.429
  257.484   16.640  221.391   47.206  447.079
  257.734   16.573  221.222   49.411  448.688
  257.984   16.562  220.962   49.505  447.678
  258.234   16.465  220.706   49.959  444.378
  258.484   16.366  220.351   50.707  443.105
  258.734   16.424  219.978   48.864  446.412
  258.984   16.357  219.618   46.350  449.586
  259.234   16.379  219.666   45.837  453.091
  259.484   16.397  219.718   46.949  451.620
  259.734   16.331  219.868   49.033  446.359
  259.984   16.296  219.503   50.572  441.622
  260.234   16.287  219.244   52.659  440.284
  260.484   16.226  218.986   53.656  441.367
  260.734   16.218  218.926   51.265  438.328
  260.984   16.241  218.985   49.297  435.222
  261.234   16.258  218.826   48.296  435.785
  261.484   16.135  219.071   49.596  440.985
  261.734   16.095  219.743   51.439  444.288
  261.984   16.003  219.884   50.621  443.805
  262.234   15.993  219.934   49.624  441.687
  262.484   15.873  219.676   50.494  434.326
  262.734   15.833  219.728   53.668  431.293
  262.984   15.743  219.676   53.757  436.820
  263.234   15.761  219.934   52.214  440.258
  263.484   15.758  219.879   50.004  442.327
  263.734   15.835  220.023   47.673  442.559
  263.984   15.886  220.370   46.067  442.069
  264.234   15.908  221.047   47.551  440.730
  264.484   15.899  221.803   52.115  439.064
  264.734   15.869  222.254   54.263  437.528
  264.984   15.829  222.622   55.010  436.260
  265.234   15.706  223.072   54.138  434.526
  265.484   15.673  223.843   52.345  433.064
  265.734   15.694  224.394   49.895  429.632
  265.984   15.830  224.549   49.438  424.306
  266.234   16.025  224.494   48.807  420.480
  266.484   16.407  224.853   53.609  422.478
  266.734   16.762  225.301   50.673  425.129
  266.984   17.067  225.557   49.497  424.514
  267.234   17.250  225.812   50.852  421.408
  267.484   17.145  225.453   54.090  423.344
  267.734   16.825  225.395   56.048  426.851
  267.984   16.362  225.747   55.958  424.985
  268.234   16.004  226.010   55.742  421.098
  268.484   15.938  225.854   56.924  413.286
  268.734   15.901  225.582   57.795  406.123
  268.984   16.007  225.427   56.312  400.203
  269.234   16.359  225.686   53.317  398.741
  269.484   16.563  225.429   54.679  400.413
  269.734   16.612  227.107   55.615  401.098
  269.984   16.425  225.414   54.614  401.008
  270.234   16.299  223.926   54.033  400.719
  270.484   16.202  223.361   58.175  400.620
  270.734   16.253  223.921   60.865  400.202
  270.984   16.701  224.174   62.468  400.888
  271.234   17.281  223.920   63.589  402.824
  271.484   18.349  224.063   64.161  406.591
  271.734   19.808  224.327   63.035  406.364
  271.984   20.837  224.271   59.133  357.011
  272.234   21.574  224.111   56.688  325.907
  272.484   21.877  224.059   56.470  296.045
  272.734   21.350  223.998   56.797  348.875
  272.984   19.764  223.849   57.250  395.229
  273.234   18.093  223.801   59.216  407.039
  273.484   16.503  223.741   61.177  406.553
  273.734   15.477  223.989   60.055  410.901
  273.984   15.242  224.132   57.489  410.944
  274.234   15.234  224.293   57.213  408.751
  274.484   15.342  224.538   57.727  407.220
  274.734   15.504  224.489   59.383  406.798
  274.984   15.608  224.236   61.350  407.228
  275.234   15.689  224.376   61.745  408.705
  275.484   15.737  224.641   60.801  410.242
  275.734   15.759  225.101   57.502  409.825
  275.984   15.781  225.043   56.021  407.635
  276.234   15.776  225.191   56.166  402.636
  276.484   15.799  225.332   59.527  403.064
  276.734   15.763  225.688   63.667  407.154
  276.984   15.615  226.047   67.441  411.445
  277.234   15.437  226.506   61.965  414.879
  277.484   15.174  227.476   62.786  419.494
  277.734   14.359  229.064   65.593  422.866
  277.984   13.193  230.127   69.067  425.783
  278.234   11.686  231.618   70.067  434.327
  278.484   10.109  233.296   70.092  437.177
  278.734    8.858  236.210   70.845  441.005
  278.984    8.275  240.660   75.172  444.701
  279.234    7.988  237.329   74.170  444.215
  279.484    7.972  232.787   67.062  441.769
  279.734    8.054  230.769   61.586  438.664
  279.984    8.231  227.036   59.318  433.922
  280.234    8.486  227.079   59.287  429.117
  280.484    8.751  230.813   60.094  428.437
  280.734    8.923  234.443   62.426  434.558
  280.984    9.037  236.948   66.386  440.286
  281.234    8.965  236.588   70.342  440.582
  281.484    8.624  239.404   74.550  434.603
  281.734    8.176  244.679   76.026  431.172
  281.984    8.110  245.130   76.717  433.038
  282.234    8.424  238.624   74.871  430.392
  282.484    9.095  230.784   67.338  421.991
  282.734    9.799  225.207   58.296  411.233
  282.984   10.460  225.555   60.447  417.744
  283.234   11.190  227.453   62.403  424.387
  283.484   11.431  228.724   61.767  420.301
  283.734   11.447  229.385   61.008  408.957
  283.984   11.360  230.354   62.247  402.320
  284.234   11.006  231.120   63.184  402.287
  284.484   10.530  230.764   66.180  405.205
  284.734   10.220  230.297   68.321  409.752
  284.984    9.905  229.831   68.649  410.446
  285.234    9.918  229.779   68.564  406.424
  285.484   10.588  229.522   67.255  402.013
  285.734   11.770  229.368   61.239  401.919
  285.984   12.845  229.202   56.487  406.600
  286.234   13.813  228.950   52.099  408.005
  286.484   14.908  228.999   53.700  404.645
  286.734   15.401  228.940   59.176  399.971
  286.984   14.361  228.371   63.501  399.222
  287.234   12.699  228.013   65.881  415.677
  287.484   11.043  227.550   68.272  424.808
  287.734    8.237  226.164   68.358  426.801
  287.984    7.766  224.879   65.361  426.186
  288.234    7.834  224.008   64.850  424.391
  288.484    7.961  223.848   68.022  422.788
  288.734    8.193  223.797   69.317  421.982
  288.984    8.557  225.066   68.383  420.838
  289.234    9.137  227.265   66.232  420.283
  289.484    9.666  230.697   63.661  421.566
  289.734   10.076  231.051   61.571  424.415
  289.984   10.678  229.055   59.544  428.637
  290.234   11.464  227.664   59.150  430.635
  290.484   12.103  226.081   59.178  431.000
  290.734   12.808  225.406   58.538  430.121
  290.984   13.181  224.842   56.451  430.616
  291.234   13.416  224.788   55.149  433.726
  291.484   13.608  224.936   55.060  434.741
  291.734   13.810  225.186   55.322  435.169
  291.984   13.904  225.954   57.591  436.388
  292.234   13.892  227.645   60.463  438.059
  292.484   13.736  230.461   65.510  435.673
  292.734   13.066  233.059   68.685  426.880
  292.984   11.855  235.981   68.712  416.381
  293.234   10.482  238.280   70.071  415.433
  293.484    9.201  240.169   73.245  416.716
  293.734    7.930  242.471   78.053  419.500
  293.984    7.287  244.770   82.192  423.523
  294.234    6.945  247.381   81.922  426.309
  294.484    6.692  251.123   78.444  427.912
  294.734    6.486  253.417   75.082  428.085
  294.984    6.459  255.112   71.721  427.730
  295.234    6.491  255.668   69.449  424.102
  295.484    6.596  256.531   70.571  423.220
  295.734    6.804  257.196   72.958  423.581
  295.984    6.974  256.937   73.831  423.883
  296.234    7.204  255.649   71.924  424.441
