~VERSION INFORMATION
 VERS.                 2.0:   CWLS LOG ASCII STANDARD -VERSION 2.0
 WRAP.                  NO:   ONE LINE PER DEPTH STEP
~WELL INFORMATION BLOCK
#MNEM.UNIT           DATA                    DESCRIPTION OF MNEMONIC
#---------    -------------------            -------------------------------
# Generated from Intellog Unique Number	CS_77_79/WELL/849
WELL.         ICGR LOCHIEL GRAHAM            : Well_name    - WELL
LOC .         00/03-34-078-05W4/0            : Location     - LOCATION
UWI .         00/03-34-078-05W4/0            : Uwi          - UNIQUE WELL ID
ENTR.         JHS                            : Entered      - ENTERED BY
SRVC.         SCHLUMBERGER                   : Scn          - SERVICE COMPANY
STRT.M        100                            : top_depth    - START DEPTH
STOP.M        360                            : bot_depth    - STOP DEPTH
STEP.M        0.25                           : increment    - STEP LENGTH
 NULL. -999.2500:NULL Value
~CURVE INFORMATION BLOCK
#MNEM UNIT       ERCB CURVE CODE    CURVE DESCRIPTION
#-----------   ------------------   ----------------------------------
DEPT.M        00 001 00 00         : DEPTH        - DEPTH
DPHI.V/V      00 890 00 00         : PHID         - DENSITY POROSITY (LIMESTONE)
NPHI.V/V      00 330 00 00         : PHIN         - NEUTRON POROSITY (LIMESTONE)
GR  .API      00 310 00 00         : GR           - GAMMA RAY
ILD .OHMM     00 120 00 00         : RESD         - DEEP RESISTIVITY (DIL)
RHOB.KG/M3    00 350 00 00         : DENS         - BULK DENSITY
~PARAMETER INFORMATION
#MNEM.UNIT           DATA             DESCRIPTION OF MNEMONIC
#---------         -----------     ------------------------------
GL  .M        528.9                : gl           - GROUND LEVEL ELEVATION
EREF.M        532.4                : kb           - ELEVATION OF DEPTH REFERENCE
DATM.M        532.4                : datum        - DATUM ELEVATION
TDD .M        367                  : tdd          - TOTAL DEPTH DRILLER
RUN .         ONE                  : Run          - RUN NUMBER
ENG .         BILL                 : Engineer     - RECORDING ENGINEER
WIT .         JIM                  : Witness      - WITNESSED BY
MUD .         GEL                  : Mud_type     - MUD TYPE
MATR.         LIMESTONE            : Logunit      - NEUTRON MATRIX
TMAX.C        17.2                 : BHT          - MAXIMUM RECORDED TEMPERATURE
BHTD.M        367                  : BHTDEP       - MAXIMUM RECORDED TEMPERATURE
MATR.         1                    : LOGUNIT      - NEUTRON MATRIX
RMT .C        25                   : MDTP         - TEMPERATURE OF MUD
NEUT.         1                    : NEUTRON      - NEUTRON TYPE
RESI.         0                    : RESIST       - RESISTIVITY TYPE
RMC .OHMM     0.25                 : RMC          - RESISTIVITY OF MUD CAKE
RMF .OHMM     0.25                 : RMF          - RESISTIVITY OF MUD FILTRATE
SUFT.C        15                   : SUFT         - SURFACE TEMPERATURE
~A  DEPTH     PHID     PHIN       GR     RESD     DENS
# ...
  319.000    0.286    0.398   60.515    4.494 2220.170
  319.250    0.278    0.388   59.288    4.411 2234.550
  319.500    0.279    0.388   57.450    4.249 2232.470
  319.750    0.295    0.395   50.735    4.169 2205.660
  320.000    0.306    0.406   48.284    4.168 2187.090
  320.250    0.301    0.387   47.060    4.245 2195.300
  320.500    0.300    0.361   42.783    4.242 2197.340
  320.750    0.300    0.341   43.994    4.320 2197.310
  321.000    0.294    0.328   58.010    4.399 2207.580
  321.250    0.283    0.360   73.245    4.398 2226.090
  321.500    0.277    0.366   81.164    4.646 2236.370
  321.750    0.273    0.371   86.642    4.819 2242.520
  322.000    0.281    0.377   78.707    5.091 2230.130
  322.250    0.287    0.390   57.359    5.185 2219.790
  322.500    0.284    0.396   48.813    5.378 2223.890
  322.750    0.273    0.373   54.904    5.578 2242.410
  323.000    0.241    0.363   84.772    5.679 2298.010
  323.250    0.222    0.377   96.959    5.677 2330.940
  323.500    0.234    0.377  104.877    5.676 2310.310
  323.750    0.257    0.390  114.624    5.673 2271.140
  324.000    0.248    0.372  117.055    5.777 2285.540
  324.250    0.222    0.357   80.463    5.992 2330.830
  324.500    0.230    0.348   65.211    6.215 2316.380
  324.750    0.239    0.337   76.788    6.330 2301.930
  325.000    0.213    0.335   97.511    6.445 2345.170
  325.250    0.180    0.377  109.088    6.562 2402.820
  325.500    0.169    0.412  112.128    6.560 2421.340
  325.750    0.174    0.433  105.412    6.679 2413.070
  326.000    0.187    0.425   95.648    6.677 2390.380
  326.250    0.194    0.413   89.541    6.799 2377.990
  326.500    0.194    0.413   89.534    6.671 2377.950
  326.750    0.194    0.413   90.745    6.669 2377.930
  327.000    0.195    0.409   89.517    6.544 2375.850
  327.250    0.191    0.398   87.069    6.543 2384.060
  327.500    0.189    0.394   90.111    6.421 2386.090
  327.750    0.189    0.395   95.589    6.418 2386.060
  328.000    0.192    0.383   90.703    6.416 2381.910
  328.250    0.202    0.394   84.597    6.181 2365.400
  328.500    0.210    0.397   86.419    5.954 2350.960
  328.750    0.218    0.392   88.849    5.631 2336.500
  329.000    0.217    0.392   83.961    5.326 2338.540
  329.250    0.220    0.402   78.468    4.678 2334.390
  329.500    0.226    0.412   73.582    4.343 2324.060
  329.750    0.247    0.421   64.426    4.184 2286.950
  330.000    0.268    0.426   57.711    4.261 2251.900
  330.250    0.288    0.408   50.386    4.419 2216.850
  330.500    0.291    0.398   57.082    5.027 2212.700
  330.750    0.270    0.392   61.343    5.411 2247.690
  331.000    0.257    0.386   66.213    6.042 2270.330
  331.250    0.182    0.399   71.084    6.385 2398.030
  331.500    0.016    0.384   74.124    6.265 2682.310
  331.750    0.002    0.296   64.970    5.503 2707.000
  332.000    0.079    0.289   55.205    4.924 2575.130
  332.250    0.140    0.325   47.272    4.168 2470.030
  332.500    0.260    0.387   44.215    3.942 2266.040
  332.750    0.296    0.403   45.424    3.941 2204.210
  333.000    0.304    0.401   42.977    3.867 2189.760
  333.250    0.307    0.391   41.139    3.866 2185.600
  333.500    0.303    0.389   46.011    3.864 2191.750
  333.750    0.296    0.392   52.708    4.008 2204.090
  334.000    0.292    0.383   55.748    4.006 2210.250
  334.250    0.293    0.379   59.400    4.005 2208.160
  334.500    0.300    0.392   58.169    3.788 2197.830
  334.750    0.296    0.390   61.212    3.717 2203.980
  335.000    0.291    0.384   69.741    3.716 2212.190
  335.250    0.291    0.389   75.221    3.854 2212.160
  335.500    0.302    0.402   64.236    4.072 2193.600
  335.750    0.310    0.409   56.301    4.303 2179.150
  336.000    0.289    0.378   70.318    4.630 2216.210
  336.250    0.259    0.365   85.553    4.983 2267.680
  336.500    0.238    0.357   95.911    5.169 2302.680
  336.750    0.230    0.371   87.975    5.167 2317.070
  337.000    0.244    0.409   64.797    4.887 2292.320
  337.250    0.253    0.424   62.959    4.708 2277.870
  337.500    0.242    0.397   64.171    4.371 2296.390
  337.750    0.246    0.392   56.846    4.134 2290.170
  338.000    0.268    0.400   51.349    3.983 2251.000
  338.250    0.289    0.388   59.267    3.837 2215.950
  338.500    0.297    0.379   58.038    3.765 2201.510
  338.750    0.307    0.382   54.370    3.764 2185.000
  339.000    0.308    0.405   52.533    3.832 2182.910
  339.250    0.313    0.400   56.185    3.902 2174.640
  339.500    0.301    0.390   70.812    3.974 2195.210
  339.750    0.287    0.381   85.437    3.972 2219.910
  340.000    0.277    0.378   93.963    3.898 2236.360
  340.250    0.276    0.395   83.591    3.897 2238.390
  340.500    0.284    0.388   79.313    3.685 2223.940
  340.750    0.296    0.389   86.622    3.617 2203.300
  341.000    0.300    0.394   89.054    3.484 2197.100
  341.250    0.305    0.387   78.679    3.419 2188.830
  341.500    0.313    0.377   68.915    3.355 2174.380
  341.750    0.313    0.373   62.809    3.293 2174.360
  342.000    0.301    0.389   57.315    3.353 2194.920
  342.250    0.296    0.407   52.428    3.608 2203.150
  342.500    0.310    0.424   43.274    3.812 2180.450
  342.750    0.312    0.400   54.850    4.028 2176.310
  343.000    0.287    0.376   67.037    4.256 2219.540
  343.250    0.263    0.363   78.614    4.176 2260.710
  343.500    0.264    0.362   88.971    4.023 2258.620
  343.750    0.270    0.409   91.401    3.948 2248.290
  344.000    0.281    0.424   68.223    3.804 2229.730
  344.250    0.305    0.423   52.972    3.733 2188.500
  344.500    0.319    0.392   43.815    3.663 2163.750
  344.750    0.309    0.379   49.902    3.662 2182.260
  345.000    0.307    0.387   51.727    3.594 2184.290
  345.250    0.313    0.401   54.156    3.526 2173.970
  345.500    0.306    0.417   52.928    3.460 2186.300
  345.750    0.299    0.429   48.652    3.459 2198.630
  346.000    0.309    0.427   43.158    3.395 2182.120
  346.250    0.332    0.411   33.393    3.393 2142.950
  346.500    0.340    0.406   28.508    3.455 2128.500
  346.750    0.330    0.394   44.352    3.518 2144.960
  347.000    0.292    0.382   54.098    3.582 2210.860
  347.250    0.288    0.385   54.091    3.581 2217.010
  347.500    0.309    0.385   40.669    3.580 2181.960
  347.750    0.315    0.382   43.709    3.513 2171.610
  348.000    0.321    0.393   39.433    3.384 2161.300
  348.250    0.333    0.396   27.837    3.321 2140.670
  348.500    0.333    0.400   29.049    3.259 2140.640
  348.750    0.326    0.411   30.870    3.258 2152.970
  349.000    0.321    0.419   32.693    3.257 2161.180
  349.250    0.322    0.431   29.634    3.316 2159.090
  349.500    0.327    0.410   29.017    3.377 2150.830
  349.750    0.333    0.408   33.886    3.438 2140.490
  350.000    0.329    0.420   39.976    3.501 2146.650
  350.250    0.314    0.409   44.845    3.565 2173.410
  350.500    0.296    0.399   47.274    3.498 2204.280
  350.750    0.284    0.407   43.609    3.370 2224.850
  351.000    0.295    0.417   35.065    3.307 2206.290
  351.250    0.319    0.403   25.909    3.245 2165.060
  351.500    0.332    0.391   23.463    3.245 2142.360
  351.750    0.332    0.387   24.061    3.623 2142.330
  352.000    0.327    0.381   24.667    3.900 2150.540
  352.250    0.325    0.377   38.680    4.436 2154.640
  352.500    0.356    0.380   53.308    4.864 2101.050
  352.750    0.454    0.421   67.322    5.533 1934.150
  353.000    0.522    0.612   72.802    6.412 1816.690
  353.250    0.480    0.616   81.331    7.294    0.000
  353.500    0.356    0.602   94.736    7.850    0.000
  353.750    0.283    0.513   96.558    8.142    0.000
  354.000    0.239    0.408   96.547    8.445    0.000
  354.250    0.142    0.322   95.930    8.923    0.000
  354.500    0.147    0.323   93.485    9.603    0.000
  354.750    0.125    0.341   83.721    9.779    0.000
  355.000    0.097    0.365   70.297    9.958    0.000
  355.250    0.074    0.392   59.314   10.716    0.000
