~VERSION INFORMATION
 VERS.                 2.0:   CWLS LOG ASCII STANDARD -VERSION 2.0
 WRAP.                  NO:   ONE LINE PER DEPTH STEP
~WELL INFORMATION BLOCK
#MNEM.UNIT           DATA                    DESCRIPTION OF MNEMONIC
#---------    -------------------            -------------------------------
# Generated from Intellog Unique Number	CS_69_70/WELL/785
WELL.         HUSKY OIL OPERATIONS           : Well_name    - WELL
LOC .         00/06-32-069-04W4/0            : Location     - LOCATION
UWI .         00/06-32-069-04W4/0            : Uwi          - UNIQUE WELL ID
ENTR.         SP                             : Entered      - ENTERED BY
SRVC.         SCHLUMBERGER                   : Scn          - SERVICE COMPANY
STRT.M        310                            : top_depth    - START DEPTH
STOP.M        540                            : bot_depth    - STOP DEPTH
STEP.M        0.25                           : increment    - STEP LENGTH
 NULL. -999.2500:NULL Value
~CURVE INFORMATION BLOCK
#MNEM UNIT       ERCB CURVE CODE    CURVE DESCRIPTION
#-----------   ------------------   ----------------------------------
DEPT.M        00 001 00 00         : DEPTH        - DEPTH
ILD .OHMM     00 120 00 00         : RESD         - DEEP RESISTIVITY (DIL)
DPHI.V/V      00 890 00 00         : PHID         - DENSITY POROSITY (LIMESTONE)
NPHI.V/V      00 330 00 00         : PHIN         - NEUTRON POROSITY (LIMESTONE)
GR  .API      00 310 00 00         : GR           - GAMMA RAY
~PARAMETER INFORMATION
#MNEM.UNIT           DATA             DESCRIPTION OF MNEMONIC
#---------         -----------     ------------------------------
GL  .M        685.9                : gl           - GROUND LEVEL ELEVATION
EREF.M        689.6                : kb           - ELEVATION OF DEPTH REFERENCE
DATM.M        685.9                : datum        - DATUM ELEVATION
TDD .M        547                  : tdd          - TOTAL DEPTH DRILLER
RUN .         ONE                  : Run          - RUN NUMBER
ENG .         BILL                 : Engineer     - RECORDING ENGINEER
WIT .         JIM                  : Witness      - WITNESSED BY
MUD .         GEL                  : Mud_type     - MUD TYPE
MATR.         LIMESTONE            : Logunit      - NEUTRON MATRIX
TMAX.C        22                   : BHT          - MAXIMUM RECORDED TEMPERATURE
BHTD.M        547                  : BHTDEP       - MAXIMUM RECORDED TEMPERATURE
MATR.         1                    : LOGUNIT      - NEUTRON MATRIX
RMT .C        25                   : MDTP         - TEMPERATURE OF MUD
NEUT.         1                    : NEUTRON      - NEUTRON TYPE
RESI.         0                    : RESIST       - RESISTIVITY TYPE
RMC .OHMM     0.25                 : RMC          - RESISTIVITY OF MUD CAKE
RMF .OHMM     0.25                 : RMF          - RESISTIVITY OF MUD FILTRATE
SUFT.C        15                   : SUFT         - SURFACE TEMPERATURE
~A  DEPTH     RESD     PHID     PHIN       GR
# ...
  440.500   33.684    0.184    0.231   49.346
  440.750   35.508    0.239    0.297   50.869
  441.000   36.668    0.296    0.344   50.817
  441.250   32.780    0.332    0.380   50.160
  441.500   27.756    0.361    0.410   49.199
  441.750   24.813    0.370    0.439   48.297
  442.000   22.349    0.364    0.458   49.093
  442.250   21.095    0.359    0.471   52.070
  442.500   21.023    0.355    0.467   52.139
  442.750   21.387    0.352    0.446   51.300
  443.000   22.169    0.348    0.437   51.308
  443.250   23.369    0.349    0.432   50.952
  443.500   25.578    0.357    0.430   49.870
  443.750   27.266    0.362    0.433   46.062
  444.000   29.399    0.361    0.435   43.404
  444.250   30.414    0.366    0.442   41.656
  444.500   31.056    0.371    0.455   41.240
  444.750   30.093    0.370    0.461   43.490
  445.000   30.215    0.368    0.458   46.588
  445.250   31.203    0.366    0.457   48.535
  445.500   31.624    0.367    0.452   49.391
  445.750   31.812    0.372    0.453   50.248
  446.000   30.882    0.375    0.464   51.044
  446.250   25.808    0.377    0.472   51.416
  446.500   20.892    0.377    0.478   51.726
  446.750   18.296    0.373    0.480   51.736
  447.000   17.204    0.371    0.457   51.319
  447.250   16.547    0.370    0.437   51.146
  447.500   16.244    0.369    0.432   53.698
  447.750   16.008    0.366    0.444   56.434
  448.000   15.833    0.365    0.448   56.502
  448.250   15.545    0.364    0.455   54.814
  448.500   15.404    0.364    0.450   54.156
  448.750   15.294    0.364    0.446   54.406
  449.000   15.213    0.364    0.460   53.870
  449.250   15.247    0.365    0.457   51.152
  449.500   15.081    0.358    0.458   50.311
  449.750   14.613    0.349    0.450   51.834
  450.000   14.185    0.340    0.440   55.056
  450.250   13.566    0.334    0.442   56.880
  450.500   13.097    0.338    0.439   57.311
  450.750   12.737    0.343    0.432   54.959
  451.000   12.458    0.348    0.432   52.966
  451.250   12.416    0.342    0.439   50.370
  451.500   12.893    0.326    0.431   48.016
  451.750   14.137    0.318    0.426   46.267
  452.000   15.242    0.310    0.427   48.154
  452.250   15.739    0.336    0.433   49.797
  452.500   15.222    0.358    0.439   52.048
  452.750   13.457    0.368    0.439   53.752
  453.000   12.489    0.371    0.438   54.850
  453.250   11.591    0.371    0.446   53.768
  453.500   10.598    0.371    0.449   54.019
  453.750    9.910    0.363    0.445   55.360
  454.000    9.729    0.358    0.442   55.853
  454.250    9.660    0.355    0.454   55.437
  454.500    9.753    0.352    0.463   54.476
  454.750   11.207    0.352    0.462   53.333
  455.000   12.877    0.358    0.458   51.827
  455.250   14.467    0.352    0.448   51.169
  455.500   15.892    0.346    0.438   51.359
  455.750   17.006    0.347    0.430   52.458
  456.000   17.203    0.348    0.440   54.829
  456.250   15.265    0.340    0.446   57.078
  456.500   14.274    0.341    0.450   58.662
  456.750   13.857    0.346    0.449   56.005
  457.000   13.887    0.342    0.446   57.043
  457.250   14.154    0.346    0.464   57.717
  457.500   14.671    0.347    0.469   54.939
  457.750   15.265    0.335    0.452   53.918
  458.000   15.823    0.333    0.447   56.046
  458.250   16.218    0.343    0.460   58.114
  458.500   16.468    0.347    0.453   59.697
  458.750   16.504    0.343    0.443   60.251
  459.000   16.263    0.340    0.450   60.260
  459.250   15.265    0.340    0.466   60.389
  459.500   14.247    0.341    0.469   60.761
  459.750   13.248    0.346    0.453   61.254
  460.000   12.598    0.344    0.443   61.868
  460.250   11.847    0.338    0.454   62.058
  460.500   10.995    0.332    0.466   60.431
  460.750   10.072    0.324    0.466   57.107
  461.000    9.400    0.329    0.456   57.054
  461.250    9.040    0.339    0.450   59.306
  461.500    8.760    0.331    0.468   57.858
  461.750    8.861    0.329    0.482   53.869
  462.000    9.845    0.338    0.482   51.514
  462.250   11.081    0.351    0.468   49.645
  462.500   13.243    0.356    0.452   48.562
  462.750   16.463    0.354    0.452   47.722
  463.000   19.382    0.327    0.433   47.064
  463.250   23.034    0.046    0.372   45.982
  463.500   26.024    0.031    0.277   44.960
  463.750   29.514    0.026    0.211   43.515
  464.000   31.938    0.023    0.186   42.130
  464.250   33.732    0.027    0.179   41.956
  464.500   32.200    0.045    0.174   45.236
  464.750   27.161    0.099    0.170   48.455
  465.000   22.445    0.193    0.247   50.160
  465.250   18.722    0.292    0.419   52.592
  465.500   16.365    0.341    0.444   55.994
  465.750   14.145    0.350    0.449   59.516
  466.000   13.030    0.349    0.434   62.188
  466.250   12.438    0.338    0.441   63.650
  466.500   12.120    0.332    0.479   61.478
  466.750   11.766    0.333    0.487   61.244
  467.000   11.594    0.339    0.458   61.920
  467.250   11.298    0.340    0.446   62.110
  467.500   11.238    0.340    0.448   61.208
  467.750   11.304    0.336    0.449   58.611
  468.000   12.583    0.327    0.461   55.592
  468.250   13.744    0.326    0.473   52.570
  468.500   17.247    0.332    0.474   50.579
  468.750   21.119    0.343    0.463   49.498
  469.000   26.749    0.351    0.455   48.414
  469.250   31.788    0.358    0.454   46.605
  469.500   36.390    0.363    0.440   46.190
  469.750   39.380    0.364    0.422   49.592
  470.000   33.722    0.361    0.409   52.265
  470.250   27.196    0.353    0.422   55.605
  470.500   23.243    0.344    0.452   57.430
  470.750   20.127    0.344    0.471   52.107
  471.000   18.506    0.350    0.475   48.966
  471.250   23.883    0.337    0.473   45.824
  471.500   34.944    0.317    0.461   41.712
  471.750   47.610    0.300    0.440   42.145
  472.000   57.868    0.281    0.419   48.696
  472.250   50.205    0.277    0.409   58.397
  472.500   34.659    0.297    0.412   65.796
  472.750   18.686    0.313    0.418   71.015
  473.000   12.851    0.323    0.423   74.962
  473.250    6.813    0.257    0.445   77.212
  473.500    5.136    0.244    0.470   75.826
  473.750    4.940    0.250    0.480   69.413
  474.000    5.761    0.262    0.443   64.695
  474.250    7.055    0.276    0.414   60.463
  474.500    9.347    0.286    0.408   59.624
  474.750   11.619    0.276    0.402   59.510
  475.000   13.029    0.279    0.397   61.154
  475.250   13.658    0.285    0.393   63.465
  475.500   14.131    0.277    0.397   65.230
  475.750   14.349    0.270    0.400   66.329
  476.000   15.615    0.282    0.417   63.550
  476.250   18.873    0.296    0.438   54.834
  476.500   25.145    0.318    0.422   46.422
  476.750   34.908    0.336    0.403   42.129
  477.000   52.925    0.345    0.392   41.775
  477.250   66.408    0.350    0.388   44.993
  477.500   78.039    0.352    0.388   48.637
  477.750   79.092    0.352    0.398   51.978
  478.000   75.503    0.349    0.402   54.833
  478.250   71.797    0.349    0.400   57.689
  478.500   62.645    0.353    0.397   60.362
  478.750   55.377    0.351    0.410   61.824
  479.000   48.584    0.350    0.424   57.592
  479.250   39.924    0.355    0.416   57.541
  479.500   34.834    0.346    0.406   59.547
  479.750   30.505    0.337    0.421   61.676
  480.000   26.865    0.331    0.436   60.715
  480.250   23.971    0.331    0.443   59.390
  480.500   21.191    0.334    0.430   60.610
  480.750   19.483    0.332    0.423   64.738
  481.000   17.549    0.321    0.430   70.805
  481.250   15.865    0.309    0.420   74.508
  481.500   13.536    0.297    0.428   77.364
  481.750   12.585    0.287    0.419   79.189
  482.000   11.063    0.275    0.396   78.895
  482.250   10.248    0.252    0.396   82.116
  482.500    9.746    0.249    0.403   83.697
  482.750    9.408    0.258    0.406   85.160
  483.000    9.065    0.246    0.402   83.775
  483.250    8.833    0.237    0.395   82.632
  483.500    8.527    0.229    0.398   85.003
  483.750    8.387    0.257    0.423   86.041
