~VERSION INFORMATION
 VERS.                 2.0:   CWLS LOG ASCII STANDARD -VERSION 2.0
 WRAP.                  NO:   ONE LINE PER DEPTH STEP
~WELL INFORMATION BLOCK
#MNEM.UNIT           DATA                    DESCRIPTION OF MNEMONIC
#---------    -------------------            -------------------------------
# Generated from Intellog Unique Number	CS_77_79/WELL/865
WELL.         CWWE THORNBURY                 : Well_name    - WELL
LOC .         00/05-31-079-13W4/0            : Location     - LOCATION
UWI .         00/05-31-079-13W4/0            : Uwi          - UNIQUE WELL ID
ENTR.         JHS                            : Entered      - ENTERED BY
SRVC.         SCHLUMBERGER                   : Scn          - SERVICE COMPANY
STRT.M        245                            : top_depth    - START DEPTH
STOP.M        510                            : bot_depth    - STOP DEPTH
STEP.M        0.25                           : increment    - STEP LENGTH
 NULL. -999.2500:NULL Value
~CURVE INFORMATION BLOCK
#MNEM UNIT       ERCB CURVE CODE    CURVE DESCRIPTION
#-----------   ------------------   ----------------------------------
DEPT.M        00 001 00 00         : DEPTH        - DEPTH
DPHI.V/V      00 890 00 00         : PHID         - DENSITY POROSITY (LIMESTONE)
NPHI.V/V      00 330 00 00         : PHIN         - NEUTRON POROSITY (LIMESTONE)
GR  .API      00 310 00 00         : GR           - GAMMA RAY
ILD .OHMM     00 120 00 00         : RESD         - DEEP RESISTIVITY (DIL)
RHOB.KG/M3    00 350 00 00         : DENS         - BULK DENSITY
~PARAMETER INFORMATION
#MNEM.UNIT           DATA             DESCRIPTION OF MNEMONIC
#---------         -----------     ------------------------------
GL  .M        694.2                : gl           - GROUND LEVEL ELEVATION
EREF.M        698                  : kb           - ELEVATION OF DEPTH REFERENCE
DATM.M        698                  : datum        - DATUM ELEVATION
TDD .M        510                  : tdd          - TOTAL DEPTH DRILLER
RUN .         ONE                  : Run          - RUN NUMBER
ENG .         BILL                 : Engineer     - RECORDING ENGINEER
WIT .         JIM                  : Witness      - WITNESSED BY
MUD .         GEL                  : Mud_type     - MUD TYPE
MATR.         LIMESTONE            : Logunit      - NEUTRON MATRIX
TMAX.C        22                   : BHT          - MAXIMUM RECORDED TEMPERATURE
BHTD.M        510                  : BHTDEP       - MAXIMUM RECORDED TEMPERATURE
MATR.         1                    : LOGUNIT      - NEUTRON MATRIX
RMT .C        25                   : MDTP         - TEMPERATURE OF MUD
NEUT.         1                    : NEUTRON      - NEUTRON TYPE
RESI.         0                    : RESIST       - RESISTIVITY TYPE
RMC .OHMM     0.25                 : RMC          - RESISTIVITY OF MUD CAKE
RMF .OHMM     0.25                 : RMF          - RESISTIVITY OF MUD FILTRATE
SUFT.C        15                   : SUFT         - SURFACE TEMPERATURE
~A  DEPTH     PHID     PHIN       GR     RESD     DENS
# ...
  318.000    0.334    0.447   72.417   13.120    0.000
  318.250    0.340    0.451   74.255   12.645    0.000
  318.500    0.330    0.400   77.921   11.960    0.000
  318.750    0.309    0.390   88.295   11.528    0.000
  319.000    0.303    0.397   97.448   11.325    0.000
  319.250    0.284    0.403  104.774   11.332    0.000
  319.500    0.252    0.403  110.880   10.919    0.000
  319.750    0.228    0.421  113.327    9.948    0.000
  320.000    0.237    0.474  107.236    9.232    0.000
  320.250    0.286    0.482   96.877    8.102    0.000
  320.500    0.282    0.479   92.007    7.805    0.000
  320.750    0.273    0.461   95.064    7.960    0.000
  321.000    0.263    0.455   98.121    8.920    0.000
  321.250    0.254    0.459   95.690    9.806    0.000
  321.500    0.241    0.461   90.210   10.580    0.000
  321.750    0.238    0.455   92.658   11.205    0.000
  322.000    0.229    0.458   96.324   11.216    0.000
  322.250    0.211    0.456   95.112   11.010    0.000
  322.500    0.202    0.442   89.633   10.812    0.000
  322.750    0.205    0.438   85.983   10.822    0.000
  323.000    0.237    0.436   88.428   11.037    0.000
  323.250    0.259    0.437   92.705   10.841    0.000
  323.500    0.265    0.447   98.203   10.447    0.000
  323.750    0.267    0.471   99.427    9.884    0.000
  324.000    0.277    0.459   98.215    9.704    0.000
  324.250    0.283    0.464   98.835    9.711    0.000
  324.500    0.273    0.492  104.328    9.539    0.000
  324.750    0.266    0.471  113.484    9.544    0.000
  325.000    0.264    0.456  110.444    8.858    0.000
  325.250    0.262    0.462  105.572    8.070    0.000
  325.500    0.261    0.473  109.849    7.776    0.000
  325.750    0.283    0.437  104.979    7.785    0.000
  326.000    0.310    0.421   94.009    7.936    0.000
  326.250    0.309    0.417   95.238    8.563    0.000
  326.500    0.298    0.422   96.466    9.597    0.000
  326.750    0.289    0.412   94.644    9.970    0.000
  327.000    0.295    0.405   92.821   10.557    0.000
  327.250    0.289    0.422   92.830   11.181    0.000
  327.500    0.281    0.416   91.008   11.619    0.000
  327.750    0.287    0.411   94.066   11.409    0.000
  328.000    0.270    0.421   98.951   10.394    0.000
  328.250    0.252    0.435  104.449    9.465    0.000
  328.500    0.238    0.468  106.284    7.559    0.000
  328.750    0.241    0.487  103.244    7.015    0.000
  329.000    0.287    0.458   84.347    6.761    0.000
  329.250    0.290    0.430   72.770    7.026    0.000
  329.500    0.290    0.414   73.387    7.872    0.000
  329.750    0.308    0.431   74.005    9.331    0.000
  330.000    0.348    0.471   65.476   11.489    0.000
  330.250    0.369    0.441   58.777   13.116    0.000
  330.500    0.361    0.408   57.564   15.845    0.000
  330.750    0.359    0.406   60.011   18.088    0.000
  331.000    0.368    0.419   59.411   21.445    0.000
  331.250    0.372    0.419   61.247   23.135    0.000
  331.500    0.361    0.423   62.475   26.913    0.000
  331.750    0.358    0.435   58.823   32.513    0.000
  332.000    0.368    0.448   52.733   38.542    0.000
  332.250    0.370    0.450   49.082   44.843    0.000
  332.500    0.365    0.456   55.798   50.241    0.000
  332.750    0.364    0.463   57.026   52.218    0.000
  333.000    0.377    0.471   53.984   52.243    0.000
  333.250    0.376    0.455   55.821   48.509    0.000
  333.500    0.374    0.437   58.879   43.364    0.000
  333.750    0.380    0.420   56.447   40.999    0.000
  334.000    0.377    0.421   52.796   35.297    0.000
  334.250    0.366    0.424   50.974   31.550    0.000
  334.500    0.364    0.408   49.154   28.202    0.000
  334.750    0.366    0.399   49.163   23.383    0.000
  335.000    0.370    0.398   52.219   20.510    0.000
  335.250    0.366    0.403   54.055   18.337    0.000
  335.500    0.365    0.413   53.455   17.343    0.000
  335.750    0.362    0.415   52.853   17.033    0.000
  336.000    0.361    0.418   53.470   16.727    0.000
  336.250    0.357    0.422   54.087   16.428    0.000
  336.500    0.346    0.415   53.486   16.135    0.000
  336.750    0.344    0.398   52.885   16.149    0.000
  337.000    0.352    0.391   51.671   16.161    0.000
  337.250    0.338    0.405   51.071   16.479    0.000
  337.500    0.292    0.427   49.248   17.122    0.000
  337.750    0.263    0.384   48.035   18.479    0.000
  338.000    0.248    0.341   49.265   19.196    0.000
  338.250    0.276    0.335   52.321   20.717    0.000
  338.500    0.323    0.366   54.769   20.739    0.000
  338.750    0.349    0.411   55.385   20.360    0.000
  339.000    0.365    0.452   54.173   19.254    0.000
  339.250    0.372    0.457   51.134   17.544    0.000
  339.500    0.377    0.439   52.359   16.595    0.000
  339.750    0.379    0.420   54.808   16.293    0.000
  340.000    0.382    0.421   54.206   15.410    0.000
  340.250    0.382    0.434   50.554   15.134    0.000
  340.500    0.380    0.457   50.561   14.864    0.000
  340.750    0.377    0.465   56.668   14.598    0.000
  341.000    0.377    0.455   61.553   14.885    0.000
  341.250    0.356    0.459   62.171   16.063    0.000
  341.500    0.281    0.385   54.251   17.996    0.000
  341.750    0.137    0.225   44.503   19.785    0.000
  342.000    0.119    0.196   41.461   21.358    0.000
  342.250    0.211    0.236   43.298   21.770    0.000
  342.500    0.359    0.398   52.453   20.987    0.000
  342.750    0.398    0.438   52.461   19.475    0.000
  343.000    0.393    0.444   50.030   16.459    0.000
  343.250    0.379    0.442   47.599   14.991    0.000
  343.500    0.373    0.438   47.606   14.449    0.000
  343.750    0.384    0.439   50.666   14.190    0.000
  344.000    0.383    0.437   50.670   14.198    0.000
  344.250    0.373    0.428   50.069   14.209    0.000
  344.500    0.368    0.432   50.079   14.227    0.000
  344.750    0.368    0.443   51.309   14.504    0.000
  345.000    0.376    0.439   52.532   14.511    0.000
  345.250    0.374    0.439   56.808   14.250    0.000
  345.500    0.367    0.455   54.377   14.267    0.000
  345.750    0.364    0.477   53.164   14.272    0.000
  346.000    0.370    0.456   55.005   14.284    0.000
  346.250    0.378    0.441   53.181   14.567    0.000
  346.500    0.373    0.429   50.139   14.858    0.000
  346.750    0.373    0.435   49.540   14.867    0.000
  347.000    0.374    0.443   50.768   15.167    0.000
  347.250    0.369    0.435   51.385   15.175    0.000
  347.500    0.373    0.436   52.000   15.471    0.000
  347.750    0.375    0.441   52.618   15.482    0.000
  348.000    0.373    0.440   51.407   15.499    0.000
  348.250    0.369    0.443   48.977   15.511    0.000
  348.500    0.370    0.463   53.252   15.517    0.000
  348.750    0.370    0.470   56.919   15.243    0.000
  349.000    0.365    0.458   53.268   14.970    0.000
  349.250    0.364    0.446   51.445   14.978    0.000
  349.500    0.373    0.436   55.114   14.990    0.000
  349.750    0.364    0.433   57.558   14.177    0.000
  350.000    0.358    0.428   60.006   14.460    0.000
  350.250    0.359    0.429   58.188   14.468    0.000
  350.500    0.361    0.434   57.582   14.758    0.000
  350.750    0.357    0.437   56.370   15.051    0.000
  351.000    0.345    0.435   57.598   15.346    0.000
  351.250    0.332    0.424   60.048   15.359    0.000
  351.500    0.326    0.424   60.665   15.368    0.000
  351.750    0.337    0.429   60.062   15.379    0.000
  352.000    0.355    0.423   59.459   15.394    0.000
  352.250    0.349    0.420   60.686   15.408    0.000
  352.500    0.344    0.429   64.353   15.416    0.000
  352.750    0.344    0.437   67.410   15.431    0.000
  353.000    0.342    0.453   67.420   15.441    0.000
  353.250    0.345    0.470   65.598   15.448    0.000
  353.500    0.361    0.479   63.166   15.464    0.000
  353.750    0.354    0.463   60.126   15.476    0.000
  354.000    0.335    0.442   57.692   15.485    0.000
  354.250    0.335    0.431   55.261   15.210    0.000
