~VERSION INFORMATION
 VERS.                 2.0:   CWLS LOG ASCII STANDARD -VERSION 2.0
 WRAP.                  NO:   ONE LINE PER DEPTH STEP
~WELL INFORMATION BLOCK
#MNEM.UNIT           DATA                    DESCRIPTION OF MNEMONIC
#---------    -------------------            -------------------------------
# Generated from Intellog Unique Number	CS_69_70/WELL/778
NULL.         -999.25                        : NULL_VALUE
WELL.         PANCANADIAN PETROLEUM          : Well_name    - WELL              
LOC .         00/06-26-070-13W4/0            : Location     - LOCATION          
UWI .         00/06-26-070-13W4/0            : Uwi          - UNIQUE WELL ID    
ENTR.         SP                             : Entered      - ENTERED BY        
SRVC.         SCHLUMBERGER                   : Scn          - SERVICE COMPANY   
STRT.M        260                            : top_depth    - START DEPTH       
STOP.M        495                            : bot_depth    - STOP DEPTH        
STEP.M        0.25                           : increment    - STEP LENGTH       
~CURVE INFORMATION BLOCK
#MNEM UNIT       ERCB CURVE CODE    CURVE DESCRIPTION
#-----------   ------------------   ----------------------------------
DEPT.M        00 001 00 00         : DEPTH        - DEPTH                       
ILD .OHMM     00 120 00 00         : RESD         - DEEP RESISTIVITY (DIL)      
DPHI.V/V      00 890 00 00         : PHID         - DENSITY POROSITY (LIMESTONE)
NPHI.V/V      00 330 00 00         : PHIN         - NEUTRON POROSITY (LIMESTONE)
GR  .API      00 310 00 00         : GR           - GAMMA RAY                   
~PARAMETER INFORMATION       
#MNEM.UNIT           DATA             DESCRIPTION OF MNEMONIC
#---------         -----------     ------------------------------
GL  .M        577.2                : gl           - GROUND LEVEL ELEVATION      
EREF.M        580.8                : kb           - ELEVATION OF DEPTH REFERENCE
DATM.M        577.2                : datum        - DATUM ELEVATION             
TDD .M        499.5                : tdd          - TOTAL DEPTH DRILLER         
RUN .         ONE                  : Run          - RUN NUMBER                  
ENG .         BILL                 : Engineer     - RECORDING ENGINEER          
WIT .         JIM                  : Witness      - WITNESSED BY                
MUD .         GEL                  : Mud_type     - MUD TYPE                    
MATR.         LIMESTONE            : Logunit      - NEUTRON MATRIX              
TMAX.C        28                   : BHT          - MAXIMUM RECORDED TEMPERATURE
BHTD.M        499.5                : BHTDEP       - MAXIMUM RECORDED TEMPERATURE
MATR.         1                    : LOGUNIT      - NEUTRON MATRIX              
RMT .C        25                   : MDTP         - TEMPERATURE OF MUD          
NEUT.         1                    : NEUTRON      - NEUTRON TYPE                
RESI.         0                    : RESIST       - RESISTIVITY TYPE            
RMC .OHMM     0.25                 : RMC          - RESISTIVITY OF MUD CAKE     
RMF .OHMM     0.25                 : RMF          - RESISTIVITY OF MUD FILTRATE 
SUFT.C        15                   : SUFT         - SURFACE TEMPERATURE         
~A  DEPTH     RESD     PHID     PHIN       GR
# ...
  390.500    3.662    0.256    0.554   86.872
  390.750    3.503    0.241    0.487   87.428
  391.000    3.518    0.238    0.453   86.708
  391.250    3.547    0.265    0.473   86.047
  391.500    3.629    0.271    0.492   85.996
  391.750    3.699    0.270    0.503   86.918
  392.000    3.716    0.265    0.490   88.878
  392.250    3.608    0.258    0.472   90.532
  392.500    3.496    0.253    0.467   92.066
  392.750    3.245    0.261    0.485   93.051
  393.000    3.052    0.274    0.541   93.365
  393.250    2.807    0.288    0.545   90.814
  393.500    2.524    0.288    0.506   88.873
  393.750    2.396    0.277    0.524   91.078
  394.000    2.318    0.267    0.565   92.732
  394.250    2.276    0.270    0.519   94.206
  394.500    2.256    0.257    0.444   92.812
  394.750    2.291    0.252    0.419   85.568
  395.000    2.466    0.291    0.408   78.751
  395.250    2.695    0.305    0.392   76.505
  395.500    2.863    0.304    0.390   76.332
  395.750    3.041    0.294    0.416   75.854
  396.000    3.165    0.286    0.432   74.827
  396.250    3.220    0.142    0.422   69.900
  396.500    3.364    0.105    0.399   66.862
  396.750    3.554    0.071    0.383   71.627
  397.000    3.826    0.197    0.373   77.425
  397.250    4.126    0.210    0.372   82.433
  397.500    4.301    0.246    0.387   84.209
  397.750    4.451    0.289    0.396   82.329
  398.000    4.396    0.302    0.413   79.231
  398.250    4.220    0.242    0.436   85.762
  398.500    4.121    0.175    0.441   82.724
  398.750    4.046    0.158    0.410   73.164
  399.000    4.307    0.181    0.387   66.591
  399.250    4.567    0.202    0.373   79.278
  399.500    4.717    0.216    0.382   84.225
  399.750    4.746    0.244    0.382   81.796
  400.000    4.617    0.264    0.374   79.005
  400.250    4.416    0.257    0.408   78.036
  400.500    4.193    0.243    0.428   78.351
  400.750    4.048    0.236    0.450   79.762
  401.000    4.066    0.230    0.436   78.127
  401.250    4.160    0.208    0.416   76.672
  401.500    4.233    0.180    0.403   74.061
  401.750    4.283    0.194    0.390   78.094
  402.000    4.302    0.210    0.380   79.688
  402.250    4.280    0.224    0.393   77.565
  402.500    4.258    0.225    0.397   79.159
  402.750    4.276    0.220    0.390   81.240
  403.000    4.311    0.217    0.383   83.932
  403.250    4.346    0.220    0.394   86.988
  403.500    4.356    0.215    0.393   90.350
  403.750    4.359    0.215    0.382   93.163
  404.000    4.377    0.226    0.386   95.184
  404.250    4.396    0.236    0.392   96.352
  404.500    4.398    0.227    0.385   89.413
  404.750    4.376    0.217    0.391   91.007
  405.000    4.346    0.233    0.397   92.054
  405.250    4.331    0.248    0.409   92.550
  405.500    4.507    0.249    0.435   90.060
  405.750    4.442    0.237    0.405   88.362
  406.000    4.241    0.245    0.385   90.932
  406.250    4.447    0.227    0.392   90.210
  406.500    4.568    0.192    0.393   85.526
  406.750    4.639    0.178    0.384   86.938
  407.000    4.633    0.167    0.381   89.752
  407.250    4.457    0.207    0.385   92.138
  407.500    4.459    0.220    0.401   92.758
  407.750    4.545    0.224    0.410   90.389
  408.000    4.669    0.227    0.386   92.471
  408.250    4.724    0.228    0.370   97.235
  408.500    4.726    0.233    0.376   98.769
  408.750    4.685    0.241    0.391   97.741
  409.000    4.678    0.240    0.419   97.324
  409.250    4.637    0.229    0.414   90.995
  409.500    4.579    0.219    0.409   84.543
  409.750    4.455    0.224    0.438   80.103
  410.000    4.317    0.317    0.471   78.711
  410.250    4.052    0.361    0.495   80.732
  410.500    3.400    0.363    0.516   83.058
  410.750    2.732    0.317    0.552   85.262
  411.000    2.424    0.298    0.510   85.209
  411.250    2.246    0.285    0.478   84.731
  411.500    2.132    0.275    0.464   89.129
  411.750    2.101    0.300    0.449   91.089
  412.000    2.083    0.348    0.461   89.209
  412.250    2.111    0.246    0.432   80.563
  412.500    2.409    0.198    0.404   72.162
  412.750    2.779    0.135    0.393   67.356
  413.000    3.195    0.288    0.388   73.400
  413.250    3.550    0.313    0.412   76.762
  413.500    4.080    0.323    0.463   78.965
  413.750    4.359    0.308    0.462   75.988
  414.000    4.511    0.283    0.412   74.291
  414.250    4.275    0.284    0.416   77.958
  414.500    4.058    0.291    0.424   80.710
  414.750    3.911    0.202    0.394   79.012
  415.000    4.124    0.108    0.351   70.062
  415.250    4.794    0.048    0.290   57.881
  415.500    5.635    0.011    0.245   47.041
  415.750    6.674   -0.008    0.202   41.809
  416.000    8.378    0.006    0.205   45.598
  416.250   10.263    0.095    0.281   56.212
  416.500   11.908    0.159    0.334   69.937
  416.750   13.183    0.196    0.359   78.052
  417.000   11.786    0.223    0.380   85.072
  417.250    5.763    0.235    0.392   88.677
  417.500    4.789    0.235    0.396   85.579
  417.750    4.396    0.221    0.397   83.454
  418.000    4.111    0.232    0.391   82.183
  418.250    3.903    0.252    0.398   83.047
  418.500    3.804    0.224    0.400   86.105
  418.750    3.792    0.227    0.413   88.246
  419.000    3.773    0.245    0.422   90.329
  419.250    3.718    0.252    0.429   92.288
  419.500    3.563    0.231    0.442   89.859
  419.750    3.258    0.220    0.462   89.625
  420.000    3.019    0.233    0.479   89.270
  420.250    2.855    0.220    0.489   87.267
  420.500    2.715    0.199    0.474   85.753
  420.750    2.647    0.188    0.460   91.979
  421.000    2.628    0.203    0.441   99.915
  421.250    2.635    0.223    0.469  103.945
  421.500    2.646    0.239    0.500  109.623
  421.750    2.733    0.235    0.447  112.985
  422.000    2.770    0.233    0.442   99.280
  422.250    2.788    0.253    0.459   99.411
  422.500    2.717    0.227    0.449   99.177
  422.750    2.564    0.214    0.400   94.554
  423.000    2.490    0.229    0.414   97.794
  423.250    2.587    0.241    0.428  104.082
  423.500    2.657    0.244    0.446  107.931
  423.750    2.678    0.238    0.456  106.539
  424.000    2.586    0.226    0.471  104.293
  424.250    2.469    0.218    0.466  105.826
  424.500    2.348    0.226    0.443  111.078
  424.750    2.336    0.231    0.429  105.967
  425.000    2.355    0.224    0.422   99.881
  425.250    2.428    0.218    0.436   91.662
  425.500    2.570    0.186    0.419   86.795
  425.750    2.840    0.161    0.390   82.782
  426.000    3.022    0.145    0.378   85.291
  426.250    3.315    0.184    0.376   90.300
  426.500    3.596    0.212    0.369   92.075
  426.750    3.863    0.202    0.361   90.501
  427.000    4.150    0.195    0.355   84.293
  427.250    4.384    0.229    0.351   65.468
  427.500    4.728    0.262    0.343   59.626
  427.750    5.254    0.279    0.342   57.319
  428.000    5.762    0.267    0.350   56.354
  428.250    6.500    0.250    0.357   55.814
  428.500    7.292    0.244    0.361   54.848
  428.750    8.042    0.253    0.362   56.870
  429.000    8.625    0.245    0.359   56.025
  429.250    9.077    0.230    0.355   53.720
  429.500    9.393    0.224    0.346   52.023
  429.750    9.684    0.112    0.329   49.898
  430.000   10.041    0.007    0.297   47.591
  430.250   10.809   -0.004    0.278   51.136
  430.500   11.788    0.075    0.286   61.934
  430.750   13.549    0.179    0.308   68.465
  431.000   15.692    0.207    0.328   74.022
  431.250   16.575    0.222    0.343   78.176
  431.500   12.732    0.228    0.353   85.194
  431.750    6.824    0.234    0.365  101.173
  432.000    5.757    0.236    0.361  106.425
  432.250    5.099    0.223    0.356  109.787
  432.500    4.689    0.197    0.353  113.209
  432.750    4.393    0.210    0.350  106.636
  433.000    4.421    0.225    0.363  100.184
  433.250    4.481    0.224    0.366   98.487
  433.500    4.629    0.221    0.369   98.192
  433.750    4.701    0.216    0.369  106.918
