~VERSION INFORMATION
 VERS.                 2.0:   CWLS LOG ASCII STANDARD -VERSION 2.0
 WRAP.                  NO:   ONE LINE PER DEPTH STEP
~WELL INFORMATION BLOCK
#MNEM.UNIT           DATA                    DESCRIPTION OF MNEMONIC
#---------    -------------------            -------------------------------
# Generated from Intellog Unique Number	CS_69_70/WELL/2586
WELL.         08-16-069-07W4                 : Well_name    - WELL
LOC .         00/08-16-069-07W4/0            : Location     - LOCATION
UWI .         00/08-16-069-07W4/0            : Uwi          - UNIQUE WELL ID
ENTR.         TIM                            : Entered      - ENTERED BY
SRVC.         SCHLUMBERGER                   : Scn          - SERVICE COMPANY
STRT.M        285                            : top_depth    - START DEPTH
STOP.M        510                            : bot_depth    - STOP DEPTH
STEP.M        0.25                           : increment    - STEP LENGTH
 NULL. -999.2500:NULL Value
~CURVE INFORMATION BLOCK
#MNEM UNIT       ERCB CURVE CODE    CURVE DESCRIPTION
#-----------   ------------------   ----------------------------------
DEPT.M        00 001 00 00         : DEPTH        - DEPTH
ILD .OHMM     00 120 00 00         : RESD         - DEEP RESISTIVITY (DIL)
DPHI.V/V      00 890 00 00         : PHID         - DENSITY POROSITY (SANDSTONE)
NPHI.V/V      00 330 00 00         : PHIN         - NEUTRON POROSITY (SANDSTONE)
CALI.MM       00 280 01 00         : CAL          - CALIPER
GR  .API      00 310 00 00         : GR           - GAMMA RAY
~PARAMETER INFORMATION
#MNEM.UNIT           DATA             DESCRIPTION OF MNEMONIC
#---------         -----------     ------------------------------
GL  .M        623                  : gl           - GROUND LEVEL ELEVATION
EREF.M        627.1                : kb           - ELEVATION OF DEPTH REFERENCE
DATM.M        627.1                : datum        - DATUM ELEVATION
TDD .M        514                  : tdd          - TOTAL DEPTH DRILLER
RUN .         ONE                  : Run          - RUN NUMBER
ENG .         BILL                 : Engineer     - RECORDING ENGINEER
WIT .         JIM                  : Witness      - WITNESSED BY
MUD .         GEL                  : Mud_type     - MUD TYPE
MATR.         SANDSTONE            : Logunit      - NEUTRON MATRIX
TMAX.C        24                   : BHT          - MAXIMUM RECORDED TEMPERATURE
BHTD.M        514                  : BHTDEP       - MAXIMUM RECORDED TEMPERATURE
RMT .C        8                    : MDTP         - TEMPERATURE OF MUD
MUDD.KG/M     1000                 : MWT          - MUD DENSITY
NEUT.         1                    : NEUTRON      - NEUTRON TYPE
RESI.         0                    : RESIST       - RESISTIVITY TYPE
RM  .OHMM     6.6                  : RM           - RESISTIVITY OF MUD
RMC .OHMM     2.9                  : RMC          - RESISTIVITY OF MUD CAKE
RMF .OHMM     6.7                  : RMF          - RESISTIVITY OF MUD FILTRATE
SUFT.C        4                    : SUFT         - SURFACE TEMPERATURE
~A  DEPTH     RESD     PHID     PHIN      CAL       GR
# ...
  431.000    4.015    0.257    0.460  168.940   89.976
  431.250    4.327    0.245    0.455  169.967   89.997
  431.500    4.662    0.238    0.448  171.020   89.406
  431.750    5.120    0.229    0.428  172.065   90.043
  432.000    5.315    0.221    0.422  173.126   90.059
  432.250    5.322    0.214    0.420  173.144   91.291
  432.500    4.864    0.199    0.418  173.170   91.312
  432.750    4.442    0.170    0.420  174.214   90.116
  433.000    4.058    0.158    0.416  173.248   88.325
  433.250    3.640    0.180    0.406  173.282   88.340
  433.500    3.265    0.223    0.394  171.298   90.784
  433.750    2.876    0.235    0.403  170.323   95.657
  434.000    2.579    0.243    0.436  170.366   99.313
  434.250    2.357    0.248    0.474  169.391  103.574
  434.500    2.403    0.258    0.498  169.425  107.230
  434.750    2.452    0.263    0.510  169.460  110.891
  435.000    2.594    0.261    0.507  169.503  113.936
  435.250    2.745    0.259    0.502  168.511  115.774
  435.500    3.127    0.254    0.490  168.554  107.919
  435.750    3.367    0.242    0.450  168.580   90.982
  436.000    4.050    0.234    0.405  168.615   86.151
  436.250    4.875    0.234    0.381  168.684   81.931
  436.500    4.885    0.234    0.381  168.710   80.134
  436.750    4.979    0.233    0.382  168.736   79.549
  437.000    5.363    0.231    0.382  168.762   74.729
  437.250    9.144    0.215    0.378  168.806   68.691
  437.500   12.280    0.131    0.372  168.840   63.265
  437.750   14.771    0.075    0.345  168.866   60.251
  438.000   14.263    0.049    0.253  168.901   57.248
  438.250   12.557    0.167    0.216  167.926   60.293
  438.500    9.906    0.199    0.225  166.960   63.954
  438.750    7.815    0.231    0.248  166.986   65.186
  439.000    6.279    0.246    0.325  166.019   66.424
  439.250    5.331    0.244    0.317  166.054   68.257
  439.500    5.149    0.248    0.335  166.097   69.489
  439.750    5.345    0.258    0.385  166.123   67.693
  440.000    5.866    0.272    0.413  166.166   68.925
  440.250    6.805    0.292    0.397  167.211   71.369
  440.500    7.894    0.291    0.393  167.237   75.636
  440.750    8.348    0.285    0.415  169.291   78.686
  441.000    8.514    0.283    0.428  171.345   78.101
  441.250    8.529    0.282    0.415  172.398   78.122
  441.500    8.382    0.282    0.399  172.433   79.960
  441.750    8.246    0.282    0.387  172.485   81.192
  442.000    7.954    0.282    0.392  172.511   83.031
  442.250    7.406    0.282    0.400  171.536   85.475
  442.500    7.147    0.280    0.403  170.561   90.342
  442.750    6.773    0.268    0.401  169.577   94.604
  443.000    6.782    0.253    0.401  167.601  101.289
  443.250    6.791    0.235    0.401  167.627  104.944
  443.500    7.187    0.220    0.396  165.651  109.812
  443.750    7.891    0.218    0.384  165.677  104.385
  444.000    8.194    0.224    0.371  164.702   97.737
  444.250    8.666    0.235    0.365  163.735   89.882
  444.500    9.169    0.244    0.365  162.751   82.633
  444.750    9.703    0.256    0.359  161.785   77.201
  445.000   10.460    0.268    0.350  160.819   72.375
  445.250   10.861    0.283    0.342  159.835   67.549
  445.500   12.149    0.295    0.349  158.869   62.118
  445.750   12.845    0.301    0.359  157.894   55.475
  446.000   14.102    0.296    0.373  157.928   51.861
  446.250   15.769    0.292    0.367  157.963   48.246
  446.500   16.986    0.292    0.348  157.997   44.632
  446.750   18.994    0.300    0.360  158.023   51.327
  447.000   20.460    0.303    0.386  158.067   50.737
  447.250   21.253    0.289    0.386  158.101   46.522
  447.500   19.783    0.260    0.350  159.154   49.567
  447.750   18.402    0.207    0.308  161.209   52.617
  448.000   15.911    0.156    0.280  161.235   58.701
  448.250   14.013    0.134    0.307  162.288   66.593
  448.500   13.039    0.190    0.335  163.332   73.283
  448.750   12.133    0.217    0.359  164.376   71.486
  449.000   11.928    0.234    0.361  165.429   60.602
  449.250   11.948    0.252    0.361  166.465   59.416
  449.500   12.411    0.270    0.357  167.509   62.461
  449.750   13.378    0.295    0.356  168.545   66.117
  450.000   14.411    0.269    0.356  169.590   69.772
  450.250   16.120    0.269    0.358  171.652   73.428
  450.500   16.733    0.298    0.364  172.697   74.661
  450.750   16.756    0.311    0.371  173.741   75.898
  451.000   15.308    0.315    0.380  173.784   77.737
  451.250   13.486    0.311    0.387  173.828   79.575
  451.500   12.096    0.301    0.392  173.845   82.630
  451.750   11.047    0.293    0.394  173.880   85.074
  452.000    9.732    0.287    0.394  173.923   88.119
  452.250    8.891    0.278    0.393  173.958   88.745
  452.500    8.273    0.267    0.389  174.001   91.189
  452.750    7.701    0.255    0.387  174.018   96.062
  453.000    7.566    0.242    0.379  175.080  101.535
  453.250    7.862    0.229    0.371  176.133  105.802
  453.500    8.167    0.219    0.360  176.150  105.818
  453.750    8.640    0.212    0.353  177.195   94.934
  454.000    8.975    0.208    0.342  178.248   90.113
  454.250    9.495    0.208    0.348  178.291   85.888
  454.500   10.814    0.219    0.353  178.308   77.427
  454.750   11.868    0.233    0.365  178.343   64.726
  455.000   13.512    0.253    0.362  178.378   55.659
  455.250   15.959    0.272    0.361  177.411   49.016
  455.500   18.506    0.285    0.365  176.428   44.190
  455.750   21.864    0.298    0.373  175.461   38.758
  456.000   25.823    0.315    0.387  174.486   33.332
  456.250   27.320    0.325    0.398  173.528   30.329
  456.500   24.959    0.329    0.385  172.536   29.133
  456.750   20.055    0.331    0.363  172.579   30.971
  457.000   15.821    0.333    0.338  171.613   34.621
  457.250   14.454    0.329    0.308  171.639   43.730
  457.500   15.014    0.308    0.276  170.664   62.536
  457.750   16.794    0.287    0.277  168.679   61.345
  458.000   17.762    0.293    0.292  168.714   56.525
  458.250   19.849    0.314    0.340  168.757   55.940
  458.500   20.256    0.323    0.317  168.774   56.566
  458.750   17.509    0.312    0.294  167.817   59.005
  459.000   15.415    0.225    0.272  166.842   63.873
  459.250   11.095    0.228    0.281  165.875   71.774
  459.500    9.248    0.237    0.312  165.901   79.671
  459.750    8.295    0.247    0.348  166.937   85.144
  460.000    7.724    0.252    0.367  167.990   90.011
  460.250    7.589    0.240    0.366  169.026   96.091
  460.500    7.194    0.228    0.363  170.070  102.170
  460.750    7.204    0.230    0.363  171.114  104.008
  461.000    7.083    0.223    0.375  171.175  104.640
  461.250    7.094    0.218    0.384  172.193  105.266
  461.500    7.104    0.212    0.376  172.237  102.258
  461.750    7.113    0.215    0.368  172.289   88.951
  462.000    7.123    0.223    0.364  172.306   81.696
  462.250    7.267    0.235    0.354  171.340   76.265
  462.500    7.409    0.242    0.349  170.356   73.267
  462.750    7.553    0.251    0.350  170.391   74.504
  463.000    7.709    0.263    0.354  168.406   75.121
  463.250    7.714    0.261    0.357  167.431   76.353
  463.500    8.015    0.256    0.360  166.456   76.980
  463.750    8.029    0.252    0.360  165.481   77.006
  464.000    8.188    0.258    0.361  164.506   76.415
  464.250    8.511    0.268    0.364  164.540   76.441
  464.500    8.675    0.268    0.369  162.573   77.068
  464.750    8.850    0.090    0.378  162.599   78.300
  465.000    9.020    0.035    0.372  161.633   78.932
  465.250    9.032    0.012    0.329  160.658   79.559
  465.500    8.718   -0.002    0.294  160.684   83.210
  465.750    8.733    0.041    0.303  160.727   93.529
  466.000    9.074    0.069    0.330  160.753  106.878
  466.250    9.426    0.089    0.361  160.796  109.322
  466.500    9.788    0.117    0.377  160.839   84.504
  466.750   10.167    0.165    0.360  161.867   79.073
  467.000   10.180    0.203    0.345  162.920   69.400
  467.250   10.012    0.239    0.325  163.964   63.969
