~VERSION INFORMATION
 VERS.                 2.0:   CWLS LOG ASCII STANDARD -VERSION 2.0
 WRAP.                  NO:   ONE LINE PER DEPTH STEP
~WELL INFORMATION BLOCK
#MNEM.UNIT           DATA                    DESCRIPTION OF MNEMONIC
#---------    -------------------            -------------------------------
# Generated from Intellog Unique Number	CS_67_68/WELL/641
WELL.         AEC FISH CREEK                 : Well_name    - WELL
LOC .         00/05-29-068-07W4/0            : Location     - LOCATION
UWI .         00/05-29-068-07W4/0            : Uwi          - UNIQUE WELL ID
ENTR.         SP                             : Entered      - ENTERED BY
SRVC.         SCHLUMBERGER                   : Scn          - SERVICE COMPANY
STRT.M        290                            : top_depth    - START DEPTH
STOP.M        530                            : bot_depth    - STOP DEPTH
STEP.M        0.25                           : increment    - STEP LENGTH
 NULL. -999.2500:NULL Value
~CURVE INFORMATION BLOCK
#MNEM UNIT       ERCB CURVE CODE    CURVE DESCRIPTION
#-----------   ------------------   ----------------------------------
DEPT.M        00 001 00 00         : DEPTH        - DEPTH
ILD .OHMM     00 120 00 00         : RESD         - DEEP RESISTIVITY (DIL)
DPHI.V/V      00 890 00 00         : PHID         - DENSITY POROSITY (LIMESTONE)
NPHI.V/V      00 330 00 00         : PHIN         - NEUTRON POROSITY (LIMESTONE)
GR  .API      00 310 00 00         : GR           - GAMMA RAY
~PARAMETER INFORMATION
#MNEM.UNIT           DATA             DESCRIPTION OF MNEMONIC
#---------         -----------     ------------------------------
GL  .M        628.32               : gl           - GROUND LEVEL ELEVATION
EREF.M        631.9                : kb           - ELEVATION OF DEPTH REFERENCE
DATM.M        628.32               : datum        - DATUM ELEVATION
TDD .M        539                  : tdd          - TOTAL DEPTH DRILLER
RUN .         ONE                  : Run          - RUN NUMBER
ENG .         BILL                 : Engineer     - RECORDING ENGINEER
WIT .         JIM                  : Witness      - WITNESSED BY
MUD .         GEL                  : Mud_type     - MUD TYPE
MATR.         LIMESTONE            : Logunit      - NEUTRON MATRIX
TMAX.C        23                   : BHT          - MAXIMUM RECORDED TEMPERATURE
BHTD.M        539                  : BHTDEP       - MAXIMUM RECORDED TEMPERATURE
MATR.         1                    : LOGUNIT      - NEUTRON MATRIX
RMT .C        25                   : MDTP         - TEMPERATURE OF MUD
NEUT.         1                    : NEUTRON      - NEUTRON TYPE
RESI.         0                    : RESIST       - RESISTIVITY TYPE
RMC .OHMM     0.25                 : RMC          - RESISTIVITY OF MUD CAKE
RMF .OHMM     0.25                 : RMF          - RESISTIVITY OF MUD FILTRATE
SUFT.C        15                   : SUFT         - SURFACE TEMPERATURE
~A  DEPTH     RESD     PHID     PHIN       GR
# ...
  333.500    5.177    0.257    0.463  102.300
  333.750    5.141    0.252    0.472  107.991
  334.000    5.096    0.248    0.491  111.950
  334.250    5.013    0.243    0.498  115.730
  334.500    4.923    0.240    0.480  117.163
  334.750    4.807    0.251    0.475  116.873
  335.000    4.738    0.270    0.470  118.557
  335.250    4.670    0.290    0.464  117.465
  335.500    4.638    0.287    0.461  121.122
  335.750    4.650    0.275    0.463  125.944
  336.000    4.750    0.273    0.454  127.994
  336.250    4.917    0.270    0.452  117.909
  336.500    5.128    0.271    0.444  113.487
  336.750    5.288    0.277    0.424  108.456
  337.000    5.382    0.283    0.411  106.005
  337.250    5.446    0.272    0.419  114.036
  337.500    5.471    0.269    0.406  120.831
  337.750    5.474    0.271    0.397  115.489
  338.000    5.437    0.277    0.423  116.491
  338.250    5.399    0.274    0.445  111.764
  338.500    5.372    0.265    0.465  103.402
  338.750    5.366    0.275    0.478   98.427
  339.000    5.368    0.294    0.477  102.327
  339.250    5.352    0.298    0.470  107.461
  339.500    5.295    0.288    0.472  109.512
  339.750    5.239    0.282    0.465  116.806
  340.000    5.145    0.281    0.458  121.630
  340.250    5.090    0.287    0.454  125.224
  340.500    5.026    0.287    0.457  126.224
  340.750    4.964    0.276    0.469  125.565
  341.000    4.921    0.271    0.460  123.488
  341.250    4.896    0.272    0.465  120.363
  341.500    4.890    0.280    0.479  118.284
  341.750    4.921    0.298    0.488  114.113
  342.000    4.896    0.311    0.480  105.502
  342.250    4.899    0.327    0.459   92.640
  342.500    4.893    0.348    0.450   85.942
  342.750    4.869    0.355    0.454   82.015
  343.000    4.881    0.343    0.441   84.132
  343.250    4.939    0.330    0.419   89.016
  343.500    5.000    0.314    0.428   95.323
  343.750    5.011    0.303    0.451   98.481
  344.000    5.024    0.314    0.459   96.403
  344.250    5.027    0.311    0.465   92.476
  344.500    5.040    0.285    0.473   96.438
  344.750    5.071    0.258    0.464   99.969
  345.000    5.046    0.244    0.470   96.598
  345.250    4.983    0.282    0.473   91.007
  345.500    4.921    0.304    0.461  100.641
  345.750    4.851    0.307    0.451  106.820
  346.000    4.781    0.309    0.458  109.304
  346.250    4.722    0.321    0.473  102.420
  346.500    4.663    0.331    0.459   96.829
  346.750    4.631    0.334    0.449   90.685
  347.000    4.608    0.332    0.467   87.806
  347.250    4.585    0.331    0.479   85.853
  347.500    4.579    0.330    0.477   81.925
  347.750    4.608    0.326    0.477   83.608
  348.000    4.797    0.325    0.467   87.757
  348.250    4.928    0.330    0.443   92.088
  348.500    4.978    0.332    0.466   96.299
  348.750    5.047    0.334    0.487   96.499
  349.000    5.088    0.336    0.488   89.060
  349.250    5.101    0.338    0.457   88.277
  349.500    5.114    0.341    0.461   89.342
  349.750    5.107    0.343    0.481   89.361
  350.000    5.081    0.345    0.487   90.243
  350.250    4.999    0.342    0.479   89.766
  350.500    4.910    0.336    0.466   85.348
  350.750    4.839    0.330    0.454   80.743
  351.000    4.779    0.324    0.457   83.719
  351.250    4.675    0.321    0.457   88.175
  351.500    4.599    0.335    0.456   92.508
  351.750    4.543    0.344    0.456   94.558
  352.000    4.478    0.344    0.461   93.777
  352.250    4.471    0.341    0.469   91.575
  352.500    4.491    0.341    0.469   91.039
  352.750    4.512    0.341    0.462   89.642
  353.000    4.556    0.338    0.454   89.164
  353.250    4.594    0.327    0.452   92.573
  353.500    4.623    0.320    0.454   95.608
  353.750    4.678    0.315    0.464   90.944
  354.000    4.708    0.314    0.465   86.037
  354.250    4.738    0.312    0.452   84.385
  354.500    4.732    0.309    0.449   82.433
  354.750    4.702    0.308    0.450   81.832
  355.000    4.685    0.319    0.450   85.550
  355.250    4.672    0.328    0.451   88.834
  355.500    4.682    0.338    0.455   90.823
  355.750    4.693    0.345    0.469   91.088
  356.000    4.732    0.347    0.467   92.216
  356.250    4.808    0.349    0.462   93.095
  356.500    4.846    0.349    0.459   87.875
  356.750    5.017    0.350    0.460   86.229
  357.000    5.173    0.351    0.460   87.607
  357.250    5.314    0.350    0.461   88.854
  357.500    5.450    0.347    0.462   89.925
  357.750    5.548    0.348    0.461   89.568
  358.000    5.602    0.351    0.456   88.292
  358.250    5.755    0.355    0.447   86.338
  358.500    5.979    0.358    0.449   82.720
  358.750    6.155    0.353    0.457   81.383
  359.000    6.264    0.348    0.440   78.134
  359.250    6.351    0.336    0.390   74.270
  359.500    6.463    0.259    0.303   77.308
  359.750    6.715    0.209    0.239   80.411
  360.000    7.467    0.184    0.200   80.918
  360.250    8.162    0.024    0.161   71.015
  360.500    8.789   -0.015    0.248   65.423
  360.750    8.828    0.084    0.318   61.990
  361.000    7.905    0.178    0.361   61.330
  361.250    7.547    0.328    0.417   66.895
  361.500    6.822    0.336    0.440   75.850
  361.750    5.939    0.328    0.442   80.058
  362.000    5.248    0.324    0.443   83.590
  362.250    5.115    0.324    0.444   87.676
  362.500    5.061    0.323    0.447   81.097
  362.750    5.045    0.323    0.450   80.870
  363.000    5.011    0.323    0.444   84.339
  363.250    4.995    0.324    0.448   86.144
  363.500    5.018    0.325    0.446   86.041
  363.750    5.039    0.328    0.442   85.380
  364.000    5.061    0.329    0.436   83.548
  364.250    5.026    0.329    0.438   80.053
  364.500    5.029    0.328    0.450   77.236
  364.750    5.052    0.325    0.444   78.800
  365.000    5.017    0.321    0.444   80.046
  365.250    5.010    0.322    0.451   82.963
  365.500    5.054    0.327    0.460   85.198
  365.750    5.094    0.315    0.453   86.633
  366.000    5.116    0.307    0.447   84.000
  366.250    5.109    0.304    0.453   75.699
  366.500    5.018    0.321    0.460   72.265
  366.750    4.890    0.333    0.459   71.913
  367.000    4.802    0.340    0.459   86.229
  367.250    4.715    0.340    0.460   83.782
  367.500    4.621    0.335    0.474   78.624
  367.750    4.572    0.329    0.469   82.833
  368.000    4.541    0.326    0.458   79.215
  368.250    4.527    0.331    0.449   73.317
  368.500    4.522    0.339    0.443   75.862
  368.750    4.549    0.344    0.439   79.270
  369.000    4.587    0.343    0.438   77.992
  369.250    4.616    0.341    0.436   75.977
  369.500    4.645    0.336    0.425   74.700
  369.750    4.648    0.335    0.419   74.287
  370.000    4.677    0.336    0.436   75.168
  370.250    4.707    0.347    0.458   78.452
  370.500    4.736    0.358    0.454   78.286
  370.750    4.775    0.344    0.443   81.077
  371.000    4.806    0.324    0.434   87.014
  371.250    4.835    0.313    0.434   93.627
  371.500    4.839    0.306    0.446   99.374
  371.750    4.833    0.298    0.438  104.323
  372.000    4.818    0.284    0.427  107.544
  372.250    4.811    0.273    0.417  109.227
  372.500    4.788    0.265    0.428  110.171
  372.750    4.757    0.260    0.442  113.823
  373.000    4.724    0.267    0.451  117.415
  373.250    4.699    0.273    0.448  110.164
  373.500    4.666    0.275    0.438  106.112
  373.750    4.582    0.275    0.426  104.591
  374.000    4.415    0.266    0.419  104.792
  374.250    4.231    0.260    0.428  102.962
  374.500    4.017    0.264    0.441   99.158
  374.750    3.763    0.269    0.449   94.987
  375.000    3.408    0.276    0.450   94.697
  375.250    3.063    0.293    0.465   98.905
  375.500    2.672    0.319    0.504  104.100
  375.750    2.498    0.328    0.536  107.445
  376.000    2.275    0.321    0.510  113.689
  376.250    2.140    0.318    0.512  120.608
  376.500    2.054    0.323    0.517  114.710
  376.750    2.279    0.333    0.505   96.240
