~VERSION INFORMATION
 VERS.                 2.0:   CWLS LOG ASCII STANDARD -VERSION 2.0
 WRAP.                  NO:   ONE LINE PER DEPTH STEP
~WELL INFORMATION BLOCK
#MNEM.UNIT           DATA                    DESCRIPTION OF MNEMONIC
#---------    -------------------            -------------------------------
# Generated from Intellog Unique Number	CW_73_75/WELL/3523
WELL.         08-16-075-05W5                 : Well_name    - WELL
LOC .         00/08-16-075-05W5/0            : Location     - LOCATION
UWI .         00/08-16-075-05W5/0            : Uwi          - UNIQUE WELL ID
ENTR.         JOETTE                         : Entered      - ENTERED BY
SRVC.         SCHLUMBERGER                   : Scn          - SERVICE COMPANY
DATE.         05/25/92                       : Date         - LOG DATE
STRT.M        675                            : top_depth    - START DEPTH
STOP.M        925                            : bot_depth    - STOP DEPTH
STEP.M        0.25                           : increment    - STEP LENGTH
 NULL. -999.2500:NULL Value
~CURVE INFORMATION BLOCK
#MNEM UNIT       ERCB CURVE CODE    CURVE DESCRIPTION
#-----------   ------------------   ----------------------------------
DEPT.M        00 001 00 00         : DEPTH        - DEPTH
NPHI.V/V      00 330 00 00         : PHIN         - NEUTRON POROSITY (SANDSTONE)
GR  .API      00 310 00 00         : GR           - GAMMA RAY
DPHI.V/V      00 890 00 00         : PHID         - DENSITY POROSITY (SANDSTONE)
ILD .OHMM     00 120 00 00         : RESD         - DEEP RESISTIVITY (DIL)
~PARAMETER INFORMATION
#MNEM.UNIT           DATA             DESCRIPTION OF MNEMONIC
#---------         -----------     ------------------------------
GL  .M        964.66               : gl           - GROUND LEVEL ELEVATION
EREF.M        968.35               : kb           - ELEVATION OF DEPTH REFERENCE
DATM.M        968.35               : datum        - DATUM ELEVATION
TDD .M        1221.6               : tdd          - TOTAL DEPTH DRILLER
RUN .         ONE                  : Run          - RUN NUMBER
ENG .         BILL                 : Engineer     - RECORDING ENGINEER
WIT .         JIM                  : Witness      - WITNESSED BY
MUD .         GEL                  : Mud_type     - MUD TYPE
MATR.         SANDSTONE            : Logunit      - NEUTRON MATRIX
TMAX.C        49                   : BHT          - MAXIMUM RECORDED TEMPERATURE
BHTD.M        1221.8               : BHTDEP       - MAXIMUM RECORDED TEMPERATURE
RMT .C        19                   : MDTP         - TEMPERATURE OF MUD
MUDD.KG/M     1080                 : MWT          - MUD DENSITY
NEUT.         1                    : NEUTRON      - NEUTRON TYPE
RESI.         0                    : RESIST       - RESISTIVITY TYPE
RM  .OHMM     1.9                  : RM           - RESISTIVITY OF MUD
RMC .OHMM     2.1                  : RMC          - RESISTIVITY OF MUD CAKE
RMF .OHMM     4.3                  : RMF          - RESISTIVITY OF MUD FILTRATE
SUFT.C        4                    : SUFT         - SURFACE TEMPERATURE
~A  DEPTH     PHIN       GR     PHID     RESD
# ...
  762.000    0.483   40.025    0.393    4.091
  762.250    0.489   41.174    0.399    4.009
  762.500    0.489   42.322    0.395    3.926
  762.750    0.484   43.471    0.390    3.913
  763.000    0.481   48.750    0.386    3.909
  763.250    0.477   51.089    0.381    3.901
  763.500    0.476   51.647    0.376    3.963
  763.750    0.475   49.839    0.362    4.032
  764.000    0.472   51.570    0.352    4.255
  764.250    0.472   53.909    0.344    4.324
  764.500    0.473   56.240    0.346    4.396
  764.750    0.479   57.380    0.377    4.389
  765.000    0.499   58.529    0.387    4.138
  765.250    0.531   60.269    0.391    3.904
  765.500    0.579   62.599    0.315    3.415
  765.750    0.579   64.930    0.297    3.223
  766.000    0.580   66.679    0.282    2.983
  766.250    0.581   68.418    0.271    2.709
  766.500    0.582   70.150    0.261    2.507
  766.750    0.583   71.889    0.287    2.457
  767.000    0.588   72.447    0.288    2.451
  767.250    0.602   72.404    0.286    2.447
  767.500    0.636   71.796    0.283    2.486
  767.750    0.634   71.762    0.279    2.574
  768.000    0.606   71.719    0.275    2.667
  768.250    0.598   71.102    0.309    2.712
  768.500    0.574   66.929    0.315    2.811
  768.750    0.566   61.565    0.293    2.909
  769.000    0.533   63.896    0.307    3.015
  769.250    0.565   67.992    0.312    3.125
  769.500    0.555   67.958    0.300    3.297
  769.750    0.530   64.385    0.271    3.417
  770.000    0.507   64.934    0.268    3.673
  770.250    0.499   66.091    0.259    3.874
  770.500    0.493   67.239    0.265    3.870
  770.750    0.494   67.796    0.283    3.859
  771.000    0.507   68.945    0.284    3.778
  771.250    0.512   71.276    0.277    3.774
  771.500    0.511   75.372    0.270    3.627
  771.750    0.507   76.529    0.262    3.486
  772.000    0.502   77.086    0.258    3.477
  772.250    0.497   73.505    0.253    3.471
  772.500    0.494   68.141    0.252    3.462
  772.750    0.492   65.159    0.252    3.521
  773.000    0.487   62.160    0.261    3.578
  773.250    0.485   60.352    0.263    3.572
  773.500    0.475   61.500    0.259    3.563
  773.750    0.472   66.188    0.250    3.553
  774.000    0.478   68.527    0.252    3.545
  774.250    0.496   71.458    0.253    3.474
  774.500    0.507   72.607    0.251    3.337
  774.750    0.520   67.834    0.277    3.270
  775.000    0.530   64.843    0.288    3.026
  775.250    0.533   63.627    0.284    2.854
  775.500    0.522   61.219    0.282    2.694
  775.750    0.511   57.054    0.330    2.542
  776.000    0.495   44.604    0.347    2.489
  776.250    0.480   45.144    0.343    2.624
  776.500    0.473   46.875    0.335    2.933
  776.750    0.478   47.441    0.332    3.803
  777.000    0.476   47.998    0.333    4.663
  777.250    0.474   47.955    0.340    4.921
  777.500    0.474   47.938    0.344    4.472
  777.750    0.478   47.904    0.344    4.377
  778.000    0.483   47.870    0.343    4.368
  778.250    0.483   47.245    0.341    4.356
  778.500    0.479   47.202    0.342    4.431
  778.750    0.477   50.124    0.348    4.424
  779.000    0.472   49.508    0.351    4.498
  779.250    0.469   44.735    0.354    4.742
  779.500    0.480   44.709    0.358    4.915
  779.750    0.483   45.258    0.356    5.091
  780.000    0.483   45.215    0.353    5.277
  780.250    0.483   44.607    0.347    5.265
  780.500    0.485   41.616    0.346    5.353
  780.750    0.488   39.800    0.346    5.240
  781.000    0.491   40.940    0.348    5.134
  781.250    0.490   43.862    0.354    4.929
  781.500    0.490   45.602    0.355    4.830
  781.750    0.491   46.159    0.351    4.643
  782.000    0.495   46.716    0.345    4.377
  782.250    0.498   47.274    0.339    4.205
  782.500    0.496   45.466    0.329    4.122
  782.750    0.495   43.075    0.336    4.037
  783.000    0.493   43.632    0.347    3.954
  783.250    0.493   44.181    0.348    3.945
  783.500    0.493   45.921    0.349    3.937
  783.750    0.494   47.069    0.347    3.928
  784.000    0.487   47.044    0.345    3.917
  784.250    0.485   46.418    0.344    3.909
  784.500    0.485   45.202    0.345    3.903
  784.750    0.488   48.107    0.351    3.963
  785.000    0.499   49.272    0.356    3.957
  785.250    0.509   51.012    0.358    4.019
  785.500    0.511   52.152    0.357    4.012
  785.750    0.505   52.126    0.349    4.012
  786.000    0.502   48.536    0.342    3.919
  786.250    0.496   47.319    0.337    3.910
  786.500    0.494   47.294    0.341    3.833
  786.750    0.494   49.034    0.353    3.754
  787.000    0.494   51.947    0.364    3.606
  787.250    0.494   54.278    0.358    3.466
  787.500    0.492   56.618    0.351    3.330
  787.750    0.488   53.028    0.342    3.263
  788.000    0.488   48.846    0.352    3.256
  788.250    0.494   50.003    0.360    3.310
  788.500    0.498   52.925    0.355    3.242
  788.750    0.494   58.213    0.349    3.116
  789.000    0.487   61.726    0.338    3.051
  789.250    0.479   61.692    0.331    3.159
  789.500    0.469   55.745    0.325    3.334
  789.750    0.457   50.981    0.312    3.392
  790.000    0.449   45.034    0.298    3.447
  790.250    0.479   42.635    0.298    3.439
  790.500    0.486   44.358    0.320    3.366
  790.750    0.486   46.115    0.336    3.298
  791.000    0.483   50.811    0.335    3.230
  791.250    0.479   54.916    0.324    3.164
  791.500    0.476   59.020    0.304    3.100
  791.750    0.467   61.343    0.286    3.093
  792.000    0.461   62.491    0.270    3.083
  792.250    0.469   61.275    0.244    3.080
  792.500    0.480   63.023    0.241    3.129
  792.750    0.487   68.893    0.239    3.183
  793.000    0.495   70.641    0.229    3.235
  793.250    0.515   69.425    0.221    3.228
  793.500    0.528   65.252    0.225    3.101
  793.750    0.557   65.192    0.260    3.038
  794.000    0.572   65.766    0.285    2.811
  794.250    0.555   62.759    0.336    2.651
  794.500    0.533   60.368    0.343    2.599
  794.750    0.497   59.160    0.341    2.545
  795.000    0.486   56.761    0.342    2.636
  795.250    0.489   53.171    0.353    2.834
  795.500    0.493   53.128    0.364    2.827
  795.750    0.495   53.111    0.358    2.718
  796.000    0.490   54.251    0.340    2.424
  796.250    0.493   55.982    0.299    2.043
  796.500    0.497   56.556    0.272    1.629
  796.750    0.501   58.296    0.257    1.250
  797.000    0.506   60.627    0.246    0.842
  797.250    0.509   65.315    0.244    0.809
  797.500    0.515   68.828    0.238    0.669
  797.750    0.517   67.612    0.231    0.597
  798.000    0.519   64.038    0.236    0.503
  798.250    0.528   64.004    0.256    0.393
  798.500    0.543   66.335    0.251    0.371
  798.750    0.543   66.893    0.255    0.384
  799.000    0.551   67.441    0.250    0.437
  799.250    0.531   69.172    0.230    0.557
  799.500    0.513   69.147    0.222    0.956
  799.750    0.516   65.557    0.237    1.441
  800.000    0.514   66.714    0.240    2.341
  800.250    0.505   71.401    0.245    2.870
  800.500    0.494   70.193    0.246    3.265
  800.750    0.484   68.385    0.234    3.446
  801.000    0.481   65.986    0.233    3.251
  801.250    0.483   67.135    0.238    3.243
  801.500    0.486   68.283    0.249    3.236
  801.750    0.493   68.840    0.255    3.287
  802.000    0.505   68.806    0.251    3.342
  802.250    0.516   69.363    0.249    3.401
  802.500    0.511   69.920    0.253    3.521
  802.750    0.504   69.295    0.259    3.582
  803.000    0.498   63.931    0.268    3.779
  803.250    0.494   61.532    0.294    3.914
  803.500    0.491   59.133    0.307    4.053
  803.750    0.485   57.325    0.258    4.122
  804.000    0.483   60.247    0.231    4.270
  804.250    0.477   64.352    0.237    4.421
  804.500    0.476   68.457    0.248    4.414
  804.750    0.482   65.466    0.266    4.485
  805.000    0.479   62.476    0.309    4.476
  805.250    0.475   53.572    0.316    4.381
