~VERSION INFORMATION
 VERS.                 2.0:   CWLS LOG ASCII STANDARD -VERSION 2.0
 WRAP.                  NO:   ONE LINE PER DEPTH STEP
~WELL INFORMATION BLOCK
#MNEM.UNIT           DATA                    DESCRIPTION OF MNEMONIC
#---------    -------------------            -------------------------------
# Generated from Intellog Unique Number	CS_71_72/WELL/844
WELL.         AEC IPIATIK KIRBY              : Well_name    - WELL
LOC .         00/09-24-071-06W4/0            : Location     - LOCATION
UWI .         00/09-24-071-06W4/0            : Uwi          - UNIQUE WELL ID
ENTR.         SP                             : Entered      - ENTERED BY
SRVC.         SCHLUMBERGER                   : Scn          - SERVICE COMPANY
STRT.M        315                            : top_depth    - START DEPTH
STOP.M        550                            : bot_depth    - STOP DEPTH
STEP.M        0.25                           : increment    - STEP LENGTH
 NULL. -999.2500:NULL Value
~CURVE INFORMATION BLOCK
#MNEM UNIT       ERCB CURVE CODE    CURVE DESCRIPTION
#-----------   ------------------   ----------------------------------
DEPT.M        00 001 00 00         : DEPTH        - DEPTH
ILD .OHMM     00 120 00 00         : RESD         - DEEP RESISTIVITY (DIL)
DPHI.V/V      00 890 00 00         : PHID         - DENSITY POROSITY (LIMESTONE)
NPHI.V/V      00 330 00 00         : PHIN         - NEUTRON POROSITY (LIMESTONE)
GR  .API      00 310 00 00         : GR           - GAMMA RAY
~PARAMETER INFORMATION
#MNEM.UNIT           DATA             DESCRIPTION OF MNEMONIC
#---------         -----------     ------------------------------
GL  .M        676.91               : gl           - GROUND LEVEL ELEVATION
EREF.M        681.65               : kb           - ELEVATION OF DEPTH REFERENCE
DATM.M        676.91               : datum        - DATUM ELEVATION
TDD .M        572                  : tdd          - TOTAL DEPTH DRILLER
RUN .         ONE                  : Run          - RUN NUMBER
ENG .         BILL                 : Engineer     - RECORDING ENGINEER
WIT .         JIM                  : Witness      - WITNESSED BY
MUD .         GEL                  : Mud_type     - MUD TYPE
MATR.         LIMESTONE            : Logunit      - NEUTRON MATRIX
TMAX.C        15                   : BHT          - MAXIMUM RECORDED TEMPERATURE
BHTD.M        572                  : BHTDEP       - MAXIMUM RECORDED TEMPERATURE
MATR.         1                    : LOGUNIT      - NEUTRON MATRIX
RMT .C        25                   : MDTP         - TEMPERATURE OF MUD
NEUT.         1                    : NEUTRON      - NEUTRON TYPE
RESI.         0                    : RESIST       - RESISTIVITY TYPE
RMC .OHMM     0.25                 : RMC          - RESISTIVITY OF MUD CAKE
RMF .OHMM     0.25                 : RMF          - RESISTIVITY OF MUD FILTRATE
SUFT.C        15                   : SUFT         - SURFACE TEMPERATURE
~A  DEPTH     RESD     PHID     PHIN       GR
# ...
  402.000    5.067    0.243    0.459   85.432
  402.250    5.108    0.263    0.449   82.712
  402.500    5.226    0.274    0.464   77.871
  402.750    5.562    0.277    0.472   74.239
  403.000    5.998    0.285    0.456   69.640
  403.250    6.324    0.301    0.440   67.102
  403.500    6.832    0.322    0.434   65.962
  403.750    7.284    0.330    0.432   66.764
  404.000    7.796    0.322    0.429   70.177
  404.250    8.159    0.323    0.438   68.188
  404.500    8.427    0.329    0.450   66.138
  404.750    8.448    0.331    0.451   64.147
  405.000    8.358    0.333    0.435   62.217
  405.250    8.299    0.339    0.426   63.020
  405.500    8.242    0.330    0.428   64.307
  405.750    8.170    0.321    0.437   64.927
  406.000    8.114    0.319    0.451   63.304
  406.250    8.117    0.321    0.448   62.282
  406.500    8.384    0.324    0.449   62.721
  406.750    8.357    0.326    0.463   66.437
  407.000    8.160    0.323    0.461   71.065
  407.250    7.850    0.309    0.452   73.140
  407.500    7.426    0.288    0.450   79.469
  407.750    7.010    0.259    0.450   83.972
  408.000    6.364    0.234    0.468   88.538
  408.250    5.964    0.243    0.487   84.123
  408.500    5.578    0.269    0.509   81.826
  408.750    5.149    0.284    0.512   85.785
  409.000    4.861    0.268    0.488   92.415
  409.250    4.598    0.254    0.499   99.411
  409.500    4.317    0.249    0.513  104.522
  409.750    4.091    0.250    0.517  108.602
  410.000    3.885    0.247    0.523  111.651
  410.250    3.681    0.238    0.519  111.302
  410.500    3.515    0.229    0.511  108.157
  410.750    3.349    0.237    0.527  105.863
  411.000    3.216    0.254    0.552  105.390
  411.250    3.123    0.256    0.566  106.496
  411.500    3.038    0.251    0.586  107.298
  411.750    2.995    0.249    0.560  105.915
  412.000    2.990    0.256    0.551  106.844
  412.250    3.020    0.257    0.589  108.675
  412.500    3.039    0.245    0.566  111.175
  412.750    3.023    0.236    0.550  114.469
  413.000    2.986    0.241    0.555  113.327
  413.250    2.965    0.254    0.552  111.033
  413.500    3.022    0.250    0.545  107.346
  413.750    3.151    0.237    0.540  103.655
  414.000    3.411    0.233    0.519   98.629
  414.250    4.092    0.242    0.488   94.391
  414.500    4.854    0.239    0.454   89.305
  414.750    5.662    0.229    0.449   84.159
  415.000    6.279    0.225    0.464   83.079
  415.250    6.671    0.234    0.473   84.427
  415.500    6.813    0.242    0.484   85.168
  415.750    6.628    0.251    0.464   84.999
  416.000    6.594    0.259    0.459   86.774
  416.250    6.660    0.257    0.467   90.793
  416.500    6.726    0.253    0.462   86.010
  416.750    6.754    0.252    0.461   81.593
  417.000    6.683    0.243    0.464   83.122
  417.250    6.538    0.232    0.450   87.265
  417.500    6.313    0.229    0.440   89.462
  417.750    6.084    0.228    0.440   90.386
  418.000    5.853    0.219    0.444   91.310
  418.250    5.790    0.213    0.448   93.632
  418.500    5.804    0.209    0.455   95.282
  418.750    5.796    0.207    0.455   92.929
  419.000    5.767    0.208    0.453   89.543
  419.250    5.642    0.211    0.444   89.068
  419.500    5.540    0.206    0.459   90.781
  419.750    5.290    0.199    0.472   93.467
  420.000    5.013    0.218    0.485   96.150
  420.250    4.715    0.241    0.508   96.345
  420.500    4.312    0.245    0.523   94.719
  420.750    3.820    0.245    0.498   94.430
  421.000    3.442    0.241    0.477   96.325
  421.250    3.178    0.234    0.465   99.737
  421.500    3.000    0.226    0.471  102.603
  421.750    2.864    0.218    0.488  103.587
  422.000    2.823    0.212    0.487  103.903
  422.250    2.851    0.222    0.482  102.763
  422.500    2.934    0.223    0.496   99.863
  422.750    3.053    0.213    0.510   97.083
  423.000    3.159    0.226    0.534   97.221
  423.250    3.251    0.239    0.552   98.324
  423.500    3.302    0.250    0.554  102.951
  423.750    3.267    0.262    0.536  105.696
  424.000    3.202    0.268    0.521  105.951
  424.250    3.198    0.260    0.535  104.206
  424.500    3.372    0.254    0.544  102.640
  424.750    3.595    0.253    0.527   99.860
  425.000    3.869    0.241    0.501   95.564
  425.250    4.243    0.226    0.470   91.570
  425.500    4.576    0.218    0.451   88.246
  425.750    4.878    0.235    0.473   85.587
  426.000    5.124    0.251    0.487   83.476
  426.250    5.195    0.238    0.477   84.458
  426.500    5.159    0.213    0.473   87.874
  426.750    5.066    0.229    0.482   89.891
  427.000    4.937    0.251    0.494   90.872
  427.250    4.601    0.269    0.512   91.189
  427.500    4.384    0.286    0.529   91.323
  427.750    4.371    0.303    0.524   87.878
  428.000    4.514    0.308    0.504   82.670
  428.250    4.769    0.300    0.493   77.279
  428.500    4.981    0.305    0.479   78.447
  428.750    5.232    0.299    0.464   82.891
  429.000    5.485    0.284    0.480   84.847
  429.250    5.437    0.294    0.488   83.766
  429.500    5.722    0.289    0.480   80.198
  429.750    5.910    0.289    0.485   77.297
  430.000    6.025    0.296    0.498   77.188
  430.250    5.961    0.302    0.511   79.510
  430.500    5.766    0.304    0.513   80.374
  430.750    5.506    0.315    0.496   80.384
  431.000    5.387    0.326    0.486   80.459
  431.250    5.359    0.324    0.484   80.171
  431.500    5.362    0.317    0.480   79.635
  431.750    5.426    0.309    0.474   78.191
  432.000    5.439    0.302    0.463   71.953
  432.250    5.534    0.298    0.452   71.236
  432.500    5.599    0.312    0.445   73.375
  432.750    5.666    0.322    0.441   75.147
  433.000    5.711    0.313    0.448   73.947
  433.250    5.759    0.308    0.456   72.807
  433.500    5.771    0.299    0.461   75.309
  433.750    5.829    0.271    0.460   78.662
  434.000    5.853    0.244    0.450   80.251
  434.250    5.900    0.252    0.442   78.929
  434.500    5.961    0.257    0.432   78.093
  434.750    5.962    0.245    0.420   82.538
  435.000    5.976    0.261    0.438   85.707
  435.250    6.001    0.283    0.471   87.906
  435.500    6.106    0.271    0.473   89.315
  435.750    6.191    0.253    0.445   88.296
  436.000    6.276    0.241    0.424   86.852
  436.250    6.314    0.240    0.425   89.295
  436.500    6.294    0.248    0.439   90.219
  436.750    6.180    0.260    0.450   89.381
  437.000    5.923    0.253    0.458   88.848
  437.250    5.540    0.239    0.463   89.043
  437.500    5.058    0.240    0.482   87.721
  437.750    4.748    0.278    0.508   84.577
  438.000    4.334    0.303    0.511   88.051
  438.250    3.964    0.291    0.493   91.281
  438.500    3.278    0.281    0.503   94.936
  438.750    3.031    0.273    0.529   99.078
  439.000    2.690    0.276    0.555  103.219
  439.250    2.451    0.273    0.561  105.964
  439.500    2.336    0.266    0.550  103.609
  439.750    2.281    0.264    0.531   99.009
  440.000    2.240    0.268    0.520   99.811
  440.250    2.212    0.271    0.544  103.288
  440.500    2.213    0.273    0.557  104.573
  440.750    2.256    0.267    0.562  104.709
  441.000    2.339    0.256    0.558  101.138
  441.250    2.420    0.248    0.546   99.269
  441.500    2.509    0.243    0.542  102.683
  441.750    2.563    0.243    0.538  105.246
  442.000    2.627    0.245    0.530  104.044
  442.250    2.780    0.246    0.524   98.776
  442.500    3.032    0.238    0.510   95.147
  442.750    3.221    0.232    0.492   93.765
  443.000    3.479    0.241    0.474   92.623
  443.250    3.837    0.256    0.452   89.481
  443.500    4.385    0.272    0.443   85.243
  443.750    4.854    0.276    0.437   81.553
  444.000    5.214    0.264    0.432   81.751
  444.250    5.665    0.250    0.433   82.676
  444.500    5.928    0.234    0.432   82.564
  444.750    6.123    0.218    0.436   81.181
  445.000    6.195    0.216    0.437   83.502
  445.250    6.176    0.221    0.433   86.186
