~VERSION INFORMATION
 VERS.                 2.0:   CWLS LOG ASCII STANDARD -VERSION 2.0
 WRAP.                  NO:   ONE LINE PER DEPTH STEP
~WELL INFORMATION BLOCK
#MNEM.UNIT           DATA                    DESCRIPTION OF MNEMONIC
#---------    -------------------            -------------------------------
# Generated from Intellog Unique Number	CS_71_72/WELL/702
WELL.         PROVIDENT RESOURCES  LTD       : Well_name    - WELL
LOC .         00/06-03-071-17W4/0            : Location     - LOCATION
UWI .         00/06-03-071-17W4/0            : Uwi          - UNIQUE WELL ID
ENTR.         SP                             : Entered      - ENTERED BY
SRVC.         SCHLUMBERGER                   : Scn          - SERVICE COMPANY
STRT.M        277.368                        : top_depth    - START DEPTH
STOP.M        479.618                        : bot_depth    - STOP DEPTH
STEP.M        0.25                           : increment    - STEP LENGTH
 NULL. -999.2500:NULL Value
~CURVE INFORMATION BLOCK
#MNEM UNIT       ERCB CURVE CODE    CURVE DESCRIPTION
#-----------   ------------------   ----------------------------------
DEPT.M        00 001 00 00         : DEPTH        - DEPTH
GR  .API      00 310 00 00         : GR           - GAMMA RAY
DPHI.V/V      00 890 00 00         : PHID         - DENSITY POROSITY (SANDSTONE)
NPHI.V/V      00 330 00 00         : PHIN         - NEUTRON POROSITY (SANDSTONE)
ILD .OHMM     00 120 00 00         : RESD         - DEEP RESISTIVITY (DIL)
~PARAMETER INFORMATION
#MNEM.UNIT           DATA             DESCRIPTION OF MNEMONIC
#---------         -----------     ------------------------------
GL  .M        558.851              : gl           - GROUND LEVEL ELEVATION
EREF.M        562.356              : kb           - ELEVATION OF DEPTH REFERENCE
DATM.M        558.851              : datum        - DATUM ELEVATION
TDD .M        481.584              : tdd          - TOTAL DEPTH DRILLER
RUN .         ONE                  : Run          - RUN NUMBER
ENG .         BILL                 : Engineer     - RECORDING ENGINEER
WIT .         JIM                  : Witness      - WITNESSED BY
MUD .         GEL                  : Mud_type     - MUD TYPE
MATR.         SANDSTONE            : Logunit      - NEUTRON MATRIX
TMAX.C        23.3333              : BHT          - MAXIMUM RECORDED TEMPERATURE
BHTD.M        481.584              : BHTDEP       - MAXIMUM RECORDED TEMPERATURE
MATR.         1                    : LOGUNIT      - NEUTRON MATRIX
RMT .C        25                   : MDTP         - TEMPERATURE OF MUD
NEUT.         1                    : NEUTRON      - NEUTRON TYPE
RESI.         0                    : RESIST       - RESISTIVITY TYPE
RMC .OHMM     0.25                 : RMC          - RESISTIVITY OF MUD CAKE
RMF .OHMM     0.25                 : RMF          - RESISTIVITY OF MUD FILTRATE
SUFT.C        15                   : SUFT         - SURFACE TEMPERATURE
~A  DEPTH       GR     PHID     PHIN     RESD
# ...
  407.868   77.951    0.245    0.417    4.609
  408.118   79.260    0.251    0.419    4.650
  408.368   80.476    0.248    0.422    4.660
  408.618   82.317    0.232    0.427    4.622
  408.868   84.317    0.238    0.430    4.576
  409.118   84.940    0.226    0.425    4.462
  409.368   83.409    0.224    0.420    4.438
  409.618   81.294    0.233    0.425    4.371
  409.868   81.101    0.236    0.434    4.340
  410.118   81.131    0.231    0.438    4.294
  410.368   80.252    0.225    0.443    4.261
  410.618   79.358    0.217    0.440    4.246
  410.868   78.948    0.214    0.436    4.169
  411.118   79.879    0.219    0.426    4.097
  411.368   80.550    0.231    0.418    3.968
  411.618   83.101    0.238    0.417    3.661
  411.868   86.916    0.247    0.426    3.388
  412.118   92.422    0.257    0.438    3.104
  412.368   98.282    0.238    0.480    2.987
  412.618  101.200    0.228    0.507    2.928
  412.868  106.767    0.223    0.526    2.910
  413.118  109.588    0.220    0.544    2.924
  413.368  111.598    0.222    0.533    2.934
  413.618  110.276    0.233    0.511    2.937
  413.868  110.794    0.217    0.518    2.941
  414.118  110.679    0.218    0.528    2.932
  414.368  109.186    0.224    0.526    2.915
  414.618  106.927    0.199    0.522    2.861
  414.868  107.163    0.197    0.517    2.998
  415.118  109.454    0.215    0.521    2.910
  415.368  112.275    0.222    0.531    2.930
  415.618  115.382    0.217    0.521    2.982
  415.868  117.461    0.215    0.510    3.083
  416.118  117.376    0.222    0.492    3.207
  416.368  114.827    0.219    0.483    3.351
  416.618  114.723    0.206    0.492    3.522
  416.868  115.354    0.198    0.489    3.685
  417.118  114.656    0.187    0.450    3.842
  417.368  110.268    0.175    0.432    3.987
  417.618  105.141    0.216    0.438    4.105
  417.868  100.193    0.218    0.445    4.161
  418.118   96.016    0.209    0.439    4.225
  418.368   90.306    0.198    0.420    4.246
  418.618   83.916    0.193    0.417    4.209
  418.868   79.614    0.202    0.411    4.202
  419.118   79.898    0.216    0.415    4.241
  419.368   89.231    0.231    0.417    4.314
  419.618  102.224    0.210    0.417    4.444
  419.868  106.099    0.195    0.423    4.619
  420.118  107.433    0.194    0.421    4.800
  420.368  107.877    0.191    0.410    5.042
  420.618  107.040    0.186    0.408    5.439
  420.868  104.569    0.179    0.409    6.006
  421.118   99.533    0.160    0.408    6.794
  421.368   94.293    0.140    0.399    7.537
  421.618   85.535    0.111    0.377    8.082
  421.868   76.832    0.066    0.349    8.113
  422.118   71.496    0.091    0.318    7.395
  422.368   76.541    0.137    0.337    6.612
  422.618   89.080    0.169    0.361    6.100
  422.868   95.058    0.198    0.393    5.700
  423.118   97.558    0.187    0.414    5.456
  423.368   99.012    0.177    0.400    5.373
  423.618   99.872    0.172    0.395    5.435
  423.868   99.044    0.176    0.397    5.527
  424.118   99.702    0.183    0.401    5.634
  424.368  101.525    0.179    0.408    5.738
  424.618  103.378    0.199    0.418    5.774
  424.868  104.188    0.185    0.421    5.783
  425.118  105.189    0.189    0.413    5.717
  425.368  105.066    0.189    0.407    5.649
  425.618  103.526    0.184    0.398    5.552
  425.868  103.418    0.186    0.390    5.528
  426.118  105.007    0.203    0.387    5.620
  426.368  106.501    0.199    0.395    5.497
  426.618  107.465    0.190    0.409    5.304
  426.868  106.747    0.186    0.420    5.064
  427.118  105.623    0.182    0.411    4.742
  427.368  106.815    0.188    0.403    4.480
  427.618  107.586    0.197    0.396    4.405
  427.868  104.769    0.207    0.393    4.541
  428.118  100.460    0.219    0.406    4.980
  428.368   95.673    0.195    0.415    5.793
  428.618   91.528    0.145    0.404    6.335
  428.868   89.340    0.102    0.391    6.383
  429.118   90.099    0.123    0.303    6.042
  429.368   94.956    0.142    0.320    5.440
  429.618   99.190    0.153    0.361    4.986
  429.868  101.229    0.170    0.405    4.517
  430.118  101.459    0.181    0.419    3.940
  430.368  101.537    0.187    0.417    3.488
  430.618  103.605    0.191    0.411    3.073
  430.868  106.999    0.194    0.415    2.752
  431.118  111.054    0.198    0.467    2.544
  431.368  112.659    0.207    0.489    2.498
  431.618  112.032    0.197    0.514    2.954
  431.868  109.266    0.139    0.515    4.250
  432.118  103.623    0.069    0.456    5.141
  432.368   97.743    0.062    0.352    5.707
  432.618   88.987    0.079    0.323    5.859
  432.868   80.342    0.115    0.335    5.716
  433.118   79.576    0.141    0.371    5.450
  433.368   85.349    0.152    0.397    5.280
  433.618   89.906    0.149    0.398    5.279
  433.868   91.724    0.139    0.397    5.451
  434.118   88.738    0.129    0.393    6.197
  434.368   91.983    0.146    0.391    7.457
  434.618   94.390    0.157    0.391    8.495
  434.868   95.352    0.139    0.398    9.168
  435.118   92.949    0.122    0.387    9.326
  435.368   89.489    0.099    0.358    9.263
  435.618   83.657    0.081    0.319    8.834
  435.868   81.765    0.096    0.308    7.752
  436.118   82.460    0.132    0.354    6.917
  436.368   85.929    0.156    0.375    6.079
  436.618   90.984    0.170    0.390    5.414
  436.868   94.282    0.156    0.381    5.065
  437.118   98.478    0.131    0.381    4.829
  437.368  101.935    0.120    0.393    4.780
  437.618  104.240    0.122    0.402    4.745
  437.868  105.224    0.104    0.413    4.616
  438.118  103.749    0.097    0.425    4.437
  438.368  102.422    0.100    0.438    4.205
  438.618  104.160    0.128    0.448    4.038
  438.868  106.786    0.139    0.458    3.997
  439.118  107.552    0.152    0.452    4.064
  439.368  107.367    0.164    0.443    4.192
  439.618  107.920    0.147    0.438    4.308
  439.868  109.573    0.142    0.441    4.453
  440.118  109.734    0.131    0.448    4.524
  440.368  103.599    0.122    0.456    4.546
  440.618   99.392    0.104    0.441    4.490
  440.868   97.726    0.095    0.422    4.353
  441.118   96.767    0.120    0.416    4.156
  441.368   97.051    0.141    0.429    4.023
  441.618  103.549    0.164    0.438    3.907
  441.868  109.852    0.164    0.454    3.837
  442.118  113.027    0.176    0.465    3.816
  442.368  112.761    0.177    0.472    3.852
  442.618  111.864    0.169    0.471    3.923
  442.868  111.377    0.156    0.457    4.037
  443.118  113.408    0.141    0.446    4.234
  443.368  112.587    0.126    0.447    4.368
  443.618  111.281    0.130    0.446    4.520
  443.868  110.324    0.145    0.440    4.576
  444.118  109.569    0.153    0.438    4.616
  444.368  107.784    0.162    0.433    4.537
  444.618  106.980    0.167    0.426    4.305
  444.868  110.609    0.164    0.422    4.100
  445.118  114.810    0.139    0.433    4.029
  445.368  116.266    0.107    0.444    4.198
  445.618  106.312    0.080    0.434    4.380
  445.868  103.339    0.092    0.413    4.472
  446.118  107.963    0.129    0.403    4.234
  446.368  113.703    0.161    0.420    3.765
  446.618  119.932    0.186    0.450    3.616
  446.868  126.157    0.188    0.463    3.832
  447.118  131.638    0.188    0.468    4.350
  447.368  134.850    0.179    0.486    4.797
  447.618  133.363    0.165    0.489    5.580
  447.868  124.716    0.157    0.472    6.795
  448.118  118.530    0.145    0.440    7.934
  448.368  110.463    0.136    0.411    9.023
  448.618  102.855    0.131    0.385   10.067
  448.868   92.901    0.142    0.368   10.681
  449.118   84.117    0.188    0.354   10.978
  449.368   84.365    0.220    0.360   11.031
  449.618   89.572    0.206    0.351   10.805
  449.868   96.823    0.188    0.348   10.008
  450.118  102.541    0.171    0.349    9.159
  450.368  109.793    0.168    0.342    8.314
  450.618  116.347    0.158    0.336    7.438
  450.868  122.786    0.147    0.342    6.855
  451.118  130.746    0.144    0.362    6.888
