~VERSION INFORMATION
 VERS.                 2.0:   CWLS LOG ASCII STANDARD -VERSION 2.0
 WRAP.                  NO:   ONE LINE PER DEPTH STEP
~WELL INFORMATION BLOCK
#MNEM.UNIT           DATA                    DESCRIPTION OF MNEMONIC
#---------    -------------------            -------------------------------
# Generated from Intellog Unique Number	CW_76_78/WELL/2798
WELL.         SCURRY MIN CROOKED 07-19       : Well_name    - WELL
LOC .         00/07-19-077-19W4/0            : Location     - LOCATION
UWI .         00/07-19-077-19W4/0            : Uwi          - UNIQUE WELL ID
ENTR.         JJ                             : Entered      - ENTERED BY
SRVC.         WESTERN ATLAS                  : Scn          - SERVICE COMPANY
DATE.         4 JAN 71                       : Date         - LOG DATE
STRT.M        304.8                          : top_depth    - START DEPTH
STOP.M        432.8                          : bot_depth    - STOP DEPTH
STEP.M        0.25                           : increment    - STEP LENGTH
 NULL. -999.2500:NULL Value
~CURVE INFORMATION BLOCK
#MNEM UNIT       ERCB CURVE CODE    CURVE DESCRIPTION
#-----------   ------------------   ----------------------------------
DEPT.M        00 001 00 00         : DEPTH        - DEPTH
DELT.US/F     00 520 00 00         : DELT         - SONIC TRAVEL TIME
GR  .API      00 310 00 00         : GR           - GAMMA RAY
CALI.MM       00 280 01 00         : CAL          - CALIPER
ILD .OHMM     00 120 00 00         : RESD         - DEEP RESISTIVITY (DIL)
~PARAMETER INFORMATION
#MNEM.UNIT           DATA             DESCRIPTION OF MNEMONIC
#---------         -----------     ------------------------------
GL  .M        562.356              : gl           - GROUND LEVEL ELEVATION
EREF.M        565.404              : kb           - ELEVATION OF DEPTH REFERENCE
DATM.M        562.356              : datum        - DATUM ELEVATION
TDD .M        542.849              : tdd          - TOTAL DEPTH DRILLER
RUN .         ONE                  : Run          - RUN NUMBER
ENG .         RICHER               : Engineer     - RECORDING ENGINEER
WIT .         MARTYNA              : Witness      - WITNESSED BY
BASE.         EDM                  : Branch       - HOME BASE OF LOGGING UNIT
MUD .         MUD                  : Mud_type     - MUD TYPE
MATR.         SANDSTONE            : Logunit      - NEUTRON MATRIX
TMAX.C        28.3333              : BHT          - MAXIMUM RECORDED TEMPERATURE
BHTD.M        543.458              : BHTDEP       - MAXIMUM RECORDED TEMPERATURE
RMT .C        20                   : MDTP         - TEMPERATURE OF MUD
MUDD.KG/M     1080                 : MWT          - MUD DENSITY
NEUT.         1                    : NEUTRON      - NEUTRON TYPE
RESI.         0                    : RESIST       - RESISTIVITY TYPE
RM  .OHMM     4.5                  : RM           - RESISTIVITY OF MUD
RMC .OHMM     4.8                  : RMC          - RESISTIVITY OF MUD CAKE
RMF .OHMM     4                    : RMF          - RESISTIVITY OF MUD FILTRATE
SUFT.C        5                    : SUFT         - SURFACE TEMPERATURE
~A  DEPTH     DELT       GR      CAL     RESD
# ...
  391.800  355.080   73.817  219.520    6.778
  392.050  362.963   79.810  218.354    5.896
  392.300  385.595   83.742  218.267    5.126
  392.550  407.221   84.998  218.792    4.921
  392.800  419.668   87.718  219.217    4.837
  393.050  431.374   88.228  218.978    4.934
  393.300  413.511   90.186  218.121    5.200
  393.550  416.507   93.666  216.212    5.753
  393.800  402.403   89.534  212.067    6.321
  394.050  401.305   85.553  208.520    7.495
  394.300  388.542   84.242  204.706    8.559
  394.550  346.215   84.238  204.462    9.358
  394.800  333.517   84.188  208.200   10.039
  395.050  321.959   74.365  214.389   10.129
  395.300  352.841   80.364  220.994    9.765
  395.550  390.290   88.224  226.754    8.683
  395.800  378.532   95.769  226.994    7.514
  396.050  374.014  107.160  227.946    6.983
  396.300  404.290  106.302  229.441    7.033
  396.550  428.262   98.184  230.154    7.291
  396.800  433.265  102.427  229.627    7.701
  397.050  385.709  104.935  227.702    8.445
  397.300  380.387  106.496  224.306    8.893
  397.550  369.096   98.590  223.548    9.390
  397.800  363.038   94.958  225.128    9.504
  398.050  381.114   94.105  228.011    9.125
  398.300  390.808   98.535  224.919    8.872
  398.550  389.775  103.576  223.964    8.668
  398.800  390.491  107.401  224.593    8.750
  399.050  403.873  109.517  213.939    9.008
  399.300  397.671  111.239  202.213    9.441
  399.550  390.011  113.045  196.452   10.097
  399.800  383.483  116.211  191.541   10.809
  400.050  399.612  118.477  187.926   11.497
  400.300  412.189   82.057  186.978   11.827
  400.550  405.125   56.620  186.756   11.685
  400.800  422.795   48.559  186.416   11.377
  401.050  376.510   49.928  186.669   11.309
  401.300  358.724   50.220  187.272   11.391
  401.550  347.838   49.161  188.245   11.458
  401.800  348.348   46.602  188.979   11.516
  402.050  385.796   46.944  189.614   11.503
  402.300  342.261   49.576  190.454   11.410
  402.550  343.108   52.331  191.003   11.357
  402.800  361.114   55.862  191.097   11.312
  403.050  368.062   56.663  191.319   11.386
  403.300  373.531   57.920  191.619   11.484
  403.550  370.492   52.230  194.509   11.646
  403.800  359.808   44.930  200.254   11.760
  404.050  358.911   44.436  207.415   11.691
  404.300  374.235   45.438  210.389   11.383
  404.550  379.840   44.876  211.990   11.315
  404.800  373.306   44.773  213.254   11.404
  405.050  366.715   46.229  213.167   11.774
  405.300  364.069   49.506  213.066   12.446
  405.550  366.594   53.180  213.363   12.934
  405.800  370.921   58.016  214.128   12.499
  406.050  373.519   64.664  216.047   11.577
  406.300  376.108   72.020  219.226   10.600
  406.550  343.367  100.628  222.205    9.167
  406.800  346.089  108.787  222.434    8.237
  407.050  385.685  111.760  222.321    8.049
  407.300  385.458  115.438  222.735    7.972
  407.550  372.962  114.181  225.870    7.983
  407.800  394.389  103.957  228.402    8.057
  408.050  380.215   98.362  231.371    8.147
  408.300  352.034   98.264  233.412    8.270
  408.550  366.020  100.177  233.093    8.296
  408.800  406.487   98.958  231.999    8.203
  409.050  375.420   96.897  229.154    8.126
  409.300  366.749   95.081  228.586    8.082
  409.550  382.276   92.316  225.169    8.085
  409.800  373.736   94.482  222.615    8.094
  410.050  369.621   97.053  222.618    8.113
  410.300  366.174   98.906  223.796    8.100
  410.550  373.187   97.707  223.994    8.134
  410.800  371.543   96.540  223.366    8.137
  411.050  367.707   94.474  223.780    8.108
  411.300  352.665   88.426  224.329    8.063
  411.550  357.865   90.146  225.063    8.049
  411.800  361.127   92.406  225.906    7.989
  412.050  361.096   94.719  230.400    7.887
  412.300  363.018   90.594  236.150    7.747
  412.550  373.715   91.805  242.011    7.614
  412.800  380.600   94.673  244.452    7.576
  413.050  381.645   99.653  233.483    7.595
  413.300  399.787   99.150  227.106    7.774
  413.550  383.936   94.717  225.368    7.943
  413.800  372.518   90.991  223.349    8.153
  414.050  362.433   86.151  221.656    8.371
  414.300  349.808   77.893  219.517    8.724
  414.550  358.629   71.595  218.447    9.006
  414.800  368.724   65.195  219.415    9.176
  415.050  365.817   59.853  221.734    9.202
  415.300  367.000   64.591  226.636    9.157
  415.550  376.622   75.272  232.180    8.953
  415.800  365.341   77.890  236.337    8.851
  416.050  363.773   81.083  235.914    8.774
  416.300  390.562   83.186  232.302    8.737
  416.550  376.658   90.079  234.530    8.780
  416.800  381.729   93.498  235.272    8.886
  417.050  400.205   96.225  221.623    9.104
  417.300  374.503   87.705  209.559    9.434
  417.550  379.036   80.201  206.270    9.516
  417.800  394.157   84.684  212.661    9.439
  418.050  429.733   89.766  217.668    9.354
  418.300  372.856   95.155  223.126    9.301
  418.550  365.995  101.809  224.720    9.303
  418.800  357.519  110.167  223.221    9.306
  419.050  360.715  104.523  219.051    9.277
  419.300  378.453   95.210  212.533    9.096
  419.550  383.587   93.441  214.247    8.939
  419.800  388.791   97.569  219.788    8.703
  420.050  374.420  104.937  213.814    8.507
  420.300  366.281  105.792  217.875    8.438
  420.550  383.284  104.927  219.575    8.441
  420.800  405.244   97.571  210.609    8.507
  421.050  430.093   95.208  204.001    8.597
  421.300  449.710   95.348  208.384    8.799
  421.550  490.173  100.438  208.052    8.961
  421.800  531.306   96.359  202.829    9.139
  422.050  365.902   90.210  208.274    9.484
  422.300  385.184   81.950  211.256    9.766
  422.550  401.445   74.294  207.847    9.960
  422.800  404.635   59.688  204.843   10.130
  423.050  401.457   45.325  205.400   10.204
  423.300  392.320   36.207  207.649   10.095
  423.550  382.501   40.742  209.547    9.915
  423.800  385.622   51.569  213.150    9.774
  424.050  387.880   61.343  219.863    9.561
  424.300  389.198   72.273  225.195    9.245
  424.550  388.839   72.431  205.256    8.913
  424.800  375.940   74.293  203.344    8.326
  425.050  364.587   75.542  209.315    7.794
  425.300  377.901   75.343  214.773    7.462
  425.550  388.131   77.005  215.489    7.337
  425.800  389.110   82.493  216.027    7.364
  426.050  367.633   92.872  217.962    7.550
  426.300  355.403   98.307  219.431    7.656
  426.550  364.832   95.355  221.669    7.707
  426.800  380.026   94.233  222.094    7.470
  427.050  393.608   95.295  228.701    7.146
  427.300  407.324   98.769  223.907    6.854
  427.550  418.228  102.992  216.443    6.721
  427.800  404.928  108.933  217.177    6.605
  428.050  385.596  116.996  223.472    6.535
  428.300  435.312  120.827  225.607    6.506
  428.550  426.502  123.556  228.589    6.732
  428.800  414.139  125.068  230.832    6.527
  429.050  405.403  125.351  230.838    5.526
  429.300  452.303  120.823  226.348    5.209
  429.550  463.540  100.568  214.518    5.220
  429.800  473.436  107.818  221.547    5.948
  430.050  474.213  113.112  227.296    6.923
  430.300  470.770  102.982  217.813    9.373
  430.550  460.890   70.944  207.683   11.934
  430.800  470.515   55.534  205.868   14.336
  431.050  560.121   41.331  204.270   15.924
  431.300  593.814   27.574  203.205   16.278
  431.550  599.620   34.475  204.802   15.938
  431.800  597.310   38.859  208.969   15.478
  432.050  590.520   40.115  206.402   14.030
  432.300  549.668   37.498  204.362   12.662
  432.550  533.888   35.330  207.557   11.812
  432.800  536.880   37.693  210.112   11.248
