~VERSION INFORMATION
 VERS.                 2.0:   CWLS LOG ASCII STANDARD -VERSION 2.0
 WRAP.                  NO:   ONE LINE PER DEPTH STEP
~WELL INFORMATION BLOCK
#MNEM.UNIT           DATA                    DESCRIPTION OF MNEMONIC
#---------    -------------------            -------------------------------
# Generated from Intellog Unique Number	CW_76_78/WELL/3586
WELL.         06-28-076-19W4                 : Well_name    - WELL
LOC .         00/06-28-076-19W4/0            : Location     - LOCATION
UWI .         00/06-28-076-19W4/0            : Uwi          - UNIQUE WELL ID
ENTR.         JOETTE                         : Entered      - ENTERED BY
SRVC.         SCHLUMBERGER                   : Scn          - SERVICE COMPANY
DATE.         08-26-92                       : Date         - LOG DATE
STRT.M        185                            : top_depth    - START DEPTH
STOP.M        445                            : bot_depth    - STOP DEPTH
STEP.M        0.25                           : increment    - STEP LENGTH
 NULL. -999.2500:NULL Value
~CURVE INFORMATION BLOCK
#MNEM UNIT       ERCB CURVE CODE    CURVE DESCRIPTION
#-----------   ------------------   ----------------------------------
DEPT.M        00 001 00 00         : DEPTH        - DEPTH
ILD .OHMM     00 120 00 00         : RESD         - DEEP RESISTIVITY (DIL)
DPHI.V/V      00 890 00 00         : PHID         - DENSITY POROSITY (SANDSTONE)
NPHI.V/V      00 330 00 00         : PHIN         - NEUTRON POROSITY (SANDSTONE)
GR  .API      00 310 00 00         : GR           - GAMMA RAY
~PARAMETER INFORMATION
#MNEM.UNIT           DATA             DESCRIPTION OF MNEMONIC
#---------         -----------     ------------------------------
GL  .M        573.1                : gl           - GROUND LEVEL ELEVATION
EREF.M        576.4                : kb           - ELEVATION OF DEPTH REFERENCE
DATM.M        576.4                : datum        - DATUM ELEVATION
TDD .M        448                  : tdd          - TOTAL DEPTH DRILLER
RUN .         \                    : Run          - RUN NUMBER
ENG .         BILL                 : Engineer     - RECORDING ENGINEER
WIT .         JIM                  : Witness      - WITNESSED BY
MUD .         GEL                  : Mud_type     - MUD TYPE
MATR.         SANDSTONE            : Logunit      - NEUTRON MATRIX
TMAX.C        23                   : BHT          - MAXIMUM RECORDED TEMPERATURE
BHTD.M        448                  : BHTDEP       - MAXIMUM RECORDED TEMPERATURE
MATR.         1                    : LOGUNIT      - NEUTRON MATRIX
RMT .C        19                   : MDTP         - TEMPERATURE OF MUD
NEUT.         1                    : NEUTRON      - NEUTRON TYPE
RESI.         0                    : RESIST       - RESISTIVITY TYPE
RMC .OHMM     3.53                 : RMC          - RESISTIVITY OF MUD CAKE
RMF .OHMM     7.87                 : RMF          - RESISTIVITY OF MUD FILTRATE
SUFT.C        5                    : SUFT         - SURFACE TEMPERATURE
~A  DEPTH     RESD     PHID     PHIN       GR
# ...
  228.500    2.777    0.256    0.526   95.236
  228.750    2.778    0.253    0.533   91.753
  229.000    2.830    0.245    0.503   92.336
  229.250    2.831    0.221    0.497   92.920
  229.500    2.884    0.233    0.499   92.922
  229.750    2.939    0.248    0.509   91.181
  230.000    2.940    0.245    0.521   93.509
  230.250    2.996    0.251    0.533   94.093
  230.500    2.997    0.253    0.546   91.772
  230.750    2.998    0.211    0.538   89.450
  231.000    2.999    0.184    0.504   88.290
  231.250    3.000    0.199    0.481   91.198
  231.500    2.947    0.209    0.473   97.597
  231.750    2.948    0.220    0.505   98.180
  232.000    2.949    0.233    0.515   97.020
  232.250    2.951    0.227    0.509   95.280
  232.500    2.951    0.225    0.504   94.702
  232.750    2.953    0.231    0.504   94.123
  233.000    2.954    0.240    0.507   94.125
  233.250    2.955    0.256    0.513   94.710
  233.500    2.956    0.254    0.515   95.875
  233.750    2.957    0.247    0.484   97.040
  234.000    2.959    0.239    0.476   97.624
  234.250    2.960    0.238    0.471   96.465
  234.500    2.961    0.243    0.478   95.886
  234.750    2.962    0.251    0.523   97.052
  235.000    2.963    0.262    0.538   98.217
  235.250    3.019    0.271    0.548   99.382
  235.500    3.133    0.272    0.522   98.803
  235.750    3.311    0.272    0.501   92.412
  236.000    3.630    0.267    0.502   91.834
  236.250    4.281    0.271    0.502   88.930
  236.500    5.143    0.276    0.446   77.308
  236.750    7.557    0.218    0.383   61.036
  237.000    9.417    0.192    0.355   56.389
  237.250   11.313    0.170    0.378   61.041
  237.500   12.402    0.120    0.473   68.019
  237.750    7.570    0.307    0.479   76.741
  238.000    7.434    0.307    0.477   76.744
  238.250    8.150    0.304    0.474   75.585
  238.500    9.099    0.299    0.478   73.262
  238.750    9.976    0.300    0.480   66.871
  239.000   10.353    0.307    0.485   61.644
  239.250   10.745    0.312    0.488   62.808
  239.500   10.747    0.311    0.488   68.624
  239.750   10.752    0.300    0.487   70.951
  240.000   10.560    0.296    0.484   72.117
  240.250   10.001    0.296    0.483   71.538
  240.500    9.470    0.299    0.478   73.866
  240.750    9.132    0.291    0.473   77.938
  241.000    8.647    0.293    0.467   76.197
  241.250    8.040    0.299    0.463   68.062
  241.500    7.475    0.306    0.465   68.065
  241.750    6.950    0.308    0.466   69.230
  242.000    6.345    0.299    0.467   68.652
  242.250    5.585    0.299    0.465   73.304
  242.500    5.288    0.310    0.463   75.052
  242.750    4.740    0.400    0.468   74.473
  243.000    4.488    0.349    0.467   79.125
  243.250    4.251    0.246    0.440   89.591
  243.500    4.174    0.226    0.435   91.920
  243.750    4.176    0.260    0.443   95.990
  244.000    4.334    0.262    0.456  103.549
  244.250    4.335    0.266    0.466  102.971
  244.500    4.337    0.273    0.464   93.674
  244.750    4.842    0.273    0.456   80.308
  245.000   11.243    0.271    0.458   66.942
  245.250   17.777    0.277    0.467   59.389
  245.500   19.135    0.295    0.489   47.185
  245.750   19.856    0.345    0.494   42.538
  246.000   20.604    0.340    0.495   44.285
  246.250   18.466    0.334    0.494   45.450
  246.500   16.252    0.330    0.491   45.453
  246.750   15.112    0.319    0.489   46.037
  247.000   14.576    0.307    0.483   49.527
  247.250   14.580    0.302    0.477   49.530
  247.500   14.586    0.291    0.460   46.046
  247.750   14.861    0.277    0.462   46.049
  248.000   14.865    0.275    0.467   50.120
  248.250   14.874    0.246    0.459   53.029
  248.500   14.877    0.219    0.446   68.725
  248.750   14.348    0.219    0.455   68.147
  249.000   13.341    0.291    0.467   68.150
  249.250   12.403    0.288    0.461   69.896
  249.500   10.915    0.285    0.461   74.549
  249.750    9.606    0.281    0.468   82.690
  250.000    8.611    0.283    0.479   89.086
  250.250    7.306    0.294    0.479   89.670
  250.500    6.919    0.296    0.473   86.768
  250.750    7.049    0.281    0.470   83.864
  251.000    7.728    0.278    0.463   83.867
  251.250    8.317    0.279    0.459   85.613
  251.500    9.811    0.279    0.461   87.359
  251.750   11.156    0.278    0.468   85.619
  252.000   12.008    0.273    0.475   85.040
  252.250   12.691    0.292    0.480   85.043
  252.500   12.930    0.291    0.481   87.952
  252.750   12.935    0.283    0.480   91.443
  253.000   12.708    0.272    0.481   91.446
  253.250   12.481    0.259    0.484   88.541
  253.500   12.719    0.248    0.480   72.269
  253.750   13.197    0.256    0.478   68.204
  254.000   13.694    0.274    0.480   58.906
  254.250   14.210    0.268    0.486   47.865
  254.500   14.480    0.268    0.496   39.150
  254.750   14.750    0.320    0.506   31.597
  255.000   15.029    0.353    0.500   32.181
  255.250   15.314    0.353    0.501   29.858
  255.500   15.601    0.351    0.507   26.955
  255.750   15.900    0.341    0.513   29.283
  256.000   15.903    0.342    0.512   30.449
  256.250   16.202    0.352    0.508   29.289
  256.500   16.208    0.357    0.502   31.035
  256.750   16.214    0.362    0.503   36.269
  257.000   16.222    0.362    0.508   44.991
  257.250   15.934    0.356    0.508   51.968
  257.500   15.651    0.329    0.499   57.203
  257.750   15.373    0.322    0.489   61.855
  258.000   14.825    0.314    0.485   62.439
  258.250   14.297    0.313    0.488   60.118
  258.500   13.791    0.313    0.488   57.214
  258.750   13.544    0.319    0.490   56.636
  259.000   13.303    0.326    0.485   59.544
  259.250   12.830    0.318    0.478   72.335
  259.500   12.835    0.301    0.468   76.406
  259.750   12.380    0.282    0.457   79.896
  260.000   12.159    0.265    0.459   81.643
  260.250   11.727    0.262    0.469   78.158
  260.500   11.105    0.254    0.475   70.023
  260.750    9.955    0.289    0.484   65.377
  261.000    9.425    0.310    0.484   71.773
  261.250    7.709    0.271    0.466   96.189
  261.500    5.547    0.220    0.442  104.329
  261.750    4.374    0.197    0.427  108.982
  262.000    3.513    0.198    0.429  110.148
  262.250    3.092    0.224    0.436  111.894
  262.500    3.093    0.229    0.446  113.059
  262.750    3.094    0.223    0.442  115.969
  263.000    3.152    0.204    0.405  117.133
  263.250    3.212    0.153    0.376  114.230
  263.500    3.213    0.080    0.346  109.001
  263.750    3.215    0.034    0.345  107.261
  264.000    3.276    0.168    0.403  110.169
  264.250    3.526    0.195    0.430  110.172
  264.500    4.083    0.254    0.457  106.106
  264.750    5.475    0.254    0.469  101.459
  265.000    6.577    0.248    0.469   97.393
  265.250    6.825    0.263    0.471   96.234
  265.500    6.703    0.276    0.470   99.143
  265.750    6.349    0.270    0.464  102.633
  266.000    6.351    0.259    0.455   99.730
  266.250    6.354    0.265    0.458   98.570
  266.500    6.355    0.270    0.463   96.248
  266.750    6.716    0.281    0.459   92.182
  267.000    7.229    0.286    0.454   85.791
  267.250    9.175    0.313    0.453   78.819
  267.500   10.246    0.298    0.453   75.916
  267.750   10.630    0.283    0.449   68.944
  268.000   10.636    0.276    0.447   67.785
  268.250   10.446    0.280    0.457   72.437
  268.500    9.714    0.297    0.461   76.508
  268.750    8.868    0.298    0.465   79.417
  269.000    8.551    0.287    0.466   80.583
  269.250    7.951    0.294    0.466   78.842
  269.500    7.528    0.298    0.467   79.426
  269.750    7.001    0.294    0.470   82.916
  270.000    6.875    0.285    0.471   87.570
  270.250    6.878    0.286    0.472   90.478
  270.500    7.966    0.290    0.472   89.319
  270.750    8.734    0.293    0.470   85.834
  271.000    8.898    0.303    0.465   83.511
  271.250    8.901    0.307    0.455   87.002
  271.500    8.743    0.299    0.453   92.236
  271.750    7.982    0.289    0.454   98.632
