~VERSION INFORMATION
 VERS.                 2.0:   CWLS LOG ASCII STANDARD -VERSION 2.0
 WRAP.                  NO:   ONE LINE PER DEPTH STEP
~WELL INFORMATION BLOCK
#MNEM.UNIT           DATA                    DESCRIPTION OF MNEMONIC
#---------    -------------------            -------------------------------
# Generated from Intellog Unique Number	CS_77_79/WELL/905
WELL.         MESA HB THORNBURY              : Well_name    - WELL
LOC .         00/07-22-078-12W4/0            : Location     - LOCATION
UWI .         00/07-22-078-12W4/0            : Uwi          - UNIQUE WELL ID
ENTR.         JHS                            : Entered      - ENTERED BY
SRVC.         SCHLUMBERGER                   : Scn          - SERVICE COMPANY
STRT.M        256.032                        : top_depth    - START DEPTH
STOP.M        475.282                        : bot_depth    - STOP DEPTH
STEP.M        0.25                           : increment    - STEP LENGTH
 NULL. -999.2500:NULL Value
~CURVE INFORMATION BLOCK
#MNEM UNIT       ERCB CURVE CODE    CURVE DESCRIPTION
#-----------   ------------------   ----------------------------------
DEPT.M        00 001 00 00         : DEPTH        - DEPTH
RHOB.KG/M3    00 350 00 00         : DENS         - BULK DENSITY
GR  .API      00 310 00 00         : GR           - GAMMA RAY
DPHI.V/V      00 890 00 00         : PHID         - DENSITY POROSITY (SANDSTONE)
NPHI.V/V      00 330 00 00         : PHIN         - NEUTRON POROSITY (SANDSTONE)
ILD .OHMM     00 120 00 00         : RESD         - DEEP RESISTIVITY (DIL)
~PARAMETER INFORMATION
#MNEM.UNIT           DATA             DESCRIPTION OF MNEMONIC
#---------         -----------     ------------------------------
GL  .M        675.315              : gl           - GROUND LEVEL ELEVATION
EREF.M        679.094              : kb           - ELEVATION OF DEPTH REFERENCE
DATM.M        679.094              : datum        - DATUM ELEVATION
TDD .M        490.728              : tdd          - TOTAL DEPTH DRILLER
RUN .         ONE                  : Run          - RUN NUMBER
ENG .         BILL                 : Engineer     - RECORDING ENGINEER
WIT .         JIM                  : Witness      - WITNESSED BY
MUD .         GEL                  : Mud_type     - MUD TYPE
MATR.         SANDSTONE            : Logunit      - NEUTRON MATRIX
TMAX.C        19.4444              : BHT          - MAXIMUM RECORDED TEMPERATURE
BHTD.M        490.728              : BHTDEP       - MAXIMUM RECORDED TEMPERATURE
MATR.         1                    : LOGUNIT      - NEUTRON MATRIX
RMT .C        25                   : MDTP         - TEMPERATURE OF MUD
NEUT.         1                    : NEUTRON      - NEUTRON TYPE
RESI.         0                    : RESIST       - RESISTIVITY TYPE
RMC .OHMM     0.25                 : RMC          - RESISTIVITY OF MUD CAKE
RMF .OHMM     0.25                 : RMF          - RESISTIVITY OF MUD FILTRATE
SUFT.C        15                   : SUFT         - SURFACE TEMPERATURE
~A  DEPTH     DENS       GR     PHID     PHIN     RESD
# ...
  329.032    0.000   44.487    0.331    0.419   21.619
  329.282    0.000   41.518    0.323    0.402   21.644
  329.532    0.000   38.735    0.314    0.416   21.691
  329.782   -0.000   38.446    0.320    0.411   21.322
  330.032   -0.000   38.839    0.341    0.414   21.363
  330.282   -0.000   39.255    0.339    0.424   20.908
  330.532    0.000   40.900    0.320    0.414   20.999
  330.782    0.000   42.112    0.316    0.401   20.590
  331.032    0.000   44.133    0.328    0.390   20.187
  331.282   -0.000   44.502    0.322    0.395   19.911
  331.532   -0.000   45.175    0.334    0.423   19.506
  331.782   -0.000   44.777    0.351    0.439   19.573
  332.032    0.000   43.773    0.357    0.437   19.337
  332.282    0.000   42.785    0.349    0.446   19.259
  332.532   -0.000   42.415    0.329    0.433   19.266
  332.782   -0.000   43.880    0.322    0.419   19.075
  333.032   -0.000   44.409    0.336    0.413   18.973
  333.282    0.000   44.983    0.355    0.420   18.984
  333.532    0.000   45.067    0.354    0.417   19.001
  333.782    0.000   43.483    0.342    0.426   19.037
  334.032   -0.000   41.454    0.329    0.415   18.756
  334.282   -0.000   40.683    0.348    0.408   18.724
  334.532   -0.000   41.469    0.332    0.406   18.734
  334.782    0.000   42.942    0.314    0.418   18.760
  335.032    0.000   45.257    0.338    0.411   18.776
  335.282   -0.000   46.411    0.343    0.409   18.801
  335.532   -0.000   45.612    0.351    0.417   18.816
  335.782   -0.000   45.019    0.349    0.412   18.843
  336.032    0.000   43.420    0.353    0.405   18.862
  336.282    0.000   44.324    0.358    0.413   18.885
  336.532    0.000   46.851    0.338    0.416   18.909
  336.782   -0.000   46.149    0.343    0.407   18.914
  337.032   -0.000   44.553    0.344    0.421   18.786
  337.282   -0.000   42.998    0.337    0.416   18.633
  337.532    0.000   44.100    0.337    0.421   18.358
  337.782    0.000   45.339    0.332    0.416   18.319
  338.032    0.000   46.740    0.336    0.402   18.322
  338.282   -0.000   47.841    0.328    0.404   18.032
  338.532   -0.000   48.023    0.338    0.424   17.660
  338.782    0.000   47.453    0.359    0.441   17.733
  339.032    0.000   46.880    0.337    0.427   17.377
  339.282    0.000   46.226    0.332    0.415   17.363
  339.532   -0.000   45.739    0.343    0.431   17.119
  339.782   -0.000   45.938    0.357    0.438   16.978
  340.032   -0.000   47.777    0.370    0.420   16.860
  340.282    0.000   49.783    0.344    0.425   16.873
  340.532    0.000   51.551    0.337    0.443   16.889
  340.782    0.000   53.207    0.346    0.435   16.906
  341.032   -0.000   53.239    0.367    0.447   16.933
  341.282   -0.000   52.606    0.352    0.449   16.946
  341.532   -0.000   52.024    0.338    0.433   16.969
  341.782    0.000   53.097    0.341    0.423   16.992
  342.032    0.000   54.215    0.350    0.436   17.085
  342.282   -0.000   56.321    0.354    0.437   17.346
  342.532   -0.000   57.002    0.353    0.433   17.331
  342.782   -0.000   57.708    0.358    0.444   17.747
  343.032    0.000   58.218    0.343    0.451   17.694
  343.282    0.000   59.472    0.332    0.448   17.946
  343.532    0.000   61.500    0.344    0.455   17.720
  343.782   -0.000   64.024    0.355    0.468   16.698
  344.032   -0.000   65.423    0.339    0.453   15.000
  344.282   -0.000   65.830    0.333    0.454   12.888
  344.532    0.000   68.648    0.327    0.463   10.555
  344.782    0.000   73.510    0.312    0.458    8.579
  345.032   -0.000   76.296    0.323    0.468    7.862
  345.282   -0.000   76.531    0.319    0.446    8.350
  345.532   -0.000   79.172    0.299    0.447   10.912
  345.782    0.000   80.730    0.279    0.463   13.175
  346.032    0.000   78.158    0.281    0.479   14.804
  346.282    0.000   75.449    0.316    0.487   15.894
  346.532   -0.000   73.953    0.324    0.475   16.134
  346.782   -0.000   73.761    0.334    0.475   15.821
  347.032   -0.000   73.450    0.333    0.478   15.537
  347.282    0.000   71.927    0.325    0.470   15.356
  347.532    0.000   70.562    0.308    0.469   15.318
  347.782    0.000   69.863    0.307    0.477   15.026
  348.032   -0.000   65.970    0.324    0.491   14.657
  348.282   -0.000   66.520    0.338    0.492   13.163
  348.532    0.000   67.421    0.345    0.472   11.471
  348.782    0.000   71.561    0.341    0.467    9.294
  349.032    0.000   74.073    0.334    0.474    7.239
  349.282   -0.000   76.538    0.326    0.477    5.475
  349.532   -0.000   79.865    0.313    0.465    4.789
  349.782   -0.000   84.059    0.301    0.459    5.386
  350.032    0.000   90.754    0.262    0.474    6.159
  350.282    0.000   93.856    0.238    0.509    7.950
  350.532    0.000   92.751    0.253    0.522    9.930
  350.782   -0.000   88.989    0.284    0.521    8.917
  351.032   -0.000   82.849    0.299    0.496    6.446
  351.282    0.000   77.068    0.306    0.458    3.849
  351.532    0.000   74.511    0.311    0.448    2.908
  351.782    0.000   79.868    0.294    0.453    2.819
  352.032   -0.000   86.556    0.269    0.469    2.996
  352.282   -0.000   91.206    0.269    0.496    3.740
  352.532   -0.000   97.278    0.286    0.558    5.095
  352.782    0.000  100.844    0.264    0.584    6.941
  353.032    0.000  100.586    0.275    0.598    7.806
  353.282    0.000   98.522    0.297    0.572    8.177
  353.532   -0.000   94.983    0.290    0.524    7.936
  353.782   -0.000   92.953    0.258    0.484    7.805
  354.032   -0.000   92.667    0.229    0.460    7.319
  354.282    0.000   95.551    0.216    0.441    6.885
  354.532    0.000   95.083    0.228    0.429    6.688
  354.782   -0.000   95.137    0.234    0.432    6.575
  355.032   -0.000   96.552    0.232    0.445    6.583
  355.282   -0.000   95.473    0.241    0.458    6.591
  355.532    0.000   93.449    0.235    0.468    6.483
  355.782    0.000   93.662    0.225    0.472    6.491
  356.032    0.000   95.483    0.225    0.479    6.346
  356.282   -0.000   98.341    0.228    0.484    6.261
  356.532   -0.000  103.755    0.226    0.495    6.105
  356.782   -0.000  105.208    0.221    0.485    5.809
  357.032    0.000  105.333    0.217    0.486    5.564
  357.282    0.000  103.783    0.210    0.492    5.340
  357.532   -0.000  102.246    0.219    0.502    5.220
  357.782   -0.000  101.678    0.232    0.492    5.122
  358.032   -0.000  102.200    0.206    0.484    5.129
  358.282    0.000  104.781    0.196    0.505    5.228
  358.532    0.000  103.655    0.217    0.490    5.466
  358.782    0.000  100.196    0.226    0.491    5.558
  359.032   -0.000   98.326    0.246    0.504    5.766
  359.282   -0.000   96.571    0.258    0.509    5.624
  359.532   -0.000  100.309    0.236    0.500    5.351
  359.782    0.000   99.378    0.252    0.543    5.132
  360.032    0.000   91.709    0.256    0.530    4.824
  360.282    0.000   88.400    0.254    0.509    4.542
  360.532   -0.000   92.519    0.262    0.491    4.065
  360.782   -0.000  101.286    0.262    0.467    3.715
  361.032    0.000  106.154    0.241    0.484    3.455
  361.282    0.000  109.598    0.232    0.553    3.318
  361.532    0.000  113.164    0.234    0.561    3.208
  361.782   -0.000  108.252    0.248    0.556    3.217
  362.032   -0.000  107.464    0.229    0.534    3.144
  362.282   -0.000  109.047    0.230    0.546    3.219
  362.532    0.000  109.259    0.263    0.533    3.164
  362.782    0.000  104.845    0.226    0.528    3.194
  363.032    0.000  103.415    0.231    0.550    3.231
  363.282   -0.000  102.796    0.259    0.559    3.236
  363.532   -0.000  102.232    0.241    0.558    3.239
  363.782    0.000  102.320    0.236    0.551    3.244
  364.032    0.000  109.786    0.244    0.548    3.252
  364.282    0.000  112.806    0.265    0.561    3.185
  364.532   -0.000  109.378    0.253    0.582    3.193
  364.782   -0.000  106.369    0.243    0.567    3.197
  365.032   -0.000  103.494    0.249    0.565    3.198
  365.282    0.000  105.292    0.275    0.584    3.258
