~VERSION INFORMATION
 VERS.                 2.0:   CWLS LOG ASCII STANDARD -VERSION 2.0
 WRAP.                  NO:   ONE LINE PER DEPTH STEP
~WELL INFORMATION BLOCK
#MNEM.UNIT           DATA                    DESCRIPTION OF MNEMONIC
#---------    -------------------            -------------------------------
# Generated from Intellog Unique Number	CS_77_79/WELL/891
WELL.         BVX MERLAND DUNCAN             : Well_name    - WELL
LOC .         00/07-03-078-15W4/0            : Location     - LOCATION
UWI .         00/07-03-078-15W4/0            : Uwi          - UNIQUE WELL ID
ENTR.         JHS                            : Entered      - ENTERED BY
SRVC.         SCHLUMBERGER                   : Scn          - SERVICE COMPANY
STRT.M        180                            : top_depth    - START DEPTH
STOP.M        430                            : bot_depth    - STOP DEPTH
STEP.M        0.25                           : increment    - STEP LENGTH
 NULL. -999.2500:NULL Value
~CURVE INFORMATION BLOCK
#MNEM UNIT       ERCB CURVE CODE    CURVE DESCRIPTION
#-----------   ------------------   ----------------------------------
DEPT.M        00 001 00 00         : DEPTH        - DEPTH
DPHI.V/V      00 890 00 00         : PHID         - DENSITY POROSITY (LIMESTONE)
NPHI.V/V      00 330 00 00         : PHIN         - NEUTRON POROSITY (LIMESTONE)
GR  .API      00 310 00 00         : GR           - GAMMA RAY
ILD .OHMM     00 120 00 00         : RESD         - DEEP RESISTIVITY (DIL)
~PARAMETER INFORMATION
#MNEM.UNIT           DATA             DESCRIPTION OF MNEMONIC
#---------         -----------     ------------------------------
GL  .M        581.32               : gl           - GROUND LEVEL ELEVATION
EREF.M        584.77               : kb           - ELEVATION OF DEPTH REFERENCE
DATM.M        584.77               : datum        - DATUM ELEVATION
TDD .M        430                  : tdd          - TOTAL DEPTH DRILLER
RUN .         ONE                  : Run          - RUN NUMBER
ENG .         BILL                 : Engineer     - RECORDING ENGINEER
WIT .         JIM                  : Witness      - WITNESSED BY
MUD .         GEL                  : Mud_type     - MUD TYPE
MATR.         LIMESTONE            : Logunit      - NEUTRON MATRIX
TMAX.C        23                   : BHT          - MAXIMUM RECORDED TEMPERATURE
BHTD.M        430                  : BHTDEP       - MAXIMUM RECORDED TEMPERATURE
MATR.         1                    : LOGUNIT      - NEUTRON MATRIX
RMT .C        25                   : MDTP         - TEMPERATURE OF MUD
NEUT.         1                    : NEUTRON      - NEUTRON TYPE
RESI.         0                    : RESIST       - RESISTIVITY TYPE
RMC .OHMM     0.25                 : RMC          - RESISTIVITY OF MUD CAKE
RMF .OHMM     0.25                 : RMF          - RESISTIVITY OF MUD FILTRATE
SUFT.C        15                   : SUFT         - SURFACE TEMPERATURE
~A  DEPTH     PHID     PHIN       GR     RESD
  180.000    0.257    0.509   89.751    3.295
  180.250    0.256    0.515   90.362    3.359
  180.500    0.254    0.508   93.432    3.490
  180.750    0.264    0.494   93.429    3.695
  181.000    0.265    0.504   97.729    3.839
  181.250    0.258    0.495  100.184    3.914
  181.500    0.253    0.468   96.492    3.842
  181.750    0.251    0.458   91.571    3.771
  182.000    0.258    0.494   87.263    3.702
  182.250    0.264    0.519   88.489    3.634
  182.500    0.272    0.515   92.174    3.567
  182.750    0.270    0.513   91.556    3.501
  183.000    0.270    0.518   91.552    3.503
  183.250    0.275    0.502   92.777    3.504
  183.500    0.274    0.509   93.389    3.505
  183.750    0.265    0.497   91.542    3.441
  184.000    0.267    0.487   87.850    3.442
  184.250    0.271    0.493   90.919    3.315
  184.500    0.265    0.514   92.760    3.193
  184.750    0.277    0.530   93.371    3.076
  185.000    0.292    0.527   92.753    3.019
  185.250    0.292    0.524   93.978    2.963
  185.500    0.291    0.525   95.205    2.965
  185.750    0.271    0.530   95.816    3.022
  186.000    0.248    0.539   93.968    3.200
  186.250    0.244    0.524   91.506    3.325
  186.500    0.247    0.489   90.888    3.389
  186.750    0.240    0.492   92.113    3.456
  187.000    0.235    0.500   94.568    3.457
  187.250    0.238    0.505   97.639    3.524
  187.500    0.240    0.534   93.947    3.593
  187.750    0.189    0.541   85.337    3.732
  188.000    0.154    0.449   78.571    3.952
  188.250    0.170    0.426   84.100    4.106
  188.500    0.227    0.459   90.858    4.107
  188.750    0.240    0.487   93.928    4.032
  189.000    0.240    0.479   95.769    3.958
  189.250    0.243    0.468   92.692    3.959
  189.500    0.239    0.456   92.688    3.886
  189.750    0.242    0.472   92.070    3.743
  190.000    0.244    0.502   93.910    3.606
  190.250    0.248    0.507   95.751    3.607
  190.500    0.244    0.493   93.903    3.677
  190.750    0.240    0.503   92.671    3.749
  191.000    0.242    0.512   92.667    3.750
  191.250    0.243    0.525   92.049    3.681
  191.500    0.245    0.532   95.118    3.613
  191.750    0.238    0.537   94.499    3.480
  192.000    0.236    0.549   93.267    3.417
  192.250    0.241    0.553   90.189    3.418
  192.500    0.249    0.516   88.342    3.484
  192.750    0.255    0.505   87.723    3.486
  193.000    0.254    0.503   87.105    3.553
  193.250    0.248    0.488   85.257    3.692
  193.500    0.238    0.466   87.712    3.764
  193.750    0.226    0.448   91.398    3.694
  194.000    0.215    0.486   90.165    3.767
  194.250    0.222    0.519   79.710    3.913
  194.500    0.179    0.512   51.429    4.554
  194.750    0.138    0.397   45.277    5.505
  195.000    0.212    0.402   47.733    6.782
  195.250    0.324    0.416   53.261    8.514
  195.500    0.316    0.422   57.562   10.098
  195.750    0.300    0.433   65.550   11.317
  196.000    0.290    0.432   68.004   10.902
  196.250    0.294    0.424   69.231   10.302
  196.500    0.280    0.424   82.751    9.200
  196.750    0.265    0.432   93.198    7.911
  197.000    0.247    0.457  101.801    6.931
  197.250    0.236    0.478  105.486    5.631
  197.500    0.250    0.501  106.711    4.574
  197.750    0.257    0.529  108.552    3.787
  198.000    0.249    0.514  107.319    3.648
  198.250    0.244    0.475  102.398    3.790
  198.500    0.244    0.471   96.861    4.089
  198.750    0.255    0.486   91.326    4.759
  199.000    0.281    0.460   80.871    5.753
  199.250    0.199    0.375   71.032    7.501
  199.500    0.156    0.339   64.266   10.157
  199.750    0.233    0.361   73.483   12.512
  200.000    0.267    0.374   79.013   14.022
  200.250    0.259    0.368   80.853   15.420
  200.500    0.236    0.363   82.079   15.425
  200.750    0.212    0.375   89.452   14.579
  201.000    0.216    0.392   93.752   12.774
  201.250    0.223    0.412   96.822    9.992
  201.500    0.216    0.433   99.892    8.117
  201.750    0.216    0.453  104.192    7.387
  202.000    0.230    0.449  104.188    6.982
  202.250    0.246    0.450   85.742    6.984
  202.500    0.257    0.443   73.444    7.256
  202.750    0.279    0.418   64.834    8.287
  203.000    0.295    0.375   62.986    9.645
  203.250    0.295    0.359   65.441   11.226
  203.500    0.279    0.371   72.199   12.820
  203.750    0.252    0.376   74.041   13.834
  204.000    0.208    0.389   72.807   13.579
  204.250    0.217    0.405   75.877   13.080
  204.500    0.265    0.410   75.874   13.086
  204.750    0.327    0.402   75.870   13.090
  205.000    0.323    0.411   81.400   13.095
  205.250    0.306    0.401   86.314   13.100
  205.500    0.293    0.391   91.843   13.104
  205.750    0.294    0.408   89.380   12.863
  206.000    0.304    0.418   77.697   13.113
  206.250    0.320    0.406   71.546   13.368
  206.500    0.342    0.394   70.927   14.155
  206.750    0.339    0.379   77.071   14.706
  207.000    0.323    0.371   85.674   15.279
  207.250    0.304    0.384   88.744   15.285
  207.500    0.284    0.387   91.814   15.005
  207.750    0.269    0.396   94.269   15.009
  208.000    0.277    0.386   91.806   15.014
  208.250    0.291    0.378   86.270   14.739
  208.500    0.309    0.392   85.652   14.745
  208.750    0.312    0.396   91.181   15.031
  209.000    0.311    0.404   92.407   15.036
  209.250    0.302    0.411   93.018   15.040
  209.500    0.293    0.390   88.712   14.765
  209.750    0.272    0.363   78.872   14.221
  210.000    0.252    0.349   69.032   13.190
  210.250    0.243    0.368   67.799   12.947
  210.500    0.251    0.389   63.493   12.953
  210.750    0.280    0.392   55.498   13.203
  211.000    0.332    0.367   48.117   13.460
  211.250    0.328    0.367   47.498   13.985
  211.500    0.309    0.373   51.183   14.530
  211.750    0.303    0.374   57.327   14.534
  212.000    0.311    0.388   58.553   14.268
  212.250    0.317    0.349   62.238   14.007
  212.500    0.296    0.332   67.767   14.010
  212.750    0.283    0.347   72.680   13.496
  213.000    0.278    0.368   73.907   13.246
  213.250    0.282    0.379   80.665   12.285
  213.500    0.199    0.373   88.039   10.765
  213.750    0.140    0.395   92.953    8.911
  214.000    0.155    0.434   98.482    6.712
  214.250    0.188    0.519  104.626    5.662
  214.500    0.189    0.500  108.926    5.057
  214.750    0.189    0.487  111.381    4.964
  215.000    0.198    0.468  107.689    4.872
  215.250    0.188    0.450  104.612    4.605
  215.500    0.161    0.455  109.526    4.436
  215.750    0.165    0.464  116.899    4.437
  216.000    0.171    0.471  116.281    4.610
  216.250    0.168    0.485  110.130    4.789
  216.500    0.168    0.501  107.667    4.883
  216.750    0.177    0.473  111.966    4.978
  217.000    0.199    0.471  114.422    4.886
  217.250    0.215    0.495  115.648    4.447
  217.500    0.232    0.540  119.333    4.047
  217.750    0.242    0.555  118.715    3.825
  218.000    0.244    0.491  116.866    3.899
  218.250    0.244    0.459  116.249    4.454
  218.500    0.246    0.431  111.941    5.183
  218.750    0.250    0.400  107.635    6.507
  219.000    0.255    0.383  107.631    8.016
  219.250    0.246    0.379  107.627    9.330
  219.500    0.244    0.383  105.780    9.878
  219.750    0.249    0.395  103.932   10.071
  220.000    0.268    0.405   95.937   10.074
  220.250    0.287    0.420   94.089    9.704
  220.500    0.228    0.403  103.921    8.999
  220.750    0.189    0.422  109.450    7.737
  221.000    0.181    0.446  115.594    6.653
  221.250    0.187    0.430  115.591    6.408
  221.500    0.199    0.420  111.898    6.658
  221.750    0.230    0.414  106.977    7.321
  222.000    0.249    0.395  100.211    8.521
  222.250    0.265    0.374   97.133   10.107
  222.500    0.276    0.378   98.360   10.701
  222.750    0.290    0.391  100.815   11.330
  223.000    0.287    0.410   99.582   11.335
  223.250    0.273    0.405   97.118   10.918
