~VERSION INFORMATION
 VERS.                 2.0:   CWLS LOG ASCII STANDARD -VERSION 2.0
 WRAP.                  NO:   ONE LINE PER DEPTH STEP
~WELL INFORMATION BLOCK
#MNEM.UNIT           DATA                    DESCRIPTION OF MNEMONIC
#---------    -------------------            -------------------------------
# Generated from Intellog Unique Number	CW_79_81/WELL/2458
WELL.         AMOCO BRINTNELL                : Well_name    - WELL
LOC .         00/07-15-081-23W4/0            : Location     - LOCATION
UWI .         00/07-15-081-23W4/0            : Uwi          - UNIQUE WELL ID
ENTR.         MAX                            : Entered      - ENTERED BY
SRVC.         COMPUTALOG                     : Scn          - SERVICE COMPANY
STRT.M        230                            : top_depth    - START DEPTH
STOP.M        455                            : bot_depth    - STOP DEPTH
STEP.M        0.25                           : increment    - STEP LENGTH
 NULL. -999.2500:NULL Value
~CURVE INFORMATION BLOCK
#MNEM UNIT       ERCB CURVE CODE    CURVE DESCRIPTION
#-----------   ------------------   ----------------------------------
DEPT.M        00 001 00 00         : DEPTH        - DEPTH
ILD .OHMM     00 120 00 00         : RESD         - DEEP RESISTIVITY (DIL)
NPHI.V/V      00 330 00 00         : PHIN         - NEUTRON POROSITY (SANDSTONE)
DPHI.V/V      00 890 00 00         : PHID         - DENSITY POROSITY (SANDSTONE)
GR  .API      00 310 00 00         : GR           - GAMMA RAY
CALI.MM       00 280 01 00         : CAL          - CALIPER
~PARAMETER INFORMATION
#MNEM.UNIT           DATA             DESCRIPTION OF MNEMONIC
#---------         -----------     ------------------------------
GL  .M        605                  : gl           - GROUND LEVEL ELEVATION
EREF.M        608.6                : kb           - ELEVATION OF DEPTH REFERENCE
DATM.M        605                  : datum        - DATUM ELEVATION
TDD .M        453.3                : tdd          - TOTAL DEPTH DRILLER
RUN .         ONE                  : Run          - RUN NUMBER
ENG .         BILL                 : Engineer     - RECORDING ENGINEER
WIT .         JIM                  : Witness      - WITNESSED BY
MUD .         GEL                  : Mud_type     - MUD TYPE
MATR.         SANDSTONE            : Logunit      - NEUTRON MATRIX
TMAX.C        32                   : BHT          - MAXIMUM RECORDED TEMPERATURE
BHTD.M        453.3                : BHTDEP       - MAXIMUM RECORDED TEMPERATURE
MATR.         1                    : LOGUNIT      - NEUTRON MATRIX
RMT .C        26.7                 : MDTP         - TEMPERATURE OF MUD
NEUT.         1                    : NEUTRON      - NEUTRON TYPE
RESI.         0                    : RESIST       - RESISTIVITY TYPE
RMC .OHMM     4                    : RMC          - RESISTIVITY OF MUD CAKE
RMF .OHMM     7.5                  : RMF          - RESISTIVITY OF MUD FILTRATE
SUFT.C        5                    : SUFT         - SURFACE TEMPERATURE
~A  DEPTH     RESD     PHIN     PHID       GR      CAL
# ...
  376.000   10.769    0.386    0.222   71.622  220.746
  376.250   10.448    0.398    0.226   73.849  220.330
  376.500   10.289    0.413    0.225   73.352  220.741
  376.750   10.443    0.429    0.231   68.935  221.150
  377.000   10.856    0.431    0.239   67.901  221.147
  377.250   11.775    0.416    0.236   67.404  221.144
  377.500   13.054    0.401    0.203   64.679  221.141
  377.750   14.453    0.362    0.159   60.964  221.139
  378.000   15.567    0.311    0.118   58.177  221.239
  378.250   15.864    0.296    0.102   59.537  221.820
  378.500   15.612    0.310    0.129   62.630  222.677
  378.750   15.143    0.343    0.179   64.361  223.087
  379.000   14.271    0.381    0.208   65.721  223.188
  379.250   13.386    0.408    0.222   66.957  223.185
  379.500   12.578    0.421    0.227   68.256  223.079
  379.750   11.645    0.425    0.226   69.997  222.663
  380.000   11.110    0.416    0.221   71.285  222.660
  380.250   10.940    0.413    0.217   72.273  222.658
  380.500   10.956    0.414    0.212   73.077  222.655
  380.750   11.034    0.414    0.208   73.694  222.652
  381.000   11.092    0.414    0.207   74.002  222.650
  381.250   11.086    0.417    0.205   73.391  222.646
  381.500   11.082    0.418    0.203   71.584  222.643
  381.750   11.078    0.415    0.206   69.602  222.228
  382.000   11.073    0.411    0.207   69.105  221.503
  382.250   11.069    0.410    0.206   69.599  220.881
  382.500   11.105    0.414    0.201   70.154  220.569
  382.750   11.285    0.414    0.193   69.409  220.738
  383.000   11.370    0.402    0.177   69.407  221.594
  383.250   11.280    0.403    0.163   70.148  222.830
  383.500   10.939    0.406    0.157   71.261  223.446
  383.750   10.613    0.409    0.166   72.993  223.649
  384.000   10.413    0.413    0.184   74.662  223.544
  384.250   10.330    0.421    0.194   74.145  222.956
  384.500   10.325    0.423    0.204   71.564  222.094
  384.750   10.321    0.427    0.209   71.809  221.265
  385.000   10.434    0.428    0.211   72.427  220.128
  385.250   10.549    0.422    0.210   72.425  219.094
  385.500   10.604    0.409    0.201   71.433  218.781
  385.750   10.598    0.391    0.170   70.111  220.446
  386.000   10.594    0.390    0.150   72.173  222.592
  386.250   10.669    0.400    0.168   78.112  223.002
  386.500   10.806    0.409    0.189   78.297  222.174
  386.750   10.965    0.416    0.196   73.096  221.140
  387.000   11.126    0.419    0.187   65.977  220.518
  387.250   11.341    0.421    0.175   64.066  220.601
  387.500   11.607    0.425    0.166   66.901  221.028
  387.750   11.777    0.428    0.187   71.851  220.612
  388.000   11.884    0.431    0.204   73.273  219.268
  388.250   11.968    0.433    0.213   72.652  217.615
  388.500   11.963    0.431    0.215   70.237  216.168
  388.750   11.673    0.418    0.201   65.036  215.683
  389.000   11.578    0.405    0.162   65.034  217.400
  389.250   11.486    0.398    0.190   69.736  218.222
  389.500   11.331    0.403    0.210   74.996  218.426
  389.750   11.243    0.419    0.217   77.470  218.217
  390.000   11.239    0.440    0.212   76.973  217.905
  390.250   11.198    0.455    0.203   76.476  217.988
  390.500   11.020    0.442    0.202   76.475  218.415
  390.750   10.932    0.435    0.206   76.473  218.825
  391.000   10.846    0.434    0.206   76.471  219.544
  391.250   10.802    0.439    0.204   76.965  220.572
  391.500   10.797    0.444    0.203   77.767  221.911
  391.750   10.792    0.450    0.209   78.116  223.472
  392.000   10.788    0.458    0.206   78.630  223.040
  392.250   10.865    0.456    0.205   78.134  222.624
  392.500   10.881    0.455    0.206   77.823  222.828
  392.750   10.877    0.455    0.205   77.450  222.825
  393.000   10.852    0.454    0.200   76.953  221.997
  393.250   10.748    0.447    0.194   76.456  219.758
  393.500   10.660    0.438    0.189   76.454  218.896
  393.750   10.656    0.430    0.181   77.195  219.306
  394.000   10.652    0.429    0.184   78.308  220.025
  394.250   10.648    0.432    0.190   79.172  220.435
  394.500   10.623    0.440    0.193   79.047  220.433
  394.750   10.538    0.450    0.188   76.755  220.515
  395.000   10.535    0.457    0.180   75.206  220.942
  395.250   10.373    0.454    0.176   76.937  221.765
  395.500   10.272    0.444    0.178   79.040  222.278
  395.750   10.230    0.434    0.186   81.391  222.894
  396.000   10.226    0.428    0.197   83.370  223.614
  396.250   10.172    0.431    0.201   83.656  224.022
  396.500    9.932    0.434    0.200   82.623  224.020
  396.750    9.707    0.432    0.191   81.631  224.017
  397.000    9.379    0.428    0.184   81.011  223.705
  397.250    9.099    0.424    0.185   82.123  223.702
  397.500    8.894    0.421    0.194   84.659  224.009
  397.750    8.679    0.421    0.201   86.431  224.006
  398.000    8.608    0.420    0.187   85.398  224.003
  398.250    9.065    0.422    0.187   86.882  224.413
  398.500    9.601    0.426    0.194   87.809  224.823
  398.750   10.337    0.430    0.198   86.817  225.026
  399.000   11.332    0.431    0.199   83.473  224.817
  399.250   12.745    0.425    0.198   78.065  223.903
  399.500   14.116    0.416    0.205   77.032  223.470
  399.750   15.312    0.411    0.212   76.040  222.642
  400.000   16.976    0.405    0.222   74.677  221.195
  400.250   18.596    0.402    0.230   73.808  219.542
  400.500   19.309    0.401    0.237   73.188  218.095
  400.750   17.869    0.392    0.241   70.112  217.438
  401.000   15.908    0.369    0.210   63.405  218.295
  401.250   14.406    0.373    0.157   62.413  219.530
  401.500   13.597    0.399    0.174   66.248  221.384
  401.750   13.493    0.433    0.211   68.351  222.413
  402.000   14.025    0.459    0.238   66.431  222.101
  402.250   15.528    0.459    0.239   61.797  220.774
  402.500   18.786    0.431    0.216   58.443  220.341
  402.750   21.136    0.400    0.183   54.975  221.163
  403.000   23.051    0.379    0.153   53.735  221.057
  403.250   24.838    0.370    0.163   53.733  220.642
  403.500   26.487    0.369    0.195   53.485  220.227
  403.750   27.155    0.354    0.160   50.130  219.725
  404.000   26.518    0.295    0.073   45.744  219.292
  404.250   24.385    0.246    0.034   52.426  219.290
  404.500   21.393    0.256    0.071   58.924  219.287
  404.750   18.618    0.305    0.123   66.598  219.490
  405.000   16.780    0.363    0.160   72.600  219.900
  405.250   16.476    0.390    0.188   70.081  220.396
  405.500   16.861    0.403    0.221   71.111  220.823
  405.750   17.757    0.409    0.225   71.604  220.408
  406.000   18.602    0.408    0.215   66.156  220.302
  406.250   18.953    0.391    0.192   61.079  220.505
  406.500   18.732    0.362    0.160   59.406  221.121
  406.750   18.103    0.343    0.135   60.941  222.442
  407.000   17.137    0.355    0.218   61.197  222.869
  407.250   16.002    0.386    0.239   61.691  222.866
  407.500   15.384    0.409    0.235   62.555  222.863
  407.750   14.980    0.417    0.229   63.420  222.654
  408.000   14.806    0.411    0.230   64.038  222.342
  408.250   15.277    0.402    0.233   64.077  222.339
  408.500   16.006    0.395    0.227   63.044  222.336
  408.750   16.243    0.375    0.199   60.071  222.333
  409.000   16.390    0.360    0.148   56.913  222.021
  409.250   16.260    0.343    0.108   56.292  221.605
  409.500   15.830    0.333    0.103   58.766  221.293
  409.750   15.241    0.353    0.152   62.674  221.290
  410.000   15.236    0.382    0.203   62.415  221.287
  410.250   15.116    0.402    0.207   62.166  221.285
  410.500   15.082    0.407    0.213   61.359  220.972
  410.750   15.075    0.405    0.209   59.253  220.763
  411.000   15.125    0.398    0.194   56.775  220.761
  411.250   15.370    0.390    0.183   56.680  220.757
  411.500   15.486    0.394    0.176   57.453  220.755
  411.750   15.480    0.399    0.166   58.441  221.165
  412.000   15.473    0.398    0.159   60.544  221.265
  412.250   15.409    0.394    0.161   62.399  221.262
