~VERSION INFORMATION
 VERS.                 2.0:   CWLS LOG ASCII STANDARD -VERSION 2.0
 WRAP.                  NO:   ONE LINE PER DEPTH STEP
~WELL INFORMATION BLOCK
#MNEM.UNIT           DATA                    DESCRIPTION OF MNEMONIC
#---------    -------------------            -------------------------------
# Generated from Intellog Unique Number	CW_82_90/WELL/3424
WELL.         PARA ET AL LIEGE               : Well_name    - WELL
LOC .         00/06-35-090-19W4/0            : Location     - LOCATION
UWI .         00/06-35-090-19W4/0            : Uwi          - UNIQUE WELL ID
ENTR.         MAX                            : Entered      - ENTERED BY
SRVC.         WESTERN ATLAS                  : Scn          - SERVICE COMPANY
STRT.M        70                             : top_depth    - START DEPTH
STOP.M        227                            : bot_depth    - STOP DEPTH
STEP.M        0.25                           : increment    - STEP LENGTH
 NULL. -999.2500:NULL Value
~CURVE INFORMATION BLOCK
#MNEM UNIT       ERCB CURVE CODE    CURVE DESCRIPTION
#-----------   ------------------   ----------------------------------
DEPT.M        00 001 00 00         : DEPTH        - DEPTH
ILD .OHMM     00 120 00 00         : RESD         - DEEP RESISTIVITY (DIL)
CALI.MM       00 280 01 00         : CAL          - CALIPER
DPHI.V/V      00 890 00 00         : PHID         - DENSITY POROSITY (SANDSTONE)
NPHI.V/V      00 330 00 00         : PHIN         - NEUTRON POROSITY (SANDSTONE)
GR  .API      00 310 00 00         : GR           - GAMMA RAY
~PARAMETER INFORMATION
#MNEM.UNIT           DATA             DESCRIPTION OF MNEMONIC
#---------         -----------     ------------------------------
GL  .M        515.5                : gl           - GROUND LEVEL ELEVATION
EREF.M        519.3                : kb           - ELEVATION OF DEPTH REFERENCE
DATM.M        515.5                : datum        - DATUM ELEVATION
TDD .M        227                  : tdd          - TOTAL DEPTH DRILLER
RUN .         ONE                  : Run          - RUN NUMBER
ENG .         BILL                 : Engineer     - RECORDING ENGINEER
WIT .         JIM                  : Witness      - WITNESSED BY
MUD .         GEL                  : Mud_type     - MUD TYPE
MATR.         SANDSTONE            : Logunit      - NEUTRON MATRIX
TMAX.C        20                   : BHT          - MAXIMUM RECORDED TEMPERATURE
BHTD.M        226                  : BHTDEP       - MAXIMUM RECORDED TEMPERATURE
MATR.         1                    : LOGUNIT      - NEUTRON MATRIX
RMT .C        17                   : MDTP         - TEMPERATURE OF MUD
NEUT.         1                    : NEUTRON      - NEUTRON TYPE
RESI.         0                    : RESIST       - RESISTIVITY TYPE
RMC .OHMM     3                    : RMC          - RESISTIVITY OF MUD CAKE
RMF .OHMM     3                    : RMF          - RESISTIVITY OF MUD FILTRATE
SUFT.C        -15                  : SUFT         - SURFACE TEMPERATURE
~A  DEPTH     RESD      CAL     PHID     PHIN       GR
   70.000   40.815  289.961    0.432    0.525   37.594
   70.250   40.054  294.384    0.478    0.479   37.248
   70.500   39.668  300.301    0.448    0.463   34.189
   70.750   39.654  298.721    0.403    0.452   35.941
   71.000   39.642  292.097    0.407    0.446   39.791
   71.250   39.996  290.507    0.408    0.459   39.739
   71.500   40.352  299.953    0.417    0.505   39.988
   71.750   40.711  316.416    0.411    0.483   39.936
   72.000   40.698  319.336    0.420    0.470   41.093
   72.250   40.311  299.692    0.407    0.488   42.538
   72.500   39.926  306.121    0.396    0.448   43.087
   72.750   39.912  326.593    0.379    0.467   42.133
   73.000   38.095  349.069    0.393    0.499   42.381
   73.250   37.382  345.975    0.413    0.518   44.728
   73.500   37.369  334.852    0.420    0.527   42.578
   73.750   37.010  297.657    0.428    0.535   40.120
   74.000   39.472  290.553    0.444    0.544   39.159
   74.250   37.676  285.945    0.459    0.515   32.485
   74.500   35.302  290.881    0.471    0.490   34.544
   74.750   34.321  292.788    0.483    0.483   40.205
   75.000   34.309  281.174    0.476    0.474   43.762
   75.250   34.617  265.540    0.464    0.469   43.409
   75.500   34.603  260.931    0.470    0.467   42.755
   75.750   33.956  247.313    0.461    0.459   44.802
   76.000   32.711  238.205    0.429    0.466   46.861
   76.250   31.224  243.631    0.412    0.506   50.411
   76.500   29.256  237.029    0.388    0.493   49.463
   76.750   26.909  226.407    0.368    0.457   45.194
   77.000   24.073  215.272    0.336    0.445   43.940
   77.250   20.186  200.161    0.297    0.442   43.286
   77.500   17.404  181.008    0.226    0.426   46.247
   77.750   14.729  184.440    0.254    0.394   56.118
   78.000   12.935  189.866    0.276    0.395   65.695
   78.250   12.008  197.787    0.352    0.429   58.413
   78.500   11.462  195.695    0.406    0.442   61.074
   78.750   10.839  184.082    0.333    0.482   68.245
   79.000   10.345  172.969    0.294    0.495   75.710
   79.250   10.059  170.845    0.279    0.470   81.666
   79.500    9.689  170.780    0.265    0.479   83.725
   79.750    9.509  171.684    0.256    0.491   89.386
   80.000    9.505  172.611    0.244    0.478   86.928
   80.250    9.502  172.513    0.229    0.471   80.562
   80.500    9.587  170.901    0.223    0.454   80.209
   80.750    9.763  171.347    0.279    0.443   84.968
   81.000    9.850  172.753    0.295    0.448   85.818
   81.250    9.846  173.178    0.283    0.483   82.458
   81.500    9.843  174.595    0.268    0.511   76.680
   81.750    9.931  174.998    0.259    0.451   79.040
   82.000   10.112  175.391    0.262    0.455   77.477
   82.250   10.297  175.816    0.283    0.468   75.627
   82.500   10.389  176.742    0.295    0.473   79.184
   82.750   10.386  176.645    0.294    0.456   84.838
   83.000   10.192  176.067    0.306    0.454   86.296
   83.250    9.908  174.466    0.309    0.459   89.545
   83.500    9.635  174.368    0.318    0.466   87.395
   83.750    9.454  174.303    0.329    0.472   81.322
   84.000    9.451  174.717    0.278    0.470   75.857
   84.250    9.714  176.123    0.260    0.428   72.792
   84.500    9.983  177.039    0.285    0.417   73.942
   84.750    9.980  176.952    0.290    0.447   73.590
   85.000    9.885  177.355    0.295    0.427   72.936
   85.250    9.700  178.772    0.295    0.432   75.283
   85.500    9.258  180.188    0.297    0.437   80.049
   85.750    8.755  181.115    0.294    0.451   82.409
   86.000    8.280  182.030    0.289    0.464   81.141
   86.250    8.201  182.945    0.284    0.482   83.501
   86.500    8.274  183.360    0.283    0.535   85.246
   86.750    8.504  183.774    0.283    0.517   83.096
   87.000    8.740  184.668    0.286    0.492   74.009
   87.250    9.495  185.082    0.289    0.464   70.048
   87.500   10.221  186.488    0.292    0.452   73.611
   87.750   10.408  187.915    0.268    0.446   75.363
   88.000    9.485  189.343    0.212    0.460   72.604
   88.250    9.839  192.252    0.254    0.464   66.532
   88.500   11.725  196.665    0.327    0.453   61.361
   88.750   13.341  197.090    0.320    0.471   56.197
   89.000   14.098  194.508    0.318    0.470   56.145
   89.250   13.332  187.906    0.321    0.472   62.715
   89.500   12.377  186.315    0.293    0.471   72.886
   89.750   10.870  186.228    0.252    0.471   77.038
   90.000    9.634  185.629    0.305    0.481   74.586
   90.250   12.364  183.037    0.413    0.469   56.786
   90.500   21.528  182.950    0.420    0.426   40.784
   90.750   27.883  177.339    0.392    0.403   38.921
   91.000   33.228  178.266    0.356    0.389   34.966
   91.250   37.460  182.188    0.273    0.356   33.110
   91.500   37.795  183.605    0.300    0.341   35.463
   91.750   37.089  179.497    0.366    0.360   35.111
   92.000   35.728  177.896    0.368    0.385   31.444
   92.250   35.059  174.791    0.353    0.393   31.385
   92.500   34.088  173.223    0.352    0.398   30.738
   92.750   33.452  181.144    0.357    0.400   29.169
   93.000   33.440  183.563    0.360    0.403   29.130
   93.250   33.740  186.483    0.363    0.410   27.267
   93.500   34.356  185.895    0.367    0.415   27.816
   93.750   34.662  185.317    0.366    0.403   32.275
   94.000   34.973  186.734    0.365    0.383   35.537
   94.250   35.288  187.137    0.363    0.386   33.975
   94.500   35.601  187.541    0.361    0.393   35.720
   94.750   35.587  188.456    0.362    0.401   35.668
   95.000   35.575  188.860    0.370    0.406   33.812
   95.250   35.236  188.784    0.376    0.414   33.766
   95.500   35.224  188.708    0.375    0.435   34.309
   95.750   35.212  188.610    0.370    0.376   32.760
   96.000   35.198  189.035    0.365    0.368   30.897
   96.250   35.184  189.449    0.366    0.381   31.740
   96.500   34.846  189.863    0.366    0.401   33.198
   96.750   34.513  189.265    0.361    0.400   33.748
   97.000   33.872  187.609    0.353    0.395   34.892
   97.250   33.548  187.576    0.343    0.409   36.644
   97.500   33.535  187.489    0.351    0.433   34.794
   97.750   33.523  187.904    0.365    0.423   32.630
   98.000   33.511  187.817    0.383    0.407   34.382
   98.250   33.498  187.730    0.379    0.403   34.029
   98.500   33.799  187.643    0.363    0.399   31.872
   98.750   33.787  187.556    0.346    0.394   34.226
   99.000   34.088  187.480    0.324    0.393   35.971
   99.250   34.077  187.382    0.334    0.418   34.115
   99.500   34.382  187.786    0.350    0.420   34.063
   99.750   34.368  187.710    0.352    0.410   32.213
  100.000   34.356  187.623    0.347    0.380   30.357
  100.250   34.344  188.037    0.337    0.392   30.906
  100.500   34.016  188.942    0.325    0.392   32.050
  100.750   33.691  189.857    0.327    0.392   27.488
  101.000   33.679  190.783    0.335    0.391   33.443
  101.250   33.665  191.198    0.336    0.394   35.502
  101.500   33.344  192.102    0.339    0.398   33.345
  101.750   33.333  193.519    0.347    0.410   30.279
  102.000   33.322  194.445    0.344    0.420   32.940
  102.250   33.308  195.851    0.339    0.430   31.979
  102.500   33.296  197.769    0.338    0.428   33.731
  102.750   33.285  199.675    0.341    0.422   35.483
  103.000   33.271  200.090    0.337    0.412   36.634
  103.250   33.263  199.011    0.326    0.416   36.889
  103.500   33.249  194.403    0.334    0.448   35.327
  103.750   33.236  194.316    0.367    0.431   32.268
  104.000   33.228  196.245    0.374    0.400   29.804
  104.250   32.909  198.163    0.354    0.403   30.954
  104.500   32.896  200.069    0.347    0.399   31.203
  104.750   32.581  201.486    0.360    0.392   31.144
  105.000   32.269  202.903    0.366    0.381   32.007
  105.250   31.963  203.807    0.351    0.383   32.243
  105.500   31.365  204.734    0.340    0.396   33.393
  105.750   31.065  205.638    0.336    0.409   35.753
  106.000   30.766  207.044    0.343    0.423   38.708
  106.250   30.473  208.482    0.358    0.432   36.551
