~VERSION INFORMATION
 VERS.                 2.0:   CWLS LOG ASCII STANDARD -VERSION 2.0
 WRAP.                  NO:   ONE LINE PER DEPTH STEP
~WELL INFORMATION BLOCK
#MNEM.UNIT           DATA                    DESCRIPTION OF MNEMONIC
#---------    -------------------            -------------------------------
# Generated from Intellog Unique Number	CS_69_70/WELL/819
NULL.         -999.25                        : NULL_VALUE
WELL.         AEC OIL AND GAS COMPANY        : Well_name    - WELL              
LOC .         00/07-14-070-05W4/0            : Location     - LOCATION          
UWI .         00/07-14-070-05W4/0            : Uwi          - UNIQUE WELL ID    
ENTR.         SP                             : Entered      - ENTERED BY        
SRVC.         SCHLUMBERGER                   : Scn          - SERVICE COMPANY   
STRT.M        300                            : top_depth    - START DEPTH       
STOP.M        535                            : bot_depth    - STOP DEPTH        
STEP.M        0.25                           : increment    - STEP LENGTH       
~CURVE INFORMATION BLOCK
#MNEM UNIT       ERCB CURVE CODE    CURVE DESCRIPTION
#-----------   ------------------   ----------------------------------
DEPT.M        00 001 00 00         : DEPTH        - DEPTH                       
ILD .OHMM     00 120 00 00         : RESD         - DEEP RESISTIVITY (DIL)      
DPHI.V/V      00 890 00 00         : PHID         - DENSITY POROSITY (LIMESTONE)
NPHI.V/V      00 330 00 00         : PHIN         - NEUTRON POROSITY (LIMESTONE)
GR  .API      00 310 00 00         : GR           - GAMMA RAY                   
~PARAMETER INFORMATION       
#MNEM.UNIT           DATA             DESCRIPTION OF MNEMONIC
#---------         -----------     ------------------------------
GL  .M        676.5                : gl           - GROUND LEVEL ELEVATION      
EREF.M        680.4                : kb           - ELEVATION OF DEPTH REFERENCE
DATM.M        676.5                : datum        - DATUM ELEVATION             
TDD .M        547                  : tdd          - TOTAL DEPTH DRILLER         
RUN .         ONE                  : Run          - RUN NUMBER                  
ENG .         BILL                 : Engineer     - RECORDING ENGINEER          
WIT .         JIM                  : Witness      - WITNESSED BY                
MUD .         GEL                  : Mud_type     - MUD TYPE                    
MATR.         LIMESTONE            : Logunit      - NEUTRON MATRIX              
TMAX.C        28                   : BHT          - MAXIMUM RECORDED TEMPERATURE
BHTD.M        547                  : BHTDEP       - MAXIMUM RECORDED TEMPERATURE
MATR.         1                    : LOGUNIT      - NEUTRON MATRIX              
RMT .C        25                   : MDTP         - TEMPERATURE OF MUD          
NEUT.         1                    : NEUTRON      - NEUTRON TYPE                
RESI.         0                    : RESIST       - RESISTIVITY TYPE            
RMC .OHMM     0.25                 : RMC          - RESISTIVITY OF MUD CAKE     
RMF .OHMM     0.25                 : RMF          - RESISTIVITY OF MUD FILTRATE 
SUFT.C        15                   : SUFT         - SURFACE TEMPERATURE         
~A  DEPTH     RESD     PHID     PHIN       GR
# ...
  474.000   12.062    0.242    0.400   67.773
  474.250   11.403    0.277    0.420   84.097
  474.500   10.781    0.305    0.446   88.930
  474.750   10.386    0.300    0.457   91.948
  475.000   10.587    0.258    0.422   89.523
  475.250   10.589    0.245    0.407   85.887
  475.500   10.795    0.250    0.402   84.067
  475.750   10.596    0.247    0.391   88.897
  476.000   10.402    0.239    0.374   88.893
  476.250   10.404    0.225    0.350   88.887
  476.500   11.653    0.233    0.364   90.091
  476.750   13.551    0.240    0.388   85.850
  477.000   14.613    0.256    0.415   79.797
  477.250   19.027    0.262    0.434   69.509
  477.500   20.519    0.281    0.414   59.825
  477.750   23.862    0.268    0.376   53.771
  478.000   25.255    0.281    0.355   46.507
  478.250   25.743    0.289    0.342   48.316
  478.500   19.055    0.295    0.339   61.613
  478.750   15.207    0.276    0.352   67.053
  479.000   12.136    0.252    0.359   80.957
  479.250    9.505    0.237    0.337   89.420
  479.500    8.492    0.212    0.327   91.225
  479.750    7.732    0.199    0.341   92.430
  480.000    7.310    0.189    0.359   94.239
  480.250    7.042    0.185    0.377   95.443
  480.500    6.784    0.183    0.377   97.856
  480.750    6.536    0.186    0.387   99.665
  481.000    6.415    0.186    0.393  100.869
  481.250    6.663    0.180    0.392  101.467
  481.500    6.921    0.178    0.403   99.647
  481.750    7.055    0.178    0.407   83.310
  482.000    7.467    0.186    0.396   77.862
  482.250    7.756    0.196    0.386   80.880
  482.500    7.758    0.195    0.380   85.712
  482.750    7.335    0.190    0.362   87.521
  483.000    7.199    0.190    0.351   90.538
  483.250    6.936    0.187    0.342   94.765
  483.500    6.809    0.182    0.363   97.784
  483.750    6.684    0.180    0.381   98.383
  484.000    6.685    0.184    0.397   95.351
  484.250    7.076    0.184    0.389   90.507
  484.500    7.632    0.184    0.395   85.058
  484.750    8.709    0.203    0.400   78.400
  485.000    9.571    0.233    0.378   72.346
  485.250   10.520    0.254    0.362   69.316
  485.500   10.926    0.237    0.360   68.100
  485.750   11.349    0.248    0.380   67.489
  486.000   10.729    0.252    0.368   73.531
  486.250    9.408    0.220    0.361   83.806
  486.500    8.728    0.181    0.364   89.245
  486.750    8.099    0.162    0.375   91.053
  487.000    7.949    0.161    0.368   91.047
  487.250    8.257    0.167    0.369   88.622
  487.500    9.248    0.187    0.381   83.778
  487.750    9.605    0.194    0.386   77.118
  488.000   10.360    0.216    0.374   73.483
  488.250   10.558    0.223    0.350   76.501
  488.500   10.365    0.212    0.350   81.937
  488.750    9.985    0.215    0.368   86.165
  489.000    9.264    0.190    0.378   88.579
  489.250    8.435    0.145    0.353   89.178
  489.500    7.974    0.154    0.336   90.382
  489.750    7.681    0.179    0.371   91.586
  490.000    7.540    0.186    0.378   91.579
  490.250    7.686    0.195    0.362   90.364
  490.500    8.291    0.186    0.371   92.172
  490.750    8.611    0.186    0.373   92.166
  491.000    9.113    0.203    0.373   81.273
  491.250    9.645    0.232    0.374   71.591
  491.500   10.804    0.208    0.366   75.818
  491.750   11.434    0.197    0.358   77.022
  492.000   11.876    0.188    0.364   71.572
  492.250   12.335    0.199    0.367   65.517
  492.500   12.572    0.219    0.361   69.139
  492.750   12.815    0.238    0.355   73.366
  493.000   12.579    0.219    0.357   73.362
  493.250   11.455    0.213    0.346   71.542
  493.500   10.828    0.209    0.340   83.632
  493.750   10.237    0.169    0.332   92.094
  494.000    9.862    0.156    0.357   91.482
  494.250    9.681    0.163    0.354   87.847
  494.500    9.867    0.178    0.335   85.423
  494.750   10.058    0.174    0.321   85.416
  495.000   10.646    0.171    0.332   84.201
  495.250   11.267    0.183    0.356   78.146
  495.500   12.619    0.201    0.362   75.117
  495.750   14.133    0.203    0.355   72.691
  496.000   15.241    0.213    0.356   64.821
  496.250   17.723    0.247    0.376   55.136
  496.500   21.003    0.280    0.404   51.505
  496.750   23.969    0.344    0.423   41.217
  497.000   25.367    0.362    0.405   36.371
  497.250   25.856    0.335    0.383   46.646
  497.500   25.381    0.307    0.378   51.480
  497.750   21.842    0.283    0.376   50.869
  498.000   19.885    0.267    0.371   50.862
  498.250   18.448    0.241    0.365   56.300
  498.500   17.116    0.231    0.359   68.391
  498.750   17.779    0.215    0.355   74.434
  499.000   18.464    0.207    0.376   68.984
  499.250   21.883    0.202    0.386   60.510
  499.500   23.598    0.252    0.392   49.618
  499.750   27.967    0.257    0.366   40.539
  500.000   38.484    0.293    0.389   47.176
  500.250   54.905    0.331    0.403   41.124
  500.500   60.279    0.346    0.418   29.023
  500.750   66.176    0.351    0.403   24.784
  501.000   48.126    0.337    0.365   27.803
  501.250   28.486    0.323    0.350   35.058
  501.500   22.326    0.297    0.339   48.359
  501.750   19.579    0.271    0.339   57.428
  502.000   17.825    0.257    0.351   64.076
  502.250   17.167    0.249    0.362   68.911
  502.500   16.843    0.246    0.361   65.883
  502.750   17.155    0.244    0.361   61.643
  503.000   17.807    0.254    0.373   61.036
  503.250   18.829    0.263    0.381   70.708
  503.500   19.544    0.276    0.379   69.495
  503.750   20.284    0.270    0.370   62.232
  504.000   21.450    0.249    0.353   58.599
  504.250   23.112    0.231    0.352   57.990
  504.500   26.837    0.223    0.373   56.776
  504.750   31.753    0.249    0.372   54.957
  505.000   37.568    0.295    0.362   56.163
  505.250   43.629    0.309    0.357   49.505
  505.500   56.687    0.333    0.389   39.824
  505.750   76.464    0.346    0.413   29.538
  506.000  103.137    0.333    0.402   25.904
  506.250  115.364    0.323    0.377   25.295
  506.500  121.997    0.314    0.359   27.105
  506.750  105.002    0.312    0.364   27.707
  507.000   74.948    0.309    0.357   26.493
  507.250   53.492    0.289    0.344   30.721
  507.500   45.186    0.281    0.355   40.393
  507.750   41.139    0.268    0.357   45.832
  508.000   39.617    0.270    0.355   48.247
  508.250   46.874    0.279    0.353   47.640
  508.500   60.901    0.275    0.368   42.796
  508.750   74.810    0.287    0.378   37.955
  509.000   95.388    0.295    0.360   30.691
  509.250  102.781    0.300    0.335   28.269
  509.500  108.690    0.300    0.324   27.055
  509.750  112.807    0.296    0.317   28.865
  510.000   95.291    0.292    0.319   33.094
  510.250   83.569    0.291    0.349   33.090
  510.500  102.649    0.305    0.377   28.246
  510.750  149.224    0.317    0.376   26.428
  511.000  179.898    0.327    0.371   25.214
  511.250  193.832    0.330    0.373   25.209
  511.500  197.429    0.325    0.371   25.810
  511.750  197.368    0.318    0.368   25.805
  512.000  201.061    0.321    0.372   25.197
  512.250  216.609    0.332    0.376   24.588
  512.500  220.675    0.335    0.379   24.583
  512.750  216.516    0.335    0.373   23.370
  513.000  200.838    0.332    0.374   21.551
  513.250  179.456    0.335    0.388   20.943
  513.500  154.450    0.332    0.384   22.146
  513.750  143.281    0.329    0.374   22.748
  514.000  121.027    0.324    0.359   23.348
  514.250  110.192    0.322    0.356   23.948
  514.500   93.084    0.319    0.352   24.549
  514.750   75.737    0.323    0.360   24.546
  515.000   70.259    0.327    0.363   25.750
  515.250   63.966    0.330    0.350   26.955
  515.500   57.151    0.327    0.344   28.162
  515.750   53.017    0.332    0.359   29.366
  516.000   46.489    0.337    0.372   29.968
  516.250   41.541    0.337    0.372   31.173
  516.500   37.119    0.334    0.356   32.379
  516.750   33.168    0.335    0.357   37.213
  517.000   29.086    0.328    0.386   40.233
  517.250   33.773    0.322    0.387   39.624
