~VERSION INFORMATION
 VERS.                 2.0:   CWLS LOG ASCII STANDARD -VERSION 2.0
 WRAP.                  NO:   ONE LINE PER DEPTH STEP
~WELL INFORMATION BLOCK
#MNEM.UNIT           DATA                    DESCRIPTION OF MNEMONIC
#---------    -------------------            -------------------------------
# Generated from Intellog Unique Number	CX_WELLS/WELL/2567
WELL.         SIEBENS COWFAR                 : Well_name    - WELL
LOC .         00/06-34-080-03W4/0            : Location     - LOCATION
UWI .         00/06-34-080-03W400            : Uwi          - UNIQUE WELL ID
ENTR.         T                              : Entered      - ENTERED BY
SRVC.         SCHLUMBERGER                   : Scn          - SERVICE COMPANY
STRT.F        300                            : top_depth    - START DEPTH
STOP.F        970.112                        : bot_depth    - STOP DEPTH
STEP.F        0.82                           : increment    - STEP LENGTH
 NULL. -999.2500:NULL Value
~CURVE INFORMATION BLOCK
#MNEM UNIT       ERCB CURVE CODE    CURVE DESCRIPTION
#-----------   ------------------   ----------------------------------
DEPT.F        00 001 00 00         : DEPTH        - DEPTH
GR  .API      00 310 00 00         : GR           - GAMMA RAY
NPHI.V/V      00 330 00 00         : PHIN         - NEUTRON POROSITY (SANDSTONE)
DPHI.V/V      00 890 00 00         : PHID         - DENSITY POROSITY (SANDSTONE)
ILD .OHMM     00 120 00 00         : RESD         - DEEP RESISTIVITY (DIL)
~PARAMETER INFORMATION
#MNEM.UNIT           DATA             DESCRIPTION OF MNEMONIC
#---------         -----------     ------------------------------
GL  .F        1635                 : gl           - GROUND LEVEL ELEVATION
EREF.F        1647                 : kb           - ELEVATION OF DEPTH REFERENCE
DATM.F        1647                 : datum        - DATUM ELEVATION
TDD .F        1018                 : tdd          - TOTAL DEPTH DRILLER
RUN .         ONE                  : Run          - RUN NUMBER
ENG .         BILL                 : Engineer     - RECORDING ENGINEER
WIT .         JIM                  : Witness      - WITNESSED BY
MUD .         GEL                  : Mud_type     - MUD TYPE
MATR.         SANDSTONE            : Logunit      - NEUTRON MATRIX
TMAX.F        71.6                 : BHT          - MAXIMUM RECORDED TEMPERATURE
BHTD.F        1018                 : BHTDEP       - MAXIMUM RECORDED TEMPERATURE
MATR.         1                    : LOGUNIT      - NEUTRON MATRIX
RMT .F        77                   : MDTP         - TEMPERATURE OF MUD
NEUT.         1                    : NEUTRON      - NEUTRON TYPE
RESI.         6.29                 : RESIST       - RESISTIVITY TYPE
RMC .OHMM     7.15                 : RMC          - RESISTIVITY OF MUD CAKE
RMF .OHMM     7.15                 : RMF          - RESISTIVITY OF MUD FILTRATE
SUFT.F        32                   : SUFT         - SURFACE TEMPERATURE
~A  DEPTH       GR     PHIN     PHID     RESD
# ...
  728.150   89.974    0.453    0.220    4.403
  728.970   92.269    0.456    0.220    4.564
  729.790   95.709    0.462    0.219    4.728
  730.610   98.576    0.469    0.218    4.809
  731.430   99.702    0.503    0.222    4.803
  732.251   99.683    0.518    0.232    4.707
  733.071   99.659    0.530    0.235    4.528
  733.891   99.628    0.538    0.235    4.277
  734.711   99.019    0.532    0.232    4.040
  735.531   98.994    0.522    0.226    3.745
  736.352   98.397    0.516    0.223    3.471
  737.172   96.637    0.511    0.223    3.215
  737.992   97.191    0.522    0.225    3.213
  738.812   98.889    0.528    0.233    3.205
  739.633   99.449    0.540    0.241    3.204
  740.453   98.840    0.549    0.237    3.197
  741.273   97.658    0.560    0.236    3.192
  742.093   97.633    0.560    0.237    3.248
  742.913   97.597    0.530    0.242    3.304
  743.734   97.006    0.502    0.244    3.360
  744.554   96.403    0.473    0.247    3.358
  745.374   92.908    0.459    0.246    3.478
  746.194   91.135    0.464    0.241    3.539
  747.014   92.274    0.486    0.230    3.600
  747.835   94.556    0.495    0.221    3.731
  748.655   95.695    0.501    0.214    3.867
  749.475   95.670    0.507    0.208    4.008
  750.295   91.584    0.482    0.203    4.154
  751.115   87.505    0.445    0.198    4.302
  751.936   86.914    0.425    0.188    4.380
  752.756   84.576    0.418    0.185    4.456
  753.576   79.911    0.426    0.223    4.530
  754.396   77.001    0.434    0.233    4.607
  755.217   73.506    0.439    0.238    4.604
  756.037   69.426    0.445    0.248    4.511
  756.857   64.775    0.446    0.256    4.338
  757.677   63.015    0.440    0.259    4.254
  758.497   64.147    0.446    0.268    4.093
  759.318   65.857    0.451    0.274    4.010
  760.138   65.242    0.459    0.276    3.931
  760.958   69.850    0.460    0.274    3.714
  761.778   79.080    0.461    0.263    3.378
  762.598   84.839    0.470    0.254    3.131
  763.419   88.863    0.481    0.248    3.012
  764.239   92.309    0.474    0.245    2.898
  765.059   89.965    0.428    0.245    2.840
  765.879   85.307    0.411    0.249    2.783
  766.699   81.818    0.407    0.254    2.728
  767.520   77.160    0.400    0.257    2.724
  768.340   76.563    0.395    0.259    2.719
  769.160   76.526    0.393    0.260    2.768
  769.980   76.507    0.393    0.260    2.814
  770.801   77.061    0.394    0.260    2.812
  771.621   77.036    0.394    0.259    2.914
  772.441   76.421    0.394    0.257    2.963
  773.261   75.233    0.392    0.252    3.071
  774.081   74.058    0.391    0.248    3.182
  774.902   73.461    0.394    0.243    3.239
  775.722   75.171    0.397    0.237    3.356
  776.542   80.352    0.398    0.235    3.415
  777.362   87.256    0.399    0.234    3.474
  778.182   86.075    0.396    0.234    3.467
  779.003   84.321    0.385    0.236    3.463
  779.823   80.826    0.377    0.246    3.392
  780.643   75.590    0.374    0.249    3.389
  781.463   70.938    0.375    0.256    3.323
  782.283   64.551    0.384    0.265    3.318
  783.104   59.899    0.399    0.274    3.313
  783.924   55.241    0.404    0.281    3.432
  784.744   51.746    0.404    0.293    3.428
  785.564   47.660    0.402    0.303    3.236
  786.385   44.165    0.397    0.310    2.890
  787.205   42.990    0.395    0.306    2.680
  788.025   41.230    0.393    0.304    2.438
  788.845   40.627    0.388    0.298    2.176
  789.665   41.746    0.385    0.291    2.095
  790.486   44.620    0.377    0.285    1.978
  791.306   46.896    0.373    0.279    1.938
  792.126   48.613    0.367    0.276    1.900
  792.946   51.487    0.362    0.274    1.827
  793.766   72.284    0.361    0.264    1.825
  794.587   75.145    0.359    0.246    1.822
  795.407   73.957    0.381    0.233    1.821
  796.227   69.890    0.394    0.248    1.852
  797.047   51.935    0.400    0.277    1.955
  797.867   47.856    0.399    0.292    2.064
  798.688   46.674    0.395    0.285    2.140
  799.508   48.957    0.392    0.275    2.176
  800.328   50.667    0.389    0.274    2.174
  801.148   50.643    0.383    0.281    2.090
  801.969   49.455    0.379    0.288    2.011
  802.789   48.846    0.379    0.288    1.829
  803.609   48.255    0.379    0.284    1.761
  804.429   46.495    0.380    0.283    1.694
  805.249   44.151    0.380    0.285    1.692
  806.070   44.114    0.377    0.289    1.721
  806.890   45.252    0.374    0.290    1.782
  807.710   45.812    0.375    0.290    1.814
  808.530   47.516    0.380    0.294    1.844
  809.350   49.221    0.386    0.296    1.842
  810.171   50.931    0.395    0.300    1.840
  810.991   52.063    0.404    0.300    1.803
  811.811   50.888    0.407    0.298    1.801
  812.631   42.187    0.408    0.298    1.765
  813.451   36.945    0.403    0.303    1.666
  814.272   36.342    0.390    0.307    1.634
  815.092   36.323    0.378    0.307    1.571
  815.912   38.600    0.377    0.305    1.540
  816.732   39.744    0.378    0.302    1.539
  817.552   43.184    0.383    0.295    1.536
  818.373   48.943    0.385    0.282    1.562
  819.193   52.389    0.381    0.267    1.560
  820.013   55.834    0.379    0.294    1.557
  820.833   52.918    0.383    0.300    1.527
  821.654   50.579    0.390    0.299    1.469
  822.474   53.434    0.397    0.292    1.387
  823.294   55.723    0.400    0.280    1.384
  824.114   53.379    0.400    0.273    1.408
  824.934   51.625    0.396    0.278    1.434
  825.755   48.124    0.393    0.301    1.514
  826.575   46.942    0.392    0.309    1.569
  827.395   47.490    0.390    0.307    1.656
  828.215   48.056    0.388    0.288    1.716
  829.035   49.767    0.386    0.275    1.746
  829.856   53.778    0.388    0.275    1.743
  830.676   55.489    0.393    0.278    1.741
  831.496   57.199    0.395    0.287    1.706
  832.316   54.289    0.396    0.303    1.672
  833.136   44.425    0.394    0.315    1.609
  833.957   38.617    0.390    0.318    1.607
  834.777   36.278    0.385    0.318    1.604
  835.597   37.404    0.380    0.319    1.602
  836.417   37.964    0.375    0.313    1.630
  837.238   38.505    0.370    0.304    1.627
  838.058   38.487    0.370    0.300    1.595
  838.878   37.299    0.372    0.305    1.506
  839.698   37.281    0.372    0.310    1.476
  840.518   37.238    0.372    0.310    1.393
  841.339   38.376    0.371    0.309    1.366
  842.159   38.357    0.371    0.306    1.315
  842.979   37.754    0.396    0.308    1.241
  843.799   35.410    0.407    0.310    1.216
  844.619   34.216    0.399    0.312    1.260
  845.440   34.204    0.372    0.316    1.306
  846.260   34.173    0.369    0.317    1.329
  847.080   34.142    0.368    0.317    1.328
  847.900   34.130    0.368    0.314    1.301
  848.720   34.671    0.371    0.311    1.298
  849.541   35.803    0.373    0.308    1.297
  850.361   37.520    0.375    0.282    1.295
  851.181   40.959    0.378    0.268    1.317
  852.001   42.676    0.380    0.275    1.340
  852.822   43.224    0.383    0.280    1.339
  853.642   42.608    0.387    0.293    1.361
  854.462   42.011    0.392    0.302    1.384
  855.282   41.986    0.399    0.310    1.383
  856.102   41.390    0.407    0.313    1.381
  856.923   37.870    0.405    0.312    1.379
  857.743   37.279    0.398    0.313    1.351
  858.563   36.676    0.391    0.313    1.375
  859.383   36.651    0.390    0.313    1.399
  860.203   37.205    0.391    0.313    1.396
  861.024   37.759    0.394    0.310    1.395
  861.844   38.312    0.397    0.305    1.366
  862.664   39.445    0.397    0.301    1.339
  863.484   39.414    0.393    0.307    1.313
  864.304   39.370    0.387    0.314    1.286
  865.125   39.930    0.385    0.316    1.261
  865.945   39.918    0.384    0.321    1.236
  866.765   41.050    0.384    0.320    1.212
  867.585   45.074    0.384    0.306    1.210
  868.406   54.304    0.385    0.276    1.231
  869.226   62.377    0.386    0.263    1.275
  870.046   65.232    0.390    0.268    1.322
