~VERSION INFORMATION
 VERS.                 2.0:   CWLS LOG ASCII STANDARD -VERSION 2.0
 WRAP.                  NO:   ONE LINE PER DEPTH STEP
~WELL INFORMATION BLOCK
#MNEM.UNIT           DATA                    DESCRIPTION OF MNEMONIC
#---------    -------------------            -------------------------------
# Generated from Intellog Unique Number	CX_WELLS/WELL/4007
WELL.         PRECAM THORNBURY               : Well_name    - WELL
LOC .         00/04-30-078-13W4/0            : Location     - LOCATION
UWI .         00/04-30-078-13W4/0            : Uwi          - UNIQUE WELL ID
ENTR.         T                              : Entered      - ENTERED BY
SRVC.         SCHLUMBERGER                   : Scn          - SERVICE COMPANY
DATE.         03/06/92                       : Date         - LOG DATE
STRT.M        275                            : top_depth    - START DEPTH
STOP.M        505                            : bot_depth    - STOP DEPTH
STEP.M        0.25                           : increment    - STEP LENGTH
 NULL. -999.2500:NULL Value
~CURVE INFORMATION BLOCK
#MNEM UNIT       ERCB CURVE CODE    CURVE DESCRIPTION
#-----------   ------------------   ----------------------------------
DEPT.M        00 001 00 00         : DEPTH        - DEPTH
GR  .API      00 310 00 00         : GR           - GAMMA RAY
NPHI.V/V      00 330 00 00         : PHIN         - NEUTRON POROSITY (SANDSTONE)
DPHI.V/V      00 890 00 00         : PHID         - DENSITY POROSITY (SANDSTONE)
ILD .OHMM     00 120 00 00         : RESD         - DEEP RESISTIVITY (DIL)
~PARAMETER INFORMATION
#MNEM.UNIT           DATA             DESCRIPTION OF MNEMONIC
#---------         -----------     ------------------------------
GL  .M        675                  : gl           - GROUND LEVEL ELEVATION
EREF.M        679                  : kb           - ELEVATION OF DEPTH REFERENCE
DATM.M        679                  : datum        - DATUM ELEVATION
TDD .M        508                  : tdd          - TOTAL DEPTH DRILLER
RUN .         ONE                  : Run          - RUN NUMBER
ENG .         JO                   : Engineer     - RECORDING ENGINEER
WIT .         TIM                  : Witness      - WITNESSED BY
MUD .         GEL                  : Mud_type     - MUD TYPE
MATR.         SANDSTONE            : Logunit      - NEUTRON MATRIX
TMAX.C        19                   : BHT          - MAXIMUM RECORDED TEMPERATURE
BHTD.M        508                  : BHTDEP       - MAXIMUM RECORDED TEMPERATURE
RMT .C        19                   : MDTP         - TEMPERATURE OF MUD
MUDD.KG/M     1170                 : MWT          - MUD DENSITY
NEUT.         1                    : NEUTRON      - NEUTRON TYPE
RESI.         7.5                  : RESIST       - RESISTIVITY TYPE
RM  .OHMM     7.78                 : RM           - RESISTIVITY OF MUD
RMC .OHMM     7.78                 : RMC          - RESISTIVITY OF MUD CAKE
RMF .OHMM     7.78                 : RMF          - RESISTIVITY OF MUD FILTRATE
SUFT.C        4                    : SUFT         - SURFACE TEMPERATURE
~A  DEPTH       GR     PHIN     PHID     RESD
  275.000   95.902    0.455    0.224    6.182
  275.250   92.259    0.447    0.205    6.682
  275.500   89.218    0.435    0.166    7.796
  275.750   83.721    0.427    0.172    8.427
  276.000   85.023    0.424    0.202    8.940
  276.250   89.415    0.432    0.207    8.959
  276.500   95.662    0.439    0.212    8.336
  276.750  101.306    0.454    0.223    5.745
  277.000  105.715    0.470    0.238    5.353
  277.250  107.635    0.477    0.211    5.067
  277.500  107.701    0.478    0.222    4.902
  277.750  107.132    0.472    0.233    4.821
  278.000  107.198    0.475    0.238    4.831
  278.250  109.785    0.484    0.239    4.670
  278.500  111.071    0.496    0.240    4.680
  278.750  110.518    0.503    0.241    4.785
  279.000  109.949    0.514    0.241    4.986
  279.250  106.307    0.489    0.242    5.091
  279.500  102.664    0.474    0.250    5.615
  279.750   97.167    0.437    0.263    5.838
  280.000   93.524    0.430    0.270    6.430
  280.250   89.898    0.439    0.277    8.717
  280.500   87.491    0.442    0.286    9.076
  280.750   87.557    0.431    0.296    9.267
  281.000   90.729    0.429    0.279    9.662
  281.250   93.234    0.425    0.253   10.053
  281.500   96.407    0.414    0.201   10.665
  281.750   97.725    0.410    0.209   11.104
  282.000   97.156    0.405    0.221   11.346
  282.250   96.002    0.401    0.254   11.378
  282.500   96.686    0.407    0.270   11.643
  282.750   97.370    0.424    0.272   11.897
  283.000   96.200    0.435    0.279   12.148
  283.250   94.395    0.431    0.284   12.192
  283.500   91.386    0.434    0.292   11.768
  283.750   89.581    0.440    0.302   10.561
  284.000   87.793    0.442    0.283   10.194
  284.250   97.146    0.441    0.246   10.409
  284.500  102.157    0.438    0.272   11.058
  284.750  105.947    0.434    0.284   11.074
  285.000   99.198    0.432    0.307   10.696
  285.250   88.756    0.428    0.320   11.145
  285.500   83.259    0.424    0.332   15.372
  285.750   82.105    0.421    0.334   17.276
  286.000   82.154    0.420    0.339   17.974
  286.250   82.838    0.421    0.345   19.839
  286.500   82.936    0.421    0.350   19.867
  286.750   82.986    0.421    0.341   19.924
  287.000   82.450    0.421    0.332   19.595
  287.250   82.483    0.423    0.325   20.037
  287.500   88.144    0.426    0.323   20.474
  287.750   89.446    0.426    0.326   20.562
  288.000   88.292    0.424    0.324   20.591
  288.250   86.471    0.420    0.328   20.679
  288.500   82.226    0.423    0.330   20.338
  288.750   83.511    0.423    0.325   20.003
  289.000   88.538    0.413    0.315   19.715
  289.250   91.093    0.405    0.310   19.743
  289.500   93.029    0.401    0.305   19.431
  289.750   93.062    0.396    0.296   19.165
  290.000   91.274    0.383    0.282   19.206
  290.250   87.013    0.377    0.274   19.261
  290.500   72.862    0.372    0.276   19.302
  290.750   68.585    0.367    0.270   19.384
  291.000   57.542    0.368    0.258   19.064
  291.250   63.170    0.384    0.250   18.060
  291.500   63.854    0.398    0.241   15.884
  291.750   71.337    0.402    0.231   14.234
  292.000   78.201    0.403    0.216   12.067
  292.250   84.464    0.406    0.195   10.806
  292.500   89.491    0.414    0.179    9.867
  292.750   93.249    0.428    0.179    9.009
  293.000  101.366    0.443    0.190    8.388
  293.250  106.377    0.462    0.197    8.097
  293.500  115.112    0.491    0.200    7.398
  293.750  121.977    0.499    0.205    7.136
  294.000  125.133    0.506    0.212    6.639
  294.250  122.124    0.496    0.205    6.539
  294.500  124.646    0.492    0.196    6.431
  294.750  128.437    0.500    0.200    6.212
  295.000  125.412    0.511    0.202    6.123
  295.250  122.420    0.507    0.199    6.136
  295.500  121.217    0.503    0.183    6.158
  295.750  120.046    0.499    0.174    6.175
  296.000  117.656    0.495    0.178    6.193
  296.250  117.706    0.500    0.186    6.210
  296.500  119.642    0.515    0.195    6.228
  296.750  122.180    0.526    0.200    6.125
  297.000  125.336    0.535    0.217    5.811
  297.250  127.874    0.506    0.236    5.505
  297.500  129.794    0.482    0.255    5.122
  297.750  126.151    0.464    0.270    4.855
  298.000  121.890    0.449    0.274    4.961
  298.250  117.630    0.445    0.274    5.572
  298.500  115.841    0.441    0.274    6.253
  298.750  115.289    0.436    0.276    7.285
  299.000  115.371    0.432    0.257    8.655
  299.250  115.420    0.427    0.241    9.897
  299.500  115.502    0.424    0.229   10.698
  299.750  114.348    0.423    0.242    9.782
  300.000  113.145    0.436    0.267    9.436
  300.250  108.900    0.452    0.269    8.462
  300.500  111.439    0.461    0.237    8.179
  300.750  115.213    0.467    0.207    8.191
  301.000  120.223    0.451    0.196    8.702
  301.250  125.852    0.429    0.207    9.066
  301.500  129.659    0.412    0.245    9.251
  301.750  123.527    0.397    0.251    9.814
  302.000  113.687    0.399    0.254   10.218
  302.250  110.061    0.405    0.259   11.053
  302.500  110.728    0.413    0.270   11.743
  302.750  108.354    0.421    0.287   11.999
  303.000  104.695    0.427    0.293   12.024
  303.250  103.508    0.421    0.287   12.278
  303.500  107.917    0.413    0.284   12.555
  303.750  111.691    0.407    0.278   12.600
  304.000  115.482    0.398    0.277   12.644
  304.250  116.767    0.404    0.269   12.662
  304.500  115.028    0.414    0.264   12.707
  304.750  111.970    0.415    0.260   12.753
  305.000  108.929    0.407    0.253   12.534
  305.250  103.449    0.406    0.246   12.569
  305.500   97.935    0.397    0.239   12.371
  305.750   91.202    0.390    0.230   12.406
  306.000   83.851    0.379    0.251   12.441
  306.250   75.263    0.370    0.283   12.485
  306.500   68.514    0.367    0.297   12.521
  306.750   74.777    0.376    0.314   12.565
  307.000   80.405    0.387    0.298   12.601
  307.250   85.415    0.405    0.287   12.402
  307.500   91.678    0.411    0.279   11.980
  307.750   96.689    0.413    0.274   11.563
  308.000  102.317    0.416    0.268   10.758
  308.250  109.816    0.429    0.254   10.009
  308.500  117.299    0.456    0.242    9.313
  308.750  124.180    0.471    0.231    8.050
  309.000  124.246    0.458    0.237    7.770
  309.250  116.895    0.451    0.243    7.647
  309.500  110.161    0.454    0.243    7.521
  309.750  104.648    0.461    0.242    7.685
  310.000   98.533    0.470    0.243    8.465
  310.250   94.923    0.478    0.243    9.506
  310.500   94.956    0.487    0.242    9.547
  310.750   95.640    0.494    0.241    9.560
  311.000   96.958    0.486    0.238    9.594
  311.250   98.894    0.474    0.239    9.615
  311.500  100.196    0.444    0.244    9.649
  311.750  100.880    0.439    0.256    9.669
  312.000  102.182    0.446    0.272    9.887
  312.250  102.866    0.457    0.278   10.294
  312.500  101.061    0.456    0.264   10.929
  312.750   95.564    0.440    0.269   11.586
  313.000   83.268    0.410    0.293   12.761
  313.250   69.719    0.378    0.313   15.458
  313.500   59.895    0.358    0.331   16.698
  313.750   53.162    0.361    0.341   18.739
  314.000   50.154    0.400    0.337   20.668
  314.250   49.585    0.413    0.328   21.504
  314.500   54.596    0.425    0.307   21.596
  314.750   64.567    0.421    0.300   21.224
  315.000   73.286    0.408    0.297   19.394
  315.250   77.695    0.413    0.302   18.385
  315.500   73.434    0.418    0.308   19.156
  315.750   68.538    0.422    0.324   19.546
  316.000   60.569    0.431    0.340   21.158
  316.250   46.419    0.428    0.348   22.430
  316.500   45.281    0.418    0.352   24.704
  316.750   44.078    0.414    0.349   26.208
  317.000   41.671    0.416    0.343   29.433
  317.250   46.080    0.420    0.340   30.076
  317.500   48.602    0.421    0.339   30.754
  317.750   51.172    0.421    0.346   32.042
  318.000   52.474    0.418    0.351   32.695
  318.250   53.142    0.418    0.359   34.041
