~VERSION INFORMATION
 VERS.                 2.0:   CWLS LOG ASCII STANDARD -VERSION 2.0
 WRAP.                  NO:   ONE LINE PER DEPTH STEP
~WELL INFORMATION BLOCK
#MNEM.UNIT           DATA                    DESCRIPTION OF MNEMONIC
#---------    -------------------            -------------------------------
# Generated from Intellog Unique Number	CC_80_83/WELL/2321
NULL.         -999.25                        : NULL_VALUE
WELL.         NOVALTA GARSON                 : Well_name    - WELL
LOC .         09-13-083-02W4                 : Location     - LOCATION          
UWI .         00/09-13-083-02W400            : Uwi          - UNIQUE WELL ID    
ENTR.         DW                             : Entered      - ENTERED BY        
SRVC.         COMPUTALOG                     : Scn          - SERVICE COMPANY   
DATE.         01 FEB 83                      : Date         - LOG DATE
STRT.M        90                             : top_depth    - START DEPTH       
STOP.M        335.098                        : bot_depth    - STOP DEPTH        
STEP.M        0.3                            : increment    - STEP LENGTH       
~CURVE INFORMATION BLOCK
#MNEM UNIT       ERCB CURVE CODE    CURVE DESCRIPTION
#-----------   ------------------   ----------------------------------
DEPT.M        00 001 00 00         : DEPTH        - DEPTH                       
DPHI.V/V      00 890 00 00         : PHID         - DENSITY POROSITY (LIMESTONE)
NPHI.V/V      00 330 00 00         : PHIN         - NEUTRON POROSITY (LIMESTONE)
GR  .API      00 310 00 00         : GR           - GAMMA RAY                   
ILD .OHMM     00 120 00 00         : RESD         - DEEP RESISTIVITY (DIL)      
~PARAMETER INFORMATION       
#MNEM.UNIT           DATA             DESCRIPTION OF MNEMONIC
#---------         -----------     ------------------------------
GL  .M        477.66               : gl           - GROUND LEVEL ELEVATION      
EREF.M        480.66               : kb           - ELEVATION OF DEPTH REFERENCE
DATM.M        480.66               : datum        - DATUM ELEVATION             
TDD .M        340                  : tdd          - TOTAL DEPTH DRILLER         
RUN .         ONE                  : Run          - RUN NUMBER                  
ENG .         BILL                 : Engineer     - RECORDING ENGINEER          
WIT .         JIM                  : Witness      - WITNESSED BY                
MUD .         GEL                  : Mud_type     - MUD TYPE                    
MATR.         LIMESTONE            : Logunit      - NEUTRON MATRIX              
TMAX.C        22                   : BHT          - MAXIMUM RECORDED TEMPERATURE
BHTD.M        340                  : BHTDEP       - MAXIMUM RECORDED TEMPERATURE
MATR.         1                    : LOGUNIT      - NEUTRON MATRIX              
RMT .C        25                   : MDTP         - TEMPERATURE OF MUD          
NEUT.         1                    : NEUTRON      - NEUTRON TYPE                
RESI.         0                    : RESIST       - RESISTIVITY TYPE            
RMC .OHMM     0.25                 : RMC          - RESISTIVITY OF MUD CAKE     
RMF .OHMM     0.25                 : RMF          - RESISTIVITY OF MUD FILTRATE 
SUFT.C        15                   : SUFT         - SURFACE TEMPERATURE         
~A  DEPTH     PHID     PHIN       GR     RESD
# ...
  194.401    0.284    0.438   75.579    9.553
  194.701    0.263    0.447   71.875   10.500
  195.001    0.278    0.413   77.429   10.904
  195.301    0.274    0.395   82.983   11.760
  195.601    0.144    0.351   76.192   13.417
  195.901    0.161    0.284   66.933   15.024
  196.201    0.245    0.394   66.932   16.204
  196.501    0.269    0.403   75.572   16.219
  196.801    0.275    0.398   79.275   15.629
  197.101    0.274    0.394   84.829   14.786
  197.401    0.279    0.409   86.679   12.506
  197.701    0.279    0.421   87.296   11.615
  198.001    0.276    0.415   84.209   11.195
  198.301    0.238    0.378   75.566   10.992
  198.601    0.172    0.362   72.479   11.003
  198.901    0.228    0.389   78.033   11.431
  199.201    0.252    0.415   86.674   11.441
  199.501    0.271    0.447   82.969   11.234
  199.801    0.286    0.440   83.585   11.038
  200.101    0.279    0.434   84.819   10.638
  200.401    0.250    0.431   90.373   10.253
  200.701    0.228    0.435   97.161    9.522
  201.001    0.217    0.438  101.481    8.679
  201.301    0.216    0.432  100.863    8.364
  201.601    0.236    0.420   95.307    7.625
  201.901    0.236    0.425   90.368    7.349
  202.201    0.233    0.495   94.688    7.082
  202.501    0.236    0.516  104.562    6.578
  202.801    0.239    0.505  106.413    6.339
  203.101    0.247    0.492  104.560    5.671
  203.401    0.249    0.497  105.794    5.168
  203.701    0.248    0.495  108.261    4.981
  204.001    0.239    0.508  107.644    4.985
  204.301    0.236    0.482   90.977    5.179
  204.601    0.237    0.445   90.359    5.381
  204.901    0.248    0.466  103.320    5.285
  205.201    0.260    0.502  107.640    4.817
  205.501    0.260    0.494  112.576    4.473
  205.801    0.250    0.502  115.044    4.231
  206.101    0.244    0.502  108.254    4.003
  206.401    0.238    0.469   95.291    4.081
  206.701    0.228    0.476   93.439    4.570
  207.001    0.213    0.487  105.782    5.311
  207.301    0.206    0.462  103.930    6.531
  207.601    0.203    0.425   93.436    7.177
  207.901    0.206    0.431   94.052    7.741
  208.201    0.211    0.447   98.989    8.194
  208.501    0.210    0.457   98.371    8.837
  208.801    0.208    0.456   97.135    8.845
  209.101    0.245    0.442   94.665    8.365
  209.401    0.260    0.448   90.344    7.208
  209.701    0.266    0.459   87.257    7.349
  210.001    0.249    0.425   95.897    7.780
  210.301    0.229    0.406   95.896    8.083
  210.601    0.226    0.425   90.957    8.241
  210.901    0.233    0.462   89.722    8.403
  211.201    0.252    0.445   90.955    8.410
  211.501    0.240    0.431   94.040    8.414
  211.801    0.239    0.450   92.805    8.579
  212.101    0.261    0.451   90.335    8.588
  212.401    0.258    0.442   88.482    8.595
  212.701    0.233    0.461   91.567    8.599
  213.001    0.223    0.453   96.504    8.294
  213.301    0.264    0.421   86.628    8.298
  213.601    0.280    0.389   80.454    8.301
  213.901    0.275    0.380   80.453    8.309
  214.201    0.250    0.389   84.773    8.160
  214.501    0.217    0.404   91.561    8.014
  214.801    0.208    0.425   94.030    6.904
  215.101    0.249    0.482   90.325    5.219
  215.401    0.289    0.526   86.003    4.173
  215.701    0.290    0.515   84.768    3.662
  216.001    0.290    0.508   84.150    3.400
  216.301    0.289    0.519   86.618    3.217
  216.601    0.280    0.521   89.086    3.161
  216.901    0.278    0.520   89.085    3.222
  217.201    0.271    0.513   86.615    3.541
  217.501    0.248    0.482   84.762    4.193
  217.801    0.230    0.454   84.761    5.060
  218.101    0.224    0.456   87.229    5.883
  218.401    0.214    0.441   90.314    6.343
  218.701    0.214    0.454   90.931    6.714
  219.001    0.229    0.406   83.523    6.847
  219.301    0.237    0.388   81.671    6.724
  219.601    0.235    0.432   89.076    6.244
  219.901    0.245    0.423   94.630    5.908
  220.201    0.259    0.417   90.309    6.139
  220.501    0.277    0.427   80.432    6.377
  220.801    0.282    0.430   77.962    6.501
  221.101    0.249    0.466   84.133    6.268
  221.401    0.233    0.496   92.774    5.605
  221.701    0.245    0.498   97.710    4.832
  222.001    0.243    0.483  102.647    4.657
  222.301    0.233    0.454  102.646    4.572
  222.601    0.218    0.427   99.559    4.751
  222.901    0.228    0.431   98.324    4.936
  223.201    0.232    0.519   97.088    5.033
  223.501    0.239    0.517   98.322    4.851
  223.801    0.248    0.500   99.555    4.589
  224.101    0.254    0.491   97.703    4.261
  224.401    0.258    0.548  102.022    4.110
  224.701    0.259    0.543  108.811    4.112
  225.001    0.259    0.493  102.020    4.270
  225.301    0.242    0.448   95.230    5.452
  225.601    0.209    0.410   89.674    6.103
  225.901    0.207    0.423   87.821    6.341
  226.201    0.197    0.433   91.524    6.345
  226.501    0.202    0.421   95.226    6.351
  226.801    0.216    0.394   93.990    6.599
  227.101    0.225    0.353   73.621    6.726
  227.401    0.227    0.375   74.237    6.988
  227.701    0.224    0.389   77.940    6.992
  228.001    0.222    0.381   81.025    7.001
  228.301    0.223    0.375   82.258    6.875
  228.601    0.228    0.374   74.234    6.751
  228.901    0.289    0.359   48.926    6.038
  229.201    0.280    0.310   37.198    5.204
  229.501    0.272    0.279   35.963    5.015
  229.801    0.264    0.274   47.689    4.928
  230.101    0.255    0.316   60.033    4.930
  230.401    0.271    0.317   64.969    5.026
  230.701    0.271    0.324   64.969    5.030
  231.001    0.269    0.333   64.967    5.128
  231.301    0.260    0.334   66.201    5.428
  231.601    0.219    0.345   72.372    5.856
  231.901    0.224    0.360   74.840    6.083
  232.201    0.238    0.364   69.901    6.202
  232.501    0.251    0.329   62.494    5.979
  232.801    0.271    0.285   55.086    5.872
  233.101    0.271    0.305   60.640    5.877
  233.401    0.237    0.326   72.984    6.106
  233.701    0.216    0.333   83.475    6.585
  234.001    0.213    0.333   87.795    7.237
  234.301    0.213    0.334   93.966    7.806
  234.601    0.207    0.345   95.817    7.956
  234.901    0.197    0.348   89.026    8.113
  235.201    0.207    0.331   87.791    8.120
  235.501    0.211    0.332   90.876    7.828
  235.801    0.203    0.352   94.579    7.687
  236.101    0.199    0.362   93.960    7.839
  236.401    0.217    0.381   91.490    7.843
  236.701    0.218    0.384   95.810    7.849
  237.001    0.203    0.342   97.661    7.856
  237.301    0.196    0.340   92.722    7.860
  237.602    0.194    0.342   93.338    7.867
  237.902    0.197    0.348   97.658    7.872
  238.202    0.180    0.370   98.274    7.878
  238.502    0.202    0.375   98.273    7.741
  238.802    0.201    0.363   97.038    7.746
  239.102    0.187    0.354   93.333    7.749
  239.402    0.177    0.347   92.715    7.902
  239.702    0.190    0.347   99.504    7.906
  240.002    0.201    0.343  102.589    8.063
  240.302    0.203    0.337   97.032    7.918
  240.602    0.196    0.340   98.266    7.924
  240.902    0.187    0.354   99.500    7.639
  241.202    0.237    0.353   93.944    7.503
  241.502    0.245    0.335   83.450    7.231
  241.802    0.225    0.323   86.535    6.971
  242.102    0.209    0.338   90.855    6.849
  242.402    0.209    0.342   87.767    6.727
  242.702    0.254    0.342   74.188    6.605
  243.002    0.266    0.329   64.311    6.249
  243.302    0.262    0.323   64.310    6.023
  243.602    0.244    0.316   76.037    5.807
  243.902    0.209    0.312   85.911    5.812
  244.202    0.199    0.361   87.762    5.926
  244.502    0.250    0.361   83.440    6.156
  244.802    0.275    0.349   64.923    6.160
  245.102    0.277    0.318   65.539    5.829
  245.402    0.254    0.314   73.562    5.413
  245.702    0.241    0.355   78.499    5.416
  246.002    0.238    0.347   82.201    5.319
  246.302    0.215    0.332   92.693    5.423
