~VERSION INFORMATION
 VERS.                 2.0:   CWLS LOG ASCII STANDARD -VERSION 2.0
 WRAP.                  NO:   ONE LINE PER DEPTH STEP
~WELL INFORMATION BLOCK
#MNEM.UNIT           DATA                    DESCRIPTION OF MNEMONIC
#---------    -------------------            -------------------------------
# Generated from Intellog Unique Number	CS_73_76/WELL/2213
WELL.         PRECAMBRIAN SHIELD RESOURC     : Well_name    - WELL
LOC .         00/07-20-076-09W4/0            : Location     - LOCATION
UWI .         00/07-20-076-09W4/0            : Uwi          - UNIQUE WELL ID
ENTR.         SP                             : Entered      - ENTERED BY
SRVC.         SCHLUMBERGER                   : Scn          - SERVICE COMPANY
STRT.M        245                            : top_depth    - START DEPTH
STOP.M        495                            : bot_depth    - STOP DEPTH
STEP.M        0.25                           : increment    - STEP LENGTH
 NULL. -999.2500:NULL Value
~CURVE INFORMATION BLOCK
#MNEM UNIT       ERCB CURVE CODE    CURVE DESCRIPTION
#-----------   ------------------   ----------------------------------
DEPT.M        00 001 00 00         : DEPTH        - DEPTH
ILD .OHMM     00 120 00 00         : RESD         - DEEP RESISTIVITY (DIL)
DPHI.V/V      00 890 00 00         : PHID         - DENSITY POROSITY (LIMESTONE)
NPHI.V/V      00 330 00 00         : PHIN         - NEUTRON POROSITY (LIMESTONE)
GR  .API      00 310 00 00         : GR           - GAMMA RAY
~PARAMETER INFORMATION
#MNEM.UNIT           DATA             DESCRIPTION OF MNEMONIC
#---------         -----------     ------------------------------
GL  .M        677.49               : gl           - GROUND LEVEL ELEVATION
EREF.M        681.99               : kb           - ELEVATION OF DEPTH REFERENCE
DATM.M        677.49               : datum        - DATUM ELEVATION
TDD .M        498                  : tdd          - TOTAL DEPTH DRILLER
RUN .         ONE                  : Run          - RUN NUMBER
ENG .         BILL                 : Engineer     - RECORDING ENGINEER
WIT .         JIM                  : Witness      - WITNESSED BY
MUD .         GEL                  : Mud_type     - MUD TYPE
MATR.         LIMESTONE            : Logunit      - NEUTRON MATRIX
TMAX.C        20                   : BHT          - MAXIMUM RECORDED TEMPERATURE
BHTD.M        498                  : BHTDEP       - MAXIMUM RECORDED TEMPERATURE
MATR.         1                    : LOGUNIT      - NEUTRON MATRIX
RMT .C        25                   : MDTP         - TEMPERATURE OF MUD
NEUT.         1                    : NEUTRON      - NEUTRON TYPE
RESI.         0                    : RESIST       - RESISTIVITY TYPE
RMC .OHMM     0.25                 : RMC          - RESISTIVITY OF MUD CAKE
RMF .OHMM     0.25                 : RMF          - RESISTIVITY OF MUD FILTRATE
SUFT.C        15                   : SUFT         - SURFACE TEMPERATURE
~A  DEPTH     RESD     PHID     PHIN       GR
# ...
  419.000    7.799    0.331    0.396   54.782
  419.250    7.803    0.353    0.451   56.629
  419.500    7.660    0.344    0.441   57.861
  419.750    7.663    0.333    0.407   58.478
  420.000    7.523    0.330    0.407   57.873
  420.250    7.527    0.333    0.423   55.432
  420.500    7.252    0.346    0.429   53.603
  420.750    7.119    0.354    0.426   52.998
  421.000    6.860    0.347    0.412   52.393
  421.250    6.733    0.342    0.426   53.014
  421.500    6.738    0.355    0.412   53.634
  421.750    6.741    0.363    0.400   54.864
  422.000    6.744    0.355    0.413   54.260
  422.250    6.748    0.340    0.410   53.654
  422.500    6.878    0.340    0.386   53.665
  422.750    6.883    0.344    0.384   54.282
  423.000    6.885    0.333    0.394   54.901
  423.250    6.761    0.323    0.397   54.911
  423.500    6.763    0.326    0.408   55.529
  423.750    6.768    0.328    0.411   55.536
  424.000    6.771    0.333    0.416   54.933
  424.250    6.648    0.344    0.430   55.551
  424.500    6.651    0.342    0.449   56.783
  424.750    6.654    0.342    0.460   58.016
  425.000    6.533    0.348    0.459   58.635
  425.250    6.535    0.337    0.448   58.642
  425.500    6.538    0.309    0.441   59.878
  425.750    6.542    0.295    0.437   60.494
  426.000    6.545    0.298    0.428   62.950
  426.250    6.548    0.301    0.417   67.246
  426.500    6.429    0.263    0.391   70.314
  426.750    6.311    0.259    0.401   72.156
  427.000    5.532    0.266    0.414   74.612
  427.250    4.942    0.255    0.420   77.684
  427.500    4.416    0.254    0.424   79.525
  427.750    4.175    0.263    0.461   81.983
  428.000    4.177    0.267    0.483   83.216
  428.250    4.258    0.258    0.487   85.670
  428.500    4.509    0.246    0.465   91.188
  428.750    4.773    0.244    0.460   88.135
  429.000    5.054    0.244    0.458   86.308
  429.250    5.251    0.258    0.458   86.313
  429.500    5.560    0.262    0.456   86.932
  429.750    5.776    0.260    0.457   89.389
  430.000    6.001    0.248    0.457   90.620
  430.250    6.234    0.239    0.451   88.179
  430.500    6.478    0.240    0.444   88.187
  430.750    6.606    0.238    0.430   86.358
  431.000    6.608    0.219    0.414   84.528
  431.250    6.488    0.214    0.419   86.372
  431.500    6.369    0.223    0.405   89.441
  431.750    5.909    0.228    0.395   86.999
  432.000    5.483    0.229    0.397   83.333
  432.250    5.281    0.233    0.407   82.116
  432.500    5.088    0.235    0.415   79.064
  432.750    4.720    0.238    0.429   77.846
  433.000    4.298    0.222    0.427   80.916
  433.250    3.697    0.218    0.422   84.598
  433.500    3.241    0.231    0.420   85.215
  433.750    2.896    0.257    0.432   83.999
  434.000    2.539    0.290    0.451   81.556
  434.250    2.400    0.302    0.512   77.279
  434.500    2.356    0.311    0.547   77.286
  434.750    2.402    0.305    0.522   79.742
  435.000    2.404    0.289    0.488   81.588
  435.250    2.451    0.283    0.488   82.208
  435.500    2.498    0.297    0.504   78.541
  435.750    2.548    0.295    0.509   77.936
  436.000    2.548    0.282    0.516   77.330
  436.250    2.598    0.274    0.516   73.665
  436.500    2.649    0.268    0.532   76.123
  436.750    2.804    0.260    0.550   79.803
  437.000    3.202    0.253    0.554   81.647
  437.250    3.520    0.264    0.528   83.492
  437.500    4.020    0.279    0.527   84.111
  437.750    4.504    0.277    0.540   82.893
  438.000    5.047    0.259    0.439   82.900
  438.250    5.549    0.250    0.407   84.132
  438.500    5.987    0.238    0.415   83.527
  438.750    6.339    0.229    0.439   81.088
  439.000    6.586    0.232    0.465   78.034
  439.250    6.842    0.232    0.426   76.815
  439.500    6.845    0.141    0.388   75.598
  439.750    6.232    0.116    0.365   75.605
  440.000    5.782    0.147    0.373   79.286
  440.250    5.069    0.183    0.399   85.418
  440.500    4.615    0.211    0.416   89.097
  440.750    4.445    0.222    0.427   85.432
  441.000    4.203    0.230    0.411   82.377
  441.250    4.050    0.215    0.416   84.222
  441.500    3.975    0.205    0.437   86.066
  441.750    3.830    0.211    0.461   86.073
  442.000    3.761    0.230    0.459   86.082
  442.250    3.762    0.244    0.443   86.701
  442.500    3.835    0.232    0.434   89.158
  442.750    3.837    0.221    0.442   91.001
  443.000    3.912    0.217    0.439   91.621
  443.250    3.915    0.217    0.435   90.404
  443.500    3.916    0.220    0.448   91.636
  443.750    3.993    0.222    0.498   92.256
  444.000    3.995    0.233    0.512   91.652
  444.250    3.997    0.239    0.504   91.658
  444.500    4.074    0.242    0.497   92.277
  444.750    4.078    0.225    0.497   85.550
  445.000    4.003    0.190    0.464   80.048
  445.250    4.005    0.131    0.461   81.280
  445.500    4.006    0.196    0.488   84.963
  445.750    4.008    0.228    0.504   86.193
  446.000    4.011    0.217    0.480   88.038
  446.250    4.012    0.222    0.480   89.270
  446.500    3.939    0.240    0.478   89.277
  446.750    4.093    0.248    0.472   88.671
  447.000    4.252    0.245    0.468   87.456
  447.250    4.855    0.254    0.475   86.850
  447.500    5.756    0.261    0.494   86.246
  447.750    7.223    0.261    0.439   81.967
  448.000    8.564    0.250    0.418   77.689
  448.250    9.415    0.245    0.407   72.799
  448.500   10.159    0.237    0.391   70.969
  448.750   10.166    0.229    0.380   71.588
  449.000    9.980    0.224    0.377   75.270
  449.250    9.614    0.214    0.368   78.340
  449.500    8.752    0.202    0.363   80.184
  449.750    8.122    0.192    0.367   82.028
  450.000    8.065    0.195    0.375   90.003
  450.250    8.065    0.188    0.361   92.465
  450.500    7.913    0.187    0.352   88.194
  450.750    7.913    0.190    0.353   90.661
  451.000    8.219    0.185    0.369   93.734
  451.250    8.701    0.171    0.384   96.197
  451.500    9.037    0.175    0.400   91.924
  451.750    9.037    0.162    0.384   82.750
  452.000    9.037    0.145    0.338   78.478
  452.250    9.037    0.153    0.329   78.492
  452.500    8.868    0.167    0.332   80.956
  452.750    8.701    0.175    0.344   85.254
  453.000    8.537    0.204    0.358   85.268
  453.250    8.868    0.189    0.369   85.284
  453.500    9.211    0.185    0.376   85.296
  453.750    9.387    0.193    0.360   81.635
  454.000    9.387    0.199    0.335   76.749
  454.250    9.387    0.205    0.338   74.926
  454.500    9.567    0.204    0.355   82.289
  454.750    9.937    0.200    0.371   88.431
  455.000   10.127    0.197    0.360   88.438
  455.250   10.519    0.211    0.352   84.165
  455.500   10.519    0.230    0.354   81.118
  455.750   10.721    0.224    0.356   83.582
  456.000   10.519    0.216    0.360   82.985
  456.250   10.321    0.213    0.354   84.218
  456.500    9.567    0.202    0.354   88.519
  456.750    9.387    0.193    0.355   88.532
  457.000    9.387    0.183    0.360   86.708
  457.250    9.750    0.179    0.366   85.498
  457.500    9.937    0.173    0.365   85.514
  457.750    9.937    0.169    0.349   85.527
  458.000   10.321    0.166    0.365   86.764
  458.250   10.321    0.151    0.368   83.103
  458.500   10.721    0.115    0.349   77.605
  458.750   10.519    0.125    0.349   70.885
  459.000   10.519    0.168    0.345   74.571
  459.250   10.321    0.199    0.335   78.261
  459.500   10.127    0.207    0.334   82.561
  459.750   10.321    0.200    0.346   84.409
  460.000   10.519    0.191    0.362   85.034
  460.250   11.135    0.214    0.373   81.376
  460.500   11.566    0.238    0.388   75.878
  460.750   12.244    0.259    0.383   69.768
  461.000   12.478    0.279    0.358   70.393
  461.250   12.478    0.257    0.348   72.244
  461.500   12.244    0.253    0.352   69.812
  461.750   12.014    0.269    0.371   67.372
  462.000   12.244    0.255    0.363   67.389
  462.250   12.961    0.232    0.358   67.399
