~VERSION INFORMATION
 VERS.                 2.0:   CWLS LOG ASCII STANDARD -VERSION 2.0
 WRAP.                  NO:   ONE LINE PER DEPTH STEP
~WELL INFORMATION BLOCK
#MNEM.UNIT           DATA                    DESCRIPTION OF MNEMONIC
#---------    -------------------            -------------------------------
# Generated from Intellog Unique Number	CW_73_75/WELL/2728
WELL.         ALLIED ET AL CALL 06-21        : Well_name    - WELL
LOC .         00/06-21-073-20W4/0            : Location     - LOCATION
UWI .         00/06-21-073-20W4/0            : Uwi          - UNIQUE WELL ID
ENTR.         JAYE                           : Entered      - ENTERED BY
SRVC.         SCHLUMBERGER                   : Scn          - SERVICE COMPANY
DATE.         22 JAN 74                      : Date         - LOG DATE
STRT.M        411.48                         : top_depth    - START DEPTH
STOP.M        615.73                         : bot_depth    - STOP DEPTH
STEP.M        0.25                           : increment    - STEP LENGTH
 NULL. -999.2500:NULL Value
~CURVE INFORMATION BLOCK
#MNEM UNIT       ERCB CURVE CODE    CURVE DESCRIPTION
#-----------   ------------------   ----------------------------------
DEPT.M        00 001 00 00         : DEPTH        - DEPTH
ILD .OHMM     00 120 00 00         : RESD         - DEEP RESISTIVITY (DIL)
NPHI.V/V      00 330 00 00         : PHIN         - NEUTRON POROSITY (SANDSTONE)
DPHI.V/V      00 890 00 00         : PHID         - DENSITY POROSITY (SANDSTONE)
GR  .API      00 310 00 00         : GR           - GAMMA RAY
CALI.MM       00 280 01 00         : CAL          - CALIPER
~PARAMETER INFORMATION
#MNEM.UNIT           DATA             DESCRIPTION OF MNEMONIC
#---------         -----------     ------------------------------
GL  .M        708.508              : gl           - GROUND LEVEL ELEVATION
EREF.M        711.556              : kb           - ELEVATION OF DEPTH REFERENCE
DATM.M        708.508              : datum        - DATUM ELEVATION
TDD .M        621.792              : tdd          - TOTAL DEPTH DRILLER
RUN .         ONE                  : Run          - RUN NUMBER
ENG .         CONNELLY             : Engineer     - RECORDING ENGINEER
WIT .         CONNELLY             : Witness      - WITNESSED BY
BASE.         EDM                  : Branch       - HOME BASE OF LOGGING UNIT
MUD .         CAUSTIC GEL          : Mud_type     - MUD TYPE
MATR.         SANDSTONE            : Logunit      - NEUTRON MATRIX
TMAX.C        21.1111              : BHT          - MAXIMUM RECORDED TEMPERATURE
BHTD.M        622.097              : BHTDEP       - MAXIMUM RECORDED TEMPERATURE
RMT .C        20                   : MDTP         - TEMPERATURE OF MUD
MUDD.KG/M     1140                 : MWT          - MUD DENSITY
NEUT.         1                    : NEUTRON      - NEUTRON TYPE
RESI.         0                    : RESIST       - RESISTIVITY TYPE
RM  .OHMM     2.83                 : RM           - RESISTIVITY OF MUD
RMC .OHMM     0                    : RMC          - RESISTIVITY OF MUD CAKE
RMF .OHMM     2.86                 : RMF          - RESISTIVITY OF MUD FILTRATE
SUFT.C        -17.7778             : SUFT         - SURFACE TEMPERATURE
~A  DEPTH     RESD     PHIN     PHID       GR      CAL
  411.480    2.900    0.598    0.201   97.914  172.400
  411.730    2.936    0.622    0.212  102.522  172.515
  411.980    3.011    0.639    0.217   99.156  171.801
  412.230    3.126    0.658    0.199   95.667  169.736
  412.480    3.281    0.646    0.203   91.748  167.465
  412.730    3.555    0.579    0.239   94.577  165.607
  412.980    3.830    0.600    0.240   91.825  163.754
  413.230    3.985    0.623    0.218   86.801  162.725
  413.480    4.021    0.566    0.220   80.307  161.493
  413.730    3.937    0.564    0.200   72.952  160.464
  413.980    3.893    0.471    0.183   68.542  159.645
  414.230    3.850    0.451    0.143   64.133  158.307
  414.480    3.845    0.497    0.155   55.919  157.074
  414.730    3.881    0.543    0.315   46.234  156.257
  414.980    3.996    0.530    0.352   42.745  155.542
  415.230    4.112    0.481    0.328   45.819  155.140
  415.480    4.385    0.459    0.339   46.441  154.534
  415.730    4.541    0.484    0.349   48.779  154.442
  415.980    4.775    0.513    0.320   57.192  154.243
  416.230    4.930    0.509    0.321   63.212  154.150
  416.480    5.045    0.473    0.313   75.182  154.165
  416.730    5.160    0.434    0.265   81.202  153.867
  416.980    5.157    0.449    0.245   80.536  153.677
  417.230    5.153    0.431    0.251   79.132  153.480
  417.480    5.109    0.417    0.268   78.832  153.384
  417.730    5.065    0.426    0.271   77.981  153.504
  417.980    5.021    0.441    0.260   77.191  153.413
  418.230    4.978    0.432    0.255   80.451  153.531
  418.480    4.895    0.442    0.242   84.016  153.541
  418.730    4.811    0.434    0.268   87.705  153.657
  418.980    4.728    0.435    0.251   92.006  153.880
  419.230    4.644    0.455    0.245   95.449  154.099
  419.480    4.601    0.455    0.225   99.813  154.635
  419.730    4.596    0.460    0.185  100.435  155.164
  419.980    4.593    0.474    0.207   98.909  155.904
  420.230    4.589    0.487    0.199   97.260  157.058
  420.480    4.545    0.478    0.185   96.162  158.734
  420.730    4.542    0.481    0.198   94.209  159.888
  420.980    4.537    0.495    0.214   92.559  161.148
  421.230    4.493    0.516    0.228   90.480  161.889
  421.480    4.410    0.447    0.242   87.973  161.902
  421.730    4.366    0.439    0.235   86.446  161.085
  421.980    4.323    0.455    0.244   86.638  160.058
  422.230    4.398    0.453    0.229   90.265  158.720
  422.480    4.593    0.445    0.272   92.420  157.486
  422.730    4.868    0.481    0.227   92.183  156.356
  422.980    5.221    0.508    0.202   91.944  155.228
  423.230    5.653    0.528    0.213   90.724  154.200
  423.480    6.007    0.515    0.233   86.008  153.386
  423.730    6.242    0.469    0.227   81.722  152.876
  423.980    6.396    0.447    0.247   77.005  152.577
  424.230    6.512    0.436    0.246   72.902  152.278
  424.480    6.866    0.449    0.252   74.935  151.983
  424.730    7.656    0.440    0.260   79.113  151.784
  424.980    8.487    0.418    0.272   87.219  151.697
  425.230    9.476    0.405    0.259   91.031  151.809
  425.480   12.253    0.398    0.226   87.604  152.029
  425.730   14.791    0.399    0.223   81.905  151.938
  425.980   18.999    0.408    0.240   74.980  151.951
  426.230   18.796    0.426    0.254   64.374  151.965
  426.480   18.554    0.507    0.262   52.111  152.082
  426.730   18.113    0.460    0.281   39.358  152.613
  426.980   17.552    0.435    0.312   46.117  153.561
  427.230   16.953    0.395    0.284   48.392  155.548
  427.480   16.075    0.417    0.248   47.111  158.678
  427.730   15.117    0.429    0.243   47.058  160.455
  427.980   14.002    0.421    0.270   49.828  161.820
  428.230   12.925    0.434    0.319   53.270  162.354
  428.480   11.809    0.453    0.317   56.774  162.363
  428.730   10.374    0.478    0.306   60.402  162.066
  428.980    9.298    0.475    0.297   63.353  161.559
  429.230    8.579    0.443    0.300   67.840  160.741
  429.480    7.939    0.455    0.298   70.178  160.025
  429.730    7.497    0.467    0.289   73.437  159.418
  429.980    7.216    0.435    0.277   77.125  160.469
  430.230    6.775    0.416    0.259   81.673  162.248
  430.480    6.374    0.431    0.235   86.037  163.194
  430.730    5.734    0.441    0.225   85.983  164.041
  430.980    5.293    0.448    0.234   86.114  164.577
  431.230    4.534    0.451    0.251   88.084  164.582
  431.480    3.934    0.437    0.238   91.159  164.388
  431.730    3.493    0.400    0.223   96.259  163.882
  431.980    3.212    0.422    0.225   97.677  162.859
  432.230    3.089    0.448    0.223  101.243  162.246
  432.480    3.084    0.465    0.209  107.386  161.426
  432.730    3.120    0.504    0.205  113.098  161.336
  432.980    3.195    0.751    0.198  115.192  161.348
  433.230    3.390    0.742    0.189  111.335  161.361
  433.480    3.624    0.665    0.198  110.544  161.270
  433.730    3.938    0.619    0.175  112.883  161.283
  433.980    4.291    0.567    0.136  115.529  161.400
  434.230    4.567    0.569    0.104  120.199  161.309
  434.480    4.881    0.583    0.208  121.311  161.737
  434.730    5.154    0.616    0.214  120.092  162.477
  434.980    5.150    0.560    0.208  114.578  163.737
  435.230    5.147    0.531    0.209  108.818  165.309
  435.480    5.024    0.467    0.225  108.213  166.048
  435.730    4.940    0.456    0.236  110.307  166.477
  435.980    4.816    0.499    0.226  110.498  166.387
  436.230    4.773    0.486    0.210  109.462  166.399
  436.480    4.809    0.491    0.210  107.017  166.307
  436.730    5.004    0.505    0.217  105.244  166.010
  436.980    5.436    0.486    0.218  101.388  165.918
  437.230    5.830    0.488    0.211   98.818  164.996
  437.480    6.303    0.470    0.208   95.636  163.348
  437.730    6.855    0.556    0.176   92.086  161.593
  437.980    7.408    0.516    0.179   88.105  159.321
  438.230    7.841    0.483    0.234   84.001  157.984
  438.480    8.274    0.499    0.253   80.758  157.060
  438.730    8.747    0.502    0.261   77.882  156.242
  438.980    9.219    0.495    0.244   75.559  155.735
  439.230    9.692    0.521    0.238   72.376  155.646
  439.480    9.926    0.494    0.259   68.886  155.661
  439.730    9.922    0.581    0.278   64.599  155.565
  439.980    9.839    0.512    0.297   61.724  155.581
  440.230    9.001    0.499    0.325   63.633  155.697
  440.480    8.401    0.542    0.312   65.604  155.816
  440.730    7.880    0.528    0.313   66.777  155.930
  440.980    7.241    0.542    0.295   66.662  156.152
  441.230    6.641    0.554    0.280   68.817  156.268
  441.480    6.081    0.517    0.251   72.629  156.280
  441.730    5.799    0.485    0.221   76.195  156.189
  441.980    5.715    0.487    0.258   80.557  155.998
  442.230    5.712    0.483    0.241   86.577  156.217
  442.480    5.668    0.493    0.240   88.977  156.020
  442.730    5.663    0.543    0.259   88.434  155.512
  442.980    5.660    0.522    0.274   89.728  155.006
  443.230    5.616    0.507    0.262   94.276  155.226
  443.480    5.493    0.520    0.271   97.105  157.421
  443.730    5.171    0.500    0.268  107.788  160.446
  443.980    5.127    0.492    0.248  110.986  165.861
  444.230    5.482    0.481    0.230  104.920  167.744
  444.480    6.073    0.479    0.222   93.578  165.990
  444.730    7.023    0.484    0.217   85.181  165.278
  444.980    7.853    0.514    0.232   78.439  164.873
  445.230    8.683    0.489    0.272   81.453  164.574
  445.480    9.672    0.429    0.239   84.467  163.134
  445.730   10.742    0.481    0.212   79.567  161.277
  445.980   11.254    0.543    0.249   75.035  159.731
  446.230   11.527    0.625    0.260   73.508  158.395
  446.480   11.484    0.615    0.291   75.234  157.992
  446.730   11.520    0.587    0.318   76.284  157.797
  446.980   11.755    0.555    0.305   73.716  157.604
  447.230   12.426    0.570    0.278   71.391  157.617
  447.480   14.250    0.579    0.282   67.841  157.630
  447.730   16.232    0.546    0.260   64.842  157.848
