~VERSION INFORMATION
 VERS.                 2.0:   CWLS LOG ASCII STANDARD -VERSION 2.0
 WRAP.                  NO:   ONE LINE PER DEPTH STEP
~WELL INFORMATION BLOCK
#MNEM.UNIT           DATA                    DESCRIPTION OF MNEMONIC
#---------    -------------------            -------------------------------
# Generated from Intellog Unique Number	CW_82_90/WELL/549
WELL.         MIAMI AMOCO WABASCA 06-34      : Well_name    - WELL
LOC .         00/06-34-084-01W5/0            : Location     - LOCATION
UWI .         00/06-34-084-01W5/0            : Uwi          - UNIQUE WELL ID
ENTR.         JAYE                           : Entered      - ENTERED BY
SRVC.         SCHLUMBERGER                   : Scn          - SERVICE COMPANY
DATE.         29 JAN 75                      : Date         - LOG DATE
STRT.M        274.32                         : top_depth    - START DEPTH
STOP.M        475.57                         : bot_depth    - STOP DEPTH
STEP.M        0.25                           : increment    - STEP LENGTH
 NULL. -999.2500:NULL Value
~CURVE INFORMATION BLOCK
#MNEM UNIT       ERCB CURVE CODE    CURVE DESCRIPTION
#-----------   ------------------   ----------------------------------
DEPT.M        00 001 00 00         : DEPTH        - DEPTH
CALI.MM       00 280 01 00         : CAL          - CALIPER
GR  .API      00 310 00 00         : GR           - GAMMA RAY
NPHI.V/V      00 330 00 00         : PHIN         - NEUTRON POROSITY (SANDSTONE)
DPHI.V/V      00 890 00 00         : PHID         - DENSITY POROSITY (SANDSTONE)
ILD .OHMM     00 120 00 00         : RESD         - DEEP RESISTIVITY (DIL)
~PARAMETER INFORMATION
#MNEM.UNIT           DATA             DESCRIPTION OF MNEMONIC
#---------         -----------     ------------------------------
GL  .M        627.583              : gl           - GROUND LEVEL ELEVATION
EREF.M        630.875              : kb           - ELEVATION OF DEPTH REFERENCE
DATM.M        627.583              : datum        - DATUM ELEVATION
TDD .M        475.488              : tdd          - TOTAL DEPTH DRILLER
RUN .         ONE                  : Run          - RUN NUMBER
ENG .         CROCKFORD            : Engineer     - RECORDING ENGINEER
WIT .         RUDD                 : Witness      - WITNESSED BY
BASE.         EDMONTON             : Branch       - HOME BASE OF LOGGING UNIT
MUD .         DAPP                 : Mud_type     - MUD TYPE
MATR.         SANDSTONE            : Logunit      - NEUTRON MATRIX
TMAX.C        25                   : BHT          - MAXIMUM RECORDED TEMPERATURE
BHTD.M        475.488              : BHTDEP       - MAXIMUM RECORDED TEMPERATURE
RMT .C        17.7778              : MDTP         - TEMPERATURE OF MUD
MUDD.KG/M     9600                 : MWT          - MUD DENSITY
NEUT.         1                    : NEUTRON      - NEUTRON TYPE
RESI.         0                    : RESIST       - RESISTIVITY TYPE
RM  .OHMM     2.8                  : RM           - RESISTIVITY OF MUD
RMC .OHMM     0                    : RMC          - RESISTIVITY OF MUD CAKE
RMF .OHMM     2.34                 : RMF          - RESISTIVITY OF MUD FILTRATE
SUFT.C        -17.7778             : SUFT         - SURFACE TEMPERATURE
~A  DEPTH      CAL       GR     PHIN     PHID     RESD
# ...
  310.820  172.119   85.690    0.501    0.243    3.528
  311.070  170.810   85.653    0.520    0.244    3.629
  311.320  169.196   81.822    0.533    0.244    3.754
  311.570  168.707   77.626    0.520    0.249    3.933
  311.820  168.438   75.389    0.492    0.254    4.259
  312.070  168.481   74.677    0.470    0.247    4.647
  312.320  168.823   75.921    0.452    0.227    4.922
  312.570  168.854   78.752    0.457    0.219    5.186
  312.820  168.585   81.526    0.464    0.223    5.374
  313.070  167.482   81.303    0.458    0.225    5.559
  313.320  167.003   81.323    0.458    0.225    5.782
  313.570  167.140   83.061    0.470    0.223    5.903
  313.820  167.596   82.710    0.476    0.223    6.209
  314.070  167.630   81.022    0.475    0.224    6.421
  314.320  166.943   80.737    0.480    0.233    6.617
  314.570  165.528   79.721    0.457    0.243    6.745
  314.820  160.283   81.699    0.443    0.257    6.888
  315.070  160.009   83.007    0.447    0.243    6.981
  315.320  161.911   80.519    0.458    0.241    7.077
  315.570  163.814   77.423    0.473    0.247    7.174
  315.820  163.431   78.240    0.485    0.258    7.231
  316.070  163.158   78.995    0.492    0.269    7.291
  316.320  164.337   81.097    0.490    0.257    7.337
  316.570  165.199   82.890    0.450    0.259    7.354
  316.820  165.238   85.357    0.433    0.252    7.305
  317.070  164.760   86.295    0.418    0.249    7.257
  317.320  164.690   84.667    0.432    0.242    7.026
  317.570  164.731   82.976    0.450    0.237    6.332
  317.820  164.660   82.692    0.468    0.256    5.706
  318.070  166.040   84.425    0.491    0.253    5.012
  318.320  169.703   86.653    0.508    0.234    4.451
  318.570  171.191   88.016    0.522    0.235    3.881
  318.820  171.953   89.442    0.531    0.239    3.453
  319.070  170.947   90.932    0.533    0.243    3.152
  319.320  167.052   94.744    0.521    0.245    2.904
  319.570  166.158   98.618    0.536    0.238    2.627
  319.820  166.919  100.412    0.565    0.238    2.398
  320.070  167.680  100.492    0.578    0.240    2.197
  320.320  168.960   95.867    0.591    0.236    2.036
  320.570  172.520   93.568    0.608    0.225    1.975
  320.820  171.518   89.310    0.624    0.241    2.016
  321.070  169.383   85.114    0.638    0.244    2.196
  321.320  168.591   78.534    0.609    0.230    2.535
  321.570  165.831   72.627    0.539    0.211    3.049
  321.820  166.490   62.013    0.500    0.196    4.604
  322.070  165.906   46.813    0.348    0.153    7.415
  322.320  163.975   41.520    0.405    0.150    9.474
  322.570  161.734   43.374    0.439    0.319   11.818
  322.820  162.602   43.089    0.477    0.327   12.705
  323.070  165.016   43.601    0.484    0.331   11.858
  323.320  165.052   43.743    0.476    0.347   11.169
  323.570  164.882   43.585    0.467    0.346   10.873
  323.820  165.336   43.542    0.467    0.338   10.742
  324.070  165.371   43.445    0.466    0.334   10.888
  324.320  162.923   43.403    0.460    0.323   11.345
  324.570  160.994   40.676    0.456    0.317   12.128
  324.820  159.892   40.270    0.446    0.309   13.601
  325.070  160.445   40.963    0.361    0.245   15.421
  325.320  163.280   41.229    0.366    0.107   18.409
  325.570  165.907   40.702    0.233   -0.001   21.222
  325.820  167.803   40.482    0.177    0.012   21.909
  326.070  167.427   40.929    0.177    0.079   21.409
  326.320  166.013   41.315    0.246    0.210   19.760
  326.570  162.121   42.927    0.437    0.321   17.102
  326.820  161.323   43.868    0.453    0.340   15.022
  327.070  161.886   43.643    0.462    0.342   13.564
  327.320  161.814   43.486    0.474    0.334   12.543
  327.570  161.849   42.590    0.453    0.320   12.256
  327.820  161.476   41.996    0.440    0.327   12.153
  328.070  161.200   41.102    0.436    0.330   12.251
  328.320  160.930   41.122    0.438    0.328   12.328
  328.570  160.552   41.327    0.452    0.335   12.494
  328.820  160.485   41.715    0.456    0.327   12.596
  329.070  161.035   42.470    0.461    0.319   12.607
  329.320  161.074   44.694    0.472    0.306   12.731
  329.570  159.971   45.634    0.464    0.306   12.692
  329.820  158.249   44.861    0.455    0.324   12.633
  330.070  156.936   44.085    0.446    0.342   12.594
  330.320  155.944   43.741    0.452    0.338   12.443
  330.570  154.940   44.495    0.466    0.336   12.180
  330.820  155.183   46.169    0.463    0.344   11.989
  331.070  155.639   47.783    0.454    0.347   11.931
  331.320  156.400   48.596    0.458    0.337   11.830
  331.570  156.848   49.048    0.465    0.337   11.665
  331.820  154.610   49.311    0.466    0.345   11.420
  332.070  152.889   50.190    0.459    0.342   11.180
  332.320  152.509   51.310    0.450    0.346   11.084
  332.570  154.201   53.722    0.437    0.346   11.112
  332.820  158.177   55.086    0.432    0.334   10.999
  333.070  160.072   54.676    0.436    0.342   10.907
  333.320  159.795   53.906    0.457    0.345   10.934
  333.570  159.008   54.480    0.467    0.345   10.941
  333.820  159.247   55.781    0.452    0.325   10.889
  334.070  160.940   58.615    0.441    0.314   10.777
  334.320  161.495   62.610    0.439    0.317   10.666
  334.570  162.362   68.013    0.441    0.316   10.270
  334.820  163.126   73.473    0.435    0.279    9.479
  335.070  165.434   79.728    0.457    0.185    8.144
  335.320  165.788   87.267    0.485    0.126    6.490
  335.570  165.302   94.992    0.509    0.140    4.787
  335.820  165.030   99.661    0.529    0.191    3.577
  336.070  165.582  102.310    0.547    0.194    3.091
  336.320  168.830  102.270    0.554    0.200    2.960
  336.570  169.282  100.763    0.528    0.197    3.033
  336.820  169.631   98.341    0.506    0.200    3.190
  337.070  169.455   89.683    0.490    0.214    3.518
  337.320  167.941   86.037    0.467    0.236    3.946
  337.570  166.841   84.103    0.446    0.234    4.203
  337.820  166.876   84.490    0.452    0.221    4.252
  338.070  168.153   87.996    0.474    0.230    3.998
  338.320  172.228   91.319    0.498    0.240    3.711
  338.570  173.195   93.357    0.523    0.238    3.469
  338.820  169.403   94.297    0.527    0.246    3.279
  339.070  165.613   90.712    0.517    0.255    3.192
  339.320  166.165   85.904    0.516    0.244    3.178
  339.570  167.240   80.975    0.516    0.250    3.335
  339.820  166.237   74.945    0.521    0.273    3.559
  340.070  164.412   69.527    0.527    0.283    4.043
  340.320  161.965   64.477    0.517    0.299    5.146
  340.570  160.240   60.585    0.489    0.331    6.846
  340.820  159.346   59.691    0.472    0.351    8.339
  341.070  159.383   60.201    0.460    0.345    9.756
  341.320  162.010   59.125    0.463    0.326   11.062
  341.570  163.907   60.000    0.474    0.323   11.611
  341.820  164.567   62.412    0.477    0.329   11.705
  342.070  164.914   64.204    0.480    0.332   11.691
  342.320  164.639   63.429    0.484    0.330   11.488
  342.570  164.158   62.228    0.485    0.328   11.495
  342.820  164.091   61.577    0.481    0.326   11.504
  343.070  163.300   60.619    0.446    0.324   11.575
  343.320  163.131   59.481    0.410    0.318   11.604
  343.570  164.310   59.259    0.380    0.262   11.527
  343.820  165.791   57.934    0.340    0.066   11.430
  344.070  167.382   56.181    0.222    0.088   11.271
  344.320  167.418   60.238    0.330    0.114   11.177
  344.570  165.386   65.455    0.428    0.269   11.062
  344.820  163.867   66.824    0.473    0.318   10.670
  345.070  163.386   68.008    0.474    0.315   10.312
  345.320  163.734   69.501    0.479    0.309   10.150
  345.570  162.325   70.009    0.475    0.310   10.009
  345.820  160.707   69.050    0.460    0.303    9.961
  346.070  159.393   69.256    0.455    0.305    9.860
  346.320  159.229   71.414    0.449    0.307    9.704
  346.570  159.571   72.904    0.446    0.286    9.175
  346.820  160.538   77.205    0.444    0.270    8.947
  347.070  162.761   82.971    0.431    0.260    8.489
