~VERSION INFORMATION
 VERS.                 2.0:   CWLS LOG ASCII STANDARD -VERSION 2.0
 WRAP.                  NO:   ONE LINE PER DEPTH STEP
~WELL INFORMATION BLOCK
#MNEM.UNIT           DATA                    DESCRIPTION OF MNEMONIC
#---------    -------------------            -------------------------------
# Generated from Intellog Unique Number	CS_67_68/WELL/2176
WELL.         07-08-067-02W4                 : Well_name    - WELL
LOC .         00/07-08-067-02W4/0            : Location     - LOCATION
UWI .         00/07-08-067-02W4/0            : Uwi          - UNIQUE WELL ID
ENTR.         SP                             : Entered      - ENTERED BY
SRVC.         SCHLUMBERGER                   : Scn          - SERVICE COMPANY
STRT.M        345                            : top_depth    - START DEPTH
STOP.M        606                            : bot_depth    - STOP DEPTH
STEP.M        0.25                           : increment    - STEP LENGTH
 NULL. -999.2500:NULL Value
~CURVE INFORMATION BLOCK
#MNEM UNIT       ERCB CURVE CODE    CURVE DESCRIPTION
#-----------   ------------------   ----------------------------------
DEPT.M        00 001 00 00         : DEPTH        - DEPTH
ILD .OHMM     00 120 00 00         : RESD         - DEEP RESISTIVITY (DIL)
DPHI.V/V      00 890 00 00         : PHID         - DENSITY POROSITY (LIMESTONE)
NPHI.V/V      00 330 00 00         : PHIN         - NEUTRON POROSITY (LIMESTONE)
GR  .API      00 310 00 00         : GR           - GAMMA RAY
CALI.MM       00 280 01 00         : CAL          - CALIPER
~PARAMETER INFORMATION
#MNEM.UNIT           DATA             DESCRIPTION OF MNEMONIC
#---------         -----------     ------------------------------
GL  .M        644.3                : gl           - GROUND LEVEL ELEVATION
EREF.M        648.1                : kb           - ELEVATION OF DEPTH REFERENCE
DATM.M        648.1                : datum        - DATUM ELEVATION
TDD .M        613.8                : tdd          - TOTAL DEPTH DRILLER
RUN .         ONE                  : Run          - RUN NUMBER
ENG .         BILL                 : Engineer     - RECORDING ENGINEER
WIT .         JIM                  : Witness      - WITNESSED BY
MUD .         GEL                  : Mud_type     - MUD TYPE
MATR.         LIMESTONE            : Logunit      - NEUTRON MATRIX
TMAX.C        25.5                 : BHT          - MAXIMUM RECORDED TEMPERATURE
BHTD.M        618.3                : BHTDEP       - MAXIMUM RECORDED TEMPERATURE
MATR.         1                    : LOGUNIT      - NEUTRON MATRIX
RMT .C        25                   : MDTP         - TEMPERATURE OF MUD
NEUT.         1                    : NEUTRON      - NEUTRON TYPE
RESI.         0                    : RESIST       - RESISTIVITY TYPE
RMC .OHMM     0.25                 : RMC          - RESISTIVITY OF MUD CAKE
RMF .OHMM     0.25                 : RMF          - RESISTIVITY OF MUD FILTRATE
SUFT.C        15                   : SUFT         - SURFACE TEMPERATURE
~A  DEPTH     RESD     PHID     PHIN       GR      CAL
# ...
  527.500    9.274    0.302    0.353   32.595  156.855
  527.750    9.324    0.307    0.347   35.565  157.452
  528.000    9.462    0.303    0.339   41.616  158.050
  528.250    9.585    0.304    0.331   47.605  158.750
  528.500    9.783    0.307    0.325   54.623  159.245
  528.750    9.928    0.299    0.328   64.602  159.843
  529.000    9.964    0.275    0.322   69.141  160.039
  529.250    9.777    0.253    0.322   74.406  160.533
  529.500    9.559    0.240    0.322   76.226  160.728
  529.750    9.293    0.223    0.333   78.288  160.922
  530.000    9.017    0.203    0.348   81.559  161.217
  530.250    8.849    0.222    0.355   84.044  160.905
  530.500    8.765    0.268    0.352   81.271  160.694
  530.750    8.731    0.292    0.354   79.162  160.583
  531.000    8.713    0.303    0.364   74.213  160.169
  531.250    8.760    0.311    0.377   70.353  159.858
  531.500    8.857    0.316    0.386   78.702  159.647
  531.750    9.006    0.305    0.384   83.059  159.131
  532.000    9.243    0.288    0.378   87.599  158.921
  532.250    9.433    0.275    0.372   91.292  158.812
  532.500    9.681    0.260    0.379   90.332  158.701
  532.750    9.862    0.249    0.388   88.707  158.286
  533.000    9.696    0.247    0.394   86.720  158.177
  533.250    9.550    0.258    0.379   84.491  157.967
  533.500    9.407    0.250    0.366   82.141  157.956
  533.750    8.976    0.237    0.361   77.374  158.050
  534.000    8.235    0.241    0.340   72.304  157.939
  534.250    7.814    0.247    0.319   76.905  157.931
  534.500    7.554    0.249    0.358   85.010  158.124
  534.750    7.539    0.239    0.390   91.665  158.216
  535.000    7.723    0.231    0.362   77.711  158.611
  535.250    7.985    0.238    0.333   69.499  158.603
  535.500    8.180    0.242    0.326   64.006  158.594
  535.750    8.271    0.247    0.340   65.524  158.585
  536.000    8.473    0.263    0.359   67.767  158.678
  536.250    8.615    0.278    0.372   68.681  158.770
  536.500    8.677    0.283    0.366   63.008  158.660
  536.750    8.676    0.287    0.363   59.328  158.854
  537.000    8.723    0.294    0.359   57.703  158.945
  537.250    8.869    0.269    0.353   63.753  159.038
  537.500    9.120    0.240    0.343   71.437  159.232
  537.750    9.325    0.208    0.330   73.498  159.323
  538.000    9.606    0.236    0.323   71.692  159.211
  538.250    9.749    0.260    0.329   69.886  159.205
  538.500    9.766    0.269    0.331   68.563  159.197
  538.750    9.709    0.277    0.334   69.235  158.985
  539.000    9.599    0.283    0.345   69.605  158.875
  539.250    9.562    0.288    0.355   65.564  158.662
  539.500    9.650    0.289    0.347   61.883  158.655
  539.750    9.793    0.287    0.338   57.539  158.747
  540.000    9.883    0.281    0.335   58.996  158.738
  540.250    9.936    0.274    0.346   61.904  158.828
  540.500    9.898    0.266    0.353   65.114  158.921
  540.750    9.804    0.261    0.342   67.539  159.116
  541.000    9.675    0.254    0.320   68.755  159.107
  541.250    9.565    0.250    0.324   70.154  159.098
  541.500    9.510    0.250    0.334   70.582  159.086
  541.750    9.490    0.259    0.326   66.298  159.080
  542.000    9.471    0.265    0.319   60.866  158.971
  542.250    9.416    0.272    0.315   57.005  158.758
  542.500    9.362    0.266    0.315   62.210  158.751
  542.750    9.343    0.256    0.328   67.416  158.742
  543.000    9.289    0.257    0.348   69.960  158.430
  543.250    9.270    0.266    0.363   72.566  158.421
  543.500    9.286    0.270    0.362   67.376  158.715
  543.750    9.197    0.270    0.357   58.861  158.705
  544.000    9.093    0.269    0.350   51.495  159.000
  544.250    8.974    0.288    0.360   45.700  159.194
  544.500    8.773    0.294    0.358   39.965  159.488
  544.750    8.657    0.297    0.355   37.434  159.986
  545.000    8.463    0.306    0.347   35.991  160.078
  545.250    8.352    0.315    0.333   42.706  160.575
  545.500    8.258    0.294    0.324   63.503  160.667
  545.750    8.241    0.269    0.319   92.036  160.759
  546.000    8.394    0.238    0.337  111.020  161.357
  546.250    8.520    0.210    0.353  116.466  162.560
  546.500    8.727    0.197    0.360  115.264  163.766
  546.750    9.041    0.191    0.357  106.206  164.365
  547.000    9.279    0.179    0.343   94.368  165.063
  547.250    9.488    0.184    0.319   85.007  165.460
  547.500    9.611    0.203    0.327   74.257  165.450
  547.750    9.484    0.186    0.340   92.879  165.339
  548.000    9.067    0.174    0.351   99.654  165.331
  548.250    8.864    0.164    0.360  102.260  165.321
  548.500    8.945    0.173    0.369  101.179  165.313
  548.750    9.129    0.180    0.372   99.554  165.609
  549.000    9.422    0.192    0.354   94.546  165.498
  549.250    9.797    0.209    0.337   89.657  165.793
  549.500    9.943    0.190    0.319   90.450  165.986
  549.750    9.942    0.168    0.318   94.748  166.078
  550.000   10.794    0.144    0.339  104.725  165.856
  550.250    9.834    0.150    0.349  108.453  167.392
  550.500    9.305    0.160    0.366  111.691  167.856
  550.750    8.753    0.168    0.385  112.506  168.184
  551.000    8.595    0.165    0.391  110.714  168.132
  551.250    8.631    0.157    0.394  107.825  167.781
  551.500    8.635    0.162    0.399  106.271  167.616
  551.750    8.689    0.169    0.407  106.171  167.145
  552.000    8.710    0.174    0.412  106.501  166.991
  552.250    8.780    0.173    0.399  106.774  167.023
  552.500    8.818    0.172    0.390  107.036  167.281
  552.750    8.889    0.171    0.384  106.034  167.525
  553.000    8.959    0.170    0.378  102.780  167.868
  553.250    8.998    0.169    0.379  101.473  167.907
  553.500    9.054    0.175    0.381  100.402  168.059
  553.750    9.092    0.178    0.371  100.003  167.489
  554.000    8.978    0.167    0.362  101.543  167.018
  554.250    8.834    0.154    0.365  104.661  167.167
  554.500    8.674    0.144    0.379  107.057  167.614
  554.750    8.564    0.141    0.390  107.144  168.569
  555.000    8.490    0.150    0.401  101.953  169.320
  555.250    8.528    0.152    0.405  105.920  169.666
  555.500    8.708    0.155    0.390  109.164  170.197
  555.750    8.926    0.163    0.380  110.341  170.658
  556.000    9.034    0.159    0.378  105.753  170.897
  556.250    9.175    0.161    0.380   98.980  170.138
  556.500    9.316    0.179    0.374   94.698  168.460
  556.750    9.340    0.192    0.373   93.695  165.971
  557.000    9.449    0.194    0.379   97.968  164.391
  557.250    9.525    0.186    0.386   92.344  163.113
  557.500    9.672    0.193    0.392   88.429  162.354
  557.750    9.733    0.206    0.378   86.029  161.691
  558.000    9.720    0.195    0.372   91.696  161.024
  558.250    9.763    0.197    0.383   90.626  160.748
  558.500    9.933    0.220    0.389   81.734  160.601
  558.750   10.145    0.243    0.358   77.270  160.124
  559.000   10.150    0.243    0.342   76.932  159.862
  559.250   10.192    0.234    0.348   77.017  159.509
  559.500   10.179    0.240    0.354   75.526  159.557
  559.750   10.107    0.243    0.357   72.329  159.496
  560.000   10.094    0.227    0.351   71.692  159.332
  560.250   10.120    0.203    0.346   77.599  159.158
  560.500   10.107    0.191    0.338   81.935  159.113
  560.750   10.129    0.200    0.340   84.631  158.951
  561.000   10.118    0.219    0.346   83.685  159.096
  561.250   10.067    0.206    0.345   85.710  159.632
  561.500    9.995    0.190    0.353   87.799  160.176
  561.750    9.868    0.180    0.359   89.646  160.836
  562.000    9.803    0.176    0.367   91.910  161.488
  562.250    9.697    0.173    0.359   95.031  162.237
  562.500    9.525    0.168    0.372  101.006  163.069
  562.750    9.146    0.161    0.400  105.098  163.414
  563.000    8.699    0.159    0.417  100.752  163.671
  563.250    8.449    0.174    0.398   96.770  163.918
  563.500    8.343    0.181    0.378   96.312  163.864
  563.750    8.537    0.194    0.366   96.156  163.500
