~VERSION INFORMATION
 VERS.                 2.0:   CWLS LOG ASCII STANDARD -VERSION 2.0
 WRAP.                  NO:   ONE LINE PER DEPTH STEP
~WELL INFORMATION BLOCK
#MNEM.UNIT           DATA                    DESCRIPTION OF MNEMONIC
#---------    -------------------            -------------------------------
# Generated from Intellog Unique Number	CW_70_72/WELL/416
NULL.         -999.25                        : NULL_VALUE
WELL.         RAVENNA ET AL CALL             : Well_name    - WELL              
LOC .         04-36-071-19W4                 : Location     - LOCATION          
UWI .         00/04-36-071-19W4/0            : Uwi          - UNIQUE WELL ID    
ENTR.         JAYE                           : Entered      - ENTERED BY        
SRVC.         SCHLUMBERGER                   : Scn          - SERVICE COMPANY   
DATE.         29 MAR 80                      : Date         - LOG DATE          
STRT.M        300                            : top_depth    - START DEPTH       
STOP.M        485                            : bot_depth    - STOP DEPTH        
STEP.M        0.25                           : increment    - STEP LENGTH       
~CURVE INFORMATION BLOCK
#MNEM UNIT       ERCB CURVE CODE    CURVE DESCRIPTION
#-----------   ------------------   ----------------------------------
DEPT.M        00 001 00 00         : DEPTH        - DEPTH                       
DPHI.V/V      00 890 00 00         : PHID         - DENSITY POROSITY (SANDSTONE)
NPHI.V/V      00 330 00 00         : PHIN         - NEUTRON POROSITY (SANDSTONE)
GR  .API      00 310 00 00         : GR           - GAMMA RAY                   
CALI.MM       00 280 01 00         : CAL          - CALIPER                     
ILD .OHMM     00 120 00 00         : RESD         - DEEP RESISTIVITY (DIL)      
~PARAMETER INFORMATION       
#MNEM.UNIT           DATA             DESCRIPTION OF MNEMONIC
#---------         -----------     ------------------------------
GL  .M        587.3                : gl           - GROUND LEVEL ELEVATION      
EREF.M        591                  : kb           - ELEVATION OF DEPTH REFERENCE
DATM.M        587.3                : datum        - DATUM ELEVATION             
TDD .M        509                  : tdd          - TOTAL DEPTH DRILLER         
RUN .         ONE                  : Run          - RUN NUMBER                  
MATR.         SANDSTONE            : Logunit      - NEUTRON MATRIX              
TMAX.C        0                    : BHT          - MAXIMUM RECORDED TEMPERATURE
BHTD.M        507.5                : BHTDEP       - MAXIMUM RECORDED TEMPERATURE
RMT .C        18                   : MDTP         - TEMPERATURE OF MUD          
MUDD.KG/M     0                    : MWT          - MUD DENSITY                 
NEUT.         1                    : NEUTRON      - NEUTRON TYPE                
RESI.         0                    : RESIST       - RESISTIVITY TYPE            
RM  .OHMM     5.73                 : RM           - RESISTIVITY OF MUD          
RMC .OHMM     0                    : RMC          - RESISTIVITY OF MUD CAKE     
RMF .OHMM     4.55                 : RMF          - RESISTIVITY OF MUD FILTRATE 
SUFT.C        0                    : SUFT         - SURFACE TEMPERATURE         
~A  DEPTH     PHID     PHIN       GR      CAL     RESD
# ...
  373.000    0.194    0.449   88.047  176.883    6.237
  373.250    0.202    0.435   93.395  178.545    6.206
  373.500    0.203    0.419   94.206  180.934    6.129
  373.750    0.190    0.436   94.023  183.010    6.110
  374.000    0.201    0.441   94.275  184.466    6.138
  374.250    0.180    0.452   95.459  185.508    6.188
  374.500    0.178    0.430   98.384  186.653    6.286
  374.750    0.186    0.420  100.251  188.110    6.386
  375.000    0.190    0.438   99.447  189.255    6.523
  375.250    0.196    0.452   96.779  190.192    6.677
  375.500    0.209    0.455   94.732  190.406    6.873
  375.750    0.205    0.448   91.815  190.515    6.969
  376.000    0.207    0.432   89.644  190.624    6.973
  376.250    0.203    0.431   88.591  190.216    6.887
  376.500    0.186    0.442   92.323  189.911    6.699
  376.750    0.169    0.451   96.117  189.710    6.360
  377.000    0.128    0.473   96.058  193.445    6.152
  377.250    0.158    0.472   94.758  195.832    5.952
  377.500    0.179    0.457   95.009  190.453    5.878
  377.750    0.179    0.446   96.566  188.595    5.740
  378.000    0.194    0.453   98.310  187.463    5.573
  378.250    0.183    0.466   97.692  187.054    5.351
  378.500    0.185    0.452   96.763  186.335    5.060
  378.750    0.196    0.455   92.915  186.030    4.662
  379.000    0.186    0.473   96.895  185.932    4.302
  379.250    0.171    0.462   99.260  186.353    3.904
  379.500    0.162    0.471   96.281  187.602    3.576
  379.750    0.225    0.498   89.077  189.576    3.466
  380.000    0.297    0.490   82.804  196.623    3.501
  380.250    0.276    0.469   77.588  177.988    3.530
  380.500    0.269    0.455   76.287  173.542    3.640
  380.750    0.285    0.462   80.330  172.822    3.905
  381.000    0.272    0.475   85.304  172.103    4.383
  381.250    0.271    0.452   86.488  171.385    4.957
  381.500    0.272    0.438   86.927  170.667    5.338
  381.750    0.281    0.426   89.478  170.259    5.443
  382.000    0.277    0.409   85.754  170.369    5.325
  382.250    0.293    0.412   85.322  170.375    5.113
  382.500    0.303    0.430   81.846  170.068    4.936
  382.750    0.312    0.430   79.737  169.970    4.802
  383.000    0.301    0.415   79.554  169.355    4.725
  383.250    0.290    0.432   75.519  168.845    4.684
  383.500    0.269    0.455   70.427  168.437    4.643
  383.750    0.282    0.438   69.686  168.131    4.594
  384.000    0.286    0.432   67.390  168.034    4.554
  384.250    0.295    0.429   65.654  167.730    4.515
  384.500    0.309    0.429   67.210  167.734    4.501
  384.750    0.316    0.432   68.457  167.845    4.436
  385.000    0.319    0.439   69.206  167.747    4.415
  385.250    0.304    0.460   69.769  167.752    4.435
  385.500    0.292    0.445   69.835  167.552    4.405
  385.750    0.283    0.436   70.646  167.558    4.349
  386.000    0.282    0.447   69.345  167.772    4.303
  386.250    0.293    0.439   72.021  167.881    4.282
  386.500    0.294    0.445   73.142  168.405    4.325
  386.750    0.288    0.435   70.909  168.825    4.386
  387.000    0.289    0.439   70.167  169.038    4.439
  387.250    0.298    0.442   69.363  169.251    4.459
  387.500    0.295    0.438   68.062  169.257    4.496
  387.750    0.299    0.450   69.619  169.677    4.541
  388.000    0.297    0.441   71.549  169.683    4.545
  388.250    0.289    0.426   72.484  170.000    4.513
  388.500    0.280    0.425   70.562  170.420    4.474
  388.750    0.283    0.437   69.385  170.426    4.460
  389.000    0.278    0.444   69.575  170.331    4.355
  389.250    0.271    0.447   71.567  170.232    4.285
  389.500    0.278    0.439   71.508  170.135    4.240
  389.750    0.278    0.427   68.840  170.037    4.250
  390.000    0.276    0.440   68.781  169.835    4.458
  390.250    0.279    0.441   69.158  169.531    4.856
  390.500    0.239    0.418   66.552  169.329    5.553
  390.750    0.172    0.381   64.319  170.785    6.645
  391.000    0.093    0.209   61.650  172.759    8.041
  391.250    0.065    0.196   59.106  174.836   10.813
  391.500    0.052    0.200   55.941  176.706   12.159
  391.750    0.070    0.210   53.272  177.955   10.466
  392.000    0.097    0.239   53.711  176.718    8.109
  392.250    0.128    0.284   61.047  174.238    6.535
  392.500    0.204    0.321   63.288  171.138    5.615
  392.750    0.270    0.381   64.347  166.897    4.843
  393.000    0.288    0.415   65.283  164.936    4.512
  393.250    0.280    0.420   67.337  165.149    4.389
  393.500    0.265    0.425   68.832  166.501    4.425
  393.750    0.278    0.434   68.836  167.439    4.589
  394.000    0.278    0.447   67.472  167.860    4.933
  394.250    0.272    0.440   66.047  167.969    5.312
  394.500    0.254    0.417   63.254  168.079    5.657
  394.750    0.213    0.390   61.145  168.603    5.856
  395.000    0.197    0.359   63.510  169.438    5.993
  395.250    0.232    0.377   68.733  169.857    6.043
  395.500    0.293    0.403   71.222  169.450    6.581
  395.750    0.301    0.427   70.915  169.457    6.968
  396.000    0.315    0.432   69.365  169.461    7.159
  396.250    0.306    0.420   66.759  169.365    7.150
  396.500    0.305    0.423   61.916  169.577    7.292
  396.750    0.297    0.411   55.581  171.240    7.867
  397.000    0.253    0.394   49.868  173.213    8.930
  397.250    0.163    0.344   46.019  174.359    8.853
  397.500    0.097    0.260   51.802  172.501    8.018
  397.750    0.101    0.293   59.511  170.437    7.288
  398.000    0.211    0.349   64.112  169.924    6.275
  398.250    0.199    0.371   67.285  169.929    5.545
  398.500    0.220    0.425   68.159  170.247    4.873
  398.750    0.259    0.414   66.423  170.771    4.566
  399.000    0.279    0.399   68.476  171.088    4.560
  399.250    0.285    0.405   68.480  171.404    4.912
  399.500    0.272    0.415   64.569  171.514    5.309
  399.750    0.264    0.415   60.969  171.830    5.947
  400.000    0.253    0.383   58.674  171.836    7.076
  400.250    0.181    0.254   57.870  172.153    7.897
  400.500    0.077    0.236   57.810  172.573    7.755
  400.750    0.082    0.269   57.379  172.580    7.038
  401.000    0.101    0.310   56.824  172.378    6.150
  401.250    0.218    0.344   57.324  172.074    5.476
  401.500    0.295    0.432   59.130  171.874    4.768
  401.750    0.271    0.446   60.376  171.465    4.367
  402.000    0.281    0.453   60.939  171.367    4.224
  402.250    0.308    0.447   60.570  171.270    4.172
  402.500    0.291    0.442   60.574  171.069    4.128
  402.750    0.285    0.449   60.889  170.763    4.123
  403.000    0.307    0.478   61.389  170.354    4.126
  403.250    0.323    0.465   62.324  171.500    4.130
  403.500    0.307    0.446   63.881  177.823    4.116
  403.750    0.296    0.429   67.551  173.997    4.088
  404.000    0.292    0.437   70.351  171.105    4.098
  404.250    0.293    0.437   72.964  170.386    4.164
  404.500    0.295    0.433   75.391  169.874    4.230
  404.750    0.301    0.434   75.519  169.880    4.272
  405.000    0.297    0.426   75.150  169.678    4.316
  405.250    0.289    0.430   75.527  169.789    4.351
  405.500    0.280    0.440   75.654  169.898    4.354
  405.750    0.269    0.452   75.223  170.008    4.357
  406.000    0.269    0.445   75.661  170.116    4.410
  406.250    0.295    0.450   77.280  170.227    4.421
  406.500    0.282    0.461   79.583  170.441    4.474
  406.750    0.269    0.453   79.525  170.445    4.554
  407.000    0.282    0.451   78.223  170.451    4.609
  407.250    0.280    0.458   77.046  170.459    4.682
  407.500    0.270    0.450   76.553  170.568    4.730
  407.750    0.268    0.460   76.433  170.883    4.805
  408.000    0.269    0.453   76.311  171.200    4.871
  408.250    0.274    0.450   76.377  171.931    4.912
  408.500    0.268    0.456   77.499  172.351    4.924
  408.750    0.247    0.458   79.677  173.082    4.881
  409.000    0.270    0.461   81.421  174.021    4.677
  409.250    0.262    0.458   83.227  174.648    4.341
