~VERSION INFORMATION
 VERS.                 2.0:   CWLS LOG ASCII STANDARD -VERSION 2.0
 WRAP.                  NO:   ONE LINE PER DEPTH STEP
~WELL INFORMATION BLOCK
#MNEM.UNIT           DATA                    DESCRIPTION OF MNEMONIC
#---------    -------------------            -------------------------------
# Generated from Intellog Unique Number	CW_76_78/WELL/620
WELL.         PACIFIC MARTENCK 07-16         : Well_name    - WELL
LOC .         00/07-16-077-04W5/0            : Location     - LOCATION
UWI .         00/07-16-077-04W5/0            : Uwi          - UNIQUE WELL ID
ENTR.         JAYE                           : Entered      - ENTERED BY
SRVC.         SCHLUMBERGER                   : Scn          - SERVICE COMPANY
DATE.         14 FEB 78                      : Date         - LOG DATE
STRT.M        405.384                        : top_depth    - START DEPTH
STOP.M        637.134                        : bot_depth    - STOP DEPTH
STEP.M        0.25                           : increment    - STEP LENGTH
 NULL. -999.2500:NULL Value
~CURVE INFORMATION BLOCK
#MNEM UNIT       ERCB CURVE CODE    CURVE DESCRIPTION
#-----------   ------------------   ----------------------------------
DEPT.M        00 001 00 00         : DEPTH        - DEPTH
ILD .OHMM     00 120 00 00         : RESD         - DEEP RESISTIVITY (DIL)
DPHI.V/V      00 890 00 00         : PHID         - DENSITY POROSITY (SANDSTONE)
NPHI.V/V      00 330 00 00         : PHIN         - NEUTRON POROSITY (SANDSTONE)
GR  .API      00 310 00 00         : GR           - GAMMA RAY
CALI.MM       00 280 01 00         : CAL          - CALIPER
~PARAMETER INFORMATION
#MNEM.UNIT           DATA             DESCRIPTION OF MNEMONIC
#---------         -----------     ------------------------------
GL  .M        690.982              : gl           - GROUND LEVEL ELEVATION
EREF.M        694.334              : kb           - ELEVATION OF DEPTH REFERENCE
DATM.M        690.982              : datum        - DATUM ELEVATION
TDD .M        648.614              : tdd          - TOTAL DEPTH DRILLER
RUN .         ONE                  : Run          - RUN NUMBER
ENG .         DALV                 : Engineer     - RECORDING ENGINEER
WIT .         MEZEL                : Witness      - WITNESSED BY
BASE.         EDM                  : Branch       - HOME BASE OF LOGGING UNIT
MUD .         GEL CHEM             : Mud_type     - MUD TYPE
MATR.         SANDSTONE            : Logunit      - NEUTRON MATRIX
TMAX.C        0                    : BHT          - MAXIMUM RECORDED TEMPERATURE
BHTD.M        648                  : BHTDEP       - MAXIMUM RECORDED TEMPERATURE
RMT .C        14.4444              : MDTP         - TEMPERATURE OF MUD
MUDD.KG/M     1116                 : MWT          - MUD DENSITY
NEUT.         1                    : NEUTRON      - NEUTRON TYPE
RESI.         0                    : RESIST       - RESISTIVITY TYPE
RM  .OHMM     3.94                 : RM           - RESISTIVITY OF MUD
RMC .OHMM     0                    : RMC          - RESISTIVITY OF MUD CAKE
RMF .OHMM     0                    : RMF          - RESISTIVITY OF MUD FILTRATE
SUFT.C        -17                  : SUFT         - SURFACE TEMPERATURE
~A  DEPTH     RESD     PHID     PHIN       GR      CAL
# ...
  441.884   12.061    0.244    0.435   53.874  161.268
  442.134   11.679    0.218    0.399   54.438  161.275
  442.384   11.182    0.178    0.351   54.877  161.285
  442.634   10.746    0.172    0.346   55.316  161.081
  442.884   10.270    0.242    0.372   55.134  160.985
  443.134   10.001    0.303    0.416   56.877  160.783
  443.384    9.885    0.299    0.439   58.247  160.686
  443.634    9.753    0.300    0.447   56.328  160.587
  443.884    9.604    0.299    0.438   57.387  160.386
  444.134    9.476    0.305    0.439   58.944  160.079
  444.384    9.228    0.302    0.436   58.514  159.981
  444.634    8.952    0.301    0.433   56.905  159.990
  444.884    8.603    0.310    0.441   56.351  159.997
  445.134    8.330    0.308    0.459   57.039  160.005
  445.384    8.250    0.295    0.472   58.967  159.804
  445.634    8.216    0.284    0.443   60.028  159.600
  445.884    8.275    0.281    0.433   59.225  159.504
  446.134    8.382    0.298    0.455   59.788  159.511
  446.384    8.537    0.308    0.457   60.972  159.626
  446.634    8.503    0.305    0.451   61.225  159.737
  446.884    8.311    0.306    0.443   59.864  160.061
  447.134    8.048    0.306    0.430   61.049  160.068
  447.384    7.676    0.291    0.429   67.694  160.182
  447.634    7.186    0.289    0.475   72.912  160.295
  447.884    6.566    0.283    0.491   79.557  160.723
  448.134    5.565    0.267    0.484   88.933  161.151
  448.384    4.351    0.245    0.468   93.531  161.580
  448.634    3.339    0.229    0.455   96.452  162.113
  448.884    2.696    0.206    0.489  100.118  164.538
  449.134    2.234    0.214    0.503  103.536  169.485
  449.384    2.212    0.215    0.524  107.885  172.751
  449.634    2.348    0.257    0.543  112.421  178.119
  449.884    2.602    0.280    0.570  105.723  179.073
  450.134    2.857    0.299    0.580   97.969  180.027
  450.384    3.197    0.322    0.545   91.210  179.509
  450.634    3.596    0.265    0.514   85.008  175.208
  450.884    4.008    0.245    0.483   84.765  167.859
  451.134    4.343    0.224    0.494   87.624  163.138
  451.384    4.698    0.227    0.511   90.980  164.618
  451.634    5.187    0.220    0.542   93.840  166.412
  451.884    5.879    0.216    0.508   90.679  166.736
  452.134    6.492    0.206    0.472   86.029  165.167
  452.384    6.801    0.224    0.456   84.793  162.863
  452.634    6.799    0.246    0.455   87.342  161.295
  452.884    6.683    0.253    0.468   89.333  160.357
  453.134    6.556    0.232    0.465   89.461  159.840
  453.384    6.432    0.216    0.473   90.335  159.848
  453.634    6.394    0.223    0.480   90.402  159.120
  453.884    6.440    0.226    0.482   92.331  157.972
  454.134    6.438    0.217    0.485   93.949  158.505
  454.384    6.316    0.213    0.492   92.216  161.035
  454.634    6.105    0.241    0.490   91.476  162.514
  454.884    6.000    0.246    0.462   91.729  162.102
  455.134    5.931    0.226    0.453   92.726  161.480
  455.384    5.963    0.205    0.456   93.786  161.172
  455.634    6.142    0.204    0.467   92.736  161.075
  455.884    6.387    0.198    0.487   93.423  161.399
  456.134    6.691    0.193    0.505   94.172  161.721
  456.384    7.183    0.209    0.483   93.805  162.045
  456.634    7.399    0.209    0.472   90.893  162.368
  456.884    7.273    0.169    0.462   85.995  163.006
  457.134    6.951    0.044    0.442   80.227  163.540
  457.384    6.507    0.022    0.273   73.343  164.388
  457.634    5.945    0.028    0.275   72.541  165.237
  457.884    5.586    0.170    0.416   77.386  165.455
  458.134    5.279    0.201    0.455   90.176  165.148
  458.384    5.083    0.204    0.464   91.546  164.105
  458.634    5.005    0.201    0.479   94.034  163.904
  458.884    5.022    0.190    0.495   95.403  164.542
  459.134    5.174    0.186    0.492   95.843  166.441
  459.384    5.766    0.198    0.485   94.296  167.080
  459.634    6.524    0.211    0.480   92.377  166.773
  459.884    7.326    0.247    0.481   88.037  165.835
  460.134    8.180    0.267    0.476   81.711  164.266
  460.384    8.411    0.290    0.464   76.627  162.382
  460.634    8.377    0.304    0.445   68.998  160.499
  460.884    8.564    0.310    0.430   60.997  160.087
  461.134    9.211    0.319    0.415   55.540  159.885
  461.384    9.982    0.336    0.420   52.193  159.787
  461.634   10.735    0.335    0.432   52.943  159.900
  461.884   11.332    0.328    0.442   53.506  160.223
  462.134   11.761    0.317    0.456   53.262  160.442
  462.384   12.091    0.305    0.457   53.205  160.765
  462.634   12.156    0.305    0.448   52.465  160.773
  462.884   12.016    0.303    0.436   53.277  160.571
  463.134   11.789    0.300    0.429   54.771  160.263
  463.384   11.697    0.301    0.429   55.706  159.956
  463.634   11.649    0.310    0.435   56.642  159.649
  463.884   11.579    0.307    0.441   56.771  159.341
  464.134   11.576    0.305    0.454   55.535  158.929
  464.384   11.681    0.303    0.464   54.794  158.306
  464.634   11.854    0.308    0.459   53.371  157.894
  464.884   12.007    0.316    0.449   52.135  157.587
  465.134   12.092    0.314    0.446   52.016  157.700
  465.384   12.134    0.304    0.460   52.579  157.917
  465.634   12.221    0.295    0.446   53.576  158.136
  465.884   12.240    0.300    0.449   53.333  158.354
  466.134   12.213    0.314    0.460   52.345  158.677
  466.384   12.118    0.329    0.464   51.543  158.791
  466.634   12.024    0.326    0.458   51.175  159.009
  466.884   11.930    0.317    0.460   50.000  159.122
  467.134   11.836    0.320    0.463   50.688  158.604
  467.384   11.678    0.316    0.458   50.568  158.402
  467.634   11.500    0.309    0.448   50.014  158.410
  467.884   11.432    0.309    0.446   49.461  158.417
  468.134   11.237    0.313    0.449   50.210  158.531
  468.384   10.921    0.315    0.461   49.843  158.434
  468.634   10.836    0.314    0.449   48.916  158.652
  468.884   10.792    0.311    0.448   48.300  158.871
  469.134   10.829    0.306    0.453   48.057  159.298
  469.384   10.866    0.312    0.456   48.620  159.622
  469.634   10.985    0.314    0.446   49.866  159.525
  469.884   11.127    0.313    0.436   51.174  159.322
  470.134   11.291    0.309    0.432   50.744  159.120
  470.384   11.372    0.300    0.431   49.322  158.918
  470.634   11.390    0.297    0.436   48.768  158.715
  470.884   11.408    0.301    0.451   50.572  158.618
  471.134   11.361    0.310    0.464   51.260  158.626
  471.384   11.210    0.313    0.470   51.203  158.739
  471.634   10.834    0.312    0.468   51.021  159.168
  471.884   10.142    0.310    0.461   51.894  159.807
  472.134    9.548    0.312    0.452   54.816  160.235
  472.384    9.176    0.313    0.458   56.372  160.873
  472.634    8.835    0.307    0.449   54.639  160.776
  472.884    8.555    0.309    0.458   54.706  160.784
  473.134    8.346    0.330    0.483   56.200  160.792
  473.384    8.235    0.323    0.487   57.508  160.170
  473.634    8.155    0.318    0.471   59.747  159.862
  473.884    8.417    0.326    0.464   61.800  159.555
  474.134    8.934    0.324    0.460   63.853  159.037
  474.384    9.573    0.307    0.453   67.084  158.730
  474.634    9.917    0.239    0.442   71.744  158.633
  474.884    9.858    0.180    0.437   77.520  158.956
  475.134    9.599    0.125    0.417   83.049  160.435
  475.384    9.054    0.113    0.381   81.688  161.810
  475.634    7.834    0.115    0.324   81.072  162.868
  475.884    6.855    0.144    0.279   86.849  163.613
  476.134    6.240    0.201    0.372   92.563  163.831
  476.384    5.808    0.233    0.451   93.933  164.154
  476.634    5.582    0.235    0.462   89.345  164.372
  476.884    5.436    0.242    0.465   87.178  164.169
  477.134    5.343    0.259    0.473   87.803  163.652
  477.384    5.301    0.274    0.480   89.049  163.555
  477.634    5.290    0.268    0.483   89.551  163.458
  477.884    5.308    0.264    0.479   89.493  163.676
  478.134    5.336    0.253    0.471   88.877  163.683
