~VERSION INFORMATION
 VERS.                 2.0:   CWLS LOG ASCII STANDARD -VERSION 2.0
 WRAP.                  NO:   ONE LINE PER DEPTH STEP
~WELL INFORMATION BLOCK
#MNEM.UNIT           DATA                    DESCRIPTION OF MNEMONIC
#---------    -------------------            -------------------------------
# Generated from Intellog Unique Number	CS_71_72/WELL/785
WELL.         BVX ET AL LYLE                 : Well_name    - WELL
LOC .         00/06-31-072-16W4/0            : Location     - LOCATION
UWI .         00/06-31-072-16W4/0            : Uwi          - UNIQUE WELL ID
ENTR.         SP                             : Entered      - ENTERED BY
SRVC.         SCHLUMBERGER                   : Scn          - SERVICE COMPANY
STRT.M        249.936                        : top_depth    - START DEPTH
STOP.M        441.686                        : bot_depth    - STOP DEPTH
STEP.M        0.25                           : increment    - STEP LENGTH
 NULL. -999.2500:NULL Value
~CURVE INFORMATION BLOCK
#MNEM UNIT       ERCB CURVE CODE    CURVE DESCRIPTION
#-----------   ------------------   ----------------------------------
DEPT.M        00 001 00 00         : DEPTH        - DEPTH
GR  .API      00 310 00 00         : GR           - GAMMA RAY
DPHI.V/V      00 890 00 00         : PHID         - DENSITY POROSITY (SANDSTONE)
NPHI.V/V      00 330 00 00         : PHIN         - NEUTRON POROSITY (SANDSTONE)
ILD .OHMM     00 120 00 00         : RESD         - DEEP RESISTIVITY (DIL)
~PARAMETER INFORMATION
#MNEM.UNIT           DATA             DESCRIPTION OF MNEMONIC
#---------         -----------     ------------------------------
GL  .M        575.584              : gl           - GROUND LEVEL ELEVATION
EREF.M        578.815              : kb           - ELEVATION OF DEPTH REFERENCE
DATM.M        575.584              : datum        - DATUM ELEVATION
TDD .M        443.179              : tdd          - TOTAL DEPTH DRILLER
RUN .         ONE                  : Run          - RUN NUMBER
ENG .         BILL                 : Engineer     - RECORDING ENGINEER
WIT .         JIM                  : Witness      - WITNESSED BY
MUD .         GEL                  : Mud_type     - MUD TYPE
MATR.         SANDSTONE            : Logunit      - NEUTRON MATRIX
TMAX.C        14.4444              : BHT          - MAXIMUM RECORDED TEMPERATURE
BHTD.M        443.179              : BHTDEP       - MAXIMUM RECORDED TEMPERATURE
MATR.         1                    : LOGUNIT      - NEUTRON MATRIX
RMT .C        25                   : MDTP         - TEMPERATURE OF MUD
NEUT.         1                    : NEUTRON      - NEUTRON TYPE
RESI.         0                    : RESIST       - RESISTIVITY TYPE
RMC .OHMM     0.25                 : RMC          - RESISTIVITY OF MUD CAKE
RMF .OHMM     0.25                 : RMF          - RESISTIVITY OF MUD FILTRATE
SUFT.C        15                   : SUFT         - SURFACE TEMPERATURE
~A  DEPTH       GR     PHID     PHIN     RESD
# ...
  336.936   67.984    0.368    0.460    5.868
  337.186   67.217    0.367    0.454    5.864
  337.436   65.554    0.377    0.467    5.856
  337.686   64.418    0.372    0.467    5.753
  337.936   65.818    0.372    0.458    5.749
  338.186   67.529    0.372    0.448    5.868
  338.436   68.314    0.351    0.444    6.136
  338.686   65.852    0.319    0.451    6.448
  338.936   63.966    0.286    0.406    7.025
  339.186   61.565    0.236    0.376    7.656
  339.436   60.091    0.160    0.234    8.506
  339.686   59.083    0.132    0.225    9.382
  339.936   60.811    0.115    0.219   10.163
  340.186   61.009    0.121    0.215   10.766
  340.436   60.056    0.127    0.221   11.465
  340.686   58.225    0.130    0.228   11.570
  340.936   58.746    0.126    0.237   11.932
  341.186   61.402    0.135    0.256   11.567
  341.436   62.591    0.169    0.292   10.863
  341.686   64.644    0.218    0.338   10.116
  341.936   65.855    0.272    0.410    9.143
  342.186   67.565    0.323    0.499    8.168
  342.436   65.439    0.384    0.510    7.581
  342.686   64.650    0.381    0.504    6.965
  342.936   65.422    0.395    0.495    6.871
  343.186   66.441    0.393    0.489    6.760
  343.436   66.494    0.387    0.493    6.764
  343.686   66.523    0.381    0.498    6.772
  343.936   66.422    0.371    0.498    6.982
  344.186   68.038    0.365    0.490    7.152
  344.436   68.935    0.360    0.476    7.140
  344.686   68.267    0.359    0.468    7.055
  344.936   69.343    0.357    0.485    6.847
  345.186   70.770    0.351    0.500    6.516
  345.436   69.505    0.353    0.491    6.324
  345.686   67.879    0.358    0.490    6.136
  345.936   70.648    0.364    0.494    5.945
  346.186   72.736    0.359    0.483    5.883
  346.436   73.140    0.348    0.492    5.838
  346.686   71.665    0.344    0.487    5.738
  346.936   69.921    0.338    0.475    5.713
  347.186   69.015    0.338    0.470    5.824
  347.436   69.080    0.353    0.469    5.796
  347.686   69.307    0.355    0.474    5.822
  347.936   69.688    0.349    0.469    5.825
  348.186   71.340    0.337    0.466    5.824
  348.436   72.325    0.331    0.465    5.821
  348.686   72.686    0.327    0.477    5.825
  348.936   73.347    0.338    0.472    5.707
  349.186   73.204    0.348    0.477    5.714
  349.436   72.752    0.353    0.489    5.714
  349.686   72.078    0.341    0.485    5.710
  349.936   72.148    0.337    0.483    5.700
  350.186   72.116    0.340    0.476    5.603
  350.436   73.017    0.353    0.470    5.606
  350.686   74.701    0.339    0.464    5.606
  350.936   76.664    0.341    0.474    5.608
  351.186   80.835    0.331    0.488    5.637
  351.436   82.406    0.322    0.501    5.706
  351.686   81.525    0.318    0.508    5.706
  351.936   78.966    0.319    0.515    5.705
  352.186   75.372    0.332    0.505    5.702
  352.436   75.518    0.337    0.487    5.644
  352.686   77.212    0.337    0.478    5.601
  352.936   78.181    0.332    0.472    5.597
  353.186   78.034    0.330    0.482    5.597
  353.436   77.060    0.338    0.500    5.598
  353.686   77.017    0.344    0.502    5.515
  353.936   77.515    0.336    0.494    5.495
  354.186   77.087    0.333    0.500    5.492
  354.436   75.519    0.337    0.497    5.480
  354.686   73.833    0.340    0.489    5.602
  354.936   73.538    0.344    0.478    5.590
  355.186   73.877    0.352    0.475    5.589
  355.436   75.016    0.361    0.482    5.588
  355.686   76.482    0.363    0.495    5.587
  355.936   78.693    0.352    0.501    5.587
  356.186   80.828    0.352    0.494    5.585
  356.436   81.237    0.356    0.481    5.584
  356.686   82.236    0.363    0.483    5.583
  356.936   83.206    0.358    0.482    5.583
  357.186   82.137    0.349    0.473    5.582
  357.436   82.171    0.340    0.469    5.581
  357.686   83.839    0.338    0.473    5.580
  357.936   85.386    0.338    0.480    5.579
  358.186   86.963    0.328    0.486    5.578
  358.436   86.883    0.326    0.488    5.577
  358.686   85.904    0.330    0.490    5.587
  358.936   84.830    0.338    0.490    5.465
  359.186   83.935    0.336    0.483    5.474
  359.436   82.275    0.331    0.477    5.473
  359.686   82.065    0.329    0.495    5.472
  359.936   81.434    0.338    0.507    5.471
  360.186   82.192    0.337    0.498    5.470
  360.436   82.140    0.330    0.493    5.469
  360.686   82.219    0.324    0.488    5.467
  360.936   81.536    0.325    0.485    5.460
  361.186   80.987    0.319    0.489    5.565
  361.436   81.306    0.316    0.501    5.564
  361.686   83.370    0.323    0.511    5.563
  361.936   86.155    0.313    0.501    5.572
  362.186   91.498    0.299    0.482    5.182
  362.436   94.641    0.291    0.473    4.493
  362.686   99.600    0.282    0.474    3.875
  362.936  105.300    0.271    0.492    3.359
  363.186  109.471    0.262    0.554    3.141
  363.436  112.112    0.260    0.573    2.972
  363.686  113.697    0.283    0.565    3.049
  363.936  111.658    0.275    0.547    3.652
  364.186  109.373    0.285    0.559    4.038
  364.436  109.281    0.266    0.535    4.452
  364.686  109.339    0.252    0.515    4.787
  364.936  107.470    0.247    0.498    5.093
  365.186  104.822    0.270    0.502    5.295
  365.436  102.844    0.278    0.491    5.456
  365.686  102.735    0.278    0.481    5.441
  365.936  102.636    0.279    0.474    5.556
  366.186  101.118    0.261    0.471    5.549
  366.436   99.484    0.249    0.473    5.585
  366.686   97.895    0.236    0.465    5.644
  366.936   96.993    0.218    0.462    5.537
  367.186  101.008    0.208    0.479    5.514
  367.436  105.178    0.246    0.495    5.442
  367.686  105.973    0.261    0.505    5.379
  367.936  104.514    0.270    0.491    5.345
  368.186  104.612    0.285    0.479    5.342
  368.436  103.685    0.282    0.494    5.344
  368.686  101.986    0.274    0.503    5.355
  368.936  100.386    0.273    0.509    5.440
  369.186  100.282    0.272    0.492    5.400
  369.436   98.566    0.261    0.494    5.230
  369.686   96.169    0.253    0.492    5.148
  369.936   92.921    0.257    0.473    5.006
  370.186   87.873    0.251    0.462    4.958
  370.436   84.894    0.247    0.476    4.861
  370.686   86.837    0.248    0.478    4.860
  370.936   84.556    0.285    0.468    4.955
  371.186   76.239    0.293    0.471    5.098
  371.436   64.600    0.260    0.369    5.613
  371.686   53.867    0.201    0.305    6.241
  371.936   54.638    0.146    0.280    6.890
  372.186   58.849    0.251    0.378    7.414
  372.436   61.810    0.332    0.430    7.324
  372.686   63.331    0.351    0.462    6.493
  372.936   61.549    0.364    0.465    5.702
  373.186   61.344    0.351    0.459    5.260
  373.436   63.282    0.343    0.460    4.896
  373.686   64.628    0.346    0.468    4.772
  373.936   65.690    0.355    0.466    4.623
  374.186   65.957    0.353    0.462    4.599
  374.436   67.003    0.344    0.464    4.596
  374.686   67.705    0.338    0.462    4.597
  374.936   67.597    0.341    0.453    4.602
  375.186   67.082    0.347    0.454    4.824
  375.436   67.334    0.338    0.458    4.938
  375.686   68.390    0.330    0.459    5.037
  375.936   68.589    0.326    0.469    5.035
  376.186   66.855    0.334    0.473    4.877
  376.436   65.933    0.338    0.462    4.587
  376.686   65.960    0.333    0.455    4.503
  376.936   65.955    0.329    0.452    4.505
  377.186   65.978    0.343    0.464    4.505
  377.436   64.654    0.353    0.466    4.495
  377.686   63.471    0.358    0.486    4.590
  377.936   62.440    0.346    0.476    4.662
  378.186   62.308    0.332    0.466    4.704
  378.436   63.757    0.324    0.457    4.853
  378.686   64.713    0.316    0.460    5.120
  378.936   64.430    0.318    0.463    6.055
  379.186   62.418    0.323    0.447    7.014
  379.436   62.032    0.300    0.397    7.547
  379.686   62.007    0.235    0.324    8.164
  379.936   64.251    0.115    0.280    7.929
  380.186   68.867    0.198    0.368    6.370
