~VERSION INFORMATION
 VERS.                 2.0:   CWLS LOG ASCII STANDARD -VERSION 2.0
 WRAP.                  NO:   ONE LINE PER DEPTH STEP
~WELL INFORMATION BLOCK
#MNEM.UNIT           DATA                    DESCRIPTION OF MNEMONIC
#---------    -------------------            -------------------------------
# Generated from Intellog Unique Number	CS_71_72/WELL/781
WELL.         SULPETRO BRENDA IPIATIK        : Well_name    - WELL
LOC .         00/06-28-072-10W4/0            : Location     - LOCATION
UWI .         00/06-28-072-10W4/0            : Uwi          - UNIQUE WELL ID
ENTR.         SP                             : Entered      - ENTERED BY
SRVC.         SCHLUMBERGER                   : Scn          - SERVICE COMPANY
STRT.M        300                            : top_depth    - START DEPTH
STOP.M        520                            : bot_depth    - STOP DEPTH
STEP.M        0.25                           : increment    - STEP LENGTH
 NULL. -999.2500:NULL Value
~CURVE INFORMATION BLOCK
#MNEM UNIT       ERCB CURVE CODE    CURVE DESCRIPTION
#-----------   ------------------   ----------------------------------
DEPT.M        00 001 00 00         : DEPTH        - DEPTH
ILD .OHMM     00 120 00 00         : RESD         - DEEP RESISTIVITY (DIL)
DPHI.V/V      00 890 00 00         : PHID         - DENSITY POROSITY (LIMESTONE)
NPHI.V/V      00 330 00 00         : PHIN         - NEUTRON POROSITY (LIMESTONE)
GR  .API      00 310 00 00         : GR           - GAMMA RAY
~PARAMETER INFORMATION
#MNEM.UNIT           DATA             DESCRIPTION OF MNEMONIC
#---------         -----------     ------------------------------
GL  .M        659.79               : gl           - GROUND LEVEL ELEVATION
EREF.M        662.39               : kb           - ELEVATION OF DEPTH REFERENCE
DATM.M        659.79               : datum        - DATUM ELEVATION
TDD .M        53.2                 : tdd          - TOTAL DEPTH DRILLER
RUN .         ONE                  : Run          - RUN NUMBER
ENG .         BILL                 : Engineer     - RECORDING ENGINEER
WIT .         JIM                  : Witness      - WITNESSED BY
MUD .         GEL                  : Mud_type     - MUD TYPE
MATR.         LIMESTONE            : Logunit      - NEUTRON MATRIX
TMAX.C        0.26                 : BHT          - MAXIMUM RECORDED TEMPERATURE
BHTD.M        532                  : BHTDEP       - MAXIMUM RECORDED TEMPERATURE
MATR.         1                    : LOGUNIT      - NEUTRON MATRIX
RMT .C        25                   : MDTP         - TEMPERATURE OF MUD
NEUT.         1                    : NEUTRON      - NEUTRON TYPE
RESI.         0                    : RESIST       - RESISTIVITY TYPE
RMC .OHMM     0.25                 : RMC          - RESISTIVITY OF MUD CAKE
RMF .OHMM     0.25                 : RMF          - RESISTIVITY OF MUD FILTRATE
SUFT.C        15                   : SUFT         - SURFACE TEMPERATURE
~A  DEPTH     RESD     PHID     PHIN       GR
  300.000    2.668    0.238    0.467  118.646
  300.250    2.618    0.240    0.500  119.260
  300.500    2.618    0.247    0.565  119.259
  300.750    2.667    0.246    0.612  117.413
  301.000    2.667    0.233    0.575  114.953
  301.250    2.770    0.226    0.558  113.107
  301.500    2.822    0.221    0.515  111.877
  301.750    2.769    0.217    0.489  114.949
  302.000    2.769    0.214    0.461  117.406
  302.250    2.769    0.212    0.423  119.249
  302.500    2.768    0.214    0.400  119.863
  302.750    2.821    0.216    0.437  116.787
  303.000    2.875    0.221    0.485  116.786
  303.250    3.042    0.215    0.499  117.400
  303.500    3.158    0.207    0.472  116.783
  303.750    3.218    0.207    0.433  115.552
  304.000    3.279    0.216    0.410  114.322
  304.250    3.405    0.217    0.431  114.935
  304.500    3.470    0.211    0.436  116.163
  304.750    3.536    0.199    0.444  116.776
  305.000    3.603    0.191    0.462  117.390
  305.250    3.885    0.184    0.474  118.003
  305.500    4.111    0.189    0.467  116.772
  305.750    4.189    0.201    0.456  113.697
  306.000    4.268    0.199    0.452  113.081
  306.250    4.188    0.184    0.431  114.309
  306.500    4.188    0.179    0.407  114.922
  306.750    4.032    0.183    0.396  114.306
  307.000    3.883    0.196    0.395  116.763
  307.250    3.810    0.203    0.406  117.377
  307.500    3.599    0.205    0.420  117.991
  307.750    3.532    0.204    0.430  116.760
  308.000    3.401    0.205    0.393  116.758
  308.250    3.400    0.205    0.374  116.757
  308.500    3.400    0.204    0.361  115.526
  308.750    3.465    0.199    0.396  114.295
  309.000    3.464    0.196    0.435  114.908
  309.250    3.464    0.185    0.458  115.522
  309.500    3.464    0.183    0.475  116.750
  309.750    3.464    0.180    0.436  117.978
  310.000    3.463    0.196    0.411  116.132
  310.250    3.463    0.206    0.399  113.672
  310.500    3.596    0.211    0.405  109.981
  310.750    3.664    0.209    0.409  108.751
  311.000    3.805    0.212    0.419  107.520
  311.250    3.877    0.254    0.427  105.060
  311.500    3.804    0.258    0.372  104.444
  311.750    3.733    0.219    0.314  105.671
  312.000    3.663    0.179    0.346  106.285
  312.250    3.876    0.210    0.421  109.357
  312.500    5.143    0.235    0.443  111.815
  312.750    6.826    0.243    0.425  108.740
  313.000    8.400    0.228    0.399   89.066
  313.250   11.361    0.242    0.359   73.696
  313.500   16.569    0.284    0.317   60.170
  313.750   25.574    0.351    0.189   49.103
  314.000   32.071    0.364    0.153   41.725
  314.250   33.301    0.358    0.136   35.576
  314.500   29.733    0.353    0.127   34.345
  314.750   25.564    0.363    0.131   39.261
  315.000   21.980    0.370    0.136   40.490
  315.250   19.258    0.370    0.151   45.406
  315.500   17.856    0.346    0.147   52.167
  315.750   17.193    0.301    0.147   68.764
  316.000   17.520    0.243    0.173   84.746
  316.250   17.190    0.199    0.196   73.065
  316.500   17.189    0.185    0.180   60.768
  316.750   16.866    0.230    0.166   65.685
  317.000   15.936    0.253    0.210   73.675
  317.250   14.229    0.273    0.243   79.822
  317.500   12.467    0.240    0.270   86.582
  317.750   11.131    0.215    0.295   91.499
  318.000   10.320    0.205    0.325   95.186
  318.250    9.752    0.204    0.343   98.873
  318.500    9.569    0.208    0.362   99.487
  318.750    9.567    0.222    0.367  100.715
  319.000    9.567    0.227    0.357  105.631
  319.250    9.387    0.225    0.341  108.704
  319.500    9.211    0.217    0.338  114.234
  319.750    8.540    0.217    0.336  115.463
  320.000    8.380    0.229    0.331  116.691
  320.250    8.223    0.229    0.325  114.846
  320.500    8.222    0.212    0.354  113.000
  320.750    8.537    0.222    0.367  106.236
  321.000    8.865    0.225    0.378   95.169
  321.250    9.033    0.216    0.400   86.561
  321.500    9.741    0.233    0.416   77.954
  321.750   10.115    0.290    0.391   64.427
  322.000   10.503    0.311    0.395   55.820
  322.250   10.702    0.311    0.384   57.662
  322.500    9.923    0.289    0.345   63.809
  322.750    9.737    0.257    0.295   74.873
  323.000    8.859    0.241    0.331   84.093
  323.250    8.858    0.226    0.367   89.624
  323.500    9.198    0.226    0.388   77.942
  323.750   10.107    0.257    0.354   69.949
  324.000   10.496    0.278    0.351   60.726
  324.250   11.106    0.291    0.378   56.422
  324.500   11.532    0.291    0.395   53.347
  324.750   11.751    0.288    0.412   56.418
  325.000   11.974    0.289    0.422   58.262
  325.250   11.973    0.296    0.353   59.490
  325.500   11.972    0.296    0.352   59.489
  325.750   11.747    0.298    0.351   52.724
  326.000   11.311    0.298    0.346   47.190
  326.250    9.910    0.298    0.337   42.271
  326.500    8.683    0.296    0.347   39.196
  326.750    7.753    0.296    0.341   44.113
  327.000    6.181    0.294    0.309   78.537
  327.250    5.314    0.262    0.290   88.987
  327.500    4.318    0.172    0.308  101.895
  327.750    3.855    0.147    0.362  117.263
  328.000    3.442    0.173    0.408  127.098
  328.250    3.191    0.200    0.436  133.858
  328.500    3.441    0.211    0.453  129.554
  328.750    4.156    0.221    0.475  125.864
  329.000    5.311    0.230    0.500  122.174
  329.250    6.917    0.246    0.533  112.336
  329.500    8.353    0.261    0.522   99.425
  329.750   10.279    0.268    0.471   90.817
  330.000   11.730    0.262    0.375   84.668
  330.250   12.412    0.259    0.350   79.749
  330.500   13.134    0.262    0.341   75.444
  330.750   13.638    0.264    0.366   72.984
  331.000   13.897    0.263    0.392   76.671
  331.250   13.636    0.258    0.373   84.661
  331.500   12.884    0.251    0.383   88.963
  331.750   12.642    0.242    0.419   92.650
  332.000   11.503    0.237    0.443   87.731
  332.250   11.076    0.252    0.455   83.426
  332.500    9.889    0.268    0.390   82.195
  332.750    8.664    0.267    0.357   88.956
  333.000    7.736    0.259    0.343   95.717
  333.250    7.173    0.247    0.335  101.249
  333.500    6.285    0.241    0.371  107.394
  333.750    5.718    0.237    0.378  111.081
  334.000    5.302    0.219    0.369  113.539
  334.250    5.010    0.201    0.388  117.841
  334.500    4.734    0.201    0.403  122.758
  334.750    4.558    0.194    0.417  127.674
  335.000    4.557    0.183    0.398  130.747
  335.250    4.914    0.163    0.378  134.434
  335.500    5.608    0.155    0.371  135.047
  335.750    6.162    0.152    0.387  135.046
  336.000    6.901    0.169    0.395  136.889
  336.250    8.025    0.184    0.408  139.961
  336.500    8.986    0.205    0.400  140.575
  336.750   10.063    0.222    0.371  138.729
  337.000   11.483    0.215    0.351  133.810
  337.250   12.382    0.232    0.331  123.357
  337.500   13.103    0.248    0.350  111.061
  337.750   13.606    0.268    0.377  103.068
  338.000   12.855    0.294    0.390   98.148
  338.250   12.379    0.300    0.385   97.532
  338.500   11.263    0.285    0.380  100.604
  338.750   10.642    0.269    0.356  104.906
  339.000   10.442    0.258    0.336  107.979
  339.250   10.843    0.238    0.337  111.666
  339.500   11.473    0.222    0.357  113.509
  339.750   12.608    0.227    0.378  111.663
  340.000   13.340    0.235    0.390  103.055
  340.250   13.340    0.258    0.385   90.759
  340.500   13.593    0.278    0.385   80.306
  340.750   13.088    0.294    0.359   75.387
  341.000   12.135    0.283    0.353   81.533
  341.250   11.041    0.273    0.343   88.293
  341.500    9.858    0.282    0.332   93.210
  341.750    9.315    0.271    0.329   98.127
  342.000    8.802    0.255    0.341  101.814
  342.250    7.858    0.243    0.342  109.804
  342.500    7.711    0.226    0.324  112.262
  342.750    7.425    0.215    0.313  114.105
  343.000    7.424    0.206    0.335  116.563
  343.250    7.565    0.203    0.350  117.791
