~VERSION INFORMATION
 VERS.                 2.0:   CWLS LOG ASCII STANDARD -VERSION 2.0
 WRAP.                  NO:   ONE LINE PER DEPTH STEP
~WELL INFORMATION BLOCK
#MNEM.UNIT           DATA                    DESCRIPTION OF MNEMONIC
#---------    -------------------            -------------------------------
# Generated from Intellog Unique Number	CC_80_83/WELL/1168
NULL.         -999.25                        : NULL_VALUE
WELL.         CAVALIER ET AL ALGAR           : Well_name    - WELL
LOC .         06-35-080-18W4                 : Location     - LOCATION          
UWI .         00/06-35-080-18W4/0            : Uwi          - UNIQUE WELL ID    
ENTR.         DW                             : Entered      - ENTERED BY        
SRVC.         SCHLUMBERGER                   : Scn          - SERVICE COMPANY   
DATE.         08 MAR 78                      : Date         - LOG DATE
STRT.M        195.072                        : top_depth    - START DEPTH       
STOP.M        329.185                        : bot_depth    - STOP DEPTH        
STEP.M        0.305                          : increment    - STEP LENGTH       
~CURVE INFORMATION BLOCK
#MNEM UNIT       ERCB CURVE CODE    CURVE DESCRIPTION
#-----------   ------------------   ----------------------------------
DEPT.M        00 001 00 00         : DEPTH        - DEPTH                       
DPHI.V/V      00 890 00 00         : PHID         - DENSITY POROSITY (LIMESTONE)
NPHI.V/V      00 330 00 00         : PHIN         - NEUTRON POROSITY (LIMESTONE)
GR  .API      00 310 00 00         : GR           - GAMMA RAY                   
ILD .OHMM     00 120 00 00         : RESD         - DEEP RESISTIVITY (DIL)      
~PARAMETER INFORMATION       
#MNEM.UNIT           DATA             DESCRIPTION OF MNEMONIC
#---------         -----------     ------------------------------
GL  .M        550.469              : gl           - GROUND LEVEL ELEVATION      
EREF.M        553.517              : kb           - ELEVATION OF DEPTH REFERENCE
DATM.M        553.517              : datum        - DATUM ELEVATION             
TDD .M        329.184              : tdd          - TOTAL DEPTH DRILLER         
RUN .         ONE                  : Run          - RUN NUMBER                  
ENG .         BILL                 : Engineer     - RECORDING ENGINEER          
WIT .         JIM                  : Witness      - WITNESSED BY                
MUD .         GEL                  : Mud_type     - MUD TYPE                    
MATR.         LIMESTONE            : Logunit      - NEUTRON MATRIX              
TMAX.C        25                   : BHT          - MAXIMUM RECORDED TEMPERATURE
BHTD.M        329.184              : BHTDEP       - MAXIMUM RECORDED TEMPERATURE
MATR.         1                    : LOGUNIT      - NEUTRON MATRIX              
RMT .C        25                   : MDTP         - TEMPERATURE OF MUD          
NEUT.         1                    : NEUTRON      - NEUTRON TYPE                
RESI.         0                    : RESIST       - RESISTIVITY TYPE            
RMC .OHMM     0.25                 : RMC          - RESISTIVITY OF MUD CAKE     
RMF .OHMM     0.25                 : RMF          - RESISTIVITY OF MUD FILTRATE 
SUFT.C        15                   : SUFT         - SURFACE TEMPERATURE         
~A  DEPTH     PHID     PHIN       GR     RESD
# ...
  301.143    0.190    0.403   76.088   11.533
  301.448    0.168    0.377   71.901   11.296
  301.752    0.194    0.404   70.714   10.583
  302.057    0.217    0.441   71.925    9.394
  302.362    0.238    0.477   76.146    8.840
  302.667    0.245    0.486   77.960    8.921
  302.972    0.246    0.477   76.770    9.161
  303.276    0.244    0.465   73.179    9.241
  303.581    0.228    0.438   68.993    9.401
  303.886    0.203    0.429   68.401    9.482
  304.191    0.185    0.419   69.616    9.484
  304.496    0.190    0.423   74.439    9.326
  304.800    0.239    0.437   79.254    8.931
  305.105    0.226    0.454   82.267    8.536
  305.410    0.216    0.443   82.881    8.378
  305.715    0.218    0.438   80.495    8.459
  306.020    0.207    0.428   78.104    8.540
  306.324    0.204    0.425   78.722    8.224
  306.629    0.210    0.442   79.932    7.670
  306.934    0.219    0.445   81.147    6.798
  307.239    0.215    0.447   81.161    5.768
  307.544    0.206    0.461   85.380    5.452
  307.849    0.165    0.451   90.198    5.453
  308.153    0.210    0.469   96.216    5.931
  308.458    0.207    0.477  100.431    6.726
  308.763    0.198    0.460  101.650    8.474
  309.068    0.168    0.452   99.861    9.903
  309.373    0.149    0.460   99.871   11.572
  309.677    0.129    0.414   95.081   12.684
  309.982    0.060    0.390   79.480   13.003
  310.287    0.092    0.334   71.086   11.973
  310.592    0.167    0.401   81.308   11.815
  310.897    0.202    0.430   86.730   12.611
  311.201    0.181    0.438   86.743   12.851
  311.506    0.193    0.413   84.957   12.852
  311.811    0.174    0.393   84.365   12.774
  312.116    0.129    0.407   84.378   12.061
  312.421    0.181    0.433   87.397   11.666
  312.725    0.192    0.420   90.414   11.667
  313.030    0.196    0.417   91.028   12.065
  313.335    0.193    0.422   87.438   13.178
  313.640    0.181    0.420   83.250   14.846
  313.945    0.163    0.398   81.463   17.784
  314.250    0.130    0.358   80.276   17.944
  314.554    0.113    0.345   80.285   17.469
  314.859    0.161    0.374   83.300   15.169
  315.164    0.142    0.386   85.715   12.948
  315.469    0.148    0.391   89.331   10.648
  315.774    0.206    0.398   92.947    8.665
  316.078    0.182    0.410  100.169    7.079
  316.383    0.168    0.428  104.987    5.890
  316.688    0.160    0.441  108.603    4.384
  316.993    0.180    0.451  114.623    3.512
  317.298    0.195    0.455  116.434    3.434
  317.602    0.199    0.503  112.244    3.674
  317.907    0.213    0.544   96.645    4.786
  318.212    0.251    0.535   83.447    7.010
  318.517    0.237    0.476   76.260    9.234
  318.822    0.237    0.411   76.868   14.553
  319.126    0.236    0.415   77.484   14.395
  319.431    0.232    0.418   64.885   12.572
  319.736    0.250    0.410   58.894   12.018
  320.041    0.239    0.406   59.507    9.796
  320.346    0.205    0.412   66.126    6.464
  320.651    0.197    0.417   72.746    4.561
  320.955    0.220    0.430   80.567    4.007
  321.260    0.194    0.455   84.782    3.929
  321.565    0.176    0.447   82.398    4.168
  321.870    0.156    0.420   82.409    5.123
  322.175    0.133    0.407   87.225    5.839
  322.479    0.172    0.434   89.040    6.157
  322.784    0.153    0.437   86.652    5.841
  323.089    0.105    0.407   64.447    5.842
  323.394    0.103    0.412   71.069    6.082
  323.699    0.177    0.443   75.282    5.766
  324.003    0.173    0.432   78.904    4.180
  324.308    0.182    0.423   78.912    4.181
  324.613    0.196    0.480   77.730    5.294
  324.918    0.201    0.473   76.543    6.962
  325.223    0.179    0.436   75.951    8.472
  325.527    0.131    0.335   73.562    9.584
  325.832    0.136    0.301   71.176   10.141
  326.137    0.161    0.278   73.591   10.301
  326.442    0.156    0.270   79.609    9.986
  326.747    0.145    0.271   82.624    9.669
  327.052    0.135    0.271   83.242    8.798
  327.356    0.148    0.270   83.253    5.624
  327.661    0.181    0.270   82.663    4.674
  327.966    0.199    0.272   82.087    4.754
  328.271    0.205    0.273   81.498    4.994
  328.576    0.210    0.271   80.909    5.075
  328.880    0.210    0.271   80.322    5.236
  329.185    0.214    0.271   80.333    5.316
