~VERSION INFORMATION
 VERS.                 2.0:   CWLS LOG ASCII STANDARD -VERSION 2.0
 WRAP.                  NO:   ONE LINE PER DEPTH STEP
~WELL INFORMATION BLOCK
#MNEM.UNIT           DATA                    DESCRIPTION OF MNEMONIC
#---------    -------------------            -------------------------------
# Generated from Intellog Unique Number	CW_79_81/WELL/185
WELL.         01-27-079-23W4                 : Well_name    - WELL
LOC .         00/01-27-079-23W4/0            : Location     - LOCATION
UWI .         00/01-27-079-23W4/0            : Uwi          - UNIQUE WELL ID
ENTR.         MAX                            : Entered      - ENTERED BY
SRVC.         COMPUTALOG                     : Scn          - SERVICE COMPANY
STRT.M        225                            : top_depth    - START DEPTH
STOP.M        465                            : bot_depth    - STOP DEPTH
STEP.M        0.25                           : increment    - STEP LENGTH
 NULL. -999.2500:NULL Value
~CURVE INFORMATION BLOCK
#MNEM UNIT       ERCB CURVE CODE    CURVE DESCRIPTION
#-----------   ------------------   ----------------------------------
DEPT.M        00 001 00 00         : DEPTH        - DEPTH
GR  .API      00 310 00 00         : GR           - GAMMA RAY
ILD .OHMM     00 120 00 00         : RESD         - DEEP RESISTIVITY (DIL)
NPHI.V/V      00 330 00 00         : PHIN         - NEUTRON POROSITY (SANDSTONE)
DPHI.V/V      00 890 00 00         : PHID         - DENSITY POROSITY (SANDSTONE)
CALI.MM       00 280 01 00         : CAL          - CALIPER
~PARAMETER INFORMATION
#MNEM.UNIT           DATA             DESCRIPTION OF MNEMONIC
#---------         -----------     ------------------------------
GL  .M        563.6                : gl           - GROUND LEVEL ELEVATION
EREF.M        568.6                : kb           - ELEVATION OF DEPTH REFERENCE
DATM.M        563.6                : datum        - DATUM ELEVATION
TDD .M        580                  : tdd          - TOTAL DEPTH DRILLER
RUN .         ONE                  : Run          - RUN NUMBER
ENG .         BILL                 : Engineer     - RECORDING ENGINEER
WIT .         JIM                  : Witness      - WITNESSED BY
MUD .         GEL                  : Mud_type     - MUD TYPE
MATR.         SANDSTONE            : Logunit      - NEUTRON MATRIX
TMAX.C        28                   : BHT          - MAXIMUM RECORDED TEMPERATURE
BHTD.M        580                  : BHTDEP       - MAXIMUM RECORDED TEMPERATURE
RMT .C        15.6                 : MDTP         - TEMPERATURE OF MUD
MUDD.KG/M     1180                 : MWT          - MUD DENSITY
NEUT.         1                    : NEUTRON      - NEUTRON TYPE
RESI.         0                    : RESIST       - RESISTIVITY TYPE
RM  .OHMM     6.3                  : RM           - RESISTIVITY OF MUD
RMC .OHMM     4.7                  : RMC          - RESISTIVITY OF MUD CAKE
RMF .OHMM     7                    : RMF          - RESISTIVITY OF MUD FILTRATE
SUFT.C        -10                  : SUFT         - SURFACE TEMPERATURE
~A  DEPTH       GR     RESD     PHIN     PHID      CAL
# ...
  371.000   70.335   25.555    0.402    0.199  239.775
  371.250   70.349   26.264    0.398    0.183  239.312
  371.500   70.955   26.748    0.399    0.183  238.843
  371.750   71.558   27.743    0.405    0.204  238.867
  372.000   71.864   28.775    0.417    0.225  238.892
  372.250   71.879   29.039    0.413    0.236  238.916
  372.500   73.367   28.515    0.406    0.245  238.456
  372.750   77.199   26.508    0.399    0.247  237.987
  373.000   77.805   22.908    0.408    0.230  237.524
  373.250   78.408   19.617    0.417    0.217  237.058
  373.500   80.774   17.744    0.426    0.207  236.592
  373.750   82.846   16.496    0.424    0.211  235.637
  374.000   83.156   16.198    0.412    0.220  234.684
  374.250   83.465   16.198    0.399    0.205  234.215
  374.500   84.947   16.199    0.384    0.189  233.749
  374.750   83.198   17.426    0.368    0.141  232.799
  375.000   71.159   18.575    0.310    0.106  232.823
  375.250   65.001   19.091    0.328    0.087  233.827
  375.500   76.186   18.918    0.351    0.121  234.828
  375.750   84.433   17.748    0.395    0.177  236.322
  376.000   85.627   15.478    0.414    0.210  237.819
  376.250   85.346   13.873    0.422    0.205  238.336
  376.500   85.068   13.748    0.426    0.201  238.360
  376.750   83.615   13.748    0.421    0.206  238.384
  377.000   82.156   13.874    0.405    0.216  238.904
  377.250   79.526   14.522    0.398    0.220  239.416
  377.500   77.779   17.914    0.409    0.217  239.927
  377.750   77.496   19.805    0.421    0.221  240.441
  378.000   78.688   22.710    0.426    0.233  241.448
  378.250   82.524   23.341    0.429    0.236  241.968
  378.500   82.244   22.919    0.432    0.237  241.992
  378.750   80.495   21.502    0.429    0.240  242.503
  379.000   82.573   19.449    0.417    0.237  242.530
  379.250   83.761   17.916    0.422    0.231  242.554
  379.500   84.950   16.655    0.423    0.221  242.581
  379.750   87.316   15.913    0.417    0.205  242.602
  380.000   87.626   15.626    0.412    0.204  242.626
  380.250   86.172   15.204    0.411    0.209  242.653
  380.500   84.715   15.204    0.411    0.219  242.677
  380.750   83.262   14.794    0.416    0.221  242.702
  381.000   83.278   14.527    0.423    0.219  242.726
  381.250   84.172   14.396    0.422    0.208  242.747
  381.500   83.307   14.265    0.423    0.193  242.795
  381.750   83.321   14.136    0.423    0.173  242.801
  382.000   80.986   14.136    0.422    0.158  243.315
  382.250   79.821   14.136    0.421    0.175  243.339
  382.500   81.307   14.137    0.414    0.200  243.363
  382.750   84.261   14.009    0.412    0.208  243.387
  383.000   88.393   13.756    0.412    0.207  243.901
  383.250   87.527   13.756    0.414    0.203  243.925
  383.500   86.952   13.508    0.419    0.196  244.439
  383.750   87.554   12.905    0.418    0.189  244.959
  384.000   85.514   12.557    0.412    0.180  245.473
  384.250   84.647   12.444    0.415    0.177  245.984
  384.500   87.011   12.219    0.420    0.181  246.505
  384.750   91.143   12.219    0.415    0.188  246.529
  385.000   92.628   12.219    0.412    0.197  247.043
  385.250   90.288   12.109    0.425    0.201  247.070
  385.500   86.187   12.109    0.434    0.206  247.088
  385.750   86.499   12.220    0.427    0.207  246.625
  386.000   87.982   12.559    0.412    0.205  246.655
  386.250   87.412   12.791    0.412    0.199  246.679
  386.500   85.957   12.791    0.431    0.186  246.697
  386.750   85.971   12.791    0.452    0.190  246.721
  387.000   87.749   12.676    0.449    0.198  246.745
  387.250   90.702   12.447    0.435    0.203  246.779
  387.500   94.538   11.892    0.426    0.197  246.803
  387.750   95.732   11.571    0.432    0.196  246.827
  388.000   93.984   11.362    0.434    0.191  246.845
  388.250   91.939   11.362    0.419    0.180  246.878
  388.500   88.428   11.678    0.406    0.173  246.896
  388.750   88.144   11.893    0.410    0.188  246.923
  389.000   88.749   11.894    0.433    0.188  246.950
  389.250   90.235   11.679    0.441    0.185  246.971
  389.500   92.601   11.468    0.438    0.187  247.010
  389.750   94.675   11.159    0.431    0.197  246.530
  390.000   94.982   11.057    0.426    0.204  246.064
  390.250   93.234   10.858    0.421    0.194  246.088
  390.500   88.837   10.858    0.413    0.179  245.138
  390.750   90.911   10.958    0.398    0.189  244.675
  391.000   91.811   11.365    0.396    0.194  243.713
  391.250   90.940   12.005    0.403    0.194  242.271
  391.500   89.485   12.797    0.395    0.194  241.312
  391.750   86.855   13.893    0.385    0.182  239.869
  392.000   82.460   15.220    0.403    0.183  238.922
  392.250   79.241   17.294    0.410    0.201  238.447
  392.500   78.372   20.381    0.402    0.208  237.982
  392.750   75.744   23.585    0.390    0.202  237.519
  393.000   73.113   25.604    0.396    0.190  237.059
  393.250   73.421   26.076    0.421    0.207  236.587
  393.500   73.438   25.840    0.426    0.226  236.124
  393.750   71.685   24.688    0.428    0.220  235.661
  394.000   71.407   23.588    0.429    0.226  235.189
  394.250   79.064   21.531    0.424    0.224  234.727
  394.500   82.608   19.834    0.414    0.208  234.261
  394.750   81.155   18.439    0.404    0.165  232.818
  395.000   82.347   18.106    0.391    0.152  231.369
  395.250   86.179   18.439    0.376    0.167  229.436
  395.500   92.073   18.951    0.362    0.186  227.997
  395.750   90.326   20.387    0.354    0.192  227.528
  396.000   83.285   22.540    0.333    0.176  227.549
  396.250   73.598   24.469    0.316    0.143  227.573
  396.500   69.793   25.612    0.330    0.107  228.093
  396.750   71.277   24.248    0.362    0.171  228.117
  397.000   75.406   23.167    0.390    0.231  228.138
  397.250   80.713   21.537    0.398    0.231  228.162
  397.500   82.787   20.390    0.403    0.187  227.703
  397.750   78.684   20.206    0.401    0.125  227.234
  398.000   75.761   20.957    0.373    0.166  226.281
  398.250   73.424   22.137    0.336    0.160  225.812
  398.500   70.794   24.252    0.298    0.116  225.836
  398.750   66.985   27.557    0.269    0.086  225.866
  399.000   60.238   29.916    0.249    0.055  225.890
  399.250   54.963   32.774    0.234    0.061  226.404
  399.500   56.446   33.685    0.245    0.168  226.918
  399.750   60.870   33.076    0.271    0.232  227.922
  400.000   67.355   31.031    0.294    0.236  230.889
  400.250   68.839   30.749    0.300    0.200  231.890
  400.500   64.737   31.316    0.276    0.106  231.920
  400.750   60.047   35.261    0.265    0.065  231.941
  401.000   60.356   37.246    0.281    0.062  230.989
  401.250   64.490   34.942    0.293    0.066  230.523
  401.500   65.972   32.188    0.316    0.115  230.547
  401.750   67.752   28.329    0.333    0.176  231.548
  402.000   70.412   24.482    0.347    0.194  232.552
  402.250   73.660   20.030    0.370    0.209  233.559
  402.500   78.380   16.842    0.382    0.200  234.566
  402.750   82.216   15.801    0.396    0.180  235.570
  403.000   84.878   14.959    0.393    0.164  236.571
  403.250   82.245   14.689    0.400    0.128  237.581
  403.500   79.908   14.689    0.402    0.171  237.605
  403.750   81.686   14.960    0.402    0.182  238.119
  404.000   79.354   15.376    0.403    0.181  238.143
  404.250   79.953   15.236    0.402    0.176  238.143
  404.500   82.613   14.825    0.407    0.172  238.693
  404.750   85.569   14.825    0.411    0.173  238.708
  405.000   88.821   14.426    0.407    0.173  238.729
  405.250   91.775   14.037    0.403    0.172  238.263
  405.500   94.433   13.783    0.400    0.174  238.296
  405.750   97.094   13.783    0.399    0.173  238.318
  406.000   99.460   13.784    0.403    0.159  237.855
  406.250   98.006   13.659    0.401    0.131  237.879
  406.500   88.024   13.535    0.401    0.109  237.903
  406.750   87.450   13.050    0.404    0.157  237.927
  407.000   90.408   12.698    0.407    0.180  238.438
  407.250   89.539   12.243    0.413    0.174  239.448
