~VERSION INFORMATION
 VERS.                 2.0:   CWLS LOG ASCII STANDARD -VERSION 2.0
 WRAP.                  NO:   ONE LINE PER DEPTH STEP
~WELL INFORMATION BLOCK
#MNEM.UNIT           DATA                    DESCRIPTION OF MNEMONIC
#---------    -------------------            -------------------------------
# Generated from Intellog Unique Number	CW_73_75/WELL/468
WELL.         COSEKA ET AL MITSIK            : Well_name    - WELL
LOC .         00/04-21-074-05W5/0            : Location     - LOCATION
UWI .         00/04-21-074-05W5/0            : Uwi          - UNIQUE WELL ID
ENTR.         JAYE                           : Entered      - ENTERED BY
SRVC.         WESTERN ATLAS                  : Scn          - SERVICE COMPANY
DATE.         21 NOV 82                      : Date         - LOG DATE
STRT.M        465                            : top_depth    - START DEPTH
STOP.M        685                            : bot_depth    - STOP DEPTH
STEP.M        0.25                           : increment    - STEP LENGTH
 NULL. -999.2500:NULL Value
~CURVE INFORMATION BLOCK
#MNEM UNIT       ERCB CURVE CODE    CURVE DESCRIPTION
#-----------   ------------------   ----------------------------------
DEPT.M        00 001 00 00         : DEPTH        - DEPTH
ILD .OHMM     00 120 00 00         : RESD         - DEEP RESISTIVITY (DIL)
CALI.MM       00 280 01 00         : CAL          - CALIPER
GR  .API      00 310 00 00         : GR           - GAMMA RAY
NPHI.V/V      00 330 00 00         : PHIN         - NEUTRON POROSITY (SANDSTONE)
DPHI.V/V      00 890 00 00         : PHID         - DENSITY POROSITY (SANDSTONE)
~PARAMETER INFORMATION
#MNEM.UNIT           DATA             DESCRIPTION OF MNEMONIC
#---------         -----------     ------------------------------
GL  .M        700.46               : gl           - GROUND LEVEL ELEVATION
EREF.M        705.26               : kb           - ELEVATION OF DEPTH REFERENCE
DATM.M        700.46               : datum        - DATUM ELEVATION
TDD .M        1779                 : tdd          - TOTAL DEPTH DRILLER
RUN .         ONE                  : Run          - RUN NUMBER
ENG .         LAMBORN              : Engineer     - RECORDING ENGINEER
WIT .         JONES                : Witness      - WITNESSED BY
BASE.         EDM                  : Branch       - HOME BASE OF LOGGING UNIT
MUD .         GEL CHEM             : Mud_type     - MUD TYPE
MATR.         SANDSTONE            : Logunit      - NEUTRON MATRIX
TMAX.C        44                   : BHT          - MAXIMUM RECORDED TEMPERATURE
BHTD.M        1779.9               : BHTDEP       - MAXIMUM RECORDED TEMPERATURE
RMT .C        13                   : MDTP         - TEMPERATURE OF MUD
MUDD.KG/M     1100                 : MWT          - MUD DENSITY
NEUT.         1                    : NEUTRON      - NEUTRON TYPE
RESI.         0                    : RESIST       - RESISTIVITY TYPE
RM  .OHMM     0.65                 : RM           - RESISTIVITY OF MUD
RMC .OHMM     1.31                 : RMC          - RESISTIVITY OF MUD CAKE
RMF .OHMM     1.9                  : RMF          - RESISTIVITY OF MUD FILTRATE
SUFT.C        0                    : SUFT         - SURFACE TEMPERATURE
~A  DEPTH     RESD      CAL       GR     PHIN     PHID
# ...
  501.500    2.010  358.758   63.146    0.513    0.576
  501.750    2.072  343.415   70.044    0.503    0.532
  502.000    2.255  285.623   77.316    0.509    0.494
  502.250    2.501  257.899   83.093    0.520    0.452
  502.500    2.784  235.275   82.940    0.509    0.378
  502.750    3.218  227.739   79.790    0.468    0.347
  503.000    3.741  226.236   77.201    0.438    0.298
  503.250    4.506  227.855   78.424    0.427    0.272
  503.500    4.960  228.636   82.199    0.417    0.260
  503.750    5.220  227.440   86.041    0.402    0.250
  504.000    5.360  225.007   87.201    0.407    0.238
  504.250    5.557  224.332   87.234    0.459    0.224
  504.500    5.771  224.291   85.518    0.466    0.214
  504.750    6.061  224.648   84.489    0.432    0.209
  505.000    6.414  224.181   83.650    0.431    0.234
  505.250    6.891  223.517   80.687    0.423    0.252
  505.500    7.444  222.736   74.043    0.399    0.272
  505.750    7.878  222.475   67.144    0.389    0.293
  506.000    7.954  222.538   60.249    0.385    0.309
  506.250    7.692  222.494   55.354    0.382    0.320
  506.500    7.219  222.442   55.822    0.385    0.333
  506.750    6.611  222.598   58.916    0.399    0.348
  507.000    6.357  222.550   63.691    0.429    0.370
  507.250    6.241  222.406   66.035    0.428    0.368
  507.500    6.326  222.347   63.322    0.368    0.337
  507.750    6.582  221.571   60.047    0.349    0.327
  508.000    6.913  220.277   60.582    0.336    0.321
  508.250    7.207  218.875   63.611    0.339    0.317
  508.500    7.401  217.475   66.330    0.387    0.315
  508.750    7.628  216.598   68.608    0.401    0.311
  509.000    7.878  215.716   65.645    0.415    0.306
  509.250    8.136  215.145   62.872    0.409    0.305
  509.500    8.387  214.471   61.470    0.395    0.306
  509.750    8.516  214.532   60.753    0.391    0.310
  510.000    8.599  214.585   59.226    0.386    0.316
  510.250    8.699  214.538   58.822    0.378    0.319
  510.500    8.767  214.590   62.913    0.371    0.319
  510.750    8.852  214.341   60.450    0.376    0.316
  511.000    8.888  214.083   56.550    0.386    0.310
  511.250    8.924  213.930   56.275    0.404    0.307
  511.500    8.910  213.776   58.556    0.400    0.306
  511.750    8.813  213.734   63.705    0.390    0.311
  512.000    8.684  213.783   64.181    0.381    0.316
  512.250    8.605  213.843   63.399    0.373    0.318
  512.500    8.592  213.906   62.557    0.397    0.313
  512.750    8.659  213.848   61.219    0.411    0.305
  513.000    8.743  214.323   58.068    0.444    0.298
  513.250    8.878  214.584   59.663    0.426    0.291
  513.500    9.152  214.328   63.068    0.402    0.284
  513.750    9.630  213.551   62.912    0.377    0.277
  514.000   10.661  212.776   61.329    0.392    0.277
  514.250   11.303  212.205   60.800    0.388    0.278
  514.500   12.006  211.960   60.706    0.373    0.280
  514.750   12.681  211.909   60.113    0.360    0.282
  515.000   13.195  211.869   58.460    0.385    0.284
  515.250   13.299  211.910   59.744    0.398    0.285
  515.500   13.204  211.976   60.026    0.392    0.286
  515.750   12.938  212.025   58.688    0.389    0.287
  516.000   12.629  212.294   58.719    0.385    0.290
  516.250   12.167  212.347   60.880    0.388    0.293
  516.500   11.505  212.197   62.223    0.376    0.298
  516.750   10.898  212.033   63.378    0.359    0.308
  517.000   10.056  211.893   64.160    0.350    0.320
  517.250    9.455  212.046   60.323    0.385    0.331
  517.500    8.990  212.106   55.300    0.414    0.341
  517.750    8.548  212.054   51.213    0.402    0.341
  518.000    8.329  212.223   50.874    0.382    0.331
  518.250    8.331  212.269   53.405    0.371    0.318
  518.500    8.334  212.432   56.311    0.372    0.321
  518.750    8.384  212.588   55.907    0.394    0.323
  519.000    8.481  212.751   56.188    0.405    0.318
  519.250    8.564  212.818   59.468    0.381    0.307
  519.500    8.647  212.964   61.500    0.358    0.287
  519.750    8.796  213.130   61.848    0.348    0.278
  520.000    8.866  212.971   62.814    0.367    0.279
  520.250    8.935  212.821   61.724    0.382    0.279
  520.500    9.056  212.776   55.019    0.397    0.279
  520.750    9.196  213.137   51.304    0.395    0.281
  521.000    9.233  213.196   54.273    0.398    0.284
  521.250    9.235  213.256   55.367    0.402    0.286
  521.500    9.083  213.104   53.715    0.385    0.295
  521.750    8.637  213.159   53.561    0.365    0.299
  522.000    8.136  213.110   54.904    0.371    0.294
  522.250    7.437  212.746   54.939    0.396    0.282
  522.500    6.849  212.497   56.471    0.410    0.274
  522.750    6.599  212.233   65.992    0.387    0.275
  523.000    6.970  211.993   69.399    0.370    0.282
  523.250    7.516  211.941   69.680    0.377    0.289
  523.500    8.166  211.893   67.968    0.391    0.297
  523.750    8.921  211.841   66.627    0.387    0.303
  524.000    9.477  211.377   65.289    0.375    0.301
  524.250    9.823  211.021   64.010    0.361    0.298
  524.500   10.145  210.542   60.614    0.355    0.296
  524.750   10.399  209.770   56.772    0.364    0.296
  525.000   10.402  209.197   51.626    0.376    0.298
  525.250   10.154  208.426   51.658    0.397    0.298
  525.500    9.931  207.956   55.312    0.416    0.295
  525.750    9.860  207.286   59.840    0.393    0.289
  526.000    9.807  206.931   58.627    0.391    0.284
  526.250    9.755  206.673   55.103    0.410    0.280
  526.500    9.685  206.318   52.514    0.441    0.278
  526.750    9.652  206.367   51.238    0.414    0.277
  527.000    9.618  206.015   56.325    0.414    0.275
  527.250    9.620  205.655   57.983    0.412    0.273
  527.500    9.623  205.394   57.831    0.406    0.273
  527.750    9.627  205.145   57.613    0.386    0.278
  528.000    9.702  205.090   56.522    0.400    0.283
  528.250    9.741  204.942   54.934    0.422    0.288
  528.500    9.836  204.996   53.219    0.434    0.293
  528.750    9.894  205.156   51.753    0.411    0.299
  529.000    9.972  205.109   49.789    0.393    0.302
  529.250   10.031  205.260   51.633    0.390    0.301
  529.500    9.978  205.115   54.102    0.390    0.298
  529.750    9.741  205.065   54.448    0.381    0.295
  530.000    9.580  204.387   51.861    0.374    0.292
  530.250    9.493  203.301   52.954    0.363    0.290
  530.500    9.496  201.697   58.230    0.353    0.287
  530.750    9.642  200.188   59.764    0.353    0.288
  531.000    9.663  197.752   57.985    0.368    0.300
  531.250    9.648  194.576   57.648    0.392    0.319
  531.500    9.615  189.534   61.986    0.402    0.332
  531.750    9.708  185.008   68.200    0.386    0.327
  532.000    9.784  186.008   66.359    0.365    0.316
  532.250    9.861  189.700   61.778    0.352    0.308
  532.500    9.662  193.813   59.748    0.357    0.298
  532.750    9.629  198.140   58.471    0.368    0.287
  533.000    9.596  200.999   58.385    0.376    0.277
  533.250    9.616  203.352   58.977    0.384    0.266
  533.500    9.512  204.029   60.131    0.398    0.259
  533.750    9.425  204.190   60.729    0.388    0.250
  534.000    9.499  204.564   61.072    0.361    0.241
  534.250    9.609  204.711   61.107    0.340    0.232
  534.500    9.776  204.883   61.890    0.363    0.222
  534.750    9.688  205.142   62.235    0.383    0.215
  535.000    9.600  205.405   60.582    0.402    0.220
  535.250    9.531  205.772   59.931    0.412    0.232
  535.500    9.463  206.043   61.027    0.375    0.240
  535.750    9.483  206.196   62.995    0.364    0.247
  536.000    9.380  206.572   65.897    0.355    0.246
  536.250    9.278  206.930   66.307    0.360    0.246
  536.500    9.090  207.093   64.780    0.376    0.246
  536.750    8.958  207.252   63.127    0.397    0.245
  537.000    8.860  207.517   65.532    0.416    0.246
  537.250    8.632  207.778   66.626    0.379    0.250
  537.500    8.286  208.360   66.663    0.348    0.257
  537.750    7.923  208.831   67.257    0.329    0.270
