~VERSION INFORMATION
 VERS.                 2.0:   CWLS LOG ASCII STANDARD -VERSION 2.0
 WRAP.                  NO:   ONE LINE PER DEPTH STEP
~WELL INFORMATION BLOCK
#MNEM.UNIT           DATA                    DESCRIPTION OF MNEMONIC
#---------    -------------------            -------------------------------
# Generated from Intellog Unique Number	CS_77_79/WELL/3299
WELL.         ATCOR LTD.                     : Well_name    - WELL
LOC .         00/08-34-077-13W4/0            : Location     - LOCATION
UWI .         00/08-34-077-13W4/0            : Uwi          - UNIQUE WELL ID
ENTR.         JO                             : Entered      - ENTERED BY
SRVC.         SCHLUMBERGER                   : Scn          - SERVICE COMPANY
DATE.         05/22/92                       : Date         - LOG DATE
STRT.M        270                            : top_depth    - START DEPTH
STOP.M        495                            : bot_depth    - STOP DEPTH
STEP.M        0.25                           : increment    - STEP LENGTH
 NULL. -999.2500:NULL Value
~CURVE INFORMATION BLOCK
#MNEM UNIT       ERCB CURVE CODE    CURVE DESCRIPTION
#-----------   ------------------   ----------------------------------
DEPT.M        00 001 00 00         : DEPTH        - DEPTH
GR  .API      00 310 00 00         : GR           - GAMMA RAY
NPHI.V/V      00 330 00 00         : PHIN         - NEUTRON POROSITY (SANDSTONE)
DPHI.V/V      00 890 00 00         : PHID         - DENSITY POROSITY (SANDSTONE)
ILD .OHMM     00 120 00 00         : RESD         - DEEP RESISTIVITY (DIL)
~PARAMETER INFORMATION
#MNEM.UNIT           DATA             DESCRIPTION OF MNEMONIC
#---------         -----------     ------------------------------
GL  .M        670.6                : gl           - GROUND LEVEL ELEVATION
EREF.M        674.2                : kb           - ELEVATION OF DEPTH REFERENCE
DATM.M        674.2                : datum        - DATUM ELEVATION
TDD .M        503                  : tdd          - TOTAL DEPTH DRILLER
RUN .         ONE                  : Run          - RUN NUMBER
ENG .         BILL                 : Engineer     - RECORDING ENGINEER
WIT .         JIM                  : Witness      - WITNESSED BY
MUD .         GEL                  : Mud_type     - MUD TYPE
MATR.         SANDSTONE            : Logunit      - NEUTRON MATRIX
TMAX.C        21                   : BHT          - MAXIMUM RECORDED TEMPERATURE
BHTD.M        503                  : BHTDEP       - MAXIMUM RECORDED TEMPERATURE
RMT .C        20                   : MDTP         - TEMPERATURE OF MUD
MUDD.KG/M     1130                 : MWT          - MUD DENSITY
NEUT.         1                    : NEUTRON      - NEUTRON TYPE
RESI.         0                    : RESIST       - RESISTIVITY TYPE
RM  .OHMM     4.81                 : RM           - RESISTIVITY OF MUD
RMC .OHMM     0                    : RMC          - RESISTIVITY OF MUD CAKE
RMF .OHMM     5.58                 : RMF          - RESISTIVITY OF MUD FILTRATE
SUFT.C        15                   : SUFT         - SURFACE TEMPERATURE
~A  DEPTH       GR     PHIN     PHID     RESD
# ...
  357.000   86.996    0.464    0.250    2.911
  357.250   85.918    0.461    0.266    3.447
  357.500   85.998    0.448    0.276    4.399
  357.750   85.499    0.445    0.245    5.306
  358.000   85.000    0.447    0.239    5.836
  358.250   89.403    0.449    0.242    5.643
  358.500   89.510    0.454    0.251    5.353
  358.750   88.984    0.472    0.259    5.075
  359.000   88.485    0.488    0.249    4.554
  359.250   89.198    0.481    0.238    4.087
  359.500   89.911    0.482    0.234    3.806
  359.750   90.018    0.465    0.236    3.890
  360.000   90.152    0.449    0.237    4.120
  360.250   92.104    0.444    0.244    4.449
  360.500   94.608    0.450    0.254    4.803
  360.750   94.715    0.459    0.251    5.189
  361.000   91.793    0.452    0.242    5.400
  361.250   91.900    0.451    0.240    5.414
  361.500   92.639    0.462    0.242    5.235
  361.750   92.720    0.491    0.241    5.056
  362.000   91.642    0.501    0.230    4.625
  362.250   94.146    0.496    0.239    4.304
  362.500   94.886    0.490    0.272    4.005
  362.750   93.754    0.483    0.294    3.466
  363.000   90.858    0.473    0.307    3.541
  363.250   88.541    0.475    0.284    3.681
  363.500   85.592    0.490    0.281    4.127
  363.750   82.642    0.496    0.281    4.627
  364.000   78.508    0.448    0.264    5.089
  364.250   83.463    0.420    0.283    5.198
  364.500   95.110    0.409    0.304    4.841
  364.750  103.121    0.470    0.312    4.422
  365.000  105.046    0.570    0.294    3.686
  365.250   99.700    0.556    0.289    3.247
  365.500   95.565    0.544    0.278    2.914
  365.750   97.490    0.555    0.271    2.613
  366.000   98.809    0.543    0.283    2.391
  366.250   95.280    0.547    0.284    2.310
  366.500   92.384    0.579    0.293    2.274
  366.750   95.495    0.586    0.299    2.240
  367.000  105.377    0.564    0.295    2.243
  367.250  103.640    0.557    0.293    2.251
  367.500  103.747    0.543    0.296    2.299
  367.750  106.251    0.561    0.305    2.304
  368.000  110.021    0.573    0.311    2.310
  368.250  107.677    0.569    0.314    2.316
  368.500  104.148    0.570    0.307    2.327
  368.750   98.802    0.592    0.301    2.329
  369.000   96.458    0.587    0.309    2.292
  369.250   95.380    0.560    0.307    2.302
  369.500   97.911    0.532    0.297    2.306
  369.750   96.806    0.513    0.291    2.400
  370.000   94.463    0.526    0.290    2.639
  370.250   90.934    0.545    0.290    2.959
  370.500   87.406    0.507    0.292    3.377
  370.750   84.483    0.477    0.295    3.783
  371.000   79.742    0.456    0.297    4.318
  371.250   76.213    0.427    0.274    5.117
  371.500   73.264    0.423    0.191    5.840
  371.750   73.371    0.433    0.216    6.423
  372.000   78.353    0.446    0.262    6.326
  372.250   82.096    0.451    0.294    5.783
  372.500   83.415    0.449    0.299    5.482
  372.750   79.939    0.449    0.307    5.815
  373.000   78.781    0.439    0.315    5.935
  373.250   77.070    0.438    0.309    6.180
  373.500   80.234    0.447    0.272    6.555
  373.750   82.159    0.448    0.272    6.690
  374.000   80.475    0.438    0.280    6.465
  374.250   79.317    0.442    0.273    5.806
  374.500   79.424    0.453    0.267    5.403
  374.750   83.799    0.466    0.272    5.418
  375.000   84.512    0.466    0.280    5.853
  375.250   82.802    0.463    0.285    6.082
  375.500   81.697    0.463    0.285    6.455
  375.750   81.198    0.463    0.281    6.468
  376.000   83.150    0.458    0.275    6.255
  376.250   83.257    0.450    0.275    6.040
  376.500   82.758    0.439    0.275    5.628
  376.750   81.653    0.435    0.271    5.431
  377.000   79.336    0.429    0.275    5.552
  377.250   78.205    0.415    0.281    5.892
  377.500   80.736    0.410    0.278    5.904
  377.750   84.478    0.453    0.281    6.027
  378.000   85.245    0.472    0.282    5.824
  378.250   82.928    0.469    0.279    5.627
  378.500   82.376    0.446    0.287    5.338
  378.750   81.298    0.436    0.294    5.255
  379.000   80.826    0.444    0.295    5.273
  379.250   79.061    0.459    0.294    5.382
  379.500   76.745    0.451    0.291    5.607
  379.750   80.514    0.440    0.290    5.615
  380.000   86.075    0.441    0.290    5.634
  380.250   85.024    0.440    0.295    5.646
  380.500   85.077    0.431    0.300    5.257
  380.750   85.817    0.432    0.296    4.899
  381.000   85.291    0.467    0.285    4.559
  381.250   84.793    0.490    0.272    4.246
  381.500   84.294    0.497    0.274    3.881
  381.750   87.431    0.472    0.283    3.546
  382.000   89.962    0.465    0.285    3.246
  382.250   87.645    0.472    0.282    3.132
  382.500   87.173    0.506    0.280    3.143
  382.750   92.128    0.496    0.273    3.149
  383.000   91.023    0.499    0.263    3.219
  383.250   86.888    0.513    0.271    3.292
  383.500   82.754    0.481    0.286    3.358
  383.750   84.678    0.453    0.293    3.560
  384.000   87.815    0.435    0.291    3.843
  384.250   89.134    0.446    0.285    4.306
  384.500   86.818    0.437    0.279    5.103
  384.750   84.528    0.422    0.278    4.752
  385.000   87.638    0.428    0.276    4.344
  385.250   91.381    0.440    0.268    4.195
  385.500   93.912    0.449    0.259    3.982
  385.750   86.774    0.450    0.263    3.990
  386.000   88.093    0.451    0.279    4.314
  386.250   88.200    0.452    0.296    4.575
  386.500   87.674    0.450    0.301    4.754
  386.750   88.993    0.440    0.300    4.856
  387.000   89.760    0.437    0.311    4.361
  387.250   88.602    0.442    0.322    4.373
  387.500   90.553    0.449    0.315    4.813
  387.750   87.604    0.458    0.296    5.094
  388.000   81.046    0.460    0.299    5.399
  388.250   76.305    0.443    0.310    5.414
  388.500   71.537    0.431    0.306    5.333
  388.750   68.641    0.432    0.304    5.347
  389.000   69.987    0.428    0.316    5.564
  389.250   67.617    0.403    0.267    6.472
  389.500   61.059    0.323    0.215    6.855
  389.750   55.106    0.323    0.178    7.271
  390.000   53.974    0.394    0.201    7.286
  390.250   61.407    0.432    0.251    7.172
  390.500   58.484    0.445    0.286    6.436
  390.750   56.140    0.436    0.320    5.674
  391.000   59.910    0.439    0.362    5.479
  391.250   62.414    0.440    0.357    5.295
  391.500   61.942    0.439    0.354    5.120
  391.750   60.231    0.446    0.360    5.134
  392.000   59.732    0.427    0.366    5.144
  392.250   58.022    0.413    0.375    5.162
  392.500   56.311    0.405    0.370    5.176
  392.750   54.600    0.408    0.363    5.095
  393.000   56.525    0.419    0.354    5.112
  393.250   59.056    0.426    0.354    5.122
  393.500   59.163    0.435    0.358    5.333
  393.750   57.452    0.449    0.363    5.444
  394.000   55.109    0.456    0.365    5.557
  394.250   54.004    0.468    0.367    5.470
  394.500   54.111    0.469    0.367    5.286
  394.750   57.301    0.459    0.366    5.111
  395.000   58.620    0.442    0.362    5.128
  395.250   56.277    0.436    0.359    5.235
  395.500   54.566    0.424    0.373    5.354
  395.750   53.461    0.431    0.378    5.465
  396.000   54.201    0.447    0.374    5.797
  396.250   57.311    0.454    0.371    6.023
  396.500   61.054    0.445    0.368    6.388
  396.750   59.949    0.430    0.370    6.530
  397.000   58.239    0.415    0.374    6.419
  397.250   60.770    0.413    0.379    5.659
  397.500   62.142    0.428    0.381    5.273
  397.750   59.772    0.445    0.381    5.187
  398.000   55.637    0.436    0.378    5.205
  398.250   52.135    0.424    0.372    5.120
  398.500   53.454    0.418    0.370    5.130
  398.750   56.591    0.428    0.367    5.148
  399.000   60.967    0.444    0.367    5.162
  399.250   62.286    0.439    0.366    5.172
  399.500   59.336    0.428    0.365    5.283
  399.750   57.046    0.419    0.362    5.297
  400.000   59.577    0.425    0.355    5.315
  400.250   61.475    0.432    0.344    5.330
