~VERSION INFORMATION
 VERS.                 2.0:   CWLS LOG ASCII STANDARD -VERSION 2.0
 WRAP.                  NO:   ONE LINE PER DEPTH STEP
~WELL INFORMATION BLOCK
#MNEM.UNIT           DATA                    DESCRIPTION OF MNEMONIC
#---------    -------------------            -------------------------------
# Generated from Intellog Unique Number	CS_77_79/WELL/843
WELL.         CANADIAN WORLDWIDE ENERGY      : Well_name    - WELL
LOC .         00/03-01-077-05W4/0            : Location     - LOCATION
UWI .         00/03-01-077-05W4/0            : Uwi          - UNIQUE WELL ID
ENTR.         SP                             : Entered      - ENTERED BY
SRVC.         SCHLUMBERGER                   : Scn          - SERVICE COMPANY
STRT.M        150                            : top_depth    - START DEPTH
STOP.M        405                            : bot_depth    - STOP DEPTH
STEP.M        0.25                           : increment    - STEP LENGTH
 NULL. -999.2500:NULL Value
~CURVE INFORMATION BLOCK
#MNEM UNIT       ERCB CURVE CODE    CURVE DESCRIPTION
#-----------   ------------------   ----------------------------------
DEPT.M        00 001 00 00         : DEPTH        - DEPTH
ILD .OHMM     00 120 00 00         : RESD         - DEEP RESISTIVITY (DIL)
DPHI.V/V      00 890 00 00         : PHID         - DENSITY POROSITY (SANDSTONE)
NPHI.V/V      00 330 00 00         : PHIN         - NEUTRON POROSITY (SANDSTONE)
GR  .API      00 310 00 00         : GR           - GAMMA RAY
~PARAMETER INFORMATION
#MNEM.UNIT           DATA             DESCRIPTION OF MNEMONIC
#---------         -----------     ------------------------------
GL  .M        571.1                : gl           - GROUND LEVEL ELEVATION
EREF.M        574.9                : kb           - ELEVATION OF DEPTH REFERENCE
DATM.M        571.1                : datum        - DATUM ELEVATION
TDD .M        405.5                : tdd          - TOTAL DEPTH DRILLER
RUN .         ONE                  : Run          - RUN NUMBER
ENG .         BILL                 : Engineer     - RECORDING ENGINEER
WIT .         JIM                  : Witness      - WITNESSED BY
MUD .         GEL                  : Mud_type     - MUD TYPE
MATR.         SANDSTONE            : Logunit      - NEUTRON MATRIX
TMAX.C        21                   : BHT          - MAXIMUM RECORDED TEMPERATURE
BHTD.M        431                  : BHTDEP       - MAXIMUM RECORDED TEMPERATURE
MATR.         1                    : LOGUNIT      - NEUTRON MATRIX
RMT .C        25                   : MDTP         - TEMPERATURE OF MUD
NEUT.         1                    : NEUTRON      - NEUTRON TYPE
RESI.         0                    : RESIST       - RESISTIVITY TYPE
RMC .OHMM     0.25                 : RMC          - RESISTIVITY OF MUD CAKE
RMF .OHMM     0.25                 : RMF          - RESISTIVITY OF MUD FILTRATE
SUFT.C        15                   : SUFT         - SURFACE TEMPERATURE
~A  DEPTH     RESD     PHID     PHIN       GR
# ...
  237.000   23.352    0.301    0.393   56.800
  237.250   23.812    0.149    0.376   54.327
  237.500   22.950    0.200    0.362   56.831
  237.750   21.702    0.311    0.321   60.579
  238.000   21.306    0.352    0.355   63.085
  238.250   20.526    0.355    0.419   63.718
  238.500   19.410    0.350    0.444   64.985
  238.750   18.357    0.348    0.429   65.618
  239.000   18.367    0.344    0.446   66.254
  239.250   18.033    0.345    0.445   68.760
  239.500   18.052    0.344    0.438   66.905
  239.750   18.062    0.343    0.429   68.167
  240.000   18.072    0.338    0.443   69.424
  240.250   17.756    0.333    0.457   66.951
  240.500   17.767    0.336    0.463   63.851
  240.750   17.444    0.346    0.456   66.981
  241.000   17.454    0.350    0.452   70.106
  241.250   17.136    0.344    0.456   73.237
  241.500   16.831    0.341    0.453   73.873
  241.750   15.917    0.340    0.447   72.645
  242.000   15.624    0.343    0.453   72.656
  242.250   14.495    0.341    0.472   73.294
  242.500   11.782    0.338    0.480   73.929
  242.750   10.524    0.331    0.491   76.436
  243.000    9.225    0.321    0.483   82.052
  243.250    7.786    0.304    0.464   87.665
  243.500    6.448    0.281    0.456   93.284
  243.750    5.443    0.251    0.438   93.296
  244.000    5.049    0.244    0.426   92.069
  244.250    4.684    0.252    0.442   93.948
  244.500    4.429    0.259    0.455   93.343
  244.750    4.349    0.258    0.447   88.382
  245.000    4.353    0.256    0.417   87.146
  245.250    4.275    0.252    0.413   90.273
  245.500    4.119    0.249    0.419   94.645
  245.750    4.045    0.250    0.429   97.151
  246.000    3.971    0.248    0.450   99.657
  246.250    3.828    0.246    0.469  102.788
  246.500    3.830    0.240    0.443  104.668
  246.750    3.761    0.239    0.440  107.167
  247.000    3.693    0.240    0.461  110.294
  247.250    3.695    0.247    0.487  111.556
  247.500    3.698    0.252    0.498  109.078
  247.750    3.700    0.257    0.483  105.980
  248.000    3.920    0.262    0.444   94.170
  248.250    4.074    0.269    0.448   92.940
  248.500    4.567    0.300    0.471   92.332
  248.750    5.024    0.320    0.464   84.255
  249.000    5.740    0.322    0.447   76.179
  249.250    6.683    0.317    0.414   73.082
  249.500    8.235    0.311    0.410   75.588
  249.750    9.589    0.315    0.420   77.468
  250.000   10.548    0.322    0.426   74.999
  250.250   11.172    0.326    0.414   73.763
  250.500   11.180    0.325    0.414   70.677
  250.750   10.372    0.321    0.426   70.067
  251.000    9.093    0.304    0.443   70.078
  251.250    7.251    0.301    0.457   73.826
  251.500    5.675    0.307    0.463   78.194
  251.750    4.973    0.322    0.474   88.795
  252.000    4.528    0.334    0.489   93.786
  252.250    4.045    0.344    0.521   97.534
  252.500    3.682    0.321    0.539   96.927
  252.750    3.481    0.302    0.499   92.586
  253.000    3.550    0.296    0.472   93.220
  253.250    3.833    0.294    0.466   95.728
  253.500    4.216    0.297    0.457   96.362
  253.750    4.909    0.297    0.462  100.115
  254.000    5.825    0.299    0.466   95.146
  254.250    6.911    0.319    0.450   81.470
  254.500    8.356    0.329    0.426   67.169
  254.750   10.900    0.334    0.421   60.339
  255.000   13.182    0.335    0.403   57.864
  255.250   14.499    0.334    0.411   57.877
  255.500   15.953    0.331    0.425   59.139
  255.750   16.580    0.326    0.434   61.644
  256.000   16.909    0.325    0.421   62.902
  256.250   16.925    0.327    0.412   59.802
  256.500   16.932    0.341    0.415   59.818
  256.750   16.634    0.349    0.421   62.944
  257.000   16.640    0.352    0.421   64.829
  257.250   16.660    0.348    0.418   64.220
  257.500   16.669    0.336    0.413   61.748
  257.750   16.678    0.331    0.410   61.761
  258.000   17.006    0.331    0.403   58.041
  258.250   17.018    0.327    0.392   54.321
  258.500   17.035    0.318    0.379   54.334
  258.750   17.045    0.311    0.389   56.216
  259.000   17.061    0.305    0.416   60.588
  259.250   17.073    0.308    0.425   64.960
  259.500   17.083    0.314    0.428   68.714
  259.750   17.093    0.315    0.409   69.970
  260.000   16.790    0.313    0.380   68.740
  260.250   16.802    0.310    0.380   67.511
  260.500   16.188    0.310    0.392   68.777
  260.750   16.196    0.310    0.404   70.032
  261.000   15.905    0.313    0.407   71.286
  261.250   15.621    0.311    0.400   71.923
  261.500   15.633    0.311    0.394   68.209
  261.750   15.941    0.313    0.389   66.979
  262.000   16.886    0.315    0.394   65.127
  262.250   17.884    0.315    0.399   63.891
  262.500   19.675    0.314    0.394   68.271
  262.750   21.640    0.306    0.345   69.523
  263.000   24.725    0.215    0.288   63.317
  263.250   27.718    0.044    0.199   55.862
  263.500   31.669    0.027    0.170   52.765
  263.750   38.295    0.027    0.152   48.424
  264.000   46.317    0.043    0.158   44.700
  264.250   47.223    0.054    0.159   37.249
  264.500   39.856    0.054    0.158   41.002
  264.750   33.641    0.029    0.169   44.124
  265.000   25.351    0.005    0.184   49.116
  265.250   21.808    0.137    0.275   54.113
  265.500   20.614    0.312    0.348   57.859
  265.750   19.126    0.345    0.381   61.611
  266.000   17.747    0.335    0.376   64.120
  266.250   16.778    0.322    0.383   65.374
  266.500   16.476    0.324    0.417   66.632
  266.750   16.484    0.322    0.440   64.165
  267.000   17.137    0.325    0.438   64.175
  267.250   17.151    0.334    0.429   64.188
  267.500   17.163    0.331    0.438   67.316
  267.750   17.173    0.333    0.446   70.444
  268.000   17.185    0.346    0.441   67.968
  268.250   17.200    0.347    0.414   65.495
  268.500   17.209    0.347    0.398   63.023
  268.750   16.905    0.358    0.413   61.791
  269.000   16.912    0.356    0.415   61.800
  269.250   16.926    0.348    0.416   61.197
  269.500   17.261    0.342    0.415   60.587
  269.750   17.276    0.325    0.411   60.601
  270.000   17.614    0.321    0.411   60.622
  270.250   17.636    0.331    0.415   61.255
  270.500   17.648    0.337    0.415   62.514
  270.750   17.326    0.337    0.405   63.152
  271.000   17.013    0.336    0.404   62.543
  271.250   16.396    0.331    0.417   61.311
  271.500   16.402    0.331    0.429   61.950
  271.750   16.107    0.337    0.428   63.210
  272.000   15.821    0.342    0.422   63.228
  272.250   15.533    0.342    0.416   63.240
  272.500   14.967    0.343    0.430   62.632
  272.750   14.697    0.346    0.441   60.777
  273.000   14.432    0.348    0.443   60.170
  273.250   13.909    0.345    0.422   61.429
  273.500   13.657    0.348    0.419   62.696
  273.750   13.409    0.355    0.440   62.705
  274.000   13.171    0.357    0.438   59.606
  274.250   12.930    0.360    0.425   57.756
  274.500   12.701    0.362    0.418   59.014
  274.750   12.471    0.362    0.425   60.274
  275.000   12.245    0.358    0.436   60.294
  275.250   12.255    0.358    0.440   60.306
  275.500   12.035    0.363    0.435   60.948
  275.750   12.043    0.362    0.429   62.205
  276.000   12.054    0.356    0.421   62.839
  276.250   11.836    0.358    0.414   64.099
  276.500   11.843    0.361    0.414   64.734
  276.750   11.848    0.363    0.420   65.369
  277.000   11.637    0.363    0.415   65.393
  277.250   11.428    0.364    0.415   66.024
  277.500   10.599    0.364    0.431   66.047
  277.750    7.986    0.365    0.447   66.679
  278.000    6.741    0.364    0.452   68.562
  278.250    5.797    0.344    0.445   72.307
  278.500    4.893    0.328    0.440   81.033
  278.750    4.210    0.305    0.485   89.764
  279.000    3.979    0.296    0.502   94.759
  279.250    3.555    0.292    0.522   97.882
  279.500    3.001    0.275    0.541  100.390
  279.750    2.681    0.271    0.536  101.650
  280.000    2.534    0.264    0.527  104.151
  280.250    2.489    0.249    0.525  107.906
