~VERSION INFORMATION
 VERS.                 2.0:   CWLS LOG ASCII STANDARD -VERSION 2.0
 WRAP.                  NO:   ONE LINE PER DEPTH STEP
~WELL INFORMATION BLOCK
#MNEM.UNIT           DATA                    DESCRIPTION OF MNEMONIC
#---------    -------------------            -------------------------------
# Generated from Intellog Unique Number	CW_76_78/WELL/222
WELL.         06-36-076-25W4                 : Well_name    - WELL
LOC .         00/06-36-076-25W4/0            : Location     - LOCATION
UWI .         00/06-36-076-25W4/0            : Uwi          - UNIQUE WELL ID
ENTR.         JJ                             : Entered      - ENTERED BY
SRVC.         SCHLUMBERGER                   : Scn          - SERVICE COMPANY
DATE.         9 MAR 71                       : Date         - LOG DATE
STRT.M        676.656                        : top_depth    - START DEPTH
STOP.M        804.656                        : bot_depth    - STOP DEPTH
STEP.M        0.25                           : increment    - STEP LENGTH
 NULL. -999.2500:NULL Value
~CURVE INFORMATION BLOCK
#MNEM UNIT       ERCB CURVE CODE    CURVE DESCRIPTION
#-----------   ------------------   ----------------------------------
DEPT.M        00 001 00 00         : DEPTH        - DEPTH
DELT.US/F     00 520 00 00         : DELT         - SONIC TRAVEL TIME
GR  .API      00 310 00 00         : GR           - GAMMA RAY
CALI.MM       00 280 01 00         : CAL          - CALIPER
ILD .OHMM     00 120 00 00         : RESD         - DEEP RESISTIVITY (DIL)
~PARAMETER INFORMATION
#MNEM.UNIT           DATA             DESCRIPTION OF MNEMONIC
#---------         -----------     ------------------------------
GL  .M        874.166              : gl           - GROUND LEVEL ELEVATION
EREF.M        878.19               : kb           - ELEVATION OF DEPTH REFERENCE
DATM.M        878.19               : datum        - DATUM ELEVATION
TDD .M        807.415              : tdd          - TOTAL DEPTH DRILLER
RUN .         ONE                  : Run          - RUN NUMBER
ENG .         BARBARICK            : Engineer     - RECORDING ENGINEER
WIT .         DEMOLINE & FISHER    : Witness      - WITNESSED BY
BASE.         D.C.                 : Branch       - HOME BASE OF LOGGING UNIT
MUD .         GEL                  : Mud_type     - MUD TYPE
MATR.         SANDSTONE            : Logunit      - NEUTRON MATRIX
TMAX.C        15.5556              : BHT          - MAXIMUM RECORDED TEMPERATURE
BHTD.M        806.501              : BHTDEP       - MAXIMUM RECORDED TEMPERATURE
RMT .C        15.5556              : MDTP         - TEMPERATURE OF MUD
MUDD.KG/M     1128                 : MWT          - MUD DENSITY
NEUT.         1                    : NEUTRON      - NEUTRON TYPE
RESI.         0                    : RESIST       - RESISTIVITY TYPE
RM  .OHMM     7.25                 : RM           - RESISTIVITY OF MUD
RMC .OHMM     0                    : RMC          - RESISTIVITY OF MUD CAKE
RMF .OHMM     7.54                 : RMF          - RESISTIVITY OF MUD FILTRATE
SUFT.C        5                    : SUFT         - SURFACE TEMPERATURE
~A  DEPTH     DELT       GR      CAL     RESD
  676.656  337.955   68.642  215.477    7.237
  676.906  326.433   77.558  218.430    7.472
  677.156  371.035   87.318  219.955    8.021
  677.406  375.661   74.840  221.786    8.715
  677.656  337.640   68.027  222.803    9.283
  677.906  317.589   66.216  222.899    9.520
  678.156  278.396   62.054  223.097    8.618
  678.406  335.759   62.111  222.276    8.058
  678.656  370.661   70.003  220.943    8.292
  678.906  373.463   75.182  221.245    9.044
  679.156  358.751   74.094  223.383    9.772
  679.406  337.137   71.862  227.867   10.524
  679.656  276.719   70.533  228.577   10.219
  679.906  255.626   67.697  224.999    9.540
  680.156  300.684   65.222  222.851    8.681
  680.406  335.977   68.173  216.926    7.963
  680.656  368.013   74.076  209.472    7.636
  680.906  361.114   76.723  208.242    7.394
  681.156  360.270   77.142  217.215    7.232
  681.406  365.091   78.224  221.191    7.164
  681.656  371.800   79.125  219.451    7.182
  681.906  375.839   82.316  223.628    7.197
  682.156  382.352   85.989  223.012    7.292
  682.406  380.272   85.745  218.313    7.445
  682.656  372.526   78.751  225.756    7.558
  682.906  366.930   74.891  227.383    7.538
  683.156  363.287   75.911  224.113    7.412
  683.406  365.763   80.308  223.291    7.406
  683.656  375.076   80.305  223.693    7.300
  683.906  376.251   74.938  221.545    7.077
  684.156  370.719   76.321  217.458    6.874
  684.406  367.597   79.632  219.799    6.713
  684.656  369.683   80.352  224.488    6.665
  684.906  374.309   78.662  229.178    6.646
  685.156  377.632   76.730  228.458    6.682
  685.406  375.616   76.907  224.268    6.576
  685.656  373.340   78.652  228.141    6.474
  685.906  376.728   78.407  230.483    6.365
  686.156  377.252   75.211  229.559    6.266
  686.406  380.445   74.363  237.513    6.239
  686.656  381.685   76.349  236.794    6.210
  686.906  378.952   75.623  235.768    6.225
  687.156  383.317   74.957  233.109    6.268
  687.406  385.143   80.498  220.653    6.240
  687.656  382.020   80.254  220.342    6.157
  687.906  380.852   79.889  220.847    6.092
  688.156  379.812   82.055  222.167    6.105
  688.406  377.732   79.943  222.877    6.158
  688.656  371.418   73.010  227.259    6.211
  688.906  371.030   72.524  232.459    6.634
  689.156  377.935   76.559  238.169    6.738
  689.406  374.357   74.808  232.142    7.409
  689.656  366.806   69.984  222.850    7.409
  689.906  349.816   66.485  221.518   10.097
  690.156  307.758   64.131  221.819   10.199
  690.406  293.567   62.863  222.120   10.199
  690.656  313.688   65.330  223.441   11.090
  690.906  333.549   70.028  225.374   11.079
  691.156  343.058   71.049  227.716   10.953
  691.406  320.988   65.200  229.038   10.797
  691.656  303.932   64.474  228.930   11.241
  691.906  321.059   64.531  227.904   12.131
  692.156  324.838   64.287  228.613   11.672
  692.406  333.174   66.333  230.444   10.775
  692.656  343.595   63.678  229.724    9.922
  692.906  352.517   65.422  229.005    9.770
  693.156  351.283   69.577  227.469    9.364
  693.406  346.598   70.418  226.443    8.886
  693.656  341.522   65.111  226.131    8.561
  693.906  342.892   64.144  226.534    8.178
  694.156  351.879   65.647  227.550    7.934
  694.406  359.240   68.235  230.096    7.596
  694.656  362.432   70.402  231.212    7.470
  694.906  361.263   73.533  229.677    7.403
  695.156  358.010   78.290  227.426    7.438
  695.406  355.474   81.782  226.910    7.586
  695.656  353.458   79.730  226.802    7.531
  695.906  355.609   77.618  226.900    7.407
  696.156  361.537   80.386  228.118    7.223
  696.406  369.939   81.710  228.828    7.223
  696.656  372.351   80.200  230.047    7.223
  696.906  364.996   77.665  231.061    6.976
  697.156  358.292   74.890  232.179    6.982
  697.406  353.868   70.488  233.398    6.981
  697.656  352.568   69.641  234.618    7.171
  697.906  351.594   71.385  233.592    7.506
  698.156  350.490   71.382  230.525    7.739
  698.406  347.172   72.223  229.601    7.884
  698.656  337.734   72.400  229.595    7.828
  698.906  347.373   71.011  229.998    7.625
  699.156  356.881   73.479  229.993    7.463
  699.406  365.023   78.297  229.681    7.463
  699.656  371.341   77.570  229.064    7.021
  699.906  366.655   72.204  228.445    6.893
  700.156  361.840   73.285  228.645    6.893
  700.406  364.838   77.319  230.986    6.333
  700.656  370.961   82.319  234.655    6.259
  700.906  377.409   81.953  237.303    6.217
  701.156  382.035   79.721  229.338    6.452
  701.406  386.335   72.546  222.904    6.803
  701.656  391.416   69.108  222.693    6.803
  701.906  386.470   65.307  218.299    8.761
  702.156  371.107   62.713  217.886   10.325
  702.406  340.443   58.612  220.127   12.788
  702.656  293.307   54.571  223.489   14.091
  702.906  282.567   56.496  224.197   16.055
  703.156  277.491   59.687  224.192   17.681
  703.406  275.085   55.767  223.779   18.451
  703.656  267.014   48.773  224.284   18.762
  703.906  247.418   50.999  224.991   18.463
  704.156  246.770   52.985  225.090   17.581
  704.406  267.477   55.633  225.695   16.463
  704.656  291.961   60.211  225.793   15.604
  704.906  290.857   67.319  225.073   15.362
  705.156  310.262   66.050  223.027   15.516
  705.406  319.966   56.404  223.021   15.788
  705.656  280.252   54.291  223.934   15.089
  705.906  294.384   57.121  222.194   13.315
  706.156  312.552   65.615  218.923   11.760
  706.406  336.059   69.650  217.387   10.362
  706.656  356.701   71.455  216.361    8.906
  706.906  371.093   70.728  216.152    7.691
  707.156  371.030   66.085  218.799    7.785
  707.406  342.060   63.189  221.243    9.035
  707.656  309.442   62.402  224.708    9.705
  707.906  283.987   62.640  222.968    9.960
  708.156  318.889   67.638  219.287    9.913
  708.406  353.269   71.854  217.650    9.708
  708.656  358.155   75.105  216.726    9.527
  708.906  330.486   70.341  221.619    9.500
  709.156  297.739   64.733  224.369    9.813
  709.406  281.464   64.489  213.445   10.425
  709.656  321.444   65.691  215.480   10.777
  709.906  329.129   67.315  210.168   10.296
  710.156  326.853   67.855  216.388    9.992
  710.406  333.562   67.971  224.955   10.168
  710.656  310.516   68.391  219.133   10.423
  710.906  304.529   71.642  216.168   10.415
  711.156  319.181   69.469  222.387    9.955
  711.406  332.857   70.550  220.443    9.553
  711.656  347.509   75.730  219.825    9.248
  711.906  364.049   78.740  219.105    8.927
  712.156  357.801   74.940  218.385    8.921
  712.406  346.605   73.371  219.809    8.976
  712.656  337.298   74.753  221.335    8.934
  712.906  344.072   77.582  223.471    8.889
  713.156  353.515   75.651  223.671    8.786
  713.406  352.215   78.179  224.379    8.780
  713.656  346.619   77.452  224.068    8.792
  713.906  339.264   75.701  223.654    8.830
  714.156  346.429   78.711  221.812    8.905
  714.406  352.552   78.226  220.174    8.982
  714.656  346.825   75.451  222.005    9.014
  714.906  341.749   74.544  223.837    9.107
  715.156  345.658   75.445  225.056    9.062
  715.406  352.432   79.118  225.459    8.920
  715.656  353.802   84.056  225.862    8.855
  715.906  353.154   80.076  225.855    8.610
  716.156  352.050   76.095  225.952    8.409
  716.406  346.908   77.417  225.948    8.283
  716.656  340.986   78.861  226.045    8.142
  716.906  348.346   79.159  225.938    8.116
  717.156  354.925   75.841  225.522    8.109
  717.406  349.393   72.644  225.313    8.228
  717.656  340.541   74.750  224.798    8.359
  717.906  338.981   78.845  224.793    8.636
  718.156  344.648   79.745  224.788    8.826
  718.406  332.671   77.874  224.476    9.081
  718.656  336.645   81.427  224.777    9.495
  718.906  344.787   84.738  224.057    9.844
  719.156  322.262   77.322  220.888   10.379
  719.406  297.067   70.148  222.618   10.629
  719.656  281.769   68.457  225.776   11.023
  719.906  317.126   75.746  226.587   11.475
