~VERSION INFORMATION
 VERS.                 2.0:   CWLS LOG ASCII STANDARD -VERSION 2.0
 WRAP.                  NO:   ONE LINE PER DEPTH STEP
~WELL INFORMATION BLOCK
#MNEM.UNIT           DATA                    DESCRIPTION OF MNEMONIC
#---------    -------------------            -------------------------------
# Generated from Intellog Unique Number	CX_WELLS/WELL/2939
WELL.         GULF SURMONT                   : Well_name    - WELL
LOC .         00/06-25-082-09W4/0            : Location     - LOCATION
UWI .         00/06-25-082-09W4/0            : Uwi          - UNIQUE WELL ID
ENTR.         T                              : Entered      - ENTERED BY
SRVC.         SCHLUMBERGER                   : Scn          - SERVICE COMPANY
DATE.         03/04/92                       : Date         - LOG DATE
STRT.F        900                            : top_depth    - START DEPTH
STOP.F        1680.02                        : bot_depth    - STOP DEPTH
STEP.F        0.82                           : increment    - STEP LENGTH
 NULL. -999.2500:NULL Value
~CURVE INFORMATION BLOCK
#MNEM UNIT       ERCB CURVE CODE    CURVE DESCRIPTION
#-----------   ------------------   ----------------------------------
DEPT.F        00 001 00 00         : DEPTH        - DEPTH
GR  .API      00 310 00 00         : GR           - GAMMA RAY
NPHI.V/V      00 330 00 00         : PHIN         - NEUTRON POROSITY (SANDSTONE)
DPHI.V/V      00 890 00 00         : PHID         - DENSITY POROSITY (SANDSTONE)
ILD .OHMM     00 120 00 00         : RESD         - DEEP RESISTIVITY (OTHER)
~PARAMETER INFORMATION
#MNEM.UNIT           DATA             DESCRIPTION OF MNEMONIC
#---------         -----------     ------------------------------
GL  .F        2422                 : gl           - GROUND LEVEL ELEVATION
EREF.F        2432                 : kb           - ELEVATION OF DEPTH REFERENCE
DATM.F        2432                 : datum        - DATUM ELEVATION
TDD .F        1690                 : tdd          - TOTAL DEPTH DRILLER
RUN .         ONE                  : Run          - RUN NUMBER
ENG .         JO                   : Engineer     - RECORDING ENGINEER
WIT .         TIM                  : Witness      - WITNESSED BY
MUD .         GEL                  : Mud_type     - MUD TYPE
MATR.         SANDSTONE            : Logunit      - NEUTRON MATRIX
TMAX.F        62                   : BHT          - MAXIMUM RECORDED TEMPERATURE
BHTD.F        1690                 : BHTDEP       - MAXIMUM RECORDED TEMPERATURE
RMT .F        60                   : MDTP         - TEMPERATURE OF MUD
MUDD.LB/G     9.6                  : MWT          - MUD DENSITY
NEUT.         1                    : NEUTRON      - NEUTRON TYPE
RESI.         6.5                  : RESIST       - RESISTIVITY TYPE
RM  .OHMM     9.5                  : RM           - RESISTIVITY OF MUD
RMC .OHMM     9.5                  : RMC          - RESISTIVITY OF MUD CAKE
RMF .OHMM     9.5                  : RMF          - RESISTIVITY OF MUD FILTRATE
SUFT.F        39.2                 : SUFT         - SURFACE TEMPERATURE
~A  DEPTH       GR     PHIN     PHID     RESD
# ...
 1470.870  106.629    0.527    0.253    3.855
 1471.690  106.772    0.532    0.250    3.796
 1472.510  106.267    0.527    0.248    3.949
 1473.330  104.524    0.508    0.240    4.188
 1474.150  102.161    0.492    0.232    4.272
 1474.970  101.008    0.489    0.220    4.620
 1475.790   97.464    0.488    0.218    4.712
 1476.610   96.283    0.487    0.214    4.910
 1477.430   95.807    0.483    0.214    5.015
 1478.250   96.512    0.479    0.207    5.119
 1479.070   97.245    0.473    0.183    5.225
 1479.890   99.865    0.474    0.178    5.247
 1480.710  101.837    0.483    0.168    5.255
 1481.530  103.190    0.488    0.158    5.174
 1482.350  106.429    0.480    0.146    5.098
 1483.170  109.020    0.470    0.143    5.020
 1483.990  104.152    0.476    0.192    4.943
 1484.810   97.426    0.482    0.208    4.867
 1485.630   90.729    0.478    0.212    4.978
 1486.450   85.889    0.478    0.236    5.081
 1487.270   81.726    0.477    0.242    5.283
 1488.090   79.954    0.471    0.259    6.024
 1488.910   78.772    0.464    0.276    8.260
 1489.730   76.438    0.451    0.289    9.952
 1490.550   75.905    0.441    0.291   14.155
 1491.370   76.076    0.433    0.291   21.273
 1492.190   76.162    0.432    0.291   30.258
 1493.010   78.191    0.432    0.290   30.929
 1493.830   80.135    0.432    0.291   28.278
 1494.650   82.078    0.433    0.286   23.604
 1495.470   88.442    0.433    0.281   18.978
 1496.290   92.243    0.432    0.272   15.270
 1497.110   96.721    0.432    0.266   12.982
 1497.930   99.341    0.429    0.257   11.250
 1498.750   96.359    0.428    0.245   10.468
 1499.570   93.939    0.425    0.229   10.307
 1500.390   89.099    0.425    0.224   10.536
 1501.210   84.879    0.424    0.226   11.379
 1502.030   80.687    0.422    0.222   11.830
 1502.850   77.705    0.416    0.211   12.316
 1503.670   76.524    0.407    0.202   12.571
 1504.490   73.570    0.391    0.188   12.859
 1505.310   73.065    0.385    0.193   13.116
 1506.140   73.799    0.382    0.220   13.163
 1506.960   75.771    0.382    0.223   12.961
 1507.780   78.981    0.385    0.215   12.539
 1508.600   84.050    0.392    0.191   12.337
 1509.420   87.289    0.401    0.191   11.718
 1510.240   83.716    0.407    0.201   11.530
 1511.060   81.325    0.414    0.210   11.361
 1511.880   78.934    0.408    0.215   11.385
 1512.700   76.628    0.405    0.220   11.434
 1513.520   75.475    0.397    0.230   11.450
 1514.340   74.351    0.394    0.231   11.713
 1515.160   73.846    0.394    0.228   11.738
 1515.980   74.580    0.393    0.226   11.990
 1516.800   75.313    0.394    0.225   12.024
 1517.620   76.666    0.395    0.224   12.058
 1518.440   78.048    0.397    0.216   12.093
 1519.260   80.048    0.399    0.211   11.707
 1520.080   81.344    0.401    0.213   11.724
 1520.900   83.344    0.407    0.225   11.334
 1521.720   85.345    0.413    0.232   11.168
 1522.540   85.431    0.409    0.225   11.184
 1523.360   86.193    0.402    0.221   11.020
 1524.180   87.517    0.393    0.224   11.043
 1525.000   90.785    0.388    0.214   10.881
 1525.820   93.967    0.390    0.202   10.920
 1526.640   95.320    0.392    0.191   10.760
 1527.460   92.957    0.397    0.187   10.776
 1528.280   91.242    0.399    0.186   10.806
 1529.100   88.879    0.401    0.187   10.845
 1529.920   85.250    0.403    0.189   11.078
 1530.740   86.602    0.408    0.193   11.307
 1531.560   87.365    0.417    0.200   11.772
 1532.380   86.240    0.426    0.212   12.474
 1533.200   82.639    0.428    0.204   14.499
 1534.020   80.896    0.429    0.201   15.927
 1534.840   80.362    0.430    0.212   17.832
 1535.660   81.096    0.431    0.220   18.922
 1536.480   82.449    0.426    0.220   18.977
 1537.300   85.068    0.402    0.210   19.017
 1538.120   85.802    0.397    0.201   18.050
 1538.940   85.268    0.398    0.209   16.526
 1539.760   84.173    0.402    0.217   15.686
 1540.580   83.049    0.405    0.222   15.720
 1541.400   82.515    0.406    0.221   15.776
 1542.220   81.419    0.405    0.218   15.810
 1543.040   84.039    0.402    0.218   15.855
 1543.860   89.079    0.399    0.216   15.338
 1544.690  101.607    0.405    0.214   15.092
 1545.510  107.294    0.411    0.205   13.808
 1546.330  111.153    0.435    0.195   12.178
 1547.150  105.694    0.444    0.175   10.741
 1547.970  102.064    0.441    0.199   10.016
 1548.790  101.559    0.420    0.209    9.848
 1549.610  104.827    0.419    0.204    9.703
 1550.430  106.770    0.424    0.165    9.731
 1551.250  110.600    0.432    0.158    9.759
 1552.070  110.772    0.433    0.157    9.263
 1552.890  108.971    0.434    0.185    8.955
 1553.710   93.604    0.434    0.209    8.657
 1554.530   89.355    0.440    0.222    8.517
 1555.350   82.038    0.442    0.237    8.700
 1556.170   76.551    0.437    0.234   10.300
 1556.990   77.932    0.409    0.231   11.531
 1557.810   81.762    0.404    0.224   12.676
 1558.630   86.830    0.405    0.222   15.007
 1559.450   93.166    0.406    0.213   16.508
 1560.270   98.263    0.408    0.207   15.383
 1561.090  100.854    0.409    0.193   14.861
 1561.910  104.150    0.410    0.188   13.597
 1562.730  105.417    0.412    0.181   12.905
 1563.550  107.389    0.412    0.173   12.034
 1564.370  109.361    0.410    0.162   11.634
 1565.190  110.714    0.410    0.158   11.042
 1566.010  113.334    0.411    0.160   10.675
 1566.830  114.715    0.413    0.162   10.320
 1567.650  116.040    0.417    0.161    9.976
 1568.470  117.392    0.421    0.157    9.651
 1569.290  118.774    0.422    0.156    9.489
 1570.110  120.126    0.421    0.151    9.343
 1570.930  120.860    0.413    0.150    9.200
 1571.750  122.241    0.418    0.171    9.058
 1572.570  119.879    0.423    0.178    8.925
 1573.390  116.278    0.428    0.181    8.951
 1574.210  112.676    0.431    0.174    8.813
 1575.030  110.285    0.432    0.166    8.832
 1575.850  107.275    0.431    0.162    8.709
 1576.670  102.435    0.431    0.174    8.728
 1577.490   98.243    0.424    0.187    8.753
 1578.310   96.471    0.418    0.193    8.940
 1579.130   94.080    0.415    0.195    9.126
 1579.950   91.126    0.419    0.198    9.684
 1580.770   88.144    0.421    0.200   10.067
 1581.590   85.163    0.424    0.202   11.067
 1582.410   82.800    0.425    0.206   12.390
 1583.230   81.056    0.430    0.215   14.402
 1584.060   78.665    0.431    0.223   17.037
 1584.880   74.445    0.431    0.232   21.721
 1585.700   68.957    0.425    0.258   23.877
 1586.520   58.544    0.420    0.283   25.283
 1587.340   53.057    0.427    0.290   31.050
 1588.160   51.342    0.431    0.299   40.263
 1588.980   53.962    0.434    0.288   52.246
 1589.800   55.905    0.439    0.278   60.727
 1590.620   59.735    0.441    0.275   55.521
 1591.440   64.832    0.447    0.270   47.236
 1592.260   67.452    0.451    0.265   40.158
 1593.080   68.805    0.455    0.260   36.716
 1593.900   60.812    0.450    0.262   33.568
 1594.720   54.114    0.443    0.297   34.313
 1595.540   52.371    0.426    0.312   42.109
 1596.360   50.627    0.422    0.311   59.894
 1597.180   47.674    0.421    0.311   70.855
 1598.000   47.140    0.424    0.312  116.720
 1598.820   47.283    0.424    0.312  119.479
 1599.640   48.017    0.424    0.312  115.338
 1600.460   49.370    0.408    0.311  107.558
 1601.280   50.075    0.413    0.308  101.941
 1602.100   52.666    0.419    0.304   93.269
 1602.920   57.144    0.427    0.297   82.318
 1603.740   58.496    0.434    0.292   78.075
 1604.560   57.401    0.421    0.287   74.157
 1605.380   58.163    0.408    0.287   73.017
 1606.200   58.839    0.416    0.292   73.174
 1607.020   56.477    0.443    0.300   83.445
 1607.840   50.398    0.445    0.304  100.616
 1608.660   45.559    0.433    0.313  119.028
 1609.480   41.929    0.423    0.316  151.646
 1610.300   38.356    0.418    0.316  186.104
 1611.120   36.584    0.420    0.316  255.347
 1611.940   39.176    0.429    0.317  233.792
 1612.760   43.653    0.433    0.316  221.584
