~VERSION INFORMATION
 VERS.                 2.0:   CWLS LOG ASCII STANDARD -VERSION 2.0
 WRAP.                  NO:   ONE LINE PER DEPTH STEP
~WELL INFORMATION BLOCK
#MNEM.UNIT           DATA                    DESCRIPTION OF MNEMONIC
#---------    -------------------            -------------------------------
# Generated from Intellog Unique Number	CW_79_81/WELL/416
WELL.         05-12-079-21W4                 : Well_name    - WELL
LOC .         00/05-12-079-21W4/0            : Location     - LOCATION
UWI .         00/05-12-079-21W4/0            : Uwi          - UNIQUE WELL ID
ENTR.         MAX                            : Entered      - ENTERED BY
SRVC.         SCHLUMBERGER                   : Scn          - SERVICE COMPANY
STRT.M        190                            : top_depth    - START DEPTH
STOP.M        415                            : bot_depth    - STOP DEPTH
STEP.M        0.25                           : increment    - STEP LENGTH
 NULL. -999.2500:NULL Value
~CURVE INFORMATION BLOCK
#MNEM UNIT       ERCB CURVE CODE    CURVE DESCRIPTION
#-----------   ------------------   ----------------------------------
DEPT.M        00 001 00 00         : DEPTH        - DEPTH
ILD .OHMM     00 120 00 00         : RESD         - DEEP RESISTIVITY (DIL)
NPHI.V/V      00 330 00 00         : PHIN         - NEUTRON POROSITY (SANDSTONE)
DPHI.V/V      00 890 00 00         : PHID         - DENSITY POROSITY (SANDSTONE)
CALI.MM       00 280 01 00         : CAL          - CALIPER
GR  .API      00 310 00 00         : GR           - GAMMA RAY
~PARAMETER INFORMATION
#MNEM.UNIT           DATA             DESCRIPTION OF MNEMONIC
#---------         -----------     ------------------------------
GL  .M        566.25               : gl           - GROUND LEVEL ELEVATION
EREF.M        569.55               : kb           - ELEVATION OF DEPTH REFERENCE
DATM.M        566.25               : datum        - DATUM ELEVATION
TDD .M        420                  : tdd          - TOTAL DEPTH DRILLER
RUN .         ONE                  : Run          - RUN NUMBER
ENG .         BILL                 : Engineer     - RECORDING ENGINEER
WIT .         JIM                  : Witness      - WITNESSED BY
MUD .         GEL                  : Mud_type     - MUD TYPE
MATR.         SANDSTONE            : Logunit      - NEUTRON MATRIX
TMAX.C        23.3                 : BHT          - MAXIMUM RECORDED TEMPERATURE
BHTD.M        420                  : BHTDEP       - MAXIMUM RECORDED TEMPERATURE
RMT .C        12.8                 : MDTP         - TEMPERATURE OF MUD
MUDD.KG/M     1160                 : MWT          - MUD DENSITY
NEUT.         1                    : NEUTRON      - NEUTRON TYPE
RESI.         0                    : RESIST       - RESISTIVITY TYPE
RM  .OHMM     10.7                 : RM           - RESISTIVITY OF MUD
RMC .OHMM     0.25                 : RMC          - RESISTIVITY OF MUD CAKE
RMF .OHMM     11.3                 : RMF          - RESISTIVITY OF MUD FILTRATE
SUFT.C        -5                   : SUFT         - SURFACE TEMPERATURE
~A  DEPTH     RESD     PHIN     PHID      CAL       GR
# ...
  263.000   14.066    0.468    0.317  152.660   50.976
  263.250   14.083    0.471    0.315  152.758   51.329
  263.500   14.366    0.458    0.315  152.868   54.943
  263.750   14.779    0.452    0.314  152.954   55.599
  264.000   15.210    0.445    0.310  153.040   55.050
  264.250   15.229    0.439    0.318  152.647   53.931
  264.500   14.974    0.429    0.310  152.758   55.460
  264.750   13.822    0.420    0.309  153.360   60.258
  265.000    9.992    0.428    0.303  153.961   64.161
  265.250    7.423    0.478    0.278  154.526   68.959
  265.500    5.874    0.496    0.267  155.632   72.869
  265.750    4.998    0.499    0.258  156.688   73.820
  266.000    4.214    0.511    0.268  157.769   70.313
  266.250    3.892    0.498    0.285  157.376   64.158
  266.500    3.897    0.481    0.294  155.030   59.784
  266.750    4.082    0.450    0.317  153.150   60.440
  267.000    5.767    0.441    0.321  151.787   60.793
  267.250    7.176    0.432    0.322  150.902   60.244
  267.500    9.175    0.437    0.309  150.522   57.935
  267.750   12.056    0.480    0.323  150.607   57.407
  268.000   13.457    0.482    0.332  151.209   57.168
  268.250   13.599    0.468    0.335  151.308   56.042
  268.500   13.498    0.470    0.335  151.897   54.627
  268.750   13.159    0.466    0.328  151.983   56.156
  269.000   12.821    0.451    0.317  152.081   57.996
  269.250   12.384    0.449    0.316  152.179   56.270
  269.500   12.177    0.456    0.320  151.799   54.553
  269.750   12.082    0.458    0.330  151.406   54.906
  270.000   12.104    0.459    0.326  151.012   54.970
  270.250   12.229    0.459    0.333  150.619   54.724
  270.500   12.585    0.456    0.330  150.730   54.781
  270.750   13.191    0.451    0.324  150.816   53.359
  271.000   13.444    0.436    0.321  150.914   52.233
  271.250   13.959    0.440    0.323  150.533   53.184
  271.500   14.108    0.453    0.326  150.152   53.530
  271.750   13.875    0.463    0.327  150.263   53.003
  272.000   13.875    0.475    0.330  149.845   52.764
  272.250   13.544    0.476    0.347  149.464   51.053
  272.500   12.965    0.451    0.331  149.550   49.328
  272.750   12.981    0.431    0.315  150.631   48.216
  273.000   12.999    0.427    0.306  152.216   47.371
  273.250   13.020    0.432    0.310  153.284   48.316
  273.500   13.034    0.445    0.331  154.881   52.226
  273.750   12.939    0.459    0.341  154.488   55.833
  274.000   12.723    0.472    0.343  153.100   58.264
  274.250   12.512    0.482    0.336  152.228   57.426
  274.500   12.530    0.473    0.328  151.847   60.146
  274.750   12.547    0.472    0.331  151.920   60.210
  275.000   12.547    0.455    0.332  152.535   60.267
  275.250   12.704    0.459    0.334  153.100   62.114
  275.500   12.831    0.464    0.332  153.701   63.058
  275.750   12.831    0.454    0.335  153.812   62.820
  276.000   12.876    0.454    0.337  153.910   61.686
  276.250   12.774    0.451    0.322  154.008   60.264
  276.500   12.792    0.456    0.326  153.615   59.131
  276.750   12.792    0.460    0.323  153.713   57.709
  277.000   12.947    0.462    0.330  153.333   57.188
  277.250   13.080    0.452    0.339  152.927   57.231
  277.500   13.097    0.439    0.334  152.534   56.697
  277.750   13.236    0.449    0.316  152.620   56.183
  278.000   13.253    0.466    0.322  152.239   55.339
  278.250   13.154    0.462    0.329  152.337   55.107
  278.500   13.154    0.464    0.333  152.448   55.749
  278.750   13.194    0.476    0.333  152.042   57.877
  279.000   12.973    0.480    0.333  151.158   58.836
  279.250   12.872    0.473    0.328  150.765   59.181
  279.500   12.779    0.468    0.332  150.863   59.837
  279.750   12.792    0.468    0.335  150.470   59.014
  280.000   12.580    0.466    0.338  150.580   57.000
  280.250   12.500    0.467    0.336  150.691   56.451
  280.500   12.282    0.479    0.319  150.789   59.171
  280.750   11.970    0.466    0.309  150.887   58.045
  281.000   11.770    0.465    0.303  150.494   55.742
  281.250   11.577    0.462    0.304  150.580   54.313
  281.500   11.577    0.449    0.311  151.182   52.299
  281.750   11.608    0.436    0.322  151.268   52.356
  282.000   11.730    0.453    0.335  151.858   55.379
  282.250   11.749    0.450    0.325  151.968   57.803
  282.500   11.874    0.454    0.328  152.079   57.564
  282.750   11.891    0.473    0.337  152.164   57.332
  283.000   11.796    0.483    0.332  152.263   56.199
  283.250   11.707    0.483    0.322  152.877   54.481
  283.500   11.725    0.468    0.332  152.975   55.425
  283.750   11.754    0.453    0.343  153.073   57.849
  284.000   11.760    0.453    0.351  153.159   56.441
  284.250   11.775    0.446    0.350  153.245   55.308
  284.500   11.793    0.447    0.342  153.356   55.076
  284.750   11.808    0.453    0.339  153.466   55.141
  285.000   11.829    0.452    0.332  153.564   55.184
  285.250   11.841    0.442    0.326  153.663   55.839
  285.500   11.645    0.447    0.328  153.269   56.495
  285.750   11.453    0.450    0.322  153.368   56.841
  286.000   11.367    0.435    0.302  153.466   56.306
  286.250   11.805    0.417    0.261  155.050   53.997
  286.500   12.941    0.224    0.130  157.102   52.568
  286.750   13.435    0.238    0.089  157.703   52.632
  287.000   13.456    0.367    0.112  157.789   54.760
  287.250   12.882    0.408    0.162  157.421   57.486
  287.500   12.106    0.457    0.267  155.038   57.241
  287.750   12.106    0.459    0.336  153.674   57.897
  288.000   11.611    0.453    0.317  153.760   58.848
  288.250   11.409    0.464    0.309  153.883   60.082
  288.500   11.633    0.461    0.295  154.485   61.921
  288.750   11.973    0.456    0.291  154.559   61.083
  289.000   11.989    0.461    0.311  154.669   59.077
  289.250   11.795    0.461    0.311  154.780   58.831
  289.500   11.492    0.457    0.321  155.357   59.184
  289.750   10.999    0.458    0.305  155.946   58.360
  290.000   10.623    0.468    0.303  156.032   58.122
  290.250   10.447    0.484    0.292  155.664   58.186
  290.500   10.753    0.482    0.309  155.750   60.314
  290.750   10.766    0.471    0.325  155.369   61.554
  291.000   10.684    0.464    0.310  154.976   61.900
  291.250   10.684    0.468    0.322  155.086   62.260
  291.500   10.715    0.461    0.321  155.160   63.508
  291.750   11.025    0.453    0.310  155.270   65.044
  292.000   11.244    0.457    0.305  155.356   67.172
  292.250   11.157    0.467    0.294  155.958   70.779
  292.500   10.875    0.467    0.250  156.044   76.161
  292.750    9.946    0.460    0.205  156.658   85.692
  293.000    8.386    0.447    0.193  159.225   94.927
  293.250    7.465    0.454    0.217  162.272   95.872
  293.500    7.082    0.456    0.217  165.785   94.450
  293.750    7.029    0.465    0.221  162.443   91.844
  294.000    7.101    0.465    0.231  160.085   87.168
  294.250    7.309    0.457    0.231  159.692   84.859
  294.500    7.385    0.465    0.233  159.299   87.578
  294.750    7.395    0.467    0.215  160.404   93.263
  295.000    7.015    0.472    0.222  161.485   92.743
  295.250    6.713    0.478    0.232  161.104   90.722
  295.500    6.427    0.489    0.243  160.699   87.215
  295.750    6.674    0.493    0.241  159.311   83.137
  296.000    7.055    0.489    0.232  156.473   82.610
  296.250    7.459    0.480    0.216  156.080   83.843
  296.500    7.817    0.474    0.230  156.178   84.499
  296.750    7.828    0.463    0.232  155.773   84.556
  297.000    7.768    0.460    0.226  155.896   84.902
  297.250    7.768    0.467    0.223  156.977   86.445
  297.500    7.587    0.465    0.237  156.092   88.278
  297.750    7.390    0.460    0.226  156.178   89.518
  298.000    7.200    0.449    0.227  157.259   90.181
  298.250    6.956    0.441    0.216  158.352   92.013
  298.500    6.658    0.445    0.205  159.433   95.014
  298.750    6.430    0.446    0.209  161.509   99.220
  299.000    6.322    0.450    0.209  162.590  102.532
  299.250    6.161    0.457    0.209  163.192   97.559
