~VERSION INFORMATION
 VERS.                 2.0:   CWLS LOG ASCII STANDARD -VERSION 2.0
 WRAP.                  NO:   ONE LINE PER DEPTH STEP
~WELL INFORMATION BLOCK
#MNEM.UNIT           DATA                    DESCRIPTION OF MNEMONIC
#---------    -------------------            -------------------------------
# Generated from Intellog Unique Number	CW_70_72/WELL/3290
NULL.         -999.25                        : NULL_VALUE
WELL.         SULPETRO ET AL MITSUE 05-18    : Well_name    - WELL              
LOC .         05-18-071-05W5                 : Location     - LOCATION          
UWI .         00/05-18-071-05W5/0            : Uwi          - UNIQUE WELL ID    
ENTR.         JAYE                           : Entered      - ENTERED BY        
SRVC.         SCHLUMBERGER                   : Scn          - SERVICE COMPANY   
DATE.         1 MAR 81                       : Date         - LOG DATE          
STRT.M        650                            : top_depth    - START DEPTH       
STOP.M        895                            : bot_depth    - STOP DEPTH        
STEP.M        0.25                           : increment    - STEP LENGTH       
~CURVE INFORMATION BLOCK
#MNEM UNIT       ERCB CURVE CODE    CURVE DESCRIPTION
#-----------   ------------------   ----------------------------------
DEPT.M        00 001 00 00         : DEPTH        - DEPTH                       
DPHI.V/V      00 890 00 00         : PHID         - DENSITY POROSITY (SANDSTONE)
ILD .OHMM     00 120 00 00         : RESD         - DEEP RESISTIVITY (DIL)      
CALI.MM       00 280 01 00         : CAL          - CALIPER                     
GR  .API      00 310 00 00         : GR           - GAMMA RAY                   
NPHI.V/V      00 330 00 00         : PHIN         - NEUTRON POROSITY (SANDSTONE)
~PARAMETER INFORMATION       
#MNEM.UNIT           DATA             DESCRIPTION OF MNEMONIC
#---------         -----------     ------------------------------
GL  .M        795.4                : gl           - GROUND LEVEL ELEVATION      
EREF.M        798.4                : kb           - ELEVATION OF DEPTH REFERENCE
DATM.M        795.4                : datum        - DATUM ELEVATION             
TDD .M        895                  : tdd          - TOTAL DEPTH DRILLER         
RUN .         ONE                  : Run          - RUN NUMBER                  
ENG .         VALLANCOURT          : Engineer     - RECORDING ENGINEER          
WIT .         THACKER              : Witness      - WITNESSED BY                
BASE.         EDM                  : Branch       - HOME BASE OF LOGGING UNIT   
MUD .         GEL CHEM             : Mud_type     - MUD TYPE                    
MATR.         SANDSTONE            : Logunit      - NEUTRON MATRIX              
TMAX.C        32.8                 : BHT          - MAXIMUM RECORDED TEMPERATURE
BHTD.M        895                  : BHTDEP       - MAXIMUM RECORDED TEMPERATURE
RMT .C        20                   : MDTP         - TEMPERATURE OF MUD          
MUDD.KG/M     1130                 : MWT          - MUD DENSITY                 
NEUT.         1                    : NEUTRON      - NEUTRON TYPE                
RESI.         0                    : RESIST       - RESISTIVITY TYPE            
RM  .OHMM     4.57                 : RM           - RESISTIVITY OF MUD          
RMC .OHMM     0.25                 : RMC          - RESISTIVITY OF MUD CAKE     
RMF .OHMM     3.86                 : RMF          - RESISTIVITY OF MUD FILTRATE 
SUFT.C        5                    : SUFT         - SURFACE TEMPERATURE         
~A  DEPTH     PHID     RESD      CAL       GR     PHIN
# ...
  723.000    0.315    2.364  161.437   68.586    0.423
  723.250    0.306    2.349  160.674   68.129    0.420
  723.500    0.301    2.370  158.672   68.169    0.413
  723.750    0.301    2.470  157.908   67.031    0.419
  724.000    0.300    2.727  157.668   64.772    0.429
  724.250    0.291    3.035  157.113   61.395    0.427
  724.500    0.274    3.290  156.870   60.193    0.428
  724.750    0.246    3.579  154.347   59.301    0.417
  725.000    0.240    3.879  151.412   57.290    0.387
  725.250    0.248    4.102  150.648   55.591    0.377
  725.500    0.267    4.054  151.856   55.630    0.389
  725.750    0.274    3.772  153.995   58.158    0.404
  726.000    0.283    3.542  154.993   60.683    0.392
  726.250    0.291    3.487  155.578   60.225    0.388
  726.500    0.296    3.667  156.165   59.211    0.401
  726.750    0.293    4.343  156.436   60.370    0.414
  727.000    0.275    5.673  156.093   58.608    0.366
  727.250    0.186    7.827  153.986   53.989    0.258
  727.500    0.139    9.995  154.261   50.921    0.226
  727.750    0.143   11.660  155.050   50.217    0.240
  728.000    0.187   11.719  154.082   49.945    0.269
  728.250    0.230   10.035  151.665   51.478    0.287
  728.500    0.271    6.249  149.456   54.501    0.341
  728.750    0.303    4.593  148.379   58.705    0.399
  729.000    0.328    3.874  148.656   62.224    0.428
  729.250    0.333    3.524  149.033   59.903    0.448
  729.500    0.312    3.284  149.616   57.210    0.408
  729.750    0.280    3.185  149.999   56.691    0.406
  730.000    0.277    3.130  150.893   58.410    0.402
  730.250    0.282    3.104  151.376   62.675    0.379
  730.500    0.272    3.097  151.961   63.524    0.368
  730.750    0.274    3.107  152.959   66.111    0.381
  731.000    0.268    3.170  153.440   70.191    0.390
  731.250    0.243    3.284  154.233   74.579    0.386
  731.500    0.194    3.519  158.957   78.535    0.377
  731.750    0.171    3.680  161.616   81.745    0.371
  732.000    0.175    3.777  157.126   84.643    0.401
  732.250    0.201    3.817  154.397   84.062    0.454
  732.500    0.218    3.758  151.774   79.503    0.474
  732.750    0.229    3.742  150.600   79.234    0.419
  733.000    0.221    3.740  155.224   83.064    0.406
  733.250    0.209    3.703  160.155   84.161    0.418
  733.500    0.197    3.591  163.744   84.450    0.428
  733.750    0.187    3.443  165.675   84.119    0.432
  734.000    0.181    3.332  165.642   85.215    0.442
  734.250    0.200    3.232  161.977   86.247    0.451
  734.500    0.205    3.146  158.010   84.612    0.454
  734.750    0.227    3.103  156.627   81.235    0.435
  735.000    0.225    3.119  157.729   85.749    0.386
  735.250    0.212    3.153  159.659   91.693    0.376
  735.500    0.202    3.223  161.380   95.896    0.412
  735.750    0.199    3.270  163.106   95.067    0.431
  736.000    0.200    3.356  165.247   93.674    0.442
  736.250    0.206    3.509  166.557   93.405    0.472
  736.500    0.211    3.649  167.142   93.819    0.470
  736.750    0.209    3.815  167.418   92.805    0.453
  737.000    0.216    3.960  167.071   89.055    0.457
  737.250    0.234    4.094  166.929   90.276    0.454
  737.500    0.248    4.162  166.585   92.862    0.467
  737.750    0.241    4.036  165.718   94.206    0.487
  738.000    0.235    3.929  164.337   93.814    0.478
  738.250    0.243    3.824  162.644   86.213    0.479
  738.500    0.231    3.758  161.676   81.033    0.465
  738.750    0.214    3.721  161.015   81.757    0.409
  739.000    0.200    3.775  161.392   85.401    0.428
  739.250    0.185    3.794  161.669   87.492    0.447
  739.500    0.178    3.707  162.979   88.713    0.436
  739.750    0.176    3.609  165.116   88.257    0.427
  740.000    0.175    3.364  166.223   88.235    0.427
  740.250    0.176    2.957  166.184   89.020    0.420
  740.500    0.199    2.528  164.597   88.936    0.427
  740.750    0.221    2.073  162.072   87.361    0.476
  741.000    0.251    1.875  164.007   86.408    0.495
  741.250    0.262    1.760  166.972   88.312    0.536
  741.500    0.267    1.766  169.729   89.472    0.551
  741.750    0.275    1.765  171.147   89.202    0.531
  742.000    0.285    1.815  171.627   87.129    0.533
  742.250    0.286    1.884  168.485   80.769    0.513
  742.500    0.286    1.973  162.339   76.398    0.445
  742.750    0.288    2.002  158.781   76.439    0.448
  743.000    0.294    1.945  156.362   76.478    0.464
  743.250    0.298    1.869  154.877   73.474    0.444
  743.500    0.303    1.816  153.702   66.306    0.410
  743.750    0.314    1.791  153.456   61.004    0.386
  744.000    0.318    1.790  153.423   57.690    0.376
  744.250    0.312    1.806  154.938   55.863    0.386
  744.500    0.305    1.843  158.114   56.340    0.402
  744.750    0.303    1.909  160.147   57.189    0.401
  745.000    0.310    2.034  159.386   57.788    0.401
  745.250    0.318    2.221  159.455   58.200    0.404
  745.500    0.313    2.376  160.142   58.056    0.388
  745.750    0.307    2.480  156.793   55.673    0.376
  746.000    0.306    2.550  154.994   55.154    0.385
  746.250    0.308    2.577  156.512   57.494    0.389
  746.500    0.308    2.576  158.653   58.155    0.394
  746.750    0.313    2.579  159.547   57.510    0.408
  747.000    0.299    2.573  159.718   58.856    0.411
  747.250    0.287    2.581  159.683   60.201    0.399
  747.500    0.286    2.599  159.850   61.051    0.380
  747.750    0.294    2.613  160.229   59.539    0.382
  748.000    0.297    2.621  160.397   60.759    0.402
  748.250    0.296    2.634  160.780   62.042    0.403
  748.500    0.293    2.643  161.259   62.580    0.391
  748.750    0.295    2.661  161.433   62.557    0.386
  749.000    0.296    2.685  161.705   62.039    0.384
  749.250    0.297    2.699  161.672   61.458    0.403
  749.500    0.297    2.775  160.393   58.950    0.415
  749.750    0.298    3.065  157.042   57.376    0.388
  750.000    0.299    4.349  155.344   56.795    0.383
  750.250    0.288    6.398  154.380   55.282    0.395
  750.500    0.190    8.694  154.340   53.582    0.315
  750.750    0.126   10.512  155.758   52.752    0.158
  751.000    0.026   12.079  159.346   52.234    0.139
  751.250    0.026   13.543  162.623   50.907    0.132
  751.500    0.029   13.435  164.036   49.706    0.133
  751.750    0.024   10.351  163.484   49.620    0.139
  752.000    0.035    7.245  162.826   50.470    0.147
  752.250    0.078    5.285  161.546   54.299    0.163
  752.500    0.185    4.181  159.025   59.063    0.209
  752.750    0.250    3.415  155.876   64.011    0.261
  753.000    0.286    2.952  153.465   65.109    0.359
  753.250    0.290    2.670  151.045   62.229    0.403
  753.500    0.289    2.541  149.869   56.118    0.384
  753.750    0.300    2.418  149.523   55.784    0.381
  754.000    0.310    2.319  149.281   58.310    0.400
  754.250    0.321    2.198  155.147   60.774    0.406
  754.500    0.334    2.120  156.354   61.499    0.437
  754.750    0.340    2.259  153.833   61.849    0.469
  755.000    0.332    2.736  152.552   62.076    0.464
  755.250    0.196    3.435  157.174   56.400    0.280
  755.500    0.159    4.053  161.385   50.601    0.257
  755.750    0.162    3.842  162.592   52.380    0.267
  756.000    0.202    3.488  161.003   55.962    0.309
  756.250    0.254    2.882  158.270   57.929    0.346
  756.500    0.295    2.276  156.376   58.032    0.403
  756.750    0.300    1.800  154.372   57.016    0.397
  757.000    0.298    1.694  153.506   57.243    0.382
  757.250    0.300    1.680  153.881   55.481    0.376
  757.500    0.307    1.708  155.090   56.513    0.395
  757.750    0.311    1.736  155.572   58.046    0.413
  758.000    0.313    1.745  155.122   58.459    0.430
  758.250    0.319    1.744  155.497   56.202    0.439
  758.500    0.321    1.730  155.775   53.509    0.422
  758.750    0.314    1.706  155.735   53.859    0.412
  759.000    0.305    1.690  156.112   54.832    0.417
  759.250    0.299    1.682  155.664   56.363    0.420
