~VERSION INFORMATION
 VERS.                 2.0:   CWLS LOG ASCII STANDARD -VERSION 2.0
 WRAP.                  NO:   ONE LINE PER DEPTH STEP
~WELL INFORMATION BLOCK
#MNEM.UNIT           DATA                    DESCRIPTION OF MNEMONIC
#---------    -------------------            -------------------------------
# Generated from Intellog Unique Number	CW_70_72/WELL/416
NULL.         -999.25                        : NULL_VALUE
WELL.         RAVENNA ET AL CALL             : Well_name    - WELL              
LOC .         04-36-071-19W4                 : Location     - LOCATION          
UWI .         00/04-36-071-19W4/0            : Uwi          - UNIQUE WELL ID    
ENTR.         JAYE                           : Entered      - ENTERED BY        
SRVC.         SCHLUMBERGER                   : Scn          - SERVICE COMPANY   
DATE.         29 MAR 80                      : Date         - LOG DATE          
STRT.M        300                            : top_depth    - START DEPTH       
STOP.M        485                            : bot_depth    - STOP DEPTH        
STEP.M        0.25                           : increment    - STEP LENGTH       
~CURVE INFORMATION BLOCK
#MNEM UNIT       ERCB CURVE CODE    CURVE DESCRIPTION
#-----------   ------------------   ----------------------------------
DEPT.M        00 001 00 00         : DEPTH        - DEPTH                       
DPHI.V/V      00 890 00 00         : PHID         - DENSITY POROSITY (SANDSTONE)
NPHI.V/V      00 330 00 00         : PHIN         - NEUTRON POROSITY (SANDSTONE)
GR  .API      00 310 00 00         : GR           - GAMMA RAY                   
CALI.MM       00 280 01 00         : CAL          - CALIPER                     
ILD .OHMM     00 120 00 00         : RESD         - DEEP RESISTIVITY (DIL)      
~PARAMETER INFORMATION       
#MNEM.UNIT           DATA             DESCRIPTION OF MNEMONIC
#---------         -----------     ------------------------------
GL  .M        587.3                : gl           - GROUND LEVEL ELEVATION      
EREF.M        591                  : kb           - ELEVATION OF DEPTH REFERENCE
DATM.M        587.3                : datum        - DATUM ELEVATION             
TDD .M        509                  : tdd          - TOTAL DEPTH DRILLER         
RUN .         ONE                  : Run          - RUN NUMBER                  
MATR.         SANDSTONE            : Logunit      - NEUTRON MATRIX              
TMAX.C        0                    : BHT          - MAXIMUM RECORDED TEMPERATURE
BHTD.M        507.5                : BHTDEP       - MAXIMUM RECORDED TEMPERATURE
RMT .C        18                   : MDTP         - TEMPERATURE OF MUD          
MUDD.KG/M     0                    : MWT          - MUD DENSITY                 
NEUT.         1                    : NEUTRON      - NEUTRON TYPE                
RESI.         0                    : RESIST       - RESISTIVITY TYPE            
RM  .OHMM     5.73                 : RM           - RESISTIVITY OF MUD          
RMC .OHMM     0                    : RMC          - RESISTIVITY OF MUD CAKE     
RMF .OHMM     4.55                 : RMF          - RESISTIVITY OF MUD FILTRATE 
SUFT.C        0                    : SUFT         - SURFACE TEMPERATURE         
~A  DEPTH     PHID     PHIN       GR      CAL     RESD
  300.000    0.191    0.533  104.329  206.712    3.170
  300.250    0.205    0.519  102.096  210.446    3.166
  300.500    0.182    0.506   99.179  212.315    3.210
  300.750    0.194    0.498   99.680  210.769    3.412
  301.000    0.194    0.515  101.423  209.324    3.619
  301.250    0.183    0.514  105.341  207.674    3.753
  301.500    0.181    0.509  102.486  204.263    3.871
  301.750    0.165    0.498   98.576  200.436    3.932
  302.000    0.136    0.484   97.460  200.027    3.913
  302.250    0.182    0.482  100.571  205.108    3.835
  302.500    0.187    0.482  105.111  209.360    3.696
  302.750    0.184    0.492  107.041  208.849    3.417
  303.000    0.189    0.511  106.112  211.444    3.055
  303.250    0.216    0.532  104.128  212.071    2.900
  303.500    0.232    0.530  102.142  202.135    2.935
  303.750    0.235    0.536  101.773  202.555    3.154
  304.000    0.274    0.534  102.833  206.186    3.290
  304.250    0.252    0.507  106.006  204.949    3.367
  304.500    0.221    0.477  107.936  192.425    3.434
  304.750    0.208    0.481  107.940  174.307    3.334
  305.000    0.221    0.506  105.023  178.456    3.419
  305.250    0.272    0.508   99.993  182.190    3.709
  305.500    0.260    0.494   94.528  188.410    4.109
  305.750    0.337    0.523   87.013  191.418    4.771
  306.000    0.324    0.516   78.877  183.140    5.335
  306.250    0.327    0.425   72.232  171.650    5.659
  306.500    0.330    0.407   70.310  169.792    5.578
  306.750    0.330    0.395   70.313  168.349    5.396
  307.000    0.310    0.382   70.690  167.734    5.220
  307.250    0.286    0.405   70.693  168.051    5.060
  307.500    0.247    0.428   70.013  168.470    5.025
  307.750    0.271    0.443   70.141  169.616    5.028
  308.000    0.281    0.427   73.749  170.451    5.108
  308.250    0.278    0.423   77.418  170.663    5.169
  308.500    0.267    0.423   82.517  170.565    5.271
  308.750    0.254    0.420   86.684  170.261    5.345
  309.000    0.242    0.415   93.771  170.474    5.389
  309.250    0.253    0.412   98.000  172.034    5.312
  309.500    0.230    0.423   95.394  172.972    5.178
  309.750    0.209    0.439   95.584  175.774    5.122
  310.000    0.217    0.455   97.017  180.751    5.126
  310.250    0.225    0.471   96.585  183.760    5.217
  310.500    0.264    0.443   98.951  183.766    5.462
  310.750    0.233    0.419  103.614  179.526    5.697
  311.000    0.212    0.419  103.928  173.422    6.043
  311.250    0.260    0.423   99.707  171.667    6.279
  311.500    0.244    0.400  104.433  169.706    6.501
  311.750    0.240    0.376  105.990  168.676    6.566
  312.000    0.210    0.391  105.124  172.617    6.521
  312.250    0.182    0.399  103.387  176.765    6.464
  312.500    0.207    0.392   99.849  177.808    6.348
  312.750    0.222    0.394   93.639  176.881    5.992
  313.000    0.208    0.400   88.547  174.817    5.500
  313.250    0.223    0.413   81.591  172.440    5.133
  313.500    0.238    0.424   75.506  170.376    4.702
  313.750    0.261    0.425   71.409  169.345    4.438
  314.000    0.301    0.417   72.220  167.901    4.334
  314.250    0.282    0.407   73.591  166.975    4.345
  314.500    0.285    0.396   72.476  166.050    4.381
  314.750    0.276    0.402   72.976  165.642    4.451
  315.000    0.288    0.412   75.652  165.233    4.555
  315.250    0.275    0.413   80.440  165.136    4.698
  315.500    0.288    0.415   85.104  165.350    4.826
  315.750    0.259    0.418   88.960  166.082    4.949
  316.000    0.276    0.426   93.686  166.603    5.143
  316.250    0.269    0.437   97.853  167.232    5.314
  316.500    0.253    0.439  103.573  167.548    5.377
  316.750    0.254    0.426  109.169  167.968    5.241
  317.000    0.267    0.414  114.082  168.596    4.957
  317.250    0.249    0.402  109.673  168.290    4.732
  317.500    0.240    0.413  105.949  167.261    4.518
  317.750    0.216    0.432  110.923  168.095    4.297
  318.000    0.196    0.490  110.492  179.286    4.064
  318.250    0.224    0.519  103.474  181.156    3.822
  318.500    0.226    0.514  107.269  177.641    3.594
  318.750    0.283    0.528  109.322  183.136    3.361
  319.000    0.359    0.555  110.693  190.495    3.131
  319.250    0.375    0.575  110.386  217.634    2.972
  319.500    0.348    0.565  110.327  189.989    2.849
  319.750    0.282    0.544  111.449  197.451    2.792
  320.000    0.310    0.549  115.492  206.468    2.799
  320.250    0.258    0.555  120.156  202.538    2.936
  320.500    0.247    0.541  123.888  187.010    3.127
  320.750    0.215    0.558  121.157  205.553    3.297
  321.000    0.211    0.571  123.087  212.809    3.858
  321.250    0.229    0.568  126.384  211.676    4.346
  321.500    0.224    0.535  127.320  198.116    4.943
  321.750    0.207    0.501  125.024  181.965    5.849
  322.000    0.183    0.472  122.480  175.136    6.345
  322.250    0.180    0.422  119.688  175.557    6.718
  322.500    0.194    0.450  115.280  184.158    6.864
  322.750    0.207    0.432  108.883  188.204    7.038
  323.000    0.219    0.421   97.764  176.403    6.899
  323.250    0.199    0.452   90.373  173.407    6.699
  323.500    0.185    0.477   96.715  173.310    6.419
  323.750    0.190    0.482  107.033  173.627    6.187
  324.000    0.165    0.474  120.645  174.977    6.179
  324.250    0.229    0.467  120.028  177.573    6.149
  324.500    0.205    0.432  116.365  178.614    6.176
  324.750    0.176    0.422  115.375  179.242    6.357
  325.000    0.200    0.454  106.989  178.834    6.605
  325.250    0.242    0.446   89.035  177.493    6.889
  325.500    0.266    0.430   83.446  175.842    7.132
  325.750    0.273    0.426   77.174  173.364    7.203
  326.000    0.259    0.415   80.721  172.229    7.209
  326.250    0.237    0.413   82.898  170.062    7.241
  326.500    0.227    0.407   84.455  169.238    7.288
  326.750    0.223    0.396   86.198  168.209    7.334
  327.000    0.226    0.383   87.818  168.111    7.394
  327.250    0.218    0.378   88.256  168.532    7.483
  327.500    0.218    0.399   88.509  169.159    7.574
  327.750    0.227    0.431   89.382  170.615    7.665
  328.000    0.225    0.417   91.312  172.176    7.714
  328.250    0.222    0.401   92.620  173.423    7.733
  328.500    0.213    0.385   93.121  174.983    7.767
  328.750    0.197    0.384   91.198  176.025    7.815
  329.000    0.200    0.402   88.716  176.548    7.880
  329.250    0.211    0.424   90.087  176.969    7.768
  329.500    0.220    0.415   97.299  176.974    7.402
  329.750    0.195    0.417  103.702  176.877    6.883
  330.000    0.151    0.436  109.299  176.883    6.257
  330.250    0.158    0.479  113.403  177.303    5.851
  330.500    0.148    0.470  115.147  179.173    5.660
  330.750    0.203    0.450  114.094  181.457    5.718
  331.000    0.210    0.431  115.216  179.081    5.820
  331.250    0.213    0.418  119.383  175.152    5.878
  331.500    0.208    0.407  125.414  173.502    5.927
  331.750    0.195    0.424  133.619  173.611    5.976
  332.000    0.203    0.443  133.872  175.067    5.991
  332.250    0.177    0.457  128.158  178.284    6.063
  332.500    0.196    0.456  119.836  181.810    6.194
  332.750    0.249    0.430  111.202  187.201    6.281
  333.000    0.202    0.415  114.002  175.815    6.156
  333.250    0.177    0.410  115.186  175.718    5.513
  333.500    0.178    0.420  115.439  177.277    4.928
  333.750    0.171    0.456  117.182  179.769    4.298
  334.000    0.173    0.504  120.976  184.642    3.864
  334.250    0.190    0.509  126.199  197.490    3.546
  334.500    0.198    0.477  129.061  195.114    3.449
  334.750    0.156    0.485  131.550  192.635    3.694
  335.000    0.190    0.497  126.458  204.654    3.963
  335.250    0.224    0.508  110.741  193.061    4.308
  335.500    0.230    0.543  100.306  180.018    4.701
  335.750    0.283    0.513   92.107  194.212    5.090
  336.000    0.237    0.451   91.365  166.981    5.575
  336.250    0.183    0.462   92.612  168.748    6.129
