~VERSION INFORMATION
 VERS.                 2.0:   CWLS LOG ASCII STANDARD -VERSION 2.0
 WRAP.                  NO:   ONE LINE PER DEPTH STEP
~WELL INFORMATION BLOCK
#MNEM.UNIT           DATA                    DESCRIPTION OF MNEMONIC
#---------    -------------------            -------------------------------
# Generated from Intellog Unique Number	CW_76_78/WELL/2568
WELL.         06-25-078-25W4                 : Well_name    - WELL
LOC .         00/06-25-078-25W4/0            : Location     - LOCATION
UWI .         00/06-25-078-25W4/0            : Uwi          - UNIQUE WELL ID
ENTR.         MAX                            : Entered      - ENTERED BY
SRVC.         SCHLUMBERGER                   : Scn          - SERVICE COMPANY
STRT.M        274.32                         : top_depth    - START DEPTH
STOP.M        533.32                         : bot_depth    - STOP DEPTH
STEP.M        0.25                           : increment    - STEP LENGTH
 NULL. -999.2500:NULL Value
~CURVE INFORMATION BLOCK
#MNEM UNIT       ERCB CURVE CODE    CURVE DESCRIPTION
#-----------   ------------------   ----------------------------------
DEPT.M        00 001 00 00         : DEPTH        - DEPTH
ILD .OHMM     00 120 00 00         : RESD         - DEEP RESISTIVITY (DIL)
NPHI.V/V      00 330 00 00         : PHIN         - NEUTRON POROSITY (SANDSTONE)
DPHI.V/V      00 890 00 00         : PHID         - DENSITY POROSITY (SANDSTONE)
CALI.MM       00 280 01 00         : CAL          - CALIPER
GR  .API      00 310 00 00         : GR           - GAMMA RAY
~PARAMETER INFORMATION
#MNEM.UNIT           DATA             DESCRIPTION OF MNEMONIC
#---------         -----------     ------------------------------
GL  .M        589.483              : gl           - GROUND LEVEL ELEVATION
EREF.M        593.019              : kb           - ELEVATION OF DEPTH REFERENCE
DATM.M        589.483              : datum        - DATUM ELEVATION
TDD .M        535.534              : tdd          - TOTAL DEPTH DRILLER
RUN .         ONE                  : Run          - RUN NUMBER
ENG .         BILL                 : Engineer     - RECORDING ENGINEER
WIT .         JIM                  : Witness      - WITNESSED BY
MUD .         GEL                  : Mud_type     - MUD TYPE
MATR.         SANDSTONE            : Logunit      - NEUTRON MATRIX
TMAX.C        22.2222              : BHT          - MAXIMUM RECORDED TEMPERATURE
BHTD.M        535.534              : BHTDEP       - MAXIMUM RECORDED TEMPERATURE
RMT .C        10                   : MDTP         - TEMPERATURE OF MUD
MUDD.KG/M     9000                 : MWT          - MUD DENSITY
NEUT.         1                    : NEUTRON      - NEUTRON TYPE
RESI.         0                    : RESIST       - RESISTIVITY TYPE
RM  .OHMM     5.62                 : RM           - RESISTIVITY OF MUD
RMC .OHMM     0.25                 : RMC          - RESISTIVITY OF MUD CAKE
RMF .OHMM     5.41                 : RMF          - RESISTIVITY OF MUD FILTRATE
SUFT.C        -6.66667             : SUFT         - SURFACE TEMPERATURE
~A  DEPTH     RESD     PHIN     PHID      CAL       GR
# ...
  493.320    9.264    0.418    0.221  216.521   71.874
  493.570    8.966    0.395    0.224  216.053   72.185
  493.820    8.766    0.391    0.228  216.091   77.174
  494.070    8.665    0.425    0.239  216.121   83.333
  494.320    8.861    0.447    0.241  216.147   81.889
  494.570    9.255    0.451    0.230  216.178   79.866
  494.820   10.044    0.434    0.218  216.208   79.005
  495.070   13.108    0.428    0.202  216.738   76.978
  495.320   14.985    0.432    0.223  217.758   73.775
  495.570   20.126    0.405    0.199  216.303   57.124
  495.820   23.783    0.240    0.083  213.858   50.124
  496.070   25.363    0.199    0.028  210.921   48.684
  496.320   19.230    0.194    0.027  210.456   52.796
  496.570   14.679    0.224    0.029  211.976   56.908
  496.820   11.414    0.275    0.059  213.991   65.114
  497.070    9.533    0.344    0.091  214.512   73.612
  497.320    8.047    0.378    0.146  215.042   81.238
  497.570    7.749    0.394    0.196  216.063   84.765
  497.820    7.252    0.419    0.200  216.596   88.587
  498.070    7.152    0.435    0.222  214.146   80.417
  498.320    6.950    0.406    0.208  206.753   74.292
  498.570    6.851    0.379    0.211  205.789   71.678
  498.820    6.651    0.385    0.224  207.309   69.356
  499.070    6.550    0.380    0.217  208.821   65.573
  499.320    6.647    0.378    0.229  209.347   73.491
  499.570    6.843    0.412    0.236  209.377   81.694
  499.820    7.039    0.449    0.241  210.402   79.958
  500.070    7.532    0.493    0.258  212.413   68.863
  500.320    8.123    0.528    0.267  214.919   61.573
  500.570    8.813    0.514    0.295  215.452   51.063
  500.820    9.504    0.471    0.326  206.070   47.575
  501.070   10.095    0.449    0.344  200.654   45.840
  501.320   10.291    0.497    0.369  199.199   47.026
  501.570    9.993    0.458    0.372  201.210   49.385
  501.820    9.100    0.430    0.335  206.695   47.939
  502.070    8.604    0.391    0.294  205.731   47.374
  502.320    8.108    0.387    0.281  204.771   46.805
  502.570    7.809    0.395    0.276  203.822   46.533
  502.820    7.610    0.386    0.264  204.839   46.551
  503.070    7.410    0.402    0.273  205.365   48.910
  503.320    7.210    0.414    0.274  205.395   52.145
  503.570    7.010    0.403    0.278  205.426   55.380
  503.820    7.007    0.389    0.276  205.460   58.614
  504.070    6.908    0.379    0.263  204.991   62.728
  504.320    6.807    0.397    0.246  204.530   67.425
  504.570    6.805    0.395    0.251  205.060   73.001
  504.820    6.803    0.403    0.251  205.585   80.622
  505.070    6.801    0.424    0.244  206.107   82.980
  505.320    6.799    0.448    0.254  206.141   88.556
  505.570    6.896    0.494    0.256  206.670   91.206
  505.820    7.092    0.432    0.243  207.687   88.007
  506.070    7.189    0.368    0.213  209.207   82.469
  506.320    7.286    0.376    0.189  209.736   78.982
  506.570    7.286    0.382    0.173  209.767   78.706
  506.820    7.282    0.380    0.138  211.283   79.016
  507.070    7.280    0.362    0.104  211.313   76.112
  507.320    7.278    0.366    0.088  210.848   76.132
  507.570    7.079    0.373    0.134  210.383   78.489
  507.820    6.879    0.371    0.177  211.408   79.094
  508.070    6.481    0.361    0.171  213.427   80.865
  508.320    5.689    0.370    0.175  214.440   87.023
  508.570    4.896    0.396    0.159  213.480   88.506
  508.820    4.597    0.425    0.136  211.533   87.356
  509.070    4.595    0.429    0.145  211.564   88.251
  509.320    4.989    0.416    0.169  212.089   87.394
  509.570    5.778    0.402    0.189  212.123   86.243
  509.820    6.172    0.409    0.189  212.649   85.383
  510.070    6.565    0.410    0.187  212.679   84.814
  510.320    6.761    0.410    0.189  213.704   84.542
  510.570    6.759    0.444    0.185  215.220   86.609
  510.820    6.461    0.470    0.172  216.736   87.794
  511.070    5.964    0.501    0.158  217.261   79.332
  511.320    5.765    0.503    0.146  215.319   77.890
  511.570    5.367    0.489    0.141  213.863   84.634
  511.820    5.068    0.487    0.169  213.395   88.453
  512.070    4.869    0.500    0.186  213.928   82.623
  512.320    4.768    0.515    0.175  215.448   75.915
  512.570    4.766    0.525    0.153  215.471   80.911
  512.820    4.766    0.528    0.136  215.501   82.679
  513.070    4.663    0.514    0.139  219.005   89.130
  513.320    4.562    0.506    0.214  222.003   94.122
  513.570    4.461    0.499    0.187  220.555   93.847
  513.820    4.460    0.476    0.165  220.087   94.450
  514.070    4.359    0.462    0.148  221.606   92.425
  514.320    4.357    0.468    0.133  222.136   92.738
  514.570    4.355    0.476    0.095  222.159   95.091
  514.820    4.353    0.481    0.115  223.682   98.328
  515.070    4.351    0.478    0.142  224.699   96.299
  515.320    4.448    0.460    0.145  227.708   90.763
  515.570    4.545    0.464    0.149  228.230   87.564
  515.820    4.643    0.457    0.150  223.811   89.042
  516.070    4.643    0.449    0.163  221.857   96.379
  516.320    4.638    0.464    0.153  221.388   97.855
  516.570    4.637    0.475    0.153  222.908  101.677
  516.820    4.635    0.455    0.138  223.933   98.768
  517.070    4.633    0.420    0.136  226.439   85.919
  517.320    4.631    0.389    0.134  218.547   74.535
  517.570    4.629    0.370    0.113  210.650   69.872
  517.820    4.627    0.392    0.117  209.694   64.919
  518.070    4.724    0.426    0.123  212.696   74.004
  518.320    4.722    0.435    0.147  216.192   71.977
  518.570    4.819    0.410    0.166  213.754   71.700
  518.820    4.916    0.459    0.174  209.328   84.590
  519.070    4.716    0.501    0.153  205.892   88.699
  519.320    4.716    0.524    0.141  203.443   93.396
  519.570    4.713    0.648    0.166  201.493   93.418
  519.820    4.713    0.678    0.166  197.565   86.711
  520.070    4.214    0.685    0.142  194.137   80.297
  520.320    3.817    0.664    0.132  195.154   77.976
  520.570    3.518    0.642    0.105  198.658   78.282
  520.820    3.319    0.616    0.073  201.157   80.349
  521.070    3.218    0.587    0.061  202.673   71.594
  521.320    3.216    0.565    0.086  201.222   42.075
  521.570    3.214    0.549    0.121  201.252   30.981
  521.820    3.212    0.516    0.165  201.252   17.547
  522.070    3.209    0.479    0.185  201.320    9.379
  522.320    3.307    0.458    0.161  201.842    7.060
  522.570    3.404    0.453    0.155  201.876    6.783
  522.820    3.401    0.443    0.139  201.907    6.801
  523.070    3.598    0.439    0.138  201.438    6.824
  523.320    3.695    0.438    0.136  200.985    6.259
  523.570    3.693    0.422    0.145  201.011    6.277
  523.820    3.691    0.408    0.144  201.537    6.290
  524.070    3.788    0.402    0.143  202.066    6.603
  524.320    4.083    0.429    0.156  201.601    7.206
  524.570    4.278    0.424    0.153  201.140    7.518
  524.820    4.376    0.423    0.147  200.676    7.242
  525.070    4.376    0.430    0.148  201.696    7.264
  525.320    4.372    0.444    0.176  202.218    7.280
  525.570    4.568    0.467    0.243  202.748    7.885
  525.820    4.664    0.500    0.257  202.778    8.488
  526.070    4.663    0.500    0.220  203.802    8.508
  526.320    4.859    0.448    0.185  203.833    7.354
  526.570    5.549    0.411    0.125  202.873    6.204
  526.820    6.240    0.389    0.099  202.408    6.517
  527.070    7.029    0.370    0.085  202.934    6.533
  527.320    7.719    0.346    0.078  203.463    6.845
  527.570    8.310    0.336    0.074  203.992    7.446
  527.820    8.803    0.325    0.077  203.992    8.343
  528.070    9.394    0.323    0.084  204.061    9.241
  528.320    9.788    0.315    0.080  203.093   10.431
  528.570   10.083    0.329    0.083  203.124   11.623
  528.820   10.378    0.334    0.087  202.659   11.634
  529.070   10.771    0.319    0.082  201.699   11.067
  529.320   10.967    0.306    0.069  200.739   10.212
  529.570   10.867    0.313    0.087  200.285    9.648
