~VERSION INFORMATION
 VERS.                 2.0:   CWLS LOG ASCII STANDARD -VERSION 2.0
 WRAP.                  NO:   ONE LINE PER DEPTH STEP
~WELL INFORMATION BLOCK
#MNEM.UNIT           DATA                    DESCRIPTION OF MNEMONIC
#---------    -------------------            -------------------------------
# Generated from Intellog Unique Number	CW_70_72/WELL/875
NULL.         -999.25                        : NULL_VALUE
WELL.         PETROREP ET AL SMITH 07-06     : Well_name    - WELL              
LOC .         07-06-072-25W4                 : Location     - LOCATION          
UWI .         00/07-06-072-25W4/0            : Uwi          - UNIQUE WELL ID    
ENTR.         JAYE                           : Entered      - ENTERED BY        
SRVC.         SCHLUMBERGER                   : Scn          - SERVICE COMPANY   
DATE.         24 NOV 77                      : Date         - LOG DATE          
STRT.M        393.192                        : top_depth    - START DEPTH       
STOP.M        618.692                        : bot_depth    - STOP DEPTH        
STEP.M        0.25                           : increment    - STEP LENGTH       
~CURVE INFORMATION BLOCK
#MNEM UNIT       ERCB CURVE CODE    CURVE DESCRIPTION
#-----------   ------------------   ----------------------------------
DEPT.M        00 001 00 00         : DEPTH        - DEPTH                       
DPHI.V/V      00 890 00 00         : PHID         - DENSITY POROSITY (SANDSTONE)
NPHI.V/V      00 330 00 00         : PHIN         - NEUTRON POROSITY (SANDSTONE)
GR  .API      00 310 00 00         : GR           - GAMMA RAY                   
CALI.MM       00 280 01 00         : CAL          - CALIPER                     
ILD .OHMM     00 120 00 00         : RESD         - DEEP RESISTIVITY (DIL)      
~PARAMETER INFORMATION       
#MNEM.UNIT           DATA             DESCRIPTION OF MNEMONIC
#---------         -----------     ------------------------------
GL  .M        582.473              : gl           - GROUND LEVEL ELEVATION      
EREF.M        586.13               : kb           - ELEVATION OF DEPTH REFERENCE
DATM.M        582.473              : datum        - DATUM ELEVATION             
TDD .M        621.792              : tdd          - TOTAL DEPTH DRILLER         
RUN .         ONE                  : Run          - RUN NUMBER                  
ENG .         KUBICA/RIVOLLIER     : Engineer     - RECORDING ENGINEER          
WIT .         HERB                 : Witness      - WITNESSED BY                
BASE.         EDM                  : Branch       - HOME BASE OF LOGGING UNIT   
MUD .         GEL                  : Mud_type     - MUD TYPE                    
MATR.         SANDSTONE            : Logunit      - NEUTRON MATRIX              
TMAX.C        27.7778              : BHT          - MAXIMUM RECORDED TEMPERATURE
BHTD.M        621.487              : BHTDEP       - MAXIMUM RECORDED TEMPERATURE
RMT .C        13.3333              : MDTP         - TEMPERATURE OF MUD          
MUDD.KG/M     1164                 : MWT          - MUD DENSITY                 
NEUT.         1                    : NEUTRON      - NEUTRON TYPE                
RESI.         0                    : RESIST       - RESISTIVITY TYPE            
RM  .OHMM     3.86                 : RM           - RESISTIVITY OF MUD          
RMC .OHMM     0                    : RMC          - RESISTIVITY OF MUD CAKE     
RMF .OHMM     3.1                  : RMF          - RESISTIVITY OF MUD FILTRATE 
SUFT.C        0                    : SUFT         - SURFACE TEMPERATURE         
~A  DEPTH     PHID     PHIN       GR      CAL     RESD
# ...
  502.692    0.302    0.440   73.796  154.122    3.113
  502.942    0.293    0.412   73.639  154.064    3.278
  503.192    0.282    0.391   68.011  154.219    3.578
  503.442    0.269    0.372   64.865  154.899    3.897
  503.692    0.235    0.338   62.655  156.107    4.189
  503.942    0.202    0.337   60.818  159.318    4.711
  504.192    0.215    0.358   61.471  162.212    5.208
  504.442    0.236    0.386   64.612  161.943    5.641
  504.692    0.248    0.403   69.303  161.258    5.399
  504.942    0.256    0.410   75.431  160.998    5.100
  505.192    0.250    0.415   79.314  161.042    4.598
  505.442    0.240    0.419   80.710  161.308    4.254
  505.692    0.230    0.424   81.551  161.568    3.959
  505.942    0.243    0.428   82.512  161.928    3.796
  506.192    0.243    0.434   84.966  162.192    3.723
  506.442    0.228    0.437   87.421  161.713    3.783
  506.692    0.233    0.423   82.600  158.183    3.866
  506.942    0.243    0.413   82.505  155.593    4.094
  507.192    0.251    0.421   80.232  155.117    4.402
  507.442    0.252    0.431   76.468  154.326    4.516
  507.692    0.263    0.438   72.517  153.533    4.487
  507.942    0.274    0.442   74.971  152.427    4.458
  508.192    0.268    0.439   77.675  151.844    4.463
  508.442    0.268    0.429   79.757  151.787    4.485
  508.692    0.259    0.434   76.306  152.467    4.524
  508.942    0.264    0.442   75.399  152.732    4.572
  509.192    0.257    0.431   75.745  152.683    4.629
  509.442    0.240    0.424   76.579  152.938    4.686
  509.692    0.225    0.416   76.672  152.882    4.772
  509.942    0.229    0.410   76.390  153.243    4.895
  510.192    0.218    0.400   76.793  153.295    5.098
  510.442    0.212    0.386   77.570  153.342    5.278
  510.692    0.211    0.398   78.652  153.705    5.147
  510.942    0.233    0.430   80.426  154.178    4.908
  511.192    0.247    0.421   80.267  154.860    4.697
  511.442    0.233    0.417   73.889  155.437    4.547
  511.692    0.231    0.422   70.561  156.437    4.526
  511.942    0.238    0.445   72.765  157.329    4.565
  512.192    0.216    0.461   79.138  158.325    4.641
  512.442    0.201    0.443   86.198  159.424    4.697
  512.692    0.185    0.434   88.963  160.106    4.783
  512.942    0.200    0.432   89.864  160.580    4.835
  513.192    0.208    0.428   91.762  160.947    4.866
  513.442    0.206    0.425   90.297  161.415    4.909
  513.692    0.200    0.420   87.400  161.893    4.942
  513.942    0.191    0.414   85.690  161.942    4.994
  514.192    0.195    0.427   85.843  160.723    5.028
  514.442    0.207    0.425   84.752  159.623    5.062
  514.692    0.204    0.416   83.291  159.138    5.077
  514.942    0.215    0.397   83.383  158.351    5.111
  515.192    0.213    0.390   81.854  158.286    5.137
  515.442    0.198    0.401   82.384  158.338    5.142
  515.692    0.184    0.402   84.153  158.815    5.148
  515.942    0.182    0.383   87.169  159.593    5.134
  516.192    0.196    0.390   88.442  161.335    5.170
  516.442    0.198    0.403   89.340  162.642    5.155
  516.692    0.191    0.416   90.244  164.906    5.171
  516.942    0.180    0.414   90.147  167.065    5.197
  517.192    0.190    0.404   87.624  167.114    5.252
  517.442    0.202    0.399   84.980  163.893    5.277
  517.692    0.221    0.405   83.953  161.840    5.283
  517.942    0.225    0.407   84.167  162.416    5.299
  518.192    0.213    0.401   82.858  165.387    5.285
  518.442    0.215    0.407   84.327  166.308    5.081
  518.692    0.211    0.418   87.233  167.343    5.082
  518.942    0.208    0.434   89.941  168.585    5.056
  519.192    0.206    0.444   89.685  169.391    5.038
  519.442    0.197    0.423   87.812  170.107    5.001
  519.692    0.190    0.413   88.612  170.511    4.956
  519.942    0.194    0.420   91.440  171.005    4.929
  520.192    0.191    0.425   93.968  171.317    4.940
  520.442    0.199    0.417   92.099  171.597    4.988
  520.692    0.192    0.420   91.717  171.902    5.121
  520.942    0.191    0.430   89.597  171.782    5.279
  521.192    0.195    0.438   86.797  171.659    5.513
  521.442    0.208    0.445   84.808  171.096    5.866
  521.692    0.201    0.432   84.677  170.240    6.149
  521.942    0.209    0.407   85.031  169.273    6.279
  522.192    0.194    0.389   86.260  167.262    6.175
  522.442    0.166    0.379   86.864  166.089    6.073
  522.692    0.143    0.393   87.349  165.133    6.018
  522.942    0.147    0.404   83.994  164.912    5.953
  523.192    0.135    0.392   76.428  165.506    5.909
  523.442    0.124    0.355   71.955  166.750    5.801
  523.692    0.139    0.386   75.786  168.095    5.652
  523.942    0.186    0.401   83.145  169.432    5.497
  524.192    0.192    0.407   85.915  170.251    5.447
  524.442    0.203    0.407   86.464  169.495    5.520
  524.692    0.198    0.402   82.115  167.803    5.712
  524.942    0.191    0.395   79.314  166.624    5.909
  525.192    0.175    0.383   81.043  166.086    6.136
  525.442    0.184    0.381   79.538  166.067    6.554
  525.692    0.166    0.372   75.133  166.051    6.922
  525.942    0.130    0.356   69.490  165.811    7.604
  526.192    0.080    0.334   65.078  166.016    8.400
  526.442    0.063    0.244   60.295  165.879    9.403
  526.692    0.045    0.202   55.520  164.383   10.784
  526.942    0.072    0.245   56.876  162.169   12.162
  527.192    0.120    0.301   60.818  160.679   11.521
  527.442    0.141    0.360   68.054  160.771    9.680
  527.692    0.161    0.397   74.112  161.590    8.604
  527.942    0.162    0.409   77.996  163.350    7.778
  528.192    0.185    0.395   80.283  165.112    6.978
  528.442    0.194    0.400   80.821  166.348    6.488
  528.692    0.198    0.403   83.228  167.280    6.112
  528.942    0.206    0.401   84.019  167.880    5.855
  529.192    0.204    0.395   84.694  167.970    5.652
  529.442    0.187    0.386   85.855  167.738    5.621
  529.692    0.176    0.377   85.411  167.002    5.993
  529.942    0.164    0.371   81.005  166.443    6.377
  530.192    0.145    0.360   76.409  164.965    6.901
  530.442    0.114    0.342   72.552  163.371    7.302
  530.692    0.106    0.303   68.582  162.399    7.726
  530.942    0.135    0.321   68.690  162.078    7.845
  531.192    0.157    0.352   75.617  162.454    7.630
  531.442    0.164    0.359   78.763  164.443    7.378
  531.692    0.177    0.360   80.302  165.779    6.925
  531.942    0.180    0.367   82.642  167.218    6.585
  532.192    0.177    0.377   86.405  168.142    6.215
  532.442    0.170    0.401   90.853  168.967    5.965
  532.692    0.169    0.399   90.221  169.046    5.683
  532.942    0.171    0.399   86.252  168.707    5.547
  533.192    0.161    0.400   86.977  168.181    5.375
  533.442    0.170    0.402   91.740  167.515    5.325
  533.692    0.167    0.402   92.034  167.087    5.297
  533.942    0.177    0.399   91.593  167.480    5.298
  534.192    0.190    0.392   91.268  167.882    5.260
  534.442    0.186    0.389   91.621  167.965    5.203
  534.692    0.176    0.392   92.237  168.050    5.214
  534.942    0.160    0.393   92.899  168.246    5.235
  535.192    0.170    0.388   94.191  168.541    5.275
  535.442    0.171    0.380   92.508  168.934    5.306
  535.692    0.158    0.390   93.918  169.017    5.327
  535.942    0.149    0.408   99.542  169.412    5.379
  536.192    0.144    0.422  102.315  169.732    5.310
  536.442    0.156    0.425  100.320  170.117    5.242
  536.692    0.178    0.422   98.144  169.879    5.205
  536.942    0.175    0.419   95.656  169.453    5.157
  537.192    0.164    0.416   93.418  169.112    5.091
  537.442    0.162    0.400   92.909  169.082    5.045
  537.692    0.185    0.396   94.259  169.178    5.037
  537.942    0.185    0.408   97.528  169.263    5.038
  538.192    0.179    0.409   98.445  169.547    5.058
  538.442    0.185    0.397   99.240  169.452    5.126
  538.692    0.183    0.409   97.431  169.193    5.284
  538.942    0.184    0.411   94.075  168.968    5.395
