~VERSION INFORMATION
 VERS.                 2.0:   CWLS LOG ASCII STANDARD -VERSION 2.0
 WRAP.                  NO:   ONE LINE PER DEPTH STEP
~WELL INFORMATION BLOCK
#MNEM.UNIT           DATA                    DESCRIPTION OF MNEMONIC
#---------    -------------------            -------------------------------
# Generated from Intellog Unique Number	CS_73_76/WELL/2388
WELL.         07-24-075-13W4                 : Well_name    - WELL
LOC .         00/07-24-075-13W4/0            : Location     - LOCATION
UWI .         00/07-24-075-13W4/0            : Uwi          - UNIQUE WELL ID
ENTR.         SP                             : Entered      - ENTERED BY
SRVC.         SCHLUMBERGER                   : Scn          - SERVICE COMPANY
STRT.M        323.088                        : top_depth    - START DEPTH
STOP.M        548.338                        : bot_depth    - STOP DEPTH
STEP.M        0.25                           : increment    - STEP LENGTH
 NULL. -999.2500:NULL Value
~CURVE INFORMATION BLOCK
#MNEM UNIT       ERCB CURVE CODE    CURVE DESCRIPTION
#-----------   ------------------   ----------------------------------
DEPT.M        00 001 00 00         : DEPTH        - DEPTH
GR  .API      00 310 00 00         : GR           - GAMMA RAY
DPHI.V/V      00 890 00 00         : PHID         - DENSITY POROSITY (SANDSTONE)
NPHI.V/V      00 330 00 00         : PHIN         - NEUTRON POROSITY (SANDSTONE)
ILD .OHMM     00 120 00 00         : RESD         - DEEP RESISTIVITY (DIL)
~PARAMETER INFORMATION
#MNEM.UNIT           DATA             DESCRIPTION OF MNEMONIC
#---------         -----------     ------------------------------
GL  .M        698.602              : gl           - GROUND LEVEL ELEVATION
EREF.M        702.869              : kb           - ELEVATION OF DEPTH REFERENCE
DATM.M        698.602              : datum        - DATUM ELEVATION
TDD .M        554.126              : tdd          - TOTAL DEPTH DRILLER
RUN .         ONE                  : Run          - RUN NUMBER
ENG .         BILL                 : Engineer     - RECORDING ENGINEER
WIT .         JIM                  : Witness      - WITNESSED BY
MUD .         GEL                  : Mud_type     - MUD TYPE
MATR.         SANDSTONE            : Logunit      - NEUTRON MATRIX
TMAX.C        18.8889              : BHT          - MAXIMUM RECORDED TEMPERATURE
BHTD.M        554.126              : BHTDEP       - MAXIMUM RECORDED TEMPERATURE
MATR.         1                    : LOGUNIT      - NEUTRON MATRIX
RMT .C        25                   : MDTP         - TEMPERATURE OF MUD
NEUT.         1                    : NEUTRON      - NEUTRON TYPE
RESI.         0                    : RESIST       - RESISTIVITY TYPE
RMC .OHMM     0.25                 : RMC          - RESISTIVITY OF MUD CAKE
RMF .OHMM     0.25                 : RMF          - RESISTIVITY OF MUD FILTRATE
SUFT.C        15                   : SUFT         - SURFACE TEMPERATURE
~A  DEPTH       GR     PHID     PHIN     RESD
# ...
  497.088   80.423    0.229    0.427    3.624
  497.338   79.793    0.242    0.439    3.602
  497.588   83.544    0.248    0.449    3.558
  497.838   85.982    0.254    0.456    3.381
  498.088   87.762    0.253    0.457    3.274
  498.338   81.734    0.257    0.452    3.130
  498.588   82.261    0.260    0.462    3.037
  498.838   79.540    0.249    0.463    2.951
  499.088   76.294    0.235    0.455    2.990
  499.338   70.359    0.223    0.432    3.263
  499.588   66.604    0.206    0.417    3.570
  499.838   68.109    0.194    0.402    3.971
  500.088   72.260    0.190    0.400    4.293
  500.338   74.526    0.207    0.400    4.497
  500.588   75.407    0.226    0.423    4.728
  500.838   73.204    0.238    0.440    4.742
  501.088   69.820    0.240    0.446    4.741
  501.338   68.816    0.243    0.448    4.732
  501.588   70.601    0.244    0.447    4.846
  501.838   72.073    0.215    0.422    4.996
  502.088   71.749    0.237    0.432    5.006
  502.338   71.502    0.243    0.448    4.894
  502.588   71.273    0.216    0.428    4.750
  502.838   68.494    0.199    0.410    4.637
  503.088   72.816    0.187    0.385    4.643
  503.338   78.858    0.187    0.384    4.730
  503.588   81.997    0.204    0.405    4.724
  503.838   79.074    0.210    0.418    4.719
  504.088   78.042    0.209    0.415    4.812
  504.338   77.823    0.206    0.414    4.803
  504.588   78.388    0.194    0.396    4.802
  504.838   78.542    0.197    0.400    4.848
  505.088   76.239    0.203    0.408    4.880
  505.338   76.320    0.196    0.405    4.962
  505.588   78.040    0.193    0.398    4.969
  505.838   78.878    0.205    0.406    4.968
  506.088   77.705    0.206    0.420    5.040
  506.338   75.206    0.192    0.402    5.051
  506.588   70.467    0.185    0.392    5.155
  506.838   66.596    0.176    0.385    5.411
  507.088   69.134    0.176    0.381    5.568
  507.338   71.668    0.193    0.399    5.736
  507.588   73.409    0.223    0.421    5.905
  507.838   66.204    0.233    0.435    6.065
  508.088   57.250    0.258    0.453    6.144
  508.338   50.581    0.289    0.506    6.447
  508.588   46.937    0.332    0.526    7.811
  508.838   46.539    0.333    0.523    9.492
  509.088   47.100    0.319    0.514   13.528
  509.338   43.326    0.308    0.504   18.363
  509.588   35.931    0.304    0.503   22.367
  509.838   30.799    0.308    0.512   25.160
  510.088   35.810    0.300    0.496   26.146
  510.338   44.668    0.263    0.485   25.983
  510.588   54.312    0.240    0.468   23.444
  510.838   60.458    0.225    0.445   20.779
  511.088   66.412    0.220    0.430   17.843
  511.338   69.629    0.209    0.416   15.592
  511.588   67.587    0.223    0.422   13.842
  511.838   64.262    0.237    0.430   13.222
  512.088   62.515    0.240    0.443   12.975
  512.338   63.171    0.227    0.433   12.970
  512.588   58.779    0.222    0.422   13.303
  512.838   48.617    0.247    0.437   13.979
  513.088   42.276    0.268    0.463   15.035
  513.338   42.976    0.294    0.494   16.035
  513.588   46.250    0.287    0.492   17.037
  513.838   51.707    0.278    0.481   17.386
  514.088   45.664    0.280    0.486   17.394
  514.338   39.102    0.262    0.454   18.271
  514.588   35.294    0.200    0.423   17.991
  514.838   32.546    0.211    0.407   16.817
  515.088   36.051    0.258    0.445   14.807
  515.338   40.259    0.307    0.496   13.931
  515.588   46.593    0.307    0.509   14.716
  515.838   52.343    0.291    0.496   15.953
  516.088   59.125    0.283    0.491   18.263
  516.338   65.288    0.282    0.484   20.031
  516.588   73.759    0.271    0.474   19.688
  516.838   77.691    0.261    0.466   17.048
  517.088   81.247    0.251    0.456   14.189
  517.338   74.615    0.239    0.449   12.314
  517.588   65.735    0.268    0.472   11.029
  517.838   60.815    0.283    0.488   10.665
  518.088   58.121    0.304    0.515   11.554
  518.338   54.766    0.326    0.541   13.795
  518.588   51.507    0.332    0.537   16.474
  518.838   48.811    0.328    0.533   19.466
  519.088   52.049    0.322    0.532   22.334
  519.338   53.697    0.318    0.527   25.198
  519.588   57.465    0.315    0.521   27.575
  519.838   62.018    0.319    0.522   28.709
  520.088   64.736    0.313    0.516   28.346
  520.338   66.144    0.306    0.511   27.991
  520.588   64.567    0.305    0.507   26.688
  520.838   62.744    0.301    0.508   25.683
  521.088   64.174    0.286    0.500   24.129
  521.338   70.288    0.269    0.490   21.573
  521.588   73.782    0.249    0.476   20.275
  521.838   75.628    0.235    0.460   17.308
  522.088   77.602    0.220    0.443   15.100
  522.338   82.978    0.216    0.425   13.135
  522.588   86.376    0.219    0.427   11.217
  522.838   90.509    0.209    0.425   10.162
  523.088   93.108    0.202    0.412    9.058
  523.338   94.536    0.223    0.428    8.393
  523.588   96.398    0.238    0.440    7.806
  523.838   96.842    0.231    0.434    7.485
  524.088   90.617    0.222    0.428    7.486
  524.338   88.897    0.217    0.424    7.475
  524.588   88.022    0.213    0.425    7.650
  524.838   89.054    0.229    0.440    8.140
  525.088   89.905    0.246    0.449    8.414
  525.338   92.907    0.233    0.434    8.492
  525.588   88.799    0.224    0.426    8.476
  525.838   61.350    0.217    0.427    8.691
  526.088   50.537    0.208    0.411    9.120
  526.338   44.194    0.196    0.404   10.148
  526.588   36.992    0.190    0.398   10.773
  526.838   34.906    0.192    0.391   11.970
  527.088   36.114    0.258    0.420   12.798
  527.338   38.125    0.292    0.469   13.987
  527.588   38.590    0.303    0.506   14.871
  527.838   37.518    0.310    0.513   14.954
  528.088   37.218    0.299    0.513   14.323
  528.338   37.207    0.281    0.496   13.334
  528.588   37.305    0.282    0.484   11.825
  528.838   38.975    0.298    0.500    9.563
  529.088   38.641    0.308    0.508    8.281
  529.338   35.791    0.312    0.515    7.396
  529.588   33.022    0.324    0.529    6.435
  529.838   31.358    0.332    0.532    5.643
  530.088   30.385    0.321    0.525    4.959
  530.338   33.120    0.312    0.518    4.539
  530.588   41.923    0.301    0.509    4.341
  530.838   54.379    0.278    0.475    4.356
  531.088   54.926    0.218    0.439    4.560
  531.338   43.177    0.223    0.418    4.876
  531.588   34.347    0.254    0.447    5.227
  531.838   31.360    0.280    0.489    5.403
  532.088   33.817    0.297    0.503    5.311
  532.338   37.520    0.292    0.506    5.121
  532.588   45.063    0.286    0.496    5.075
  532.838   53.034    0.275    0.483    5.252
  533.088   59.606    0.222    0.423    5.588
  533.338   67.182    0.211    0.410    6.422
  533.588   60.837    0.199    0.416    6.887
  533.838   48.760    0.226    0.422    6.591
  534.088   37.473    0.284    0.484    5.814
  534.338   26.882    0.319    0.531    5.216
  534.588   25.112    0.328    0.545    4.452
  534.838   27.531    0.320    0.529    4.137
  535.088   32.208    0.311    0.520    3.767
  535.338   37.507    0.295    0.512    3.623
  535.588   42.174    0.284    0.493    3.730
  535.838   46.294    0.268    0.477    4.040
  536.088   47.945    0.257    0.462    4.395
  536.338   51.326    0.261    0.465    4.634
  536.588   59.620    0.263    0.469    5.090
  536.838   64.459    0.256    0.462    5.389
  537.088   70.904    0.236    0.440    5.824
  537.338   82.761    0.215    0.412    6.366
  537.588   75.215    0.202    0.399    6.843
  537.838   57.180    0.201    0.406    7.665
  538.088   47.992    0.210    0.422    9.202
  538.338   38.755    0.207    0.419   10.348
  538.588   32.538    0.186    0.393   12.222
  538.838   40.601    0.181    0.380   13.380
  539.088   45.702    0.203    0.406   13.769
  539.338   52.888    0.226    0.423   12.936
  539.588   61.356    0.245    0.446   11.110
  539.838   68.990    0.255    0.461   10.038
  540.088   73.327    0.250    0.456    8.307
  540.338   61.086    0.255    0.461    7.323
