~VERSION INFORMATION
 VERS.                 2.0:   CWLS LOG ASCII STANDARD -VERSION 2.0
 WRAP.                  NO:   ONE LINE PER DEPTH STEP
~WELL INFORMATION BLOCK
#MNEM.UNIT           DATA                    DESCRIPTION OF MNEMONIC
#---------    -------------------            -------------------------------
# Generated from Intellog Unique Number	CS_69_70/WELL/810
WELL.         HUSKY OIL OPERATIONS           : Well_name    - WELL
LOC .         00/06-36-069-06W4/0            : Location     - LOCATION
UWI .         00/06-36-069-06W4/0            : Uwi          - UNIQUE WELL ID
ENTR.         SP                             : Entered      - ENTERED BY
SRVC.         SCHLUMBERGER                   : Scn          - SERVICE COMPANY
STRT.M        340                            : top_depth    - START DEPTH
STOP.M        585                            : bot_depth    - STOP DEPTH
STEP.M        0.25                           : increment    - STEP LENGTH
 NULL. -999.2500:NULL Value
~CURVE INFORMATION BLOCK
#MNEM UNIT       ERCB CURVE CODE    CURVE DESCRIPTION
#-----------   ------------------   ----------------------------------
DEPT.M        00 001 00 00         : DEPTH        - DEPTH
ILD .OHMM     00 120 00 00         : RESD         - DEEP RESISTIVITY (DIL)
DPHI.V/V      00 890 00 00         : PHID         - DENSITY POROSITY (LIMESTONE)
NPHI.V/V      00 330 00 00         : PHIN         - NEUTRON POROSITY (LIMESTONE)
GR  .API      00 310 00 00         : GR           - GAMMA RAY
~PARAMETER INFORMATION
#MNEM.UNIT           DATA             DESCRIPTION OF MNEMONIC
#---------         -----------     ------------------------------
GL  .M        692.4                : gl           - GROUND LEVEL ELEVATION
EREF.M        696                  : kb           - ELEVATION OF DEPTH REFERENCE
DATM.M        692.4                : datum        - DATUM ELEVATION
TDD .M        592                  : tdd          - TOTAL DEPTH DRILLER
RUN .         ONE                  : Run          - RUN NUMBER
ENG .         BILL                 : Engineer     - RECORDING ENGINEER
WIT .         JIM                  : Witness      - WITNESSED BY
MUD .         GEL                  : Mud_type     - MUD TYPE
MATR.         LIMESTONE            : Logunit      - NEUTRON MATRIX
TMAX.C        25                   : BHT          - MAXIMUM RECORDED TEMPERATURE
BHTD.M        592                  : BHTDEP       - MAXIMUM RECORDED TEMPERATURE
MATR.         1                    : LOGUNIT      - NEUTRON MATRIX
RMT .C        25                   : MDTP         - TEMPERATURE OF MUD
NEUT.         1                    : NEUTRON      - NEUTRON TYPE
RESI.         0                    : RESIST       - RESISTIVITY TYPE
RMC .OHMM     0.25                 : RMC          - RESISTIVITY OF MUD CAKE
RMF .OHMM     0.25                 : RMF          - RESISTIVITY OF MUD FILTRATE
SUFT.C        15                   : SUFT         - SURFACE TEMPERATURE
~A  DEPTH     RESD     PHID     PHIN       GR
# ...
  514.000    9.738    0.302    0.397   90.705
  514.250    8.871    0.295    0.384   93.380
  514.500    7.872    0.283    0.373   95.329
  514.750    7.144    0.271    0.363   94.672
  515.000    7.188    0.256    0.364   92.078
  515.250    7.693    0.247    0.364   90.818
  515.500    8.050    0.241    0.356   90.524
  515.750    8.489    0.229    0.351   88.656
  516.000    8.619    0.220    0.355   82.792
  516.250    8.952    0.227    0.349   85.103
  516.500    9.439    0.218    0.338   88.687
  516.750   10.084    0.209    0.343   87.788
  517.000   10.650    0.204    0.365   79.502
  517.250   11.614    0.244    0.384   71.033
  517.500   13.002    0.249    0.400   60.990
  517.750   15.084    0.261    0.421   52.462
  518.000   17.531    0.299    0.399   42.237
  518.250   20.224    0.321    0.374   49.213
  518.500   22.053    0.326    0.365   54.127
  518.750   23.122    0.318    0.383   56.317
  519.000   22.532    0.313    0.393   60.567
  519.250   17.968    0.306    0.385   66.997
  519.500   13.571    0.290    0.378   73.486
  519.750    9.928    0.271    0.376   78.644
  520.000    7.799    0.262    0.369   80.592
  520.250    7.039    0.273    0.358   82.600
  520.500    6.732    0.262    0.351   85.820
  520.750    6.623    0.245    0.353   88.919
  521.000    6.690    0.236    0.355   89.049
  521.250    6.779    0.255    0.349   87.001
  521.500    7.351    0.261    0.345   85.194
  521.750    8.804    0.255    0.344   78.482
  522.000   11.365    0.249    0.346   72.254
  522.250   15.116    0.248    0.350   67.481
  522.500   22.670    0.257    0.365   61.071
  522.750   28.935    0.299    0.390   56.720
  523.000   38.706    0.335    0.407   51.159
  523.250   50.910    0.334    0.421   47.112
  523.500   57.529    0.281    0.383   42.702
  523.750   59.750    0.018    0.277   40.228
  524.000   42.583   -0.039    0.180   37.573
  524.250   30.401   -0.043    0.155   42.066
  524.500   20.404    0.150    0.266   52.492
  524.750   17.021    0.245    0.300   60.132
  525.000   15.046    0.279    0.328   65.594
  525.250   13.784    0.282    0.359   68.510
  525.500   13.060    0.281    0.367   68.943
  525.750   11.988    0.273    0.368   68.651
  526.000   11.315    0.269    0.360   68.116
  526.250   10.406    0.263    0.354   68.732
  526.500    9.516    0.265    0.356   72.860
  526.750    9.202    0.279    0.369   79.228
  527.000    8.654    0.289    0.378   85.476
  527.250    8.261    0.274    0.376   92.814
  527.500    8.051    0.238    0.373   96.942
  527.750    9.166    0.226    0.376   98.163
  528.000   12.354    0.222    0.369   97.931
  528.250   17.978    0.213    0.354   84.194
  528.500   28.628    0.214    0.354   67.550
  528.750   42.452    0.261    0.378   55.630
  529.000   57.429    0.299    0.388   47.041
  529.250   71.808    0.324    0.369   40.449
  529.500   78.017    0.318    0.356   37.736
  529.750   72.545    0.320    0.355   38.653
  530.000   42.385    0.329    0.351   41.328
  530.250   22.213    0.325    0.345   50.543
  530.500   15.134    0.280    0.336   63.270
  530.750   11.734    0.244    0.331   72.062
  531.000    9.843    0.234    0.329   73.525
  531.250    9.308    0.234    0.334   71.541
  531.500    9.260    0.247    0.351   70.459
  531.750    9.265    0.274    0.368   68.348
  532.000    9.587    0.287    0.366   64.178
  532.250   10.280    0.273    0.352   62.978
  532.500   10.939    0.252    0.340   65.653
  532.750   11.974    0.240    0.333   67.603
  533.000   13.762    0.245    0.364   68.398
  533.250   17.306    0.299    0.410   55.569
  533.500   20.340    0.327    0.425   47.040
  533.750   23.375    0.343    0.412   48.324
  534.000   25.395    0.345    0.405   55.903
  534.250   25.029    0.341    0.387   62.574
  534.500   19.443    0.338    0.379   67.732
  534.750   14.547    0.333    0.393   71.133
  535.000   10.783    0.317    0.386   73.686
  535.250    8.877    0.282    0.360   77.755
  535.500    8.148    0.236    0.338   81.155
  535.750    8.105    0.215    0.340   83.709
  536.000    8.498    0.219    0.353   70.517
  536.250    9.822    0.235    0.349   59.566
  536.500   10.452    0.250    0.335   73.506
  536.750   11.041    0.197    0.349   84.052
  537.000   11.234    0.172    0.360   94.175
  537.250   10.887    0.162    0.361  103.451
  537.500   10.629    0.164    0.361   95.408
  537.750   10.225    0.181    0.354   87.181
  538.000   10.152    0.190    0.340   79.500
  538.250   10.194    0.183    0.337   70.971
  538.500   10.568    0.163    0.348   63.411
  538.750   11.289    0.247    0.329   56.155
  539.000   12.662    0.282    0.329   51.562
  539.250   13.077    0.313    0.347   43.640
  539.500   12.002    0.312    0.365   62.664
  539.750   10.954    0.267    0.352   99.555
  540.000   10.205    0.224    0.388  107.498
  540.250    9.262    0.202    0.385   97.579
  540.500    8.421    0.194    0.354   90.925
  540.750    8.040    0.198    0.388   79.611
  541.000    8.119    0.226    0.407   71.688
  541.250    8.338    0.249    0.376   67.883
  541.500    8.579    0.276    0.351   84.245
  541.750    8.779    0.215    0.351   90.975
  542.000    8.899    0.185    0.380   83.901
  542.250    8.986    0.157    0.372   78.944
  542.500    9.024    0.123    0.342   85.071
  542.750    8.994    0.152    0.362   89.138
  543.000    8.864    0.227    0.387   92.117
  543.250    8.751    0.255    0.357   85.465
  543.500    8.594    0.238    0.333  102.855
  543.750    8.596    0.208    0.357  115.765
  544.000    8.879    0.189    0.396  113.535
  544.250   10.397    0.217    0.444   94.529
  544.500   12.687    0.276    0.418   73.524
  544.750   13.966    0.301    0.393   64.450
  545.000   14.505    0.316    0.373   67.671
  545.250   13.797    0.301    0.356   72.343
  545.500   12.591    0.272    0.342   75.806
  545.750   11.448    0.259    0.336   77.147
  546.000   10.546    0.257    0.333   70.132
  546.250    9.955    0.279    0.370   63.966
  546.500    9.504    0.301    0.406   59.555
  546.750    9.210    0.327    0.406   58.354
  547.000    9.214    0.299    0.382   69.931
  547.250    9.517    0.256    0.333   81.508
  547.500    9.646    0.229    0.322   87.755
  547.750    9.561    0.227    0.344   84.132
  548.000    9.387    0.270    0.359   83.234
  548.250    9.114    0.294    0.373   95.961
  548.500    9.032    0.299    0.381  104.813
  548.750    9.155    0.285    0.380  100.100
  549.000    9.438    0.273    0.358   90.905
  549.250    9.840    0.261    0.330   78.984
  549.500   10.336    0.255    0.321   71.243
  549.750   10.496    0.249    0.326   69.316
  550.000   10.171    0.230    0.318   72.779
  550.250    9.876    0.240    0.343   67.974
  550.500    9.465    0.264    0.351   65.785
  550.750    9.156    0.279    0.353   67.003
  551.000    8.942    0.278    0.350   67.309
  551.250    8.813    0.282    0.348   65.120
  551.500    8.834    0.290    0.355   87.211
  551.750    9.123    0.298    0.366   97.314
  552.000    9.708    0.306    0.369  100.116
  552.250   10.565    0.293    0.377  101.334
  552.500   11.520    0.266    0.395  101.397
  552.750   12.190    0.232    0.412   98.234
  553.000   12.803    0.198    0.442  100.487
  553.250   13.173    0.214    0.438  105.236
  553.500   13.529    0.203    0.428  105.237
  553.750   13.663    0.195    0.438  104.570
  554.000   13.773    0.201    0.432  109.318
  554.250   13.988    0.206    0.436  110.963
  554.500   14.204    0.199    0.445  109.747
  554.750   14.371    0.195    0.450  109.140
  555.000   14.487    0.193    0.461  109.812
  555.250   14.305    0.193    0.476  108.718
  555.500   13.891    0.192    0.461  103.608
  555.750   13.262    0.194    0.451   95.516
  556.000   11.512    0.222    0.464   86.634
  556.250   10.510    0.243    0.452   77.873
  556.500    9.417    0.265    0.435   67.408
  556.750    8.328    0.293    0.431   58.525
  557.000    7.434    0.320    0.409   46.783
  557.250    6.967    0.333    0.395   47.028
