~VERSION INFORMATION
 VERS.                 2.0:   CWLS LOG ASCII STANDARD -VERSION 2.0
 WRAP.                  NO:   ONE LINE PER DEPTH STEP
~WELL INFORMATION BLOCK
#MNEM.UNIT           DATA                    DESCRIPTION OF MNEMONIC
#---------    -------------------            -------------------------------
# Generated from Intellog Unique Number	CW_76_78/WELL/549
WELL.         07-04-077-04W5                 : Well_name    - WELL
LOC .         00/07-04-077-04W5/0            : Location     - LOCATION
UWI .         00/07-04-077-04W5/0            : Uwi          - UNIQUE WELL ID
ENTR.         JAYE                           : Entered      - ENTERED BY
SRVC.         SCHLUMBERGER                   : Scn          - SERVICE COMPANY
DATE.         11 MAR 75                      : Date         - LOG DATE
STRT.M        432.816                        : top_depth    - START DEPTH
STOP.M        658.316                        : bot_depth    - STOP DEPTH
STEP.M        0.25                           : increment    - STEP LENGTH
 NULL. -999.2500:NULL Value
~CURVE INFORMATION BLOCK
#MNEM UNIT       ERCB CURVE CODE    CURVE DESCRIPTION
#-----------   ------------------   ----------------------------------
DEPT.M        00 001 00 00         : DEPTH        - DEPTH
DPHI.V/V      00 890 00 00         : PHID         - DENSITY POROSITY (SANDSTONE)
NPHI.V/V      00 330 00 00         : PHIN         - NEUTRON POROSITY (SANDSTONE)
GR  .API      00 310 00 00         : GR           - GAMMA RAY
CALI.MM       00 280 01 00         : CAL          - CALIPER
ILD .OHMM     00 120 00 00         : RESD         - DEEP RESISTIVITY (DIL)
~PARAMETER INFORMATION
#MNEM.UNIT           DATA             DESCRIPTION OF MNEMONIC
#---------         -----------     ------------------------------
GL  .M        726.338              : gl           - GROUND LEVEL ELEVATION
EREF.M        729.905              : kb           - ELEVATION OF DEPTH REFERENCE
DATM.M        726.338              : datum        - DATUM ELEVATION
TDD .M        670.255              : tdd          - TOTAL DEPTH DRILLER
RUN .         ONE                  : Run          - RUN NUMBER
ENG .         SMILEY               : Engineer     - RECORDING ENGINEER
WIT .         KIS/STEIDEL          : Witness      - WITNESSED BY
BASE.         EDMONTON             : Branch       - HOME BASE OF LOGGING UNIT
MUD .         GEL CHEM             : Mud_type     - MUD TYPE
MATR.         SANDSTONE            : Logunit      - NEUTRON MATRIX
TMAX.C        26.1111              : BHT          - MAXIMUM RECORDED TEMPERATURE
BHTD.M        670.865              : BHTDEP       - MAXIMUM RECORDED TEMPERATURE
RMT .C        16.1111              : MDTP         - TEMPERATURE OF MUD
MUDD.KG/M     1128                 : MWT          - MUD DENSITY
NEUT.         1                    : NEUTRON      - NEUTRON TYPE
RESI.         0                    : RESIST       - RESISTIVITY TYPE
RM  .OHMM     3.16                 : RM           - RESISTIVITY OF MUD
RMC .OHMM     5.23                 : RMC          - RESISTIVITY OF MUD CAKE
RMF .OHMM     4.07                 : RMF          - RESISTIVITY OF MUD FILTRATE
SUFT.C        4.5                  : SUFT         - SURFACE TEMPERATURE
~A  DEPTH     PHID     PHIN       GR      CAL     RESD
# ...
  505.816    0.021    0.190   56.771  161.267   17.456
  506.066    0.023    0.205   60.357  161.219   15.064
  506.316    0.038    0.236   64.192  161.177   11.666
  506.566    0.095    0.318   69.376  161.227    8.985
  506.816    0.124    0.359   76.763  161.284    5.813
  507.066    0.256    0.427   83.907  161.139    4.731
  507.316    0.284    0.485   82.043  161.194    4.097
  507.566    0.296    0.469   80.604  160.936    3.890
  507.816    0.303    0.480   80.883  161.824    3.782
  508.066    0.280    0.471   82.386  162.299    3.731
  508.316    0.266    0.479   86.528  163.189    3.743
  508.566    0.272    0.487   91.221  163.866    3.775
  508.816    0.266    0.479   94.503  164.857    3.800
  509.066    0.259    0.471   93.986  166.158    3.784
  509.316    0.264    0.488   95.492  168.185    3.748
  509.566    0.272    0.486   97.916  169.703    3.725
  509.816    0.265    0.484   98.011  170.065    3.709
  510.066    0.254    0.492   99.268  169.502    3.680
  510.316    0.256    0.503  102.309  168.726    3.644
  510.566    0.268    0.503  104.240  168.053    3.608
  510.816    0.267    0.493  104.825  167.910    3.613
  511.066    0.261    0.481  104.433  168.898    3.624
  511.316    0.256    0.464  104.588  170.204    3.628
  511.566    0.258    0.458  104.373  170.257    3.653
  511.816    0.260    0.458  101.280  168.341    3.671
  512.066    0.256    0.451   99.721  166.530    3.703
  512.316    0.257    0.442   99.143  167.522    3.741
  512.566    0.245    0.442   97.091  169.237    3.760
  512.816    0.223    0.468   97.249  169.716    3.757
  513.066    0.232    0.484   98.322  169.769    3.714
  513.316    0.230    0.507   99.461  170.551    3.658
  513.566    0.232    0.512   99.676  171.331    3.609
  513.816    0.234    0.508  100.204  172.530    3.580
  514.066    0.237    0.503  102.382  172.698    3.571
  514.316    0.233    0.507  102.722  172.232    3.550
  514.566    0.230    0.527  101.161  172.708    3.554
  514.816    0.225    0.541  102.604  174.838    3.605
  515.066    0.238    0.549   96.140  172.088    3.689
  515.316    0.283    0.535   79.377  162.497    3.797
  515.566    0.310    0.479   73.955  161.823    3.887
  515.816    0.305    0.497   76.318  163.338    3.978
  516.066    0.309    0.502   80.029  163.603    4.012
  516.316    0.297    0.491   83.253  162.517    4.010
  516.566    0.295    0.484   79.794  162.676    4.007
  516.816    0.296    0.500   79.948  163.049    3.968
  517.066    0.301    0.505   79.798  162.891    3.930
  517.316    0.310    0.496   78.359  162.440    3.913
  517.566    0.313    0.490   77.601  163.112    3.903
  517.816    0.305    0.484   79.535  164.103    3.887
  518.066    0.302    0.478   81.772  164.789    3.885
  518.316    0.288    0.470   84.194  164.421    3.896
  518.566    0.281    0.460   84.719  163.025    3.901
  518.816    0.262    0.474   84.324  162.563    3.877
  519.066    0.285    0.480   82.580  162.205    3.840
  519.316    0.297    0.475   79.916  162.261    3.802
  519.566    0.287    0.463   79.948  163.573    3.786
  519.816    0.283    0.457   81.640  163.730    3.798
  520.066    0.270    0.459   83.756  164.300    3.845
  520.316    0.269    0.462   85.873  165.090    3.850
  520.566    0.269    0.466   89.342  165.766    3.770
  520.816    0.266    0.472   92.623  166.549    3.768
  521.066    0.260    0.486   93.084  166.707    3.857
  521.316    0.247    0.484   92.200  167.497    3.947
  521.566    0.230    0.478   93.154  168.585    3.989
  521.816    0.251    0.475   94.168  170.199    4.053
  522.066    0.252    0.476   94.509  171.815    4.140
  522.316    0.238    0.482   94.847  173.015    4.168
  522.566    0.224    0.491   93.776  173.806    4.204
  522.816    0.231    0.505   93.567  173.651    4.202
  523.066    0.231    0.516   94.334  172.457    4.161
  523.316    0.225    0.515   90.995  170.131    4.128
  523.566    0.217    0.514   90.910  168.215    4.126
  523.816    0.219    0.515   92.596  166.611    4.116
  524.066    0.228    0.502   95.019  164.697    4.120
  524.316    0.223    0.468   95.053  164.333    4.134
  524.566    0.218    0.468   87.426  164.805    4.154
  524.816    0.245    0.467   82.315  165.389    4.144
  525.066    0.278    0.467   80.505  164.922    4.111
  525.316    0.307    0.458   78.698  162.074    4.138
  525.566    0.287    0.482   75.608  161.506    4.182
  525.816    0.297    0.488   69.941  161.875    4.249
  526.066    0.286    0.476   61.820  162.554    4.389
  526.316    0.286    0.480   61.793  162.923    4.559
  526.566    0.282    0.470   63.976  162.461    4.761
  526.816    0.276    0.461   66.093  162.099    4.991
  527.066    0.277    0.466   67.412  161.645    5.289
  527.316    0.295    0.475   68.060  161.492    5.514
  527.566    0.300    0.481   67.911  161.131    5.634
  527.816    0.301    0.481   67.514  161.083    5.692
  528.066    0.298    0.467   67.548  161.040    5.679
  528.316    0.288    0.462   68.197  161.198    5.623
  528.566    0.285    0.458   69.146  161.773    5.579
  528.816    0.279    0.450   70.281  162.353    5.545
  529.066    0.275    0.454   72.645  162.715    5.480
  529.316    0.285    0.466   73.662  163.295    5.457
  529.566    0.284    0.470   73.203  163.561    5.474
  529.816    0.263    0.471   71.950  163.614    5.501
  530.066    0.251    0.468   70.451  163.255    5.559
  530.316    0.236    0.427   68.215  162.692    5.700
  530.566    0.113    0.357   65.309  162.231    6.119
  530.816    0.069    0.207   61.971  161.974    6.790
  531.066    0.022    0.179   60.285  162.240    7.758
  531.316    0.051    0.214   61.302  162.405    8.833
  531.566    0.084    0.307   63.481  162.667    8.763
  531.816    0.090    0.314   66.518  161.582    7.223
  532.066    0.070    0.296   70.046  160.907    6.210
  532.316    0.122    0.331   76.146  159.929    5.252
  532.566    0.163    0.438   76.609  159.258    4.549
  532.816    0.270    0.475   74.312  158.695    4.202
  533.066    0.284    0.457   73.552  158.333    3.810
  533.316    0.272    0.452   77.446  157.666    3.512
  533.566    0.266    0.447   83.793  157.201    3.402
  533.816    0.269    0.436   87.994  157.362    3.357
  534.066    0.229    0.475   92.993  161.675    3.367
  534.316    0.201    0.509   97.258  168.169    3.390
  534.566    0.225    0.498  100.111  167.706    3.394
  534.816    0.229    0.494  101.431  163.817    3.429
  535.066    0.226    0.485   96.375  162.112    3.472
  535.316    0.210    0.476   95.307  163.723    3.593
  535.566    0.212    0.491   96.261  166.586    3.678
  535.816    0.219    0.474   94.884  167.792    3.757
  536.066    0.217    0.476   93.017  168.673    3.824
  536.316    0.226    0.487   92.131  169.980    3.914
  536.566    0.217    0.486   92.904  171.794    3.963
  536.816    0.202    0.480   92.567  172.369    3.960
  537.066    0.207    0.470   90.944  170.663    3.958
  537.316    0.212    0.465   88.037  169.163    3.963
  537.566    0.213    0.467   86.048  167.557    3.961
  537.816    0.224    0.468   85.038  164.398    3.987
  538.066    0.242    0.468   84.585  161.339    3.984
  538.316    0.253    0.458   85.106  159.530    3.953
  538.566    0.243    0.455   86.122  159.896    3.915
  538.816    0.222    0.489   86.281  160.372    3.870
  539.066    0.244    0.510   85.210  159.287    3.832
  539.316    0.259    0.510   81.624  156.749    3.816
  539.566    0.273    0.480   77.797  155.873    3.863
  539.816    0.297    0.482   73.783  155.717    3.939
  540.066    0.299    0.489   71.243  157.124    4.017
  540.316    0.287    0.484   69.932  158.951    4.089
  540.566    0.274    0.473   71.431  160.455    4.170
  540.816    0.261    0.456   75.817  162.177    4.221
  541.066    0.247    0.461   83.575  163.584    4.257
  541.316    0.235    0.491   90.474  163.327    4.255
  541.566    0.228    0.498   93.573  161.725    4.252
  541.816    0.224    0.502   92.687  161.056    4.273
  542.066    0.241    0.499   91.312  160.284    4.318
