~VERSION INFORMATION
 VERS.                 2.0:   CWLS LOG ASCII STANDARD -VERSION 2.0
 WRAP.                  NO:   ONE LINE PER DEPTH STEP
~WELL INFORMATION BLOCK
#MNEM.UNIT           DATA                    DESCRIPTION OF MNEMONIC
#---------    -------------------            -------------------------------
# Generated from Intellog Unique Number	CS_67_68/WELL/2187
WELL.         08-29-067-07W4                 : Well_name    - WELL
LOC .         00/08-29-067-07W4/0            : Location     - LOCATION
UWI .         00/08-29-067-07W4/0            : Uwi          - UNIQUE WELL ID
ENTR.         SP                             : Entered      - ENTERED BY
SRVC.         SCHLUMBERGER                   : Scn          - SERVICE COMPANY
STRT.M        365                            : top_depth    - START DEPTH
STOP.M        595                            : bot_depth    - STOP DEPTH
STEP.M        0.25                           : increment    - STEP LENGTH
 NULL. -999.2500:NULL Value
~CURVE INFORMATION BLOCK
#MNEM UNIT       ERCB CURVE CODE    CURVE DESCRIPTION
#-----------   ------------------   ----------------------------------
DEPT.M        00 001 00 00         : DEPTH        - DEPTH
ILD .OHMM     00 120 00 00         : RESD         - DEEP RESISTIVITY (DIL)
DPHI.V/V      00 890 00 00         : PHID         - DENSITY POROSITY (LIMESTONE)
NPHI.V/V      00 330 00 00         : PHIN         - NEUTRON POROSITY (LIMESTONE)
GR  .API      00 310 00 00         : GR           - GAMMA RAY
CALI.MM       00 280 01 00         : CAL          - CALIPER
~PARAMETER INFORMATION
#MNEM.UNIT           DATA             DESCRIPTION OF MNEMONIC
#---------         -----------     ------------------------------
GL  .M        686.24               : gl           - GROUND LEVEL ELEVATION
EREF.M        690.14               : kb           - ELEVATION OF DEPTH REFERENCE
DATM.M        690.14               : datum        - DATUM ELEVATION
TDD .M        612                  : tdd          - TOTAL DEPTH DRILLER
RUN .         ONE                  : Run          - RUN NUMBER
ENG .         BILL                 : Engineer     - RECORDING ENGINEER
WIT .         JIM                  : Witness      - WITNESSED BY
MUD .         GEL                  : Mud_type     - MUD TYPE
MATR.         LIMESTONE            : Logunit      - NEUTRON MATRIX
TMAX.C        25                   : BHT          - MAXIMUM RECORDED TEMPERATURE
BHTD.M        612                  : BHTDEP       - MAXIMUM RECORDED TEMPERATURE
MATR.         1                    : LOGUNIT      - NEUTRON MATRIX
RMT .C        25                   : MDTP         - TEMPERATURE OF MUD
NEUT.         1                    : NEUTRON      - NEUTRON TYPE
RESI.         0                    : RESIST       - RESISTIVITY TYPE
RMC .OHMM     0.25                 : RMC          - RESISTIVITY OF MUD CAKE
RMF .OHMM     0.25                 : RMF          - RESISTIVITY OF MUD FILTRATE
SUFT.C        15                   : SUFT         - SURFACE TEMPERATURE
~A  DEPTH     RESD     PHID     PHIN       GR      CAL
# ...
  401.500   19.083    0.000    0.123   62.486  171.457
  401.750   19.335    0.003    0.117   62.002  171.581
  402.000   17.822    0.100    0.183   70.668  171.498
  402.250   14.666    0.239    0.320   75.563  171.106
  402.500   11.424    0.289    0.400   80.147  170.715
  402.750    9.508    0.301    0.422   84.363  170.632
  403.000    7.706    0.294    0.433   86.909  170.656
  403.250    6.152    0.283    0.439   89.393  170.364
  403.500    5.278    0.274    0.443   93.484  170.075
  403.750    4.958    0.268    0.457   98.937  169.788
  404.000    4.828    0.271    0.450  102.782  169.499
  404.250    4.845    0.271    0.445  105.636  169.417
  404.500    4.900    0.265    0.441  107.316  169.229
  404.750    4.965    0.267    0.438  106.895  168.838
  405.000    5.031    0.274    0.439  105.919  169.271
  405.250    5.049    0.264    0.451  102.779  171.454
  405.500    4.991    0.253    0.465  108.726  177.554
  405.750    4.815    0.245    0.460  112.692  182.414
  406.000    4.600    0.271    0.456  110.173  188.305
  406.250    4.446    0.283    0.463  108.763  194.403
  406.500    4.240    0.264    0.478  111.680  193.393
  406.750    4.137    0.260    0.491  115.709  188.676
  407.000    4.082    0.281    0.483  118.689  181.899
  407.250    4.136    0.279    0.476  120.368  177.283
  407.500    4.311    0.264    0.473  119.022  169.375
  407.750    4.477    0.252    0.487  115.077  164.758
  408.000    4.613    0.269    0.488  111.010  163.850
  408.250    4.701    0.278    0.472  105.832  163.151
  408.500    4.790    0.290    0.468  101.271  162.655
  408.750    4.863    0.315    0.464   97.512  162.676
  409.000    4.927    0.328    0.454   94.001  162.491
  409.250    5.021    0.330    0.445   95.745  162.820
  409.500    5.126    0.326    0.445   96.066  163.149
  409.750    5.223    0.335    0.447   84.335  162.551
  410.000    5.302    0.321    0.452   88.058  162.471
  410.250    5.382    0.295    0.451   90.479  162.695
  410.500    5.463    0.280    0.438   90.862  162.511
  410.750    5.546    0.269    0.429   92.358  162.840
  411.000    5.598    0.273    0.443   92.988  164.096
  411.250    5.555    0.298    0.445   88.243  164.837
  411.500    5.461    0.321    0.423   81.146  165.168
  411.750    5.287    0.332    0.400   72.691  164.982
  412.000    5.139    0.335    0.388   63.989  164.693
  412.250    5.013    0.332    0.383   56.646  163.684
  412.500    4.956    0.331    0.387   58.574  162.366
  412.750    4.909    0.334    0.395   61.429  162.181
  413.000    4.881    0.337    0.405   64.594  162.099
  413.250    4.825    0.341    0.416   67.884  161.707
  413.500    4.797    0.346    0.425   69.687  161.110
  413.750    4.779    0.352    0.433   71.059  160.717
  414.000    4.724    0.351    0.439   72.121  161.148
  414.250    4.688    0.347    0.431   73.865  161.482
  414.500    4.687    0.336    0.423   75.669  161.809
  414.750    4.687    0.329    0.432   77.287  161.831
  415.000    4.704    0.336    0.444   78.724  161.745
  415.250    4.748    0.339    0.450   77.251  161.869
  415.500    4.784    0.336    0.444   77.140  161.993
  415.750    4.810    0.331    0.440   80.676  162.323
  416.000    4.846    0.353    0.444   82.727  162.136
  416.250    4.901    0.367    0.445   83.542  162.260
  416.500    4.938    0.353    0.450   78.239  162.488
  416.750    4.928    0.344    0.467   74.914  162.820
  417.000    4.881    0.350    0.476   66.892  163.144
  417.250    4.789    0.354    0.463   62.949  163.475
  417.500    4.699    0.349    0.449   63.271  163.703
  417.750    4.610    0.346    0.441   64.705  163.722
  418.000    4.583    0.340    0.434   65.644  163.539
  418.250    4.609    0.333    0.424   65.532  163.354
  418.500    4.643    0.326    0.419   65.668  163.267
  418.750    4.678    0.322    0.430   68.214  163.186
  419.000    4.731    0.321    0.440   68.906  163.205
  419.250    4.766    0.322    0.436   66.015  163.537
  419.500    4.811    0.324    0.427   64.913  163.555
  419.750    4.847    0.326    0.424   67.027  163.267
  420.000    4.837    0.328    0.424   69.078  163.186
  420.250    4.846    0.324    0.425   71.316  163.105
  420.500    4.836    0.319    0.429   73.120  163.122
  420.750    4.808    0.322    0.435   75.110  163.046
  421.000    4.762    0.326    0.455   77.657  163.163
  421.250    4.735    0.328    0.466   80.699  163.289
  421.500    4.734    0.322    0.440   84.172  163.102
  421.750    4.734    0.318    0.423   88.140  162.918
  422.000    4.724    0.314    0.411   90.376  162.730
  422.250    4.733    0.310    0.406   89.710  162.547
  422.500    4.768    0.309    0.418   87.744  162.567
  422.750    4.804    0.309    0.431   83.428  162.483
  423.000    4.904    0.308    0.445   82.143  162.404
  423.250    4.978    0.305    0.439   87.594  162.317
  423.500    5.054    0.300    0.427   92.118  162.545
  423.750    5.130    0.293    0.414   96.210  162.360
  424.000    5.208    0.284    0.418   99.868  162.586
  424.250    5.377    0.275    0.435  103.835  162.609
  424.500    5.511    0.268    0.451  106.567  163.040
  424.750    5.626    0.262    0.465  103.984  163.682
  425.000    5.700    0.255    0.477  100.597  164.007
  425.250    5.764    0.265    0.457   98.199  164.541
  425.500    5.786    0.275    0.431  101.735  164.974
  425.750    5.796    0.280    0.414  104.589  166.127
  426.000    5.828    0.278    0.406  105.715  167.489
  426.250    5.883    0.277    0.398  103.379  168.640
  426.500    6.017    0.278    0.390  105.244  171.854
  426.750    6.178    0.268    0.395  108.655  175.995
  427.000    6.355    0.256    0.425  109.842  180.445
  427.250    6.463    0.239    0.428  111.585  186.647
  427.500    6.561    0.245    0.417  114.505  192.949
  427.750    6.610    0.247    0.407  116.306  193.896
  428.000    6.698    0.235    0.446  116.568  182.689
  428.250    6.876    0.246    0.465  112.438  174.161
  428.500    6.941    0.259    0.440  107.569  169.341
  428.750    7.006    0.269    0.414  103.131  167.608
  429.000    6.939    0.259    0.394  104.257  165.672
  429.250    6.783    0.251    0.379  107.480  164.868
  429.500    6.706    0.241    0.397  104.898  164.273
  429.750    6.567    0.264    0.416   97.926  164.086
  430.000    6.406    0.282    0.395   91.881  164.004
  430.250    6.274    0.296    0.377   93.376  164.131
  430.500    6.098    0.279    0.386  101.177  164.250
  430.750    6.028    0.259    0.416  107.554  164.476
  431.000    5.903    0.246    0.393   95.020  164.601
  431.250    5.705    0.268    0.396   81.744  164.520
  431.500    5.461    0.310    0.393   70.694  164.436
  431.750    5.160    0.323    0.383   66.256  164.354
  432.000    4.847    0.319    0.383   71.398  164.377
  432.250    4.666    0.310    0.393   75.675  164.395
  432.500    4.613    0.303    0.383   72.412  164.104
  432.750    4.586    0.297    0.370   69.581  163.815
  433.000    4.586    0.292    0.359   69.469  163.735
  433.250    4.629    0.288    0.376   74.611  163.754
  433.500    4.646    0.288    0.376   79.444  163.982
  433.750    4.690    0.291    0.378   82.361  164.106
  434.000    4.760    0.291    0.391   85.465  164.127
  434.250    4.832    0.282    0.383   88.814  164.353
  434.500    4.896    0.272    0.374   91.484  164.475
  434.750    4.961    0.262    0.367   88.159  164.600
  435.000    4.998    0.273    0.373   87.802  164.826
  435.250    5.035    0.284    0.384   91.830  164.951
  435.500    5.044    0.290    0.385   96.168  164.969
  435.750    5.034    0.275    0.390   93.708  165.302
  436.000    5.053    0.270    0.398   95.080  165.318
  436.250    5.081    0.278    0.395   97.750  165.545
  436.500    5.090    0.286    0.384   92.697  165.566
  436.750    5.128    0.280    0.374   93.510  165.690
  437.000    5.225    0.263    0.379   99.332  165.818
  437.250    5.385    0.246    0.376  106.329  166.040
  437.500    5.274    0.233    0.383  110.048  166.268
  437.750    5.283    0.285    0.397  102.954  166.284
