~VERSION INFORMATION
 VERS.                 2.0:   CWLS LOG ASCII STANDARD -VERSION 2.0
 WRAP.                  NO:   ONE LINE PER DEPTH STEP
~WELL INFORMATION BLOCK
#MNEM.UNIT           DATA                    DESCRIPTION OF MNEMONIC
#---------    -------------------            -------------------------------
# Generated from Intellog Unique Number	CS_71_72/WELL/843
WELL.         AEC IPIATIK NOVEMBER           : Well_name    - WELL
LOC .         00/09-14-071-06W4/0            : Location     - LOCATION
UWI .         00/09-14-071-06W4/0            : Uwi          - UNIQUE WELL ID
ENTR.         SP                             : Entered      - ENTERED BY
SRVC.         SCHLUMBERGER                   : Scn          - SERVICE COMPANY
STRT.M        305                            : top_depth    - START DEPTH
STOP.M        525                            : bot_depth    - STOP DEPTH
STEP.M        0.25                           : increment    - STEP LENGTH
 NULL. -999.2500:NULL Value
~CURVE INFORMATION BLOCK
#MNEM UNIT       ERCB CURVE CODE    CURVE DESCRIPTION
#-----------   ------------------   ----------------------------------
DEPT.M        00 001 00 00         : DEPTH        - DEPTH
ILD .OHMM     00 120 00 00         : RESD         - DEEP RESISTIVITY (DIL)
DPHI.V/V      00 890 00 00         : PHID         - DENSITY POROSITY (LIMESTONE)
NPHI.V/V      00 330 00 00         : PHIN         - NEUTRON POROSITY (LIMESTONE)
GR  .API      00 310 00 00         : GR           - GAMMA RAY
~PARAMETER INFORMATION
#MNEM.UNIT           DATA             DESCRIPTION OF MNEMONIC
#---------         -----------     ------------------------------
GL  .M        672.05               : gl           - GROUND LEVEL ELEVATION
EREF.M        676.32               : kb           - ELEVATION OF DEPTH REFERENCE
DATM.M        672.05               : datum        - DATUM ELEVATION
TDD .M        566.79               : tdd          - TOTAL DEPTH DRILLER
RUN .         ONE                  : Run          - RUN NUMBER
ENG .         BILL                 : Engineer     - RECORDING ENGINEER
WIT .         JIM                  : Witness      - WITNESSED BY
MUD .         GEL                  : Mud_type     - MUD TYPE
MATR.         LIMESTONE            : Logunit      - NEUTRON MATRIX
TMAX.C        27                   : BHT          - MAXIMUM RECORDED TEMPERATURE
BHTD.M        566.79               : BHTDEP       - MAXIMUM RECORDED TEMPERATURE
MATR.         1                    : LOGUNIT      - NEUTRON MATRIX
RMT .C        25                   : MDTP         - TEMPERATURE OF MUD
NEUT.         1                    : NEUTRON      - NEUTRON TYPE
RESI.         0                    : RESIST       - RESISTIVITY TYPE
RMC .OHMM     0.25                 : RMC          - RESISTIVITY OF MUD CAKE
RMF .OHMM     0.25                 : RMF          - RESISTIVITY OF MUD FILTRATE
SUFT.C        15                   : SUFT         - SURFACE TEMPERATURE
~A  DEPTH     RESD     PHID     PHIN       GR
# ...
  392.000    5.126    0.221    0.474   85.851
  392.250    5.334    0.240    0.476   81.577
  392.500    5.581    0.261    0.467   75.488
  392.750    5.796    0.268    0.460   72.427
  393.000    6.099    0.272    0.465   71.604
  393.250    6.335    0.283    0.461   72.360
  393.500    6.411    0.281    0.468   71.536
  393.750    6.354    0.277    0.478   69.381
  394.000    6.321    0.274    0.489   65.532
  394.250    6.335    0.290    0.503   62.769
  394.500    6.531    0.308    0.477   59.287
  394.750    6.950    0.318    0.453   57.312
  395.000    7.286    0.316    0.453   56.308
  395.250    7.525    0.310    0.455   55.492
  395.500    7.713    0.308    0.447   55.510
  395.750    7.746    0.310    0.456   56.874
  396.000    7.650    0.311    0.462   58.164
  396.250    7.513    0.309    0.463   59.703
  396.500    7.243    0.301    0.457   64.271
  396.750    7.111    0.299    0.454   70.353
  397.000    6.363    0.238    0.463   75.158
  397.250    5.607    0.231    0.476   78.939
  397.500    4.717    0.239    0.495   80.718
  397.750    4.430    0.255    0.513   83.228
  398.000    4.391    0.266    0.485   87.189
  398.250    4.272    0.209    0.481   93.209
  398.500    4.149    0.183    0.492   97.775
  398.750    3.991    0.202    0.505  100.341
  399.000    3.714    0.214    0.511  101.700
  399.250    3.488    0.212    0.522  101.725
  399.500    3.331    0.219    0.539  100.903
  399.750    3.252    0.226    0.547   99.537
  400.000    3.038    0.233    0.556   98.409
  400.250    2.939    0.243    0.564   96.862
  400.500    2.902    0.251    0.559   94.950
  400.750    2.882    0.261    0.551   93.463
  401.000    2.883    0.265    0.546   92.214
  401.250    2.907    0.258    0.554   93.088
  401.500    2.936    0.261    0.565   95.776
  401.750    2.651    0.271    0.565   97.922
  402.000    2.667    0.270    0.582   98.491
  402.250    2.688    0.259    0.596   97.245
  402.500    2.761    0.240    0.586   94.066
  402.750    2.820    0.225    0.561   90.878
  403.000    2.984    0.223    0.542   85.940
  403.250    3.193    0.222    0.524   80.881
  403.500    3.593    0.226    0.501   77.761
  403.750    4.438    0.238    0.485   77.359
  404.000    5.351    0.236    0.473   78.169
  404.250    5.910    0.214    0.464   78.256
  404.500    6.081    0.201    0.480   77.494
  404.750    6.039    0.225    0.504   76.370
  405.000    6.099    0.251    0.511   74.342
  405.250    6.265    0.272    0.495   73.096
  405.500    6.326    0.272    0.503   72.995
  405.750    6.271    0.264    0.492   74.297
  406.000    6.022    0.251    0.480   75.789
  406.250    5.378    0.235    0.476   76.102
  406.500    5.069    0.240    0.473   76.990
  406.750    4.914    0.239    0.474   77.257
  407.000    4.916    0.215    0.486   77.524
  407.250    5.011    0.216    0.508   78.150
  407.500    5.156    0.212    0.526   79.872
  407.750    5.306    0.205    0.525   81.225
  408.000    5.460    0.199    0.513   82.338
  408.250    5.524    0.210    0.496   82.598
  408.500    5.537    0.218    0.476   81.958
  408.750    5.448    0.218    0.467   80.166
  409.000    5.280    0.214    0.484   83.825
  409.250    4.931    0.217    0.503   88.338
  409.500    4.744    0.227    0.513   90.781
  409.750    4.590    0.231    0.507   92.864
  410.000    4.327    0.223    0.505   93.855
  410.250    3.980    0.218    0.506   93.822
  410.500    3.621    0.233    0.512   93.058
  410.750    3.313    0.235    0.505   92.417
  411.000    3.128    0.225    0.514   93.412
  411.250    3.101    0.207    0.529   94.771
  411.500    3.114    0.201    0.532   95.286
  411.750    3.134    0.203    0.521   94.274
  412.000    2.921    0.205    0.525   93.089
  412.250    2.961    0.212    0.534   94.753
  412.500    3.029    0.223    0.541   96.591
  412.750    3.082    0.229    0.544   98.440
  413.000    3.125    0.226    0.526   98.338
  413.250    3.092    0.212    0.509   94.004
  413.500    3.002    0.231    0.516   88.397
  413.750    2.993    0.246    0.523   82.433
  414.000    3.062    0.250    0.528   79.791
  414.250    3.338    0.244    0.537   77.155
  414.500    3.763    0.245    0.500   77.906
  414.750    4.188    0.250    0.485   79.264
  415.000    4.374    0.226    0.481   80.437
  415.250    4.526    0.219    0.478   82.108
  415.500    4.614    0.231    0.478   82.672
  415.750    4.703    0.240    0.478   82.277
  416.000    4.714    0.222    0.488   80.970
  416.250    4.690    0.210    0.505   78.752
  416.500    4.581    0.227    0.521   76.053
  416.750    4.375    0.241    0.520   73.355
  417.000    4.288    0.254    0.505   71.141
  417.250    4.283    0.263    0.493   69.830
  417.500    4.499    0.256    0.491   68.400
  417.750    4.706    0.233    0.485   65.285
  418.000    5.093    0.218    0.472   62.763
  418.250    5.389    0.239    0.467   56.794
  418.500    5.787    0.239    0.211   51.368
  418.750    6.710    0.212    0.205   48.608
  419.000    8.030    0.159    0.213   51.904
  419.250    9.002    0.013    0.265   57.316
  419.500    8.009    0.067    0.343   62.431
  419.750    6.724    0.111    0.432   65.178
  420.000    5.731    0.155    0.480   67.505
  420.250    5.194    0.223    0.508   68.498
  420.500    4.806    0.289    0.517   67.195
  420.750    4.693    0.301    0.496   67.398
  421.000    4.661    0.297    0.485   67.606
  421.250    4.646    0.288    0.483   66.421
  421.500    4.658    0.284    0.486   62.269
  421.750    4.660    0.289    0.485   62.841
  422.000    4.688    0.301    0.479   64.320
  422.250    4.717    0.310    0.481   64.766
  422.500    4.792    0.315    0.494   66.063
  422.750    4.829    0.304    0.483   68.329
  423.000    4.951    0.290    0.477   70.836
  423.250    5.056    0.278    0.475   72.436
  423.500    5.144    0.260    0.475   71.314
  423.750    5.196    0.247    0.484   71.154
  424.000    5.190    0.249    0.485   74.147
  424.250    5.163    0.260    0.481   77.746
  424.500    5.108    0.243    0.477   79.891
  424.750    5.130    0.225    0.467   80.763
  425.000    5.200    0.208    0.461   80.848
  425.250    5.360    0.193    0.455   81.358
  425.500    5.609    0.216    0.453   82.053
  425.750    5.749    0.232    0.454   82.620
  426.000    5.543    0.245    0.470   83.189
  426.250    5.264    0.260    0.488   83.520
  426.500    4.999    0.266    0.480   83.543
  426.750    4.660    0.233    0.470   83.330
  427.000    4.466    0.218    0.481   83.298
  427.250    4.217    0.212    0.495   83.260
  427.500    3.960    0.223    0.514   83.526
  427.750    3.788    0.229    0.530   84.217
  428.000    3.460    0.231    0.539   85.582
  428.250    3.049    0.246    0.555   87.177
  428.500    2.677    0.263    0.568   88.895
  428.750    2.391    0.267    0.588   90.984
  429.000    2.208    0.259    0.603   91.849
  429.250    2.128    0.246    0.585   91.150
  429.500    2.102    0.241    0.576   88.813
  429.750    2.083    0.254    0.572   87.991
  430.000    2.085    0.261    0.580   89.173
  430.250    2.097    0.257    0.585   90.100
  430.500    2.122    0.242    0.576   91.955
  430.750    2.171    0.232    0.561   92.457
  431.000    2.238    0.248    0.551   92.838
  431.250    2.307    0.237    0.565   92.870
  431.500    2.401    0.233    0.574   91.741
  431.750    2.493    0.234    0.584   89.284
  432.000    2.739    0.230    0.569   85.980
  432.250    3.008    0.226    0.540   83.462
  432.500    3.207    0.223    0.520   83.183
  432.750    3.555    0.231    0.506   82.058
  433.000    3.890    0.261    0.500   78.693
  433.250    4.552    0.298    0.497   76.661
  433.500    5.530    0.289    0.490   75.595
  433.750    6.223    0.268    0.483   74.899
  434.000    6.463    0.247    0.473   74.497
  434.250    6.430    0.220    0.454   73.987
  434.500    6.186    0.199    0.437   74.132
  434.750    5.853    0.190    0.441   74.642
  435.000    5.548    0.200    0.452   75.822
  435.250    5.318    0.212    0.466   76.929
