~VERSION INFORMATION
 VERS.                 2.0:   CWLS LOG ASCII STANDARD -VERSION 2.0
 WRAP.                  NO:   ONE LINE PER DEPTH STEP
~WELL INFORMATION BLOCK
#MNEM.UNIT           DATA                    DESCRIPTION OF MNEMONIC
#---------    -------------------            -------------------------------
# Generated from Intellog Unique Number	CW_76_78/WELL/693
WELL.         ASHLAND PCP TOTAL PELICAN 07-3 : Well_name    - WELL
LOC .         00/07-36-076-19W4/0            : Location     - LOCATION
UWI .         00/07-36-076-19W4/0            : Uwi          - UNIQUE WELL ID
ENTR.         JAYE                           : Entered      - ENTERED BY
SRVC.         SCHLUMBERGER                   : Scn          - SERVICE COMPANY
DATE.         25 FEB 75                      : Date         - LOG DATE
STRT.M        210.312                        : top_depth    - START DEPTH
STOP.M        387.062                        : bot_depth    - STOP DEPTH
STEP.M        0.25                           : increment    - STEP LENGTH
 NULL. -999.2500:NULL Value
~CURVE INFORMATION BLOCK
#MNEM UNIT       ERCB CURVE CODE    CURVE DESCRIPTION
#-----------   ------------------   ----------------------------------
DEPT.M        00 001 00 00         : DEPTH        - DEPTH
ILD .OHMM     00 120 00 00         : RESD         - DEEP RESISTIVITY (DIL)
NPHI.V/V      00 330 00 00         : PHIN         - NEUTRON POROSITY (SANDSTONE)
DPHI.V/V      00 890 00 00         : PHID         - DENSITY POROSITY (SANDSTONE)
GR  .API      00 310 00 00         : GR           - GAMMA RAY
CALI.MM       00 280 01 00         : CAL          - CALIPER
~PARAMETER INFORMATION
#MNEM.UNIT           DATA             DESCRIPTION OF MNEMONIC
#---------         -----------     ------------------------------
GL  .M        565.099              : gl           - GROUND LEVEL ELEVATION
EREF.M        568.757              : kb           - ELEVATION OF DEPTH REFERENCE
DATM.M        565.099              : datum        - DATUM ELEVATION
TDD .M        406.908              : tdd          - TOTAL DEPTH DRILLER
RUN .         ONE                  : Run          - RUN NUMBER
ENG .         LAVERCIERE           : Engineer     - RECORDING ENGINEER
WIT .         GARDINER             : Witness      - WITNESSED BY
BASE.         EDM                  : Branch       - HOME BASE OF LOGGING UNIT
MUD .         GEL                  : Mud_type     - MUD TYPE
MATR.         SANDSTONE            : Logunit      - NEUTRON MATRIX
TMAX.C        20                   : BHT          - MAXIMUM RECORDED TEMPERATURE
BHTD.M        406.298              : BHTDEP       - MAXIMUM RECORDED TEMPERATURE
RMT .C        10                   : MDTP         - TEMPERATURE OF MUD
MUDD.KG/M     1056                 : MWT          - MUD DENSITY
NEUT.         1                    : NEUTRON      - NEUTRON TYPE
RESI.         0                    : RESIST       - RESISTIVITY TYPE
RM  .OHMM     1.8                  : RM           - RESISTIVITY OF MUD
RMC .OHMM     0                    : RMC          - RESISTIVITY OF MUD CAKE
RMF .OHMM     1.94                 : RMF          - RESISTIVITY OF MUD FILTRATE
SUFT.C        -17.7778             : SUFT         - SURFACE TEMPERATURE
~A  DEPTH     RESD     PHIN     PHID       GR      CAL
# ...
  356.312   10.028    0.430    0.265   70.344  155.955
  356.562    9.920    0.448    0.285   72.560  156.318
  356.812    9.810    0.464    0.300   74.591  156.942
  357.062    9.662    0.458    0.289   78.950  158.215
  357.312    9.514    0.465    0.267   78.417  159.189
  357.562    9.424    0.478    0.267   77.222  159.626
  357.812    9.317    0.480    0.243   77.776  159.140
  358.062    9.346    0.476    0.253   79.088  157.311
  358.312    9.519    0.450    0.263   79.835  156.302
  358.562    9.668    0.439    0.260   80.583  156.026
  358.812    9.839    0.441    0.244   82.372  157.500
  359.062    9.932    0.454    0.224   85.205  159.909
  359.312    9.942    0.449    0.245   87.419  163.048
  359.562    9.954    0.463    0.259   88.905  164.428
  359.812   10.004    0.457    0.272   88.668  164.865
  360.062    9.995    0.442    0.265   86.254  165.099
  360.312    9.986    0.448    0.255   85.963  164.749
  360.562    9.977    0.471    0.261   86.534  164.144
  360.812    9.969    0.475    0.259   87.406  163.558
  361.062    9.901    0.473    0.244   88.699  164.011
  361.312    9.892    0.468    0.232   89.634  164.112
  361.562    9.744    0.460    0.243   88.861  164.169
  361.812    9.655    0.457    0.223   88.088  164.183
  362.062    9.624    0.452    0.223   88.775  165.137
  362.312    9.538    0.435    0.200   91.237  167.253
  362.562    9.487    0.453    0.224   95.830  168.529
  362.812    9.338    0.482    0.234  100.062  169.886
  363.062    9.070    0.484    0.211  102.766  171.379
  363.312    8.702    0.481    0.216  104.864  172.017
  363.562    8.393    0.458    0.208  106.165  172.364
  363.812    8.264    0.441    0.207  106.240  172.401
  364.062    8.176    0.435    0.224  106.758  172.321
  364.312    8.167    0.424    0.229  107.071  172.239
  364.562    8.178    0.450    0.192  107.516  171.859
  364.812    8.709    0.449    0.207  104.848  171.170
  365.062    9.438    0.431    0.218  100.595  170.061
  365.312    9.990    0.424    0.201   98.167  168.542
  365.562   10.201    0.444    0.216   98.195  166.807
  365.812   10.451    0.457    0.224   98.449  165.515
  366.062   10.683    0.441    0.213   96.271  165.022
  366.312   10.854    0.445    0.196   91.039  164.659
  366.562   10.986    0.461    0.177   85.131  164.044
  366.812   11.095    0.450    0.150   82.158  163.781
  367.062   11.307    0.402    0.157   82.544  163.479
  367.312   11.636    0.421    0.179   84.396  163.312
  367.562   11.928    0.433    0.191   86.612  164.069
  367.812   11.720    0.415    0.159   89.068  165.546
  368.062   11.131    0.429    0.189   93.421  166.600
  368.312   10.742    0.450    0.212   97.104  167.366
  368.562   10.834    0.454    0.197   94.867  166.670
  368.812   11.224    0.398    0.179   89.081  165.555
  369.062   11.735    0.318    0.142   78.656  164.656
  369.312   12.565    0.325    0.106   80.569  163.350
  369.562   13.436    0.364    0.116   85.965  162.551
  369.812   13.966    0.395    0.143   90.318  161.759
  370.062   13.598    0.424    0.162   93.207  161.470
  370.312   12.350    0.435    0.188   95.851  160.887
  370.562   11.142    0.426    0.200   95.744  161.017
  370.812    9.656    0.433    0.201   96.126  163.017
  371.062    9.028    0.453    0.185   98.834  165.523
  371.312    8.619    0.438    0.201  100.565  167.833
  371.562    8.251    0.447    0.189  101.494  169.000
  371.812    7.921    0.466    0.162  104.564  169.040
  372.062    7.773    0.471    0.182  106.778  169.590
  372.312    7.585    0.462    0.200  106.554  170.121
  372.562    7.396    0.450    0.201  113.166  170.804
  372.812    7.407    0.433    0.169  111.000  171.234
  373.062    7.798    0.416    0.170  107.834  171.458
  373.312    8.028    0.395    0.187  104.188  171.292
  373.562    8.239    0.386    0.173  103.105  171.520
  373.812    8.410    0.394    0.140  108.067  171.553
  374.062    8.401    0.419    0.161  112.485  171.577
  374.312    8.134    0.424    0.193  115.496  171.728
  374.562    7.625    0.422    0.201  114.174  171.865
  374.812    6.837    0.425    0.185  110.404  171.802
  375.062    5.769    0.444    0.178  107.485  171.819
  375.312    4.381    0.477    0.213  107.932  171.640
  375.562    3.313    0.507    0.234  108.020  171.244
  375.812    2.606    0.521    0.281  106.382  170.762
  376.062    2.297    0.523    0.264  109.452  168.733
  376.312    2.289    0.531    0.251  107.028  166.611
  376.562    2.439    0.531    0.240  100.391  165.382
  376.812    2.631    0.529    0.233  100.346  164.380
  377.062    3.060    0.533    0.213  104.335  163.897
  377.312    3.711    0.493    0.185   82.663  164.131
  377.562    4.841    0.430    0.160   83.244  167.060
  377.812    6.310    0.357    0.134   83.937  168.640
  378.062    7.900    0.375    0.123   85.905  169.080
  378.312    9.310    0.396    0.136   88.550  168.291
  378.562    9.941    0.404    0.181   91.561  167.509
  378.812    9.313    0.390    0.161   88.401  166.806
  379.062    8.544    0.367    0.066   87.994  166.324
  379.312    7.697    0.341    0.045   91.015  166.241
  379.562    7.188    0.364    0.072   94.695  166.155
  379.812    6.720    0.389    0.180   99.532  166.305
  380.062    6.371    0.410    0.193  102.234  166.436
  380.312    6.122    0.432    0.183  102.128  166.467
  380.562    6.253    0.449    0.179   96.467  166.174
  380.812    6.544    0.467    0.173   94.289  165.385
  381.062    6.895    0.480    0.184   94.752  165.215
  381.312    7.286    0.468    0.173   95.000  164.510
  381.562    7.678    0.452    0.151   94.656  164.653
  381.812    8.007    0.425    0.128   95.282  166.847
  382.062    8.199    0.398    0.175   97.189  168.640
  382.312    8.250    0.407    0.151  102.823  168.570
  382.562    8.401    0.419    0.129  107.666  167.151
  382.812    8.712    0.421    0.176  107.691  167.489
  383.062    8.963    0.421    0.160  106.122  172.170
  383.312    9.073    0.414    0.158  107.659  174.690
  383.562    9.205    0.411    0.161  109.509  174.310
  383.812    8.856    0.449    0.158  113.254  172.469
  384.062    8.687    0.481    0.160  115.042  174.262
  384.312    8.839    0.477    0.187  108.101  173.372
  384.562    9.149    0.462    0.187  100.543  171.327
  384.812   10.779    0.443    0.175   89.877  169.289
  385.062   14.306    0.430    0.163   80.865  168.796
  385.312   22.669    0.361    0.146   45.342  163.046
  385.562   32.311    0.290    0.112   32.352  162.047
  385.812   37.956    0.283    0.101   28.523  161.880
  386.062   44.381    0.282    0.091   29.521  161.891
  386.312   49.667    0.288    0.053   27.036  162.058
  386.562   47.500    0.305    0.078   27.361  161.866
  386.812   46.992    0.318    0.099   28.669  161.373
  387.062   47.822    0.317    0.086   28.253  160.687
