~VERSION INFORMATION
 VERS.                 2.0:   CWLS LOG ASCII STANDARD -VERSION 2.0
 WRAP.                  NO:   ONE LINE PER DEPTH STEP
~WELL INFORMATION BLOCK
#MNEM.UNIT           DATA                    DESCRIPTION OF MNEMONIC
#---------    -------------------            -------------------------------
# Generated from Intellog Unique Number	CN_91_93/WELL/2644
WELL.         07-33-091-18W4                 : Well_name    - WELL
LOC .         00/07-33-091-18W4/0            : Location     - LOCATION
UWI .         00/07-33-091-18W400            : Uwi          - UNIQUE WELL ID
ENTR.         joette                         : Entered      - ENTERED BY
SRVC.         SCHLUMBERGER                   : Scn          - SERVICE COMPANY
DATE.         02/05/92                       : Date         - LOG DATE
STRT.M        90                             : top_depth    - START DEPTH
STOP.M        250                            : bot_depth    - STOP DEPTH
STEP.M        0.25                           : increment    - STEP LENGTH
 NULL. -999.2500:NULL Value
~CURVE INFORMATION BLOCK
#MNEM UNIT       ERCB CURVE CODE    CURVE DESCRIPTION
#-----------   ------------------   ----------------------------------
DEPT.M        00 001 00 00         : DEPTH        - DEPTH
GR  .API      00 310 00 00         : GR           - GAMMA RAY
CALI.MM       00 280 01 00         : CAL          - CALIPER
NPHI.V/V      00 330 00 00         : PHIN         - NEUTRON POROSITY (SANDSTONE)
ILD .OHMM     00 120 00 00         : RESD         - DEEP RESISTIVITY (DIL)
DPHI.V/V      00 890 00 00         : PHID         - DENSITY POROSITY (SANDSTONE)
~PARAMETER INFORMATION
#MNEM.UNIT           DATA             DESCRIPTION OF MNEMONIC
#---------         -----------     ------------------------------
GL  .M        517.2                : gl           - GROUND LEVEL ELEVATION
EREF.M        520.4                : kb           - ELEVATION OF DEPTH REFERENCE
DATM.M        520.4                : datum        - DATUM ELEVATION
TDD .M        249.5                : tdd          - TOTAL DEPTH DRILLER
RUN .         ONE                  : Run          - RUN NUMBER
ENG .         JO                   : Engineer     - RECORDING ENGINEER
WIT .         TIM                  : Witness      - WITNESSED BY
MUD .         GEL                  : Mud_type     - MUD TYPE
MATR.         SANDSTONE            : Logunit      - NEUTRON MATRIX
TMAX.C        28                   : BHT          - MAXIMUM RECORDED TEMPERATURE
BHTD.M        249.5                : BHTDEP       - MAXIMUM RECORDED TEMPERATURE
RMT .C        18                   : MDTP         - TEMPERATURE OF MUD
MUDD.KG/M     1140                 : MWT          - MUD DENSITY
NEUT.         1                    : NEUTRON      - NEUTRON TYPE
RESI.         0                    : RESIST       - RESISTIVITY TYPE
RM  .OHMM     4.81                 : RM           - RESISTIVITY OF MUD
RMC .OHMM     4.81                 : RMC          - RESISTIVITY OF MUD CAKE
RMF .OHMM     4.81                 : RMF          - RESISTIVITY OF MUD FILTRATE
SUFT.C        4                    : SUFT         - SURFACE TEMPERATURE
~A  DEPTH       GR      CAL     PHIN     RESD     PHID
# ...
  126.500  102.875  167.679    0.569    3.712    0.252
  126.750  107.652  166.255    0.551    3.713    0.258
  127.000  105.013  164.838    0.561    3.857    0.290
  127.250  102.975  164.879    0.544    4.160    0.310
  127.500  106.564  164.935    0.552    4.572    0.307
  127.750  104.522  164.998    0.534    5.120    0.302
  128.000  100.707  164.553    0.536    5.735    0.296
  128.250   96.897  164.616    0.547    6.303    0.289
  128.500   94.858  164.672    0.524    7.193    0.286
  128.750   92.820  164.672    0.506    8.366    0.279
  129.000   88.701  164.304    0.494   10.296    0.273
  129.250   79.859  163.359    0.435   12.435    0.255
  129.500   76.928  162.921    0.400   13.928    0.223
  129.750   74.593  162.476    0.392   14.197    0.242
  130.000   73.739  161.546    0.394   13.169    0.219
  130.250   74.956  161.546    0.410   11.989    0.174
  130.500   76.766  161.171    0.399   11.547    0.148
  130.750   80.055  161.219    0.366   10.511    0.188
  131.000   87.497  161.324    0.396    9.750    0.240
  131.250   90.778  161.845    0.434    9.217    0.274
  131.500   96.147  161.845    0.440    9.220    0.285
  131.750   94.105  162.443    0.447    9.758    0.271
  132.000   90.878  162.443    0.466   10.135    0.258
  132.250   87.063  163.569    0.473   11.140    0.255
  132.500   84.433  164.583    0.455   12.015    0.270
  132.750   80.618  164.132    0.384   13.713    0.290
  133.000   74.436  163.208    0.362   14.514    0.303
  133.250   78.317  162.284    0.390   14.794    0.315
  133.500   78.947  161.839    0.410   15.659    0.300
  133.750   76.904  161.394    0.405   17.210    0.303
  134.000   68.054  158.990    0.395   19.275    0.300
  134.250   63.059  155.600    0.338   20.791    0.290
  134.500   62.501  154.169    0.317   20.409    0.303
  134.750   66.378  154.217    0.329   18.578    0.313
  135.000   76.479  156.253    0.382   16.911    0.314
  135.250   80.661  159.262    0.420   15.394    0.292
  135.500   84.250  161.784    0.435   13.496    0.270
  135.750   83.396  162.841    0.445   12.285    0.276
  136.000   81.941  162.882    0.449   11.396    0.276
  136.250   82.270  162.945    0.434   10.977    0.256
  136.500   90.296  162.994    0.406   10.184    0.219
  136.750   94.177  163.056    0.446    9.809    0.202
  137.000  100.726  164.099    0.452    9.448    0.230
  137.250  100.764  165.141    0.444    8.931    0.230
  137.500   99.313  166.177    0.449    8.767    0.222
  137.750   98.163  165.746    0.443    8.605    0.216
  138.000   99.380  164.315    0.435    8.289    0.211
  138.250  100.306  162.890    0.433    8.136    0.217
  138.500   91.455  160.493    0.444    7.986    0.236
  138.750   88.524  160.042    0.485    7.839    0.255
  139.000   80.862  159.604    0.503    7.694    0.241
  139.250   85.339  160.160    0.479    7.553    0.207
  139.500   91.585  160.702    0.491    7.698    0.218
  139.750   95.770  161.258    0.509    8.148    0.255
  140.000   91.656  160.320    0.522    8.955    0.256
  140.250   86.061  158.403    0.459    9.659    0.225
  140.500   83.731  155.505    0.423   11.025    0.208
  140.750   86.128  153.102    0.430   12.822    0.228
  141.000   84.389  152.657    0.415   14.635    0.225
  141.250   82.939  153.213    0.401   15.490    0.199
  141.500   82.939  153.748    0.389   15.494    0.207
  141.750   82.430  155.291    0.385   15.208    0.241
  142.000   82.451  156.833    0.390   14.650    0.257
  142.250   84.552  157.869    0.394   13.847    0.257
  142.500   86.954  158.904    0.412   12.139    0.257
  142.750   86.099  159.460    0.437   12.608    0.258
  143.000   81.101  159.022    0.454   14.390    0.254
  143.250   74.618  158.578    0.443   17.378    0.259
  143.500   65.476  157.161    0.350   20.597    0.255
  143.750   61.069  156.223    0.323   23.955    0.228
  144.000   64.654  155.827    0.318   25.355    0.174
  144.250   63.800  155.347    0.315   23.520    0.131
  144.500   63.241  155.403    0.305   20.617    0.148
  144.750   68.011  155.403    0.305   13.369    0.164
  145.000   77.224  156.029    0.344   10.079    0.189
  145.250   83.177  157.550    0.390    8.836    0.236
  145.500   95.939  160.066    0.425    8.512    0.250
  145.750   97.160  162.102    0.506    9.008    0.255
  146.000   85.942  160.177    0.515   10.089    0.278
  146.250   70.579  156.293    0.472   11.958    0.293
  146.500   67.949  154.369    0.349   13.909    0.310
  146.750   67.094  153.931    0.342   15.578    0.332
  147.000   64.168  153.987    0.368   15.004    0.342
  147.250   69.233  153.063    0.419   12.909    0.286
  147.500   78.742  151.646    0.431   11.750    0.238
  147.750   83.808  151.646    0.432   10.108    0.230
  148.000   86.505  150.784    0.441    8.696    0.228
  148.250   91.871  149.339    0.452    8.067    0.223
  148.500   91.900  150.381    0.451    7.625    0.244
  148.750   89.269  152.904    0.447    7.484    0.263
  149.000   86.939  154.432    0.442    7.075    0.246
  149.250   88.744  155.482    0.446    7.077    0.223
  149.500   91.746  155.544    0.472    6.946    0.217
  149.750   89.999  155.593    0.482    7.080    0.214
  150.000   88.557  155.649    0.483    7.637    0.222
  150.250   89.766  154.725    0.476    8.237    0.244
  150.500   91.575  153.794    0.491    8.718    0.266
  150.750   85.985  153.342    0.480    9.950    0.265
  151.000   78.914  152.418    0.465   12.016    0.239
  151.250   76.884  152.474    0.431   13.975    0.183
  151.500   78.981  152.043    0.407   16.878    0.143
  151.750   82.862  152.092    0.389   20.385    0.164
  152.000   82.600  151.662    0.405   22.830    0.232
  152.250   78.785  151.662    0.383   25.570    0.264
  152.500   73.783  151.759    0.369   25.578    0.182
  152.750   70.268  151.822    0.318   23.725    0.113
  153.000   66.154  151.822    0.312   14.001    0.103
  153.250   67.967  151.940    0.382   10.556    0.098
  153.500   90.792  152.975    0.410    9.081    0.109
  153.750  100.898  154.511    0.434    7.960    0.135
  154.000  103.595  156.040    0.468    7.112    0.179
  154.250  104.512  158.562    0.491    6.723    0.204
  154.500  105.142  159.618    0.499    6.598    0.231
  154.750  105.471  159.660    0.493    6.477    0.242
  155.000  106.981  159.723    0.479    6.357    0.239
  155.250  111.750  159.292    0.492    6.240    0.240
  155.500  115.039  159.348    0.506    6.126    0.240
  155.750  115.073  159.890    0.507    6.127    0.234
  156.000  116.290  160.439    0.504    6.129    0.217
  156.250  113.364  161.481    0.514    6.487    0.217
  156.500   99.781  161.544    0.505    6.612    0.222
  156.750   95.075  161.099    0.443    6.867    0.202
  157.000   94.812  158.696    0.449    7.548    0.158
  157.250  101.954  157.257    0.453    7.989    0.150
  157.500  100.211  156.326    0.448    8.948    0.176
  157.750   95.504  156.382    0.439   10.022    0.201
  158.000   92.282  156.438    0.408   11.015    0.192
  158.250   94.100  157.001    0.374   12.106    0.169
  158.500   95.901  157.001    0.349   14.081    0.190
  158.750   94.454  157.119    0.361   15.475    0.214
  159.000   91.828  157.161    0.370   17.663    0.244
  159.250   93.045  156.716    0.348   19.412    0.258
  159.500   93.083  155.792    0.352   20.546    0.258
  159.750   90.744  155.348    0.359   21.341    0.257
  160.000   81.606  155.911    0.321   22.166    0.255
  160.250   74.227  156.453    0.236   21.758    0.248
  160.500   68.340  157.495    0.207   20.567    0.119
  160.750   66.602  158.530    0.242   19.080    0.034
  161.000   81.731  161.053    0.320   17.369    0.065
  161.250   88.868  162.588    0.427   16.418    0.131
  161.500   91.274  162.158    0.435   15.518    0.199
  161.750   94.559  161.220    0.392   14.396    0.163
  162.000   98.440  165.722    0.416   13.866    0.145
  162.250   97.590  168.259    0.440   13.612    0.205
  162.500  100.287  167.814    0.446   13.617    0.220
  162.750   98.541  167.363    0.432   13.878    0.221
