~VERSION INFORMATION
 VERS.                 2.0:   CWLS LOG ASCII STANDARD -VERSION 2.0
 WRAP.                  NO:   ONE LINE PER DEPTH STEP
~WELL INFORMATION BLOCK
#MNEM.UNIT           DATA                    DESCRIPTION OF MNEMONIC
#---------    -------------------            -------------------------------
# Generated from Intellog Unique Number	CS_69_70/WELL/805
WELL.         HUSKY OIL OPERATIONS           : Well_name    - WELL
LOC .         00/06-22-069-06W4/0            : Location     - LOCATION
UWI .         00/06-22-069-06W4/0            : Uwi          - UNIQUE WELL ID
ENTR.         SP                             : Entered      - ENTERED BY
SRVC.         SCHLUMBERGER                   : Scn          - SERVICE COMPANY
STRT.M        350                            : top_depth    - START DEPTH
STOP.M        585                            : bot_depth    - STOP DEPTH
STEP.M        0.25                           : increment    - STEP LENGTH
 NULL. -999.2500:NULL Value
~CURVE INFORMATION BLOCK
#MNEM UNIT       ERCB CURVE CODE    CURVE DESCRIPTION
#-----------   ------------------   ----------------------------------
DEPT.M        00 001 00 00         : DEPTH        - DEPTH
ILD .OHMM     00 120 00 00         : RESD         - DEEP RESISTIVITY (DIL)
DPHI.V/V      00 890 00 00         : PHID         - DENSITY POROSITY (LIMESTONE)
NPHI.V/V      00 330 00 00         : PHIN         - NEUTRON POROSITY (LIMESTONE)
GR  .API      00 310 00 00         : GR           - GAMMA RAY
~PARAMETER INFORMATION
#MNEM.UNIT           DATA             DESCRIPTION OF MNEMONIC
#---------         -----------     ------------------------------
GL  .M        710.5                : gl           - GROUND LEVEL ELEVATION
EREF.M        714.2                : kb           - ELEVATION OF DEPTH REFERENCE
DATM.M        710.5                : datum        - DATUM ELEVATION
TDD .M        591                  : tdd          - TOTAL DEPTH DRILLER
RUN .         ONE                  : Run          - RUN NUMBER
ENG .         BILL                 : Engineer     - RECORDING ENGINEER
WIT .         JIM                  : Witness      - WITNESSED BY
MUD .         GEL                  : Mud_type     - MUD TYPE
MATR.         LIMESTONE            : Logunit      - NEUTRON MATRIX
TMAX.C        27                   : BHT          - MAXIMUM RECORDED TEMPERATURE
BHTD.M        591                  : BHTDEP       - MAXIMUM RECORDED TEMPERATURE
MATR.         1                    : LOGUNIT      - NEUTRON MATRIX
RMT .C        25                   : MDTP         - TEMPERATURE OF MUD
NEUT.         1                    : NEUTRON      - NEUTRON TYPE
RESI.         0                    : RESIST       - RESISTIVITY TYPE
RMC .OHMM     0.25                 : RMC          - RESISTIVITY OF MUD CAKE
RMF .OHMM     0.25                 : RMF          - RESISTIVITY OF MUD FILTRATE
SUFT.C        15                   : SUFT         - SURFACE TEMPERATURE
~A  DEPTH     RESD     PHID     PHIN       GR
  350.000    2.310    0.278    0.534   94.880
  350.250    2.213    0.273    0.529   91.833
  350.500    2.196    0.293    0.524   90.323
  350.750    2.250    0.307    0.538   89.663
  351.000    2.331    0.313    0.544   88.578
  351.250    2.402    0.288    0.547   88.901
  351.500    2.451    0.279    0.549   91.492
  351.750    2.521    0.275    0.550   93.960
  352.000    2.535    0.281    0.532   94.956
  352.250    2.568    0.287    0.518   96.075
  352.500    2.587    0.289    0.533   96.890
  352.750    2.655    0.294    0.539   94.946
  353.000    2.798    0.297    0.539   91.165
  353.250    2.965    0.303    0.558   92.042
  353.500    3.159    0.301    0.577   94.449
  353.750    3.360    0.298    0.546   96.729
  354.000    3.521    0.276    0.489   98.953
  354.250    3.601    0.249    0.467   99.275
  354.500    3.474    0.249    0.462   98.926
  354.750    3.327    0.250    0.464   95.573
  355.000    3.186    0.244    0.482   91.672
  355.250    3.080    0.236    0.515   88.258
  355.500    2.885    0.236    0.539   93.665
  355.750    2.742    0.262    0.509   99.011
  356.000    2.731    0.273    0.497  100.926
  356.250    2.777    0.271    0.510   96.841
  356.500    2.878    0.269    0.495   93.366
  356.750    2.987    0.270    0.485   92.342
  357.000    3.165    0.263    0.493   91.686
  357.250    3.280    0.265    0.513   93.111
  357.500    3.379    0.268    0.514   97.786
  357.750    3.417    0.266    0.515   98.353
  358.000    3.461    0.261    0.506   97.391
  358.250    3.467    0.261    0.490   96.734
  358.500    3.409    0.261    0.481   96.750
  358.750    3.351    0.264    0.478   97.322
  359.000    3.270    0.274    0.471  101.379
  359.250    3.179    0.278    0.473  105.744
  359.500    3.149    0.272    0.481  102.393
  359.750    4.055    0.266    0.464   95.551
  360.000   11.447    0.262    0.467   92.873
  360.250   26.795    0.262    0.502   96.625
  360.500   36.020    0.241    0.440   97.010
  360.750   42.471    0.222    0.309   62.604
  361.000   47.429    0.333    0.249   44.735
  361.250   35.736    0.370    0.141   32.993
  361.500   29.738    0.404    0.103   27.804
  361.750   25.548    0.420    0.154   31.129
  362.000   23.000    0.397    0.174   35.311
  362.250   24.510    0.368    0.188   43.229
  362.500   27.525    0.366    0.196   47.779
  362.750   32.394    0.345    0.203   50.675
  363.000   38.772    0.318    0.226   54.612
  363.250   45.289    0.328    0.228   59.897
  363.500   55.231    0.372    0.210   49.317
  363.750   52.206    0.391    0.203   49.091
  364.000   40.609    0.404    0.194   46.350
  364.250   25.324    0.397    0.168   40.060
  364.500   16.000    0.404    0.130   37.443
  364.750   11.966    0.408    0.116   36.113
  365.000   10.732    0.409    0.120   37.538
  365.250    9.900    0.392    0.162   40.802
  365.500   10.530    0.357    0.220   48.169
  365.750   11.138    0.314    0.281   56.761
  366.000   11.605    0.202    0.346   69.458
  366.250   11.712    0.180    0.374   83.808
  366.500   11.259    0.250    0.304   78.068
  366.750    9.985    0.300    0.263   70.305
  367.000    8.906    0.324    0.251   60.889
  367.250    8.277    0.318    0.268   62.806
  367.500    7.795    0.303    0.280   61.414
  367.750    7.231    0.291    0.289   60.390
  368.000    6.771    0.286    0.296   65.676
  368.250    6.583    0.299    0.313   68.756
  368.500    6.631    0.294    0.320   72.385
  368.750    6.544    0.300    0.312   74.489
  369.000    6.244    0.312    0.320   74.258
  369.250    5.935    0.273    0.356   72.744
  369.500    5.726    0.264    0.381   73.557
  369.750    5.577    0.276    0.385   68.492
  370.000    5.525    0.278    0.378   64.956
  370.250    5.421    0.269    0.375   63.380
  370.500    5.310    0.273    0.380   66.216
  370.750    5.162    0.261    0.377   68.743
  371.000    5.066    0.253    0.366   70.904
  371.250    4.999    0.283    0.358   62.041
  371.500    5.017    0.311    0.371   64.200
  371.750    5.092    0.291    0.384   60.237
  372.000    5.169    0.307    0.379   51.863
  372.250    5.266    0.337    0.372   59.720
  372.500    5.354    0.313    0.392   69.598
  372.750    5.537    0.292    0.437   77.824
  373.000    5.748    0.281    0.407   66.878
  373.250    5.878    0.305    0.379   57.280
  373.500    5.966    0.307    0.371   53.374
  373.750    5.943    0.303    0.382   50.941
  374.000    5.953    0.318    0.386   48.325
  374.250    5.930    0.312    0.380   54.283
  374.500    5.852    0.287    0.385   68.757
  374.750    5.775    0.261    0.398   77.594
  375.000    5.625    0.229    0.411   82.327
  375.250    5.478    0.199    0.425   84.243
  375.500    5.306    0.219    0.403   81.200
  375.750    5.197    0.237    0.391   78.458
  376.000    5.119    0.255    0.412   83.865
  376.250    5.042    0.236    0.428   88.232
  376.500    4.985    0.236    0.426   86.473
  376.750    4.929    0.254    0.437   80.671
  377.000    4.882    0.266    0.418   67.031
  377.250    4.827    0.278    0.390   62.761
  377.500    4.845    0.296    0.384   69.147
  377.750    5.048    0.314    0.408   73.940
  378.000    5.309    0.252    0.430   62.995
  378.250    5.615    0.303    0.383   55.110
  378.500    5.689    0.287    0.367   59.844
  378.750    5.698    0.267    0.396   59.861
  379.000    5.634    0.303    0.413   52.589
  379.250    5.355    0.338    0.420   46.543
  379.500    5.062    0.351    0.430   49.011
  379.750    4.794    0.322    0.450   56.009
  380.000    4.617    0.300    0.468   54.495
  380.250    4.530    0.307    0.446   50.531
  380.500    4.471    0.276    0.401   57.102
  380.750    4.387    0.230    0.384   71.698
  381.000    4.346    0.180    0.406   79.188
  381.250    4.289    0.216    0.440   98.499
  381.500    4.280    0.245    0.474   91.963
  381.750    4.320    0.277    0.438   73.604
  382.000    4.417    0.306    0.410   53.959
  382.250    4.594    0.336    0.397   34.375
  382.500    4.832    0.346    0.393   32.311
  382.750    5.063    0.347    0.390   33.553
  383.000    5.275    0.349    0.386   35.529
  383.250    5.415    0.351    0.376   35.241
  383.500    5.589    0.352    0.364   41.202
  383.750    5.715    0.351    0.383   45.014
  384.000    5.736    0.350    0.393   49.502
  384.250    5.714    0.350    0.386   55.890
  384.500    5.628    0.351    0.382   62.157
  384.750    5.585    0.339    0.383   65.726
  385.000    5.491    0.330    0.389   67.763
  385.250    5.308    0.320    0.391   65.330
  385.500    5.084    0.309    0.386   63.452
  385.750    4.942    0.306    0.382   63.526
  386.000    4.822    0.305    0.380   65.504
  386.250    4.795    0.296    0.382   71.832
  386.500    4.759    0.282    0.393   77.177
  386.750    4.767    0.280    0.407   81.175
  387.000    4.784    0.298    0.424   74.883
  387.250    4.819    0.305    0.440   75.391
  387.500    4.855    0.311    0.421   67.506
  387.750    4.919    0.319    0.407   57.172
  388.000    5.077    0.331    0.397   51.064
  388.250    5.330    0.343    0.395   48.141
  388.500    5.553    0.349    0.396   54.103
  388.750    5.786    0.352    0.394   58.159
  389.000    5.917    0.349    0.393   59.586
  389.250    6.006    0.337    0.398   56.112
  389.500    5.994    0.328    0.391   58.088
  389.750    5.970    0.328    0.401   63.806
  390.000    5.981    0.330    0.409   66.333
  390.250    5.924    0.328    0.401   67.942
  390.500    5.846    0.330    0.394   73.351
  390.750    5.599    0.332    0.388   76.796
  391.000    5.332    0.302    0.386   80.120
  391.250    5.116    0.280    0.387   82.406
  391.500    4.827    0.268    0.385   83.527
  391.750    4.631    0.268    0.380   83.666
  392.000    4.502    0.271    0.393   76.453
  392.250    4.443    0.265    0.400   81.553
  392.500    4.426    0.261    0.396   84.880
  392.750    4.425    0.264    0.420   87.531
  393.000    4.517    0.271    0.433   87.363
  393.250    4.654    0.276    0.419   86.522
