~VERSION INFORMATION
 VERS.                 2.0:   CWLS LOG ASCII STANDARD -VERSION 2.0
 WRAP.                  NO:   ONE LINE PER DEPTH STEP
~WELL INFORMATION BLOCK
#MNEM.UNIT           DATA                    DESCRIPTION OF MNEMONIC
#---------    -------------------            -------------------------------
# Generated from Intellog Unique Number	CS_77_79/WELL/3271
WELL.         ALLIED ROXANA MINERALS LTD.    : Well_name    - WELL
LOC .         00/05-33-079-17W4/0            : Location     - LOCATION
UWI .         00/05-33-079-17W4/0            : Uwi          - UNIQUE WELL ID
ENTR.         JOETTE                         : Entered      - ENTERED BY
SRVC.         SCHLUMBERGER                   : Scn          - SERVICE COMPANY
DATE.         08/24/92                       : Date         - LOG DATE
STRT.M        198.12                         : top_depth    - START DEPTH
STOP.M        411.37                         : bot_depth    - STOP DEPTH
STEP.M        0.25                           : increment    - STEP LENGTH
 NULL. -999.2500:NULL Value
~CURVE INFORMATION BLOCK
#MNEM UNIT       ERCB CURVE CODE    CURVE DESCRIPTION
#-----------   ------------------   ----------------------------------
DEPT.M        00 001 00 00         : DEPTH        - DEPTH
ILD .OHMM     00 120 00 00         : RESD         - DEEP RESISTIVITY (DLL)
NPHI.V/V      00 330 00 00         : PHIN         - NEUTRON POROSITY (SANDSTONE)
GR  .API      00 310 00 00         : GR           - GAMMA RAY
~PARAMETER INFORMATION
#MNEM.UNIT           DATA             DESCRIPTION OF MNEMONIC
#---------         -----------     ------------------------------
GL  .M        554.736              : gl           - GROUND LEVEL ELEVATION
EREF.M        557.784              : kb           - ELEVATION OF DEPTH REFERENCE
DATM.M        557.784              : datum        - DATUM ELEVATION
TDD .M        410.87               : tdd          - TOTAL DEPTH DRILLER
RUN .         ONE                  : Run          - RUN NUMBER
ENG .         BILL                 : Engineer     - RECORDING ENGINEER
WIT .         JIM                  : Witness      - WITNESSED BY
MUD .         GEL                  : Mud_type     - MUD TYPE
MATR.         SANDSTONE            : Logunit      - NEUTRON MATRIX
TMAX.C        5                    : BHT          - MAXIMUM RECORDED TEMPERATURE
BHTD.M        74                   : BHTDEP       - MAXIMUM RECORDED TEMPERATURE
RMT .C        1348                 : MDTP         - TEMPERATURE OF MUD
MUDD.KG/M     58                   : MWT          - MUD DENSITY
NEUT.         9.8                  : NEUTRON      - NEUTRON TYPE
RESI.         1                    : RESIST       - RESISTIVITY TYPE
RM  .OHMM     0                    : RM           - RESISTIVITY OF MUD
RMC .OHMM     4.22                 : RMC          - RESISTIVITY OF MUD CAKE
RMF .OHMM     4.22                 : RMF          - RESISTIVITY OF MUD FILTRATE
SUFT.C        4.22                 : SUFT         - SURFACE TEMPERATURE
SUFT.C        15                   : SUFT         - SURFACE TEMPERATURE
~A  DEPTH     RESD     PHIN       GR
  198.120    8.943    0.501  101.850
  198.370    9.527    0.539  107.094
  198.620    9.913    0.475  106.478
  198.870   10.301    0.476  102.927
  199.120   10.482    0.482   97.628
  199.370   10.476    0.492   92.329
  199.620   10.262    0.494   87.023
  199.870   10.048    0.473   81.724
  200.120    9.837    0.474   80.523
  200.370    9.828    0.507   84.003
  200.620    9.816    0.517   84.558
  200.870    9.798    0.485   86.868
  201.120    9.988    0.475   93.267
  201.370   10.967    0.465   91.480
  201.620   11.554    0.462   88.530
  201.870   12.930    0.477   79.127
  202.120   13.716    0.482   74.413
  202.370   14.695    0.451   69.115
  202.620   15.476    0.472   62.060
  202.870   15.668    0.483   54.412
  203.120   15.650    0.459   50.284
  203.370   15.644    0.453   48.489
  203.620   15.234    0.446   49.629
  203.870   14.626    0.448   50.191
  204.120   14.213    0.436   51.330
  204.370   13.803    0.439   48.349
  204.620   13.394    0.462   47.749
  204.870   13.180    0.460   47.132
  205.120   13.367    0.468   51.776
  205.370   13.358    0.474   51.753
  205.620   13.541    0.487   50.551
  205.870   13.327    0.467   48.764
  206.120   13.120    0.458   51.644
  206.370   12.710    0.466   53.361
  206.620   12.095    0.455   54.508
  206.870   11.890    0.486   54.485
  207.120   11.677    0.457   52.682
  207.370   11.668    0.473   53.244
  207.620   12.047    0.488   53.206
  207.870   12.625    0.458   52.605
  208.120   13.017    0.465   51.981
  208.370   13.402    0.479   51.950
  208.620   13.785    0.498   52.488
  208.870   13.773    0.513   52.465
  209.120   13.764    0.478   52.442
  209.370   13.553    0.460   52.403
  209.620   13.140    0.449   52.380
  209.870   12.330    0.460   54.690
  210.120   11.923    0.492   57.562
  210.370   11.517    0.500   57.546
  210.620   10.709    0.495   56.345
  210.870   10.300    0.471   55.143
  211.120    9.287    0.463   55.689
  211.370    8.477    0.453   56.837
  211.620    8.269    0.462   60.310
  211.870    8.055    0.504   63.798
  212.120    8.049    0.536   71.376
  212.370    9.025    0.545   76.019
  212.620    9.811    0.556   74.826
  212.870   10.200    0.532   74.787
  213.120   10.781    0.513   75.341
  213.370   10.564    0.495   76.473
  213.620   10.155    0.448   77.027
  213.870    9.947    0.440   75.833
  214.120    9.335    0.421   73.453
  214.370    8.727    0.499   72.829
  214.620    8.118    0.565   75.131
  214.870    7.712    0.560   78.042
  215.120    7.100    0.531   82.694
  215.370    6.892    0.513   86.174
  215.620    6.877    0.521   89.647
  215.870    7.067    0.574   87.868
  216.120    7.254    0.580   84.317
  216.370    8.229    0.512   77.856
  216.620    8.814    0.478   62.014
  216.870    9.199    0.452   60.219
  217.120    9.386    0.455   61.952
  217.370    9.377    0.485   63.669
  217.620    9.365    0.516   63.630
  217.870    9.548    0.520   63.029
  218.120    9.735    0.487   57.715
  218.370   10.717    0.460   52.424
  218.620   12.494    0.441   50.052
  218.870   13.476    0.451   48.842
  219.120   13.859    0.482   46.470
  219.370   13.850    0.496   44.683
  219.620   13.831    0.480   48.749
  219.870   13.816    0.465   49.881
  220.120   13.810    0.453   49.850
  220.370   13.801    0.450   48.063
  220.620   13.789    0.464   48.617
  220.870   13.777    0.438   48.594
  221.120   13.756    0.434   46.791
  221.370   13.747    0.428   50.272
  221.620   13.738    0.445   50.249
  221.870   14.918    0.467   49.039
  222.120   14.509    0.489   48.431
  222.370   14.497    0.491   48.977
  222.620   14.482    0.481   50.124
  222.870   14.470    0.486   50.679
  223.120   14.454    0.479   51.225
  223.370   14.439    0.469   51.194
  223.620   14.433    0.478   49.407
  223.870   14.421    0.468   45.857
  224.120   14.403    0.438   44.062
  224.370   14.195    0.434   45.217
  224.620   13.981    0.432   46.934
  224.870   13.972    0.456   45.717
  225.120   13.954    0.467   45.701
  225.370   13.948    0.490   47.426
  225.620   13.532    0.510   47.972
  225.870   13.520    0.498   47.356
  226.120   13.312    0.526   49.674
  226.370   13.105    0.577   52.569
  226.620   12.692    0.558   51.360
  226.870   12.279    0.530   48.395
  227.120   12.267    0.516   46.600
  227.370   12.249    0.502   46.577
  227.620   12.240    0.489   45.383
  227.870   12.234    0.542   44.766
  228.120   12.222    0.533   47.077
  228.370   12.210    0.518   49.964
  228.620   12.390    0.513   49.925
  228.870   12.375    0.511   48.724
  229.120   12.369    0.491   47.522
  229.370   12.556    0.487   45.735
  229.620   12.743    0.494   44.533
  229.870   12.730    0.498   42.739
  230.120   12.917    0.508   45.064
  230.370   13.104    0.502   49.716
  230.620   13.288    0.499   49.677
  230.870   13.276    0.493   48.475
  231.120   13.254    0.495   48.444
  231.370   13.251    0.492   49.584
  231.620   13.236    0.497   50.138
  231.870   13.224    0.508   48.351
  232.120   13.215    0.508   45.979
  232.370   13.001    0.468   47.103
  232.620   12.790    0.461   50.591
  232.870   12.778    0.457   51.731
  233.120   12.561    0.465   49.944
  233.370   12.354    0.477   49.327
  233.620   12.345    0.488   51.052
  233.870   12.329    0.497   52.184
  234.120   12.516    0.513   52.153
  234.370   12.703    0.505   51.544
  234.620   13.085    0.499   49.742
  234.870   13.275    0.484   50.288
  235.120   13.459    0.474   51.443
  235.370   13.648    0.480   55.509
  235.620   13.832    0.479   58.405
  235.870   13.817    0.470   57.788
  236.120   13.811    0.463   56.587
  236.370   13.793    0.450   55.963
  236.620   13.781    0.465   56.517
  236.870   13.374    0.481   58.827
  237.120   12.760    0.490   61.137
  237.370   12.154    0.521   62.862
  237.620   11.748    0.548   64.587
  237.870   11.332    0.517   65.719
  238.120   11.124    0.511   63.932
  238.370   11.305    0.492   61.559
  238.620   11.299    0.554   60.358
  238.870   11.684    0.509   59.148
  239.120   12.066    0.508   57.369
  239.370   12.054    0.500   62.598
  239.620   12.238    0.511   60.803
  239.870   12.232    0.514   60.202
  240.120   12.217    0.501   57.822
  240.370   12.205    0.479   57.791
  240.620   12.193    0.493   57.745
  240.870   12.377    0.501   57.729
  241.120   12.364    0.499   57.113
  241.370   12.352    0.492   57.082
  241.620   12.536    0.493   56.465
  241.870   12.530    0.506   57.020
  242.120   12.515    0.517   58.737
  242.370   12.699    0.483   60.462
  242.620   12.882    0.481   59.837
  242.870   12.876    0.482   58.050
  243.120   12.864    0.461   55.678
  243.370   12.849    0.490   56.232
  243.620   12.837    0.512   56.201
  243.870   12.825    0.490   54.414
  244.120   12.614    0.484   56.732
  244.370   12.599    0.489   60.205
  244.620   12.590    0.487   59.004
  244.870   12.373    0.482   57.802
  245.120   12.367    0.478   58.356
  245.370   12.352    0.447   58.910
  245.620   12.343    0.452   57.693
  245.870   12.325    0.474   58.263
  246.120   12.312    0.491   60.565
  246.370   12.297    0.499   59.949
  246.620   12.288    0.505   58.154
  246.870   12.279    0.495   57.546
  247.120   12.062    0.487   57.507
  247.370   12.056    0.492   58.069
  247.620   11.442    0.499   59.208
  247.870   11.032    0.499   63.274
  248.120   10.625    0.491   67.332
  248.370   10.216    0.532   69.057
  248.620    9.207    0.527   70.197
  248.870    8.598    0.522   71.922
  249.120    7.788    0.537   76.565
  249.370    7.381    0.567   75.371
  249.620    6.571    0.564   72.414
  249.870    6.164    0.530   68.863
  250.120    5.953    0.525   65.913
  250.370    6.134    0.512   59.436
  250.620    6.324    0.496   57.064
  250.870    7.101    0.496   54.692
  251.120    7.492    0.501   52.319
  251.370    8.276    0.483   50.533
  251.620    9.056    0.460   54.599
  251.870    9.242    0.572   60.998
  252.120    9.429    0.574   62.130
