~VERSION INFORMATION
 VERS.                 2.0:   CWLS LOG ASCII STANDARD -VERSION 2.0
 WRAP.                  NO:   ONE LINE PER DEPTH STEP
~WELL INFORMATION BLOCK
#MNEM.UNIT           DATA                    DESCRIPTION OF MNEMONIC
#---------    -------------------            -------------------------------
# Generated from Intellog Unique Number	CS_77_79/WELL/872
WELL.         CHRISTINA                      : Well_name    - WELL
LOC .         00/06-11-079-09W4/0            : Location     - LOCATION
UWI .         00/06-11-079-09W4/0            : Uwi          - UNIQUE WELL ID
ENTR.         JHS                            : Entered      - ENTERED BY
SRVC.         SCHLUMBERGER                   : Scn          - SERVICE COMPANY
STRT.M        198.12                         : top_depth    - START DEPTH
STOP.M        420.37                         : bot_depth    - STOP DEPTH
STEP.M        0.25                           : increment    - STEP LENGTH
 NULL. -999.2500:NULL Value
~CURVE INFORMATION BLOCK
#MNEM UNIT       ERCB CURVE CODE    CURVE DESCRIPTION
#-----------   ------------------   ----------------------------------
DEPT.M        00 001 00 00         : DEPTH        - DEPTH
RHOB.KG/M3    00 350 00 00         : DENS         - BULK DENSITY
GR  .API      00 310 00 00         : GR           - GAMMA RAY
DPHI.V/V      00 890 00 00         : PHID         - DENSITY POROSITY (SANDSTONE)
NPHI.V/V      00 330 00 00         : PHIN         - NEUTRON POROSITY (SANDSTONE)
ILD .OHMM     00 120 00 00         : RESD         - DEEP RESISTIVITY (DIL)
~PARAMETER INFORMATION
#MNEM.UNIT           DATA             DESCRIPTION OF MNEMONIC
#---------         -----------     ------------------------------
GL  .M        637.733              : gl           - GROUND LEVEL ELEVATION
EREF.M        640.385              : kb           - ELEVATION OF DEPTH REFERENCE
DATM.M        640.385              : datum        - DATUM ELEVATION
TDD .M        431.292              : tdd          - TOTAL DEPTH DRILLER
RUN .         ONE                  : Run          - RUN NUMBER
ENG .         BILL                 : Engineer     - RECORDING ENGINEER
WIT .         JIM                  : Witness      - WITNESSED BY
MUD .         GEL                  : Mud_type     - MUD TYPE
MATR.         SANDSTONE            : Logunit      - NEUTRON MATRIX
TMAX.C        23.8889              : BHT          - MAXIMUM RECORDED TEMPERATURE
BHTD.M        431.292              : BHTDEP       - MAXIMUM RECORDED TEMPERATURE
MATR.         1                    : LOGUNIT      - NEUTRON MATRIX
RMT .C        25                   : MDTP         - TEMPERATURE OF MUD
NEUT.         1                    : NEUTRON      - NEUTRON TYPE
RESI.         0                    : RESIST       - RESISTIVITY TYPE
RMC .OHMM     0.25                 : RMC          - RESISTIVITY OF MUD CAKE
RMF .OHMM     0.25                 : RMF          - RESISTIVITY OF MUD FILTRATE
SUFT.C        15                   : SUFT         - SURFACE TEMPERATURE
~A  DEPTH     DENS       GR     PHID     PHIN     RESD
# ...
  271.120   -0.000   52.422    0.387    0.547   22.004
  271.370   -0.000   53.952    0.383    0.534   21.739
  271.620   -0.000   56.447    0.378    0.519   21.536
  271.870    0.000   58.428    0.365    0.516   20.849
  272.120    0.000   59.073    0.354    0.508   20.191
  272.370    0.000   60.345    0.348    0.489   20.023
  272.620   -0.000   59.805    0.358    0.494   19.391
  272.870   -0.000   58.379    0.357    0.500   18.784
  273.120   -0.000   55.365    0.358    0.493   18.616
  273.370    0.000   55.258    0.346    0.506   18.038
  273.620    0.000   57.005    0.353    0.504   17.510
  273.870    0.000   57.939    0.364    0.498   16.989
  274.120   -0.000   57.994    0.372    0.503   16.803
  274.370   -0.000   57.299    0.362    0.508   16.265
  274.620    0.000   53.837    0.370    0.506   16.080
  274.870    0.000   55.167    0.371    0.519   15.572
  275.120    0.000   57.596    0.360    0.520   15.442
  275.370   -0.000   59.690    0.365    0.532   15.202
  275.620   -0.000   59.875    0.363    0.533   15.211
  275.870   -0.000   58.477    0.350    0.527   15.231
  276.120    0.000   59.040    0.362    0.515   15.737
  276.370    0.000   59.658    0.366    0.507   15.766
  276.620    0.000   57.849    0.363    0.535   15.771
  276.870   -0.000   54.051    0.375    0.547   15.737
  277.120   -0.000   55.919    0.368    0.519   16.076
  277.370    0.000   58.016    0.360    0.502   16.355
  277.620    0.000   57.332    0.358    0.507   17.397
  277.870    0.000   55.350    0.364    0.501   18.004
  278.120   -0.000   55.578    0.377    0.511   18.578
  278.370   -0.000   55.329    0.376    0.533   18.603
  278.620   -0.000   54.363    0.364    0.581   18.122
  278.870    0.000   52.308    0.357    0.574   17.331
  279.120    0.000   50.030    0.366    0.543   16.350
  279.370    0.000   51.655    0.359    0.526   15.416
  279.620   -0.000   53.212    0.354    0.530   14.981
  279.870   -0.000   52.437    0.363    0.544   14.626
  280.120   -0.000   50.816    0.361    0.561   14.350
  280.370    0.000   50.254    0.357    0.564   14.088
  280.620    0.000   50.413    0.363    0.547   14.101
  280.870   -0.000   51.449    0.366    0.534   14.093
  281.120   -0.000   51.803    0.372    0.530   14.532
  281.370   -0.000   50.730    0.369    0.541   15.034
  281.620    0.000   50.251    0.372    0.547   15.444
  281.870    0.000   51.209    0.364    0.559   15.781
  282.120    0.000   52.139    0.362    0.551   15.358
  282.370   -0.000   52.518    0.365    0.536   14.674
  282.620   -0.000   54.149    0.363    0.537   13.826
  282.870   -0.000   56.464    0.359    0.531   13.297
  283.120    0.000   56.966    0.352    0.510   12.662
  283.370    0.000   56.974    0.345    0.498   12.297
  283.620    0.000   56.972    0.344    0.490   11.933
  283.870   -0.000   57.963    0.349    0.496   11.703
  284.120   -0.000   58.833    0.356    0.529   11.709
  284.370    0.000   58.807    0.362    0.557   11.724
  284.620    0.000   57.558    0.357    0.576   11.603
  284.870    0.000   55.606    0.349    0.557   11.702
  285.120   -0.000   55.566    0.338    0.543   11.726
  285.370   -0.000   58.956    0.345    0.542   11.469
  285.620   -0.000   60.020    0.354    0.551   11.475
  285.870    0.000   58.575    0.357    0.540   11.148
  286.120    0.000   55.849    0.355    0.529   10.674
  286.370    0.000   50.884    0.360    0.546   10.280
  286.620   -0.000   49.176    0.361    0.572   10.162
  286.870   -0.000   51.267    0.345    0.566   10.108
  287.120    0.000   50.444    0.344    0.518   10.100
  287.370    0.000   51.408    0.341    0.496   10.098
  287.620    0.000   55.439    0.342    0.483   10.091
  287.870   -0.000   58.809    0.344    0.474   10.259
  288.120   -0.000   59.542    0.342    0.482   10.467
  288.370   -0.000   59.531    0.331    0.503   10.683
  288.620    0.000   58.905    0.333    0.501   10.664
  288.870    0.000   60.501    0.343    0.504   10.662
  289.120    0.000   60.658    0.360    0.527   10.656
  289.370   -0.000   58.287    0.354    0.555   10.121
  289.620   -0.000   54.915    0.355    0.566    8.300
  289.870   -0.000   55.354    0.356    0.539    6.601
  290.120    0.000   61.620    0.341    0.524    5.992
  290.370    0.000   66.196    0.320    0.531    5.658
  290.620   -0.000   68.620    0.298    0.577    5.694
  290.870   -0.000   64.643    0.291    0.602    6.037
  291.120   -0.000   57.653    0.316    0.580    6.567
  291.370    0.000   53.771    0.359    0.544    7.192
  291.620    0.000   56.984    0.365    0.528    7.601
  291.870    0.000   59.612    0.339    0.550    7.648
  292.120   -0.000   60.640    0.321    0.598    7.674
  292.370   -0.000   62.702    0.330    0.617    7.294
  292.620   -0.000   64.974    0.338    0.609    7.090
  292.870    0.000   61.095    0.340    0.584    6.545
  293.120    0.000   61.840    0.348    0.561    6.171
  293.370   -0.000   63.810    0.344    0.548    5.809
  293.620   -0.000   66.487    0.327    0.564    5.696
  293.870   -0.000   68.675    0.306    0.539    5.718
  294.120    0.000   71.557    0.299    0.545    5.897
  294.370    0.000   73.979    0.324    0.583    6.314
  294.620    0.000   74.036    0.310    0.590    6.930
  294.870   -0.000   73.033    0.315    0.632    7.903
  295.120   -0.000   72.339    0.325    0.647    9.341
  295.370   -0.000   71.728    0.309    0.639    9.529
  295.620    0.000   72.745    0.321    0.639    8.281
  295.870    0.000   74.598    0.340    0.642    6.327
  296.120    0.000   77.221    0.324    0.643    5.079
  296.370   -0.000   80.850    0.305    0.635    4.262
  296.620   -0.000   82.757    0.287    0.630    4.183
  296.870    0.000   81.461    0.281    0.632    4.704
  297.120    0.000   78.825    0.284    0.636    5.903
  297.370    0.000   74.517    0.302    0.631    7.638
  297.620   -0.000   69.021    0.333    0.626    9.906
  297.870   -0.000   66.598    0.338    0.626   11.825
  298.120   -0.000   64.912    0.332    0.611   13.079
  298.370    0.000   62.355    0.329    0.555   12.965
  298.620    0.000   61.519    0.327    0.521   10.753
  298.870    0.000   62.290    0.343    0.506    7.108
  299.120   -0.000   73.132    0.366    0.548    5.374
  299.370   -0.000   86.019    0.307    0.615    4.464
  299.620    0.000   92.281    0.251    0.624    3.799
  299.870    0.000   94.931    0.241    0.628    3.428
  300.120    0.000   97.002    0.238    0.628    3.184
  300.370   -0.000   99.484    0.240    0.633    3.049
  300.620   -0.000  100.510    0.252    0.643    2.869
  300.870   -0.000  100.582    0.258    0.641    2.773
  301.120    0.000   99.151    0.262    0.641    2.772
  301.370    0.000   96.796    0.260    0.643    2.852
  301.620    0.000   95.194    0.262    0.646    2.940
  301.870   -0.000   92.082    0.256    0.641    3.135
  302.120   -0.000   91.987    0.244    0.639    3.151
  302.370   -0.000   92.989    0.249    0.641    3.154
  302.620    0.000   93.063    0.261    0.643    3.149
  302.870    0.000   91.191    0.274    0.643    3.242
  303.120   -0.000   89.907    0.279    0.639    3.510
  303.370   -0.000   92.291    0.264    0.636    3.808
  303.620   -0.000   89.984    0.270    0.636    4.056
  303.870    0.000   86.008    0.278    0.637    4.300
  304.120    0.000   83.934    0.289    0.636    4.405
  304.370    0.000   87.310    0.271    0.634    4.195
  304.620   -0.000   88.322    0.265    0.634    3.814
  304.870   -0.000   88.018    0.264    0.635    3.606
  305.120   -0.000   90.195    0.259    0.637    3.387
  305.370    0.000   93.428    0.252    0.636    3.319
  305.620    0.000   92.863    0.248    0.632    3.412
  305.870    0.000   90.660    0.252    0.633    3.516
  306.120   -0.000   87.111    0.277    0.634    3.661
  306.370   -0.000   86.373    0.274    0.634    3.892
  306.620    0.000   85.341    0.261    0.635    4.196
  306.870    0.000   82.283    0.247    0.631    4.762
  307.120    0.000   77.001    0.278    0.626    5.573
  307.370   -0.000   72.563    0.285    0.610    6.480
