~VERSION INFORMATION
 VERS.                 2.0:   CWLS LOG ASCII STANDARD -VERSION 2.0
 WRAP.                  NO:   ONE LINE PER DEPTH STEP
~WELL INFORMATION BLOCK
#MNEM.UNIT           DATA                    DESCRIPTION OF MNEMONIC
#---------    -------------------            -------------------------------
# Generated from Intellog Unique Number	CX_WELLS/WELL/2922
WELL.         GULF SURMONT                   : Well_name    - WELL
LOC .         00/06-12-082-09W4/0            : Location     - LOCATION
UWI .         00/06-12-082-09W400            : Uwi          - UNIQUE WELL ID
ENTR.         T                              : Entered      - ENTERED BY
SRVC.         SCHLUMBERGER                   : Scn          - SERVICE COMPANY
STRT.F        950                            : top_depth    - START DEPTH
STOP.F        1689.83                        : bot_depth    - STOP DEPTH
STEP.F        0.82                           : increment    - STEP LENGTH
 NULL. -999.2500:NULL Value
~CURVE INFORMATION BLOCK
#MNEM UNIT       ERCB CURVE CODE    CURVE DESCRIPTION
#-----------   ------------------   ----------------------------------
DEPT.F        00 001 00 00         : DEPTH        - DEPTH
GR  .API      00 310 00 00         : GR           - GAMMA RAY
NPHI.V/V      00 330 00 00         : PHIN         - NEUTRON POROSITY (SANDSTONE)
DPHI.V/V      00 890 00 00         : PHID         - DENSITY POROSITY (SANDSTONE)
ILD .OHMM     00 120 00 00         : RESD         - DEEP RESISTIVITY (OTHER)
~PARAMETER INFORMATION
#MNEM.UNIT           DATA             DESCRIPTION OF MNEMONIC
#---------         -----------     ------------------------------
GL  .F        2413                 : gl           - GROUND LEVEL ELEVATION
EREF.F        2425                 : kb           - ELEVATION OF DEPTH REFERENCE
DATM.F        2425                 : datum        - DATUM ELEVATION
TDD .F        1705                 : tdd          - TOTAL DEPTH DRILLER
RUN .         ONE                  : Run          - RUN NUMBER
ENG .         BILL                 : Engineer     - RECORDING ENGINEER
WIT .         JIM                  : Witness      - WITNESSED BY
MUD .         GEL                  : Mud_type     - MUD TYPE
MATR.         SANDSTONE            : Logunit      - NEUTRON MATRIX
TMAX.F        71.6                 : BHT          - MAXIMUM RECORDED TEMPERATURE
BHTD.F        1710                 : BHTDEP       - MAXIMUM RECORDED TEMPERATURE
MATR.         1                    : LOGUNIT      - NEUTRON MATRIX
RMT .F        73                   : MDTP         - TEMPERATURE OF MUD
NEUT.         1                    : NEUTRON      - NEUTRON TYPE
RESI.         4.65                 : RESIST       - RESISTIVITY TYPE
RMC .OHMM     5.05                 : RMC          - RESISTIVITY OF MUD CAKE
RMF .OHMM     5.05                 : RMF          - RESISTIVITY OF MUD FILTRATE
SUFT.F        35                   : SUFT         - SURFACE TEMPERATURE
~A  DEPTH       GR     PHIN     PHID     RESD
# ...
 1092.720  122.290    0.467    0.248   10.994
 1093.540  117.595    0.473    0.255   11.212
 1094.360  114.070    0.475    0.266   11.879
 1095.180  107.605    0.470    0.277   11.887
 1096.000  103.489    0.464    0.277   13.078
 1096.820   99.970    0.456    0.267   14.120
 1097.640   97.040    0.447    0.263   14.677
 1098.460   93.515    0.440    0.272   15.260
 1099.280   88.230    0.432    0.283   15.275
 1100.100   82.934    0.427    0.295   15.577
 1100.920   76.464    0.430    0.307   15.889
 1101.740   71.764    0.435    0.326   16.515
 1102.560   71.785    0.441    0.346   16.532
 1103.380   71.806    0.448    0.346   16.863
 1104.200   71.832    0.454    0.344   17.196
 1105.020   71.268    0.454    0.336   17.213
 1105.840   70.688    0.442    0.334   17.897
 1106.660   70.124    0.438    0.327   17.910
 1107.480   69.549    0.429    0.324   18.630
 1108.300   67.805    0.422    0.326   18.639
 1109.120   66.641    0.417    0.329   19.012
 1109.940   65.481    0.422    0.334   19.393
 1110.760   64.332    0.423    0.345   19.777
 1111.580   63.173    0.427    0.354   20.178
 1112.400   63.199    0.428    0.351   20.193
 1113.220   64.390    0.426    0.351   20.218
 1114.040   65.596    0.425    0.348   20.238
 1114.860   66.797    0.425    0.346   20.263
 1115.680   67.408    0.428    0.344   20.273
 1116.500   67.429    0.431    0.346   19.542
 1117.320   65.680    0.436    0.349   19.196
 1118.140   63.335    0.442    0.345   18.856
 1118.960   62.175    0.447    0.339   18.879
 1119.780   61.021    0.444    0.340   19.267
 1120.600   61.042    0.437    0.345   19.276
 1121.420   61.058    0.436    0.343   19.672
 1122.240   60.489    0.438    0.340   20.061
 1123.060   60.510    0.443    0.339   20.076
 1123.880   58.760    0.444    0.338   20.105
 1124.700   57.601    0.445    0.335   20.120
 1125.520   57.032    0.439    0.332   20.135
 1126.350   57.058    0.431    0.332   20.165
 1127.170   57.084    0.424    0.330   20.564
 1127.990   56.504    0.416    0.330   20.584
 1128.810   56.530    0.412    0.331   20.991
 1129.630   57.141    0.412    0.331   21.017
 1130.450   57.157    0.414    0.331   21.038
 1131.270   58.363    0.422    0.329   21.058
 1132.090   58.979    0.424    0.329   21.084
 1132.910   59.580    0.418    0.331   21.496
 1133.730   60.191    0.418    0.336   21.517
 1134.550   60.802    0.420    0.341   21.544
 1135.370   61.413    0.424    0.346   21.565
 1136.190   61.439    0.428    0.349   21.581
 1137.010   61.460    0.429    0.343   21.602
 1137.830   60.891    0.429    0.339   21.623
 1138.650   59.731    0.432    0.336   22.062
 1139.470   59.757    0.438    0.334   22.504
 1140.290   59.773    0.446    0.329   22.526
 1141.110   59.799    0.451    0.325   22.542
 1141.930   61.000    0.457    0.320   22.576
 1142.750   61.611    0.458    0.312   22.592
 1143.570   59.857    0.436    0.291   22.620
 1144.390   57.517    0.395    0.271   22.642
 1145.210   56.363    0.376    0.229   22.670
 1146.030   56.379    0.370    0.236   22.681
 1146.850   55.820    0.400    0.243   22.285
 1147.670   55.830    0.411    0.275   21.885
 1148.490   55.851    0.432    0.335   20.707
 1149.310   56.467    0.443    0.344   19.956
 1150.130   56.483    0.450    0.344   18.877
 1150.950   58.279    0.449    0.345   18.197
 1151.770   59.475    0.444    0.346   17.874
 1152.590   61.267    0.443    0.352   17.892
 1153.410   61.883    0.449    0.353   17.910
 1154.230   60.724    0.453    0.353   18.273
 1155.050   58.379    0.451    0.352   18.295
 1155.870   56.629    0.445    0.346   18.657
 1156.690   55.475    0.441    0.342   18.671
 1157.510   55.491    0.442    0.348   19.045
 1158.330   55.517    0.445    0.355   19.427
 1159.150   57.308    0.452    0.349   19.816
 1159.970   58.509    0.459    0.349   20.213
 1160.790   57.350    0.453    0.358   20.238
 1161.610   55.595    0.446    0.354   20.257
 1162.430   55.026    0.441    0.343   20.272
 1163.250   54.457    0.441    0.345   20.302
 1164.070   52.712    0.447    0.351   20.312
 1164.900   52.143    0.449    0.357   20.724
 1165.720   52.164    0.442    0.362   20.750
 1166.540   52.180    0.434    0.357   20.765
 1167.360   52.206    0.428    0.340   20.392
 1168.180   51.636    0.428    0.333   20.412
 1169.000   51.652    0.431    0.329   20.442
 1169.820   51.678    0.432    0.328   20.076
 1170.640   52.294    0.430    0.324   20.090
 1171.460   52.906    0.427    0.323   19.744
 1172.280   52.926    0.419    0.324   19.385
 1173.100   52.947    0.417    0.331   19.409
 1173.920   52.963    0.414    0.335   19.433
 1174.740   54.164    0.424    0.338   19.447
 1175.560   56.545    0.435    0.343   19.466
 1176.380   57.157    0.439    0.352   19.485
 1177.200   55.997    0.439    0.359   19.514
 1178.020   54.838    0.437    0.353   19.529
 1178.840   56.039    0.437    0.343   19.178
 1179.660   56.655    0.439    0.342   19.202
 1180.480   56.086    0.443    0.342   19.225
 1181.300   53.156    0.451    0.342   19.239
 1182.120   51.997    0.453    0.349   19.630
 1182.940   52.018    0.453    0.358   19.649
 1183.760   52.629    0.446    0.360   20.038
 1184.580   53.240    0.439    0.364   20.439
 1185.400   53.266    0.435    0.365   20.843
 1186.220   52.101    0.431    0.365   21.676
 1187.040   50.352    0.428    0.363   22.526
 1187.860   49.198    0.426    0.362   23.865
 1188.680   49.798    0.421    0.360   24.794
 1189.500   49.819    0.420    0.358   26.776
 1190.320   49.845    0.417    0.356   27.825
 1191.140   49.276    0.416    0.353   29.480
 1191.960   48.701    0.417    0.355   29.494
 1192.780   48.137    0.419    0.359   30.085
 1193.600   48.153    0.428    0.363   30.115
 1194.420   48.764    0.438    0.363   29.596
 1195.240   49.380    0.446    0.353   27.480
 1196.060   49.991    0.446    0.335   26.980
 1196.880   50.602    0.440    0.319   27.521
 1197.700   49.443    0.431    0.305   29.151
 1198.520   48.874    0.413    0.289   32.071
 1199.340   50.075    0.392    0.284   33.336
 1200.160   50.686    0.341    0.278   34.651
 1200.980   51.892    0.350    0.265   34.685
 1201.800   51.323    0.365    0.230   34.719
 1202.620   50.754    0.305    0.185   34.745
 1203.440   50.190    0.211   -0.005   33.492
 1204.270   50.200    0.175   -0.006   32.285
 1205.090   50.221    0.170    0.004   31.713
 1205.910   49.657    0.185    0.005   31.760
 1206.730   49.088    0.181   -0.001   31.783
 1207.550   47.928    0.168   -0.004   31.807
 1208.370   43.818    0.169   -0.002   33.069
 1209.190   45.014    0.176   -0.001   34.382
 1210.010   47.401    0.181    0.006   34.399
 1210.830   49.788    0.188    0.018   34.433
 1211.650   50.978    0.207    0.030   32.572
 1212.470   53.955    0.315    0.062   29.117
 1213.290   56.331    0.389    0.092   26.524
 1214.110   59.308    0.428    0.143   24.162
 1214.930   62.274    0.430    0.266   24.186
 1215.750   61.705    0.423    0.302   26.106
 1216.570   57.005    0.406    0.285   29.261
 1217.390   52.895    0.384    0.237   32.797
 1218.210   53.506    0.275   -0.005   30.452
 1219.030   57.657    0.262    0.025   27.734
 1219.850   62.404    0.360    0.072   23.875
 1220.670   68.917    0.428    0.118   18.704
 1221.490   76.019    0.446    0.168   14.111
 1222.310   83.121    0.464    0.276    9.156
 1223.130   91.994    0.478    0.252    7.310
 1223.950  106.768    0.484    0.234    5.945
 1224.770  106.799    0.486    0.234    5.022
 1225.590  107.995    0.495    0.238    4.244
 1226.410  108.601    0.499    0.242    4.248
 1227.230  110.398    0.504    0.245    4.251
 1228.050  111.604    0.510    0.245    4.337
 1228.870  110.444    0.514    0.245    4.341
 1229.690  109.870    0.515    0.245    4.429
 1230.510  109.311    0.515    0.245    4.605
 1231.330  108.732    0.519    0.245    4.785
 1232.150  109.348    0.521    0.238    4.974
 1232.970  110.544    0.530    0.236    4.887
 1233.790  112.335    0.541    0.232    4.709
 1234.610  110.001    0.553    0.231    4.372
