~VERSION INFORMATION
 VERS.                 2.0:   CWLS LOG ASCII STANDARD -VERSION 2.0
 WRAP.                  NO:   ONE LINE PER DEPTH STEP
~WELL INFORMATION BLOCK
#MNEM.UNIT           DATA                    DESCRIPTION OF MNEMONIC
#---------    -------------------            -------------------------------
# Generated from Intellog Unique Number	CS_73_76/WELL/2000
WELL.         BOW VALLEY INDUSTRIES LTD.     : Well_name    - WELL
LOC .         00/06-36-075-15W4/0            : Location     - LOCATION
UWI .         00/06-36-075-15W4/0            : Uwi          - UNIQUE WELL ID
ENTR.         SP                             : Entered      - ENTERED BY
SRVC.         SCHLUMBERGER                   : Scn          - SERVICE COMPANY
STRT.M        353.568                        : top_depth    - START DEPTH
STOP.M        548.318                        : bot_depth    - STOP DEPTH
STEP.M        0.25                           : increment    - STEP LENGTH
 NULL. -999.2500:NULL Value
~CURVE INFORMATION BLOCK
#MNEM UNIT       ERCB CURVE CODE    CURVE DESCRIPTION
#-----------   ------------------   ----------------------------------
DEPT.M        00 001 00 00         : DEPTH        - DEPTH
GR  .API      00 310 00 00         : GR           - GAMMA RAY
DPHI.V/V      00 890 00 00         : PHID         - DENSITY POROSITY (SANDSTONE)
NPHI.V/V      00 330 00 00         : PHIN         - NEUTRON POROSITY (SANDSTONE)
ILD .OHMM     00 120 00 00         : RESD         - DEEP RESISTIVITY (DIL)
~PARAMETER INFORMATION
#MNEM.UNIT           DATA             DESCRIPTION OF MNEMONIC
#---------         -----------     ------------------------------
GL  .M        729.082              : gl           - GROUND LEVEL ELEVATION
EREF.M        732.13               : kb           - ELEVATION OF DEPTH REFERENCE
DATM.M        729.082              : datum        - DATUM ELEVATION
TDD .M        558.394              : tdd          - TOTAL DEPTH DRILLER
RUN .         ONE                  : Run          - RUN NUMBER
ENG .         BILL                 : Engineer     - RECORDING ENGINEER
WIT .         JIM                  : Witness      - WITNESSED BY
MUD .         GEL                  : Mud_type     - MUD TYPE
MATR.         SANDSTONE            : Logunit      - NEUTRON MATRIX
TMAX.C        60                   : BHT          - MAXIMUM RECORDED TEMPERATURE
BHTD.M        558.394              : BHTDEP       - MAXIMUM RECORDED TEMPERATURE
MATR.         1                    : LOGUNIT      - NEUTRON MATRIX
RMT .C        25                   : MDTP         - TEMPERATURE OF MUD
NEUT.         1                    : NEUTRON      - NEUTRON TYPE
RESI.         0                    : RESIST       - RESISTIVITY TYPE
RMC .OHMM     0.25                 : RMC          - RESISTIVITY OF MUD CAKE
RMF .OHMM     0.25                 : RMF          - RESISTIVITY OF MUD FILTRATE
SUFT.C        15                   : SUFT         - SURFACE TEMPERATURE
~A  DEPTH       GR     PHID     PHIN     RESD
# ...
  484.068   82.647    0.148    0.300    7.558
  484.318   79.303    0.126    0.269    8.938
  484.568   73.237    0.092    0.201   10.377
  484.818   69.034    0.043    0.160   11.984
  485.068   61.050    0.030    0.148   13.152
  485.318   53.252    0.037    0.150   13.107
  485.568   52.926    0.090    0.182   11.523
  485.818   55.356    0.119    0.231    9.598
  486.068   58.282    0.152    0.304    7.989
  486.318   61.719    0.207    0.379    6.938
  486.568   64.928    0.272    0.399    6.284
  486.818   66.628    0.294    0.412    5.922
  487.068   68.155    0.296    0.423    5.680
  487.318   66.937    0.305    0.430    5.564
  487.568   63.087    0.310    0.440    5.573
  487.818   61.139    0.304    0.445    5.565
  488.068   61.009    0.301    0.444    5.686
  488.318   61.679    0.296    0.436    5.676
  488.568   61.648    0.295    0.433    5.673
  488.818   62.072    0.295    0.431    5.632
  489.068   64.138    0.285    0.436    5.574
  489.318   66.222    0.284    0.439    5.495
  489.568   67.884    0.293    0.440    5.473
  489.818   68.160    0.300    0.443    5.470
  490.068   67.327    0.305    0.440    5.462
  490.318   69.567    0.308    0.434    5.610
  490.568   71.610    0.312    0.427    5.672
  490.818   73.007    0.313    0.418    5.792
  491.068   73.473    0.307    0.413    5.786
  491.318   73.494    0.302    0.424    5.695
  491.568   73.445    0.301    0.432    5.533
  491.818   74.166    0.301    0.441    5.253
  492.068   75.113    0.307    0.449    5.103
  492.318   75.904    0.313    0.454    4.942
  492.568   75.848    0.311    0.457    4.894
  492.818   74.446    0.304    0.456    4.800
  493.068   72.269    0.298    0.456    4.805
  493.318   70.507    0.299    0.451    4.807
  493.568   70.245    0.300    0.444    4.852
  493.818   70.688    0.292    0.455    4.988
  494.068   72.224    0.283    0.466    5.140
  494.318   71.708    0.270    0.472    5.749
  494.568   69.636    0.265    0.479    6.295
  494.818   68.708    0.262    0.464    6.589
  495.068   68.316    0.262    0.450    6.225
  495.318   68.007    0.263    0.437    5.554
  495.568   67.025    0.267    0.440    5.148
  495.818   67.212    0.273    0.455    4.967
  496.068   69.882    0.274    0.466    4.717
  496.318   72.694    0.273    0.476    4.663
  496.568   74.504    0.270    0.473    4.635
  496.818   74.089    0.270    0.473    4.632
  497.068   73.102    0.272    0.473    4.632
  497.318   72.171    0.275    0.471    4.632
  497.568   72.224    0.279    0.467    4.632
  497.818   72.499    0.282    0.467    4.632
  498.068   72.785    0.286    0.473    4.632
  498.318   72.809    0.281    0.480    4.632
  498.568   73.014    0.275    0.486    4.630
  498.818   74.050    0.270    0.483    4.629
  499.068   76.249    0.271    0.479    4.542
  499.318   77.145    0.272    0.476    4.547
  499.568   78.122    0.266    0.474    4.547
  499.818   78.034    0.259    0.478    4.547
  500.068   78.643    0.264    0.474    4.547
  500.318   78.104    0.274    0.462    4.549
  500.568   78.115    0.280    0.454    4.593
  500.818   78.135    0.285    0.448    4.631
  501.068   77.578    0.285    0.451    4.625
  501.318   77.040    0.280    0.453    4.730
  501.568   75.683    0.275    0.452    4.725
  501.818   74.215    0.271    0.449    4.811
  502.068   73.082    0.272    0.445    4.801
  502.318   72.731    0.274    0.438    4.898
  502.568   73.066    0.274    0.431    5.050
  502.818   73.918    0.270    0.431    5.224
  503.068   74.486    0.263    0.431    5.561
  503.318   72.821    0.257    0.427    5.973
  503.568   71.389    0.250    0.418    6.387
  503.818   70.939    0.241    0.410    6.812
  504.068   70.004    0.233    0.400    6.629
  504.318   69.013    0.228    0.391    6.429
  504.568   68.983    0.239    0.397    6.128
  504.818   70.445    0.248    0.417    5.910
  505.068   72.120    0.257    0.429    5.675
  505.318   73.156    0.269    0.434    5.601
  505.568   73.242    0.259    0.437    5.582
  505.818   73.855    0.255    0.432    5.471
  506.068   75.502    0.253    0.429    5.475
  506.318   76.641    0.257    0.433    5.493
  506.568   79.147    0.256    0.438    5.575
  506.818   80.397    0.242    0.446    5.641
  507.068   82.348    0.235    0.444    5.564
  507.318   82.763    0.224    0.442    5.490
  507.568   82.231    0.216    0.442    5.291
  507.818   81.614    0.213    0.443    4.980
  508.068   83.432    0.211    0.442    4.981
  508.318   86.013    0.211    0.446    5.102
  508.568   87.546    0.216    0.449    5.475
  508.818   88.140    0.223    0.443    5.781
  509.068   88.185    0.229    0.436    6.210
  509.318   86.955    0.228    0.428    6.690
  509.568   84.977    0.197    0.417    7.117
  509.818   81.662    0.147    0.410    7.608
  510.068   77.672    0.138    0.402    8.332
  510.318   75.288    0.145    0.395    8.855
  510.568   73.782    0.152    0.391    9.174
  510.818   74.772    0.130    0.388    8.625
  511.068   77.115    0.106    0.353    7.800
  511.318   74.188    0.117    0.336    7.192
  511.568   71.092    0.143    0.363    6.721
  511.818   75.644    0.166    0.405    6.528
  512.068   80.896    0.178    0.428    6.459
  512.318   84.847    0.177    0.435    6.381
  512.568   90.024    0.166    0.432    6.344
  512.818   91.665    0.156    0.428    6.339
  513.068   90.393    0.151    0.427    6.275
  513.318   89.355    0.166    0.425    6.227
  513.568   91.437    0.176    0.430    6.225
  513.818   91.941    0.178    0.440    6.228
  514.068   91.564    0.165    0.447    6.236
  514.318   90.903    0.184    0.438    6.335
  514.568   91.544    0.190    0.433    6.465
  514.818   92.800    0.182    0.426    6.585
  515.068   93.543    0.179    0.429    6.774
  515.318   94.726    0.170    0.429    7.161
  515.568   95.721    0.157    0.421    7.754
  515.818   96.696    0.166    0.414    8.235
  516.068   96.572    0.172    0.403    8.730
  516.318   94.167    0.168    0.395    8.986
  516.568   89.868    0.149    0.382    9.267
  516.818   87.850    0.131    0.374    9.566
  517.068   87.334    0.124    0.369   10.161
  517.318   88.253    0.133    0.374   11.051
  517.568   89.213    0.143    0.378   11.476
  517.818   89.971    0.154    0.375   11.258
  518.068   86.438    0.137    0.356    9.927
  518.318   82.608    0.109    0.337    8.680
  518.568   79.818    0.122    0.349    7.990
  518.818   85.610    0.148    0.385    7.262
  519.068   90.535    0.147    0.408    6.964
  519.318   96.054    0.150    0.431    6.818
  519.568  101.888    0.165    0.432    6.832
  519.818  106.730    0.168    0.419    6.713
  520.068  109.321    0.166    0.410    6.595
  520.318  111.903    0.173    0.401    6.322
  520.568  112.594    0.186    0.408    5.865
  520.818  110.637    0.181    0.413    5.422
  521.068  108.681    0.168    0.415    5.171
  521.318  106.153    0.160    0.417    5.121
  521.568  103.330    0.173    0.416    4.982
  521.818  101.060    0.180    0.415    4.903
  522.068   97.034    0.178    0.415    4.525
  522.318   94.666    0.170    0.415    4.143
  522.568   91.667    0.163    0.416    3.431
  522.818   90.728    0.158    0.423    2.827
  523.068   92.820    0.177    0.434    2.390
  523.318   95.359    0.203    0.445    2.082
  523.568   96.707    0.216    0.461    1.839
  523.818   98.013    0.234    0.490    1.738
  524.068   98.020    0.247    0.513    1.707
  524.318   96.925    0.237    0.534    1.707
  524.568   96.209    0.232    0.545    1.741
  524.818   97.116    0.226    0.547    1.851
  525.068   98.779    0.220    0.541    1.974
  525.318  100.280    0.203    0.543    2.162
  525.568  102.632    0.190    0.527    2.693
  525.818  104.097    0.174    0.512    3.461
  526.068  103.489    0.161    0.478    4.020
  526.318  102.015    0.148    0.437    4.552
  526.568   98.249    0.139    0.409    5.030
  526.818   96.230    0.140    0.408    5.711
  527.068   96.328    0.145    0.407    5.906
  527.318   98.021    0.125    0.394    5.662
