~VERSION INFORMATION
 VERS.                 2.0:   CWLS LOG ASCII STANDARD -VERSION 2.0
 WRAP.                  NO:   ONE LINE PER DEPTH STEP
~WELL INFORMATION BLOCK
#MNEM.UNIT           DATA                    DESCRIPTION OF MNEMONIC
#---------    -------------------            -------------------------------
# Generated from Intellog Unique Number	CS_77_79/WELL/891
WELL.         BVX MERLAND DUNCAN             : Well_name    - WELL
LOC .         00/07-03-078-15W4/0            : Location     - LOCATION
UWI .         00/07-03-078-15W4/0            : Uwi          - UNIQUE WELL ID
ENTR.         JHS                            : Entered      - ENTERED BY
SRVC.         SCHLUMBERGER                   : Scn          - SERVICE COMPANY
STRT.M        180                            : top_depth    - START DEPTH
STOP.M        430                            : bot_depth    - STOP DEPTH
STEP.M        0.25                           : increment    - STEP LENGTH
 NULL. -999.2500:NULL Value
~CURVE INFORMATION BLOCK
#MNEM UNIT       ERCB CURVE CODE    CURVE DESCRIPTION
#-----------   ------------------   ----------------------------------
DEPT.M        00 001 00 00         : DEPTH        - DEPTH
DPHI.V/V      00 890 00 00         : PHID         - DENSITY POROSITY (LIMESTONE)
NPHI.V/V      00 330 00 00         : PHIN         - NEUTRON POROSITY (LIMESTONE)
GR  .API      00 310 00 00         : GR           - GAMMA RAY
ILD .OHMM     00 120 00 00         : RESD         - DEEP RESISTIVITY (DIL)
~PARAMETER INFORMATION
#MNEM.UNIT           DATA             DESCRIPTION OF MNEMONIC
#---------         -----------     ------------------------------
GL  .M        581.32               : gl           - GROUND LEVEL ELEVATION
EREF.M        584.77               : kb           - ELEVATION OF DEPTH REFERENCE
DATM.M        584.77               : datum        - DATUM ELEVATION
TDD .M        430                  : tdd          - TOTAL DEPTH DRILLER
RUN .         ONE                  : Run          - RUN NUMBER
ENG .         BILL                 : Engineer     - RECORDING ENGINEER
WIT .         JIM                  : Witness      - WITNESSED BY
MUD .         GEL                  : Mud_type     - MUD TYPE
MATR.         LIMESTONE            : Logunit      - NEUTRON MATRIX
TMAX.C        23                   : BHT          - MAXIMUM RECORDED TEMPERATURE
BHTD.M        430                  : BHTDEP       - MAXIMUM RECORDED TEMPERATURE
MATR.         1                    : LOGUNIT      - NEUTRON MATRIX
RMT .C        25                   : MDTP         - TEMPERATURE OF MUD
NEUT.         1                    : NEUTRON      - NEUTRON TYPE
RESI.         0                    : RESIST       - RESISTIVITY TYPE
RMC .OHMM     0.25                 : RMC          - RESISTIVITY OF MUD CAKE
RMF .OHMM     0.25                 : RMF          - RESISTIVITY OF MUD FILTRATE
SUFT.C        15                   : SUFT         - SURFACE TEMPERATURE
~A  DEPTH     PHID     PHIN       GR     RESD
# ...
  267.000    0.368    0.422   44.234   11.852
  267.250    0.370    0.407   44.847   11.856
  267.500    0.374    0.408   46.073   12.088
  267.750    0.376    0.420   49.757   12.092
  268.000    0.390    0.413   50.983   11.870
  268.250    0.396    0.413   48.520   11.875
  268.500    0.390    0.434   45.443   11.878
  268.750    0.379    0.458   44.824   11.882
  269.000    0.370    0.460   46.665   12.114
  269.250    0.365    0.432   49.121   12.119
  269.500    0.367    0.423   49.732   12.123
  269.750    0.372    0.433   48.499   12.127
  270.000    0.372    0.425   48.494   12.363
  270.250    0.368    0.405   46.648   12.367
  270.500    0.367    0.396   44.185   12.374
  270.750    0.369    0.388   44.797   12.376
  271.000    0.377    0.409   47.251   12.150
  271.250    0.365    0.420   48.478   12.153
  271.500    0.356    0.413   48.474   11.930
  271.750    0.357    0.413   46.625   11.935
  272.000    0.364    0.427   45.393   11.938
  272.250    0.370    0.422   44.774   11.943
  272.500    0.378    0.412   43.542   11.948
  272.750    0.379    0.409   41.079   12.180
  273.000    0.383    0.417   41.076   12.185
  273.250    0.375    0.434   43.531   12.422
  273.500    0.364    0.431   42.297   12.427
  273.750    0.352    0.409   44.138   12.669
  274.000    0.349    0.399   44.749   12.916
  274.250    0.359    0.396   41.672   12.919
  274.500    0.361    0.398   39.824   13.172
  274.750    0.348    0.400   42.895   12.930
  275.000    0.342    0.396   44.119   12.934
  275.250    0.340    0.389   43.501   12.939
  275.500    0.346    0.390   44.113   12.943
  275.750    0.368    0.407   43.494   12.948
  276.000    0.369    0.394   41.647   12.954
  276.250    0.372    0.375   41.029   13.204
  276.500    0.377    0.384   42.868   13.210
  276.750    0.366    0.401   44.095   13.213
  277.000    0.361    0.410   44.091   13.219
  277.250    0.356    0.410   42.244   13.223
  277.500    0.357    0.400   39.167   13.229
  277.750    0.362    0.374   42.237   12.742
  278.000    0.357    0.373   52.684   11.818
  278.250    0.325    0.401   65.589   10.754
  278.500    0.287    0.443   72.348    9.603
  278.750    0.272    0.476   76.647    8.575
  279.000    0.265    0.488   79.717    7.513
  279.250    0.263    0.500   81.558    6.585
  279.500    0.272    0.501   76.637    6.224
  279.750    0.318    0.428   71.100    6.225
  280.000    0.324    0.419   69.866    6.976
  280.250    0.299    0.416   72.323    7.671
  280.500    0.278    0.449   79.081    8.277
  280.750    0.257    0.461   82.766    8.126
  281.000    0.245    0.469   83.377    7.827
  281.250    0.242    0.481   83.989    7.538
  281.500    0.245    0.477   86.443    7.125
  281.750    0.246    0.456   86.439    7.128
  282.000    0.245    0.446   85.820    7.130
  282.250    0.251    0.440   87.662    7.408
  282.500    0.257    0.452   86.429    7.696
  282.750    0.257    0.473   83.352    7.997
  283.000    0.249    0.458   84.578    8.000
  283.250    0.242    0.447   88.262    8.002
  283.500    0.245    0.446   91.947    7.707
  283.750    0.244    0.449   93.788    7.566
  284.000    0.238    0.445   88.866    7.426
  284.250    0.231    0.438   83.945    7.153
  284.500    0.226    0.431   85.785    6.761
  284.750    0.224    0.433   91.314    6.153
  285.000    0.230    0.452   94.385    5.600
  285.250    0.240    0.453   92.537    5.394
  285.500    0.244    0.467   88.229    5.395
  285.750    0.254    0.479   85.767    5.296
  286.000    0.256    0.459   86.379    5.399
  286.250    0.262    0.459   87.605    5.504
  286.500    0.273    0.480   85.142    5.719
  286.750    0.255    0.472   87.596    6.055
  287.000    0.245    0.462   88.823    6.411
  287.250    0.259    0.474   82.057    7.049
  287.500    0.281    0.471   74.677    7.752
  287.750    0.288    0.457   70.985    8.687
  288.000    0.293    0.446   69.752    9.374
  288.250    0.302    0.438   72.822    9.557
  288.500    0.291    0.453   78.351    8.863
  288.750    0.276    0.489   85.109    7.477
  289.000    0.280    0.516   90.023    4.487
  289.250    0.293    0.532   92.479    3.017
  289.500    0.303    0.541   96.778    2.498
  289.750    0.301    0.542   98.003    2.361
  290.000    0.277    0.543   96.771    2.362
  290.250    0.259    0.551   96.153    2.408
  290.500    0.283    0.528   98.608    2.454
  290.750    0.325    0.520   97.376    2.455
  291.000    0.308    0.541   94.913    2.410
  291.250    0.301    0.583   91.836    2.322
  291.500    0.314    0.557   87.528    2.279
  291.750    0.318    0.589   84.452    2.280
  292.000    0.297    0.591   85.677    2.280
  292.250    0.296    0.572   89.362    2.369
  292.500    0.299    0.583   88.129    2.508
  292.750    0.290    0.586   85.667    2.758
  293.000    0.280    0.549   86.892    3.033
  293.250    0.274    0.521   89.348    3.399
  293.500    0.265    0.521   86.885    3.668
  293.750    0.258    0.532   85.652    4.033
  294.000    0.275    0.556   88.107    4.695
  294.250    0.301    0.483   90.563    5.162
  294.500    0.292    0.458   85.641    6.008
  294.750    0.307    0.432   77.031    6.993
  295.000    0.325    0.421   63.504    7.836
  295.250    0.339    0.412   53.049    8.618
  295.500    0.343    0.400   52.431    9.124
  295.750    0.341    0.394   54.272    9.302
  296.000    0.335    0.404   56.727    9.305
  296.250    0.333    0.409   56.109    9.309
  296.500    0.328    0.404   54.876    9.312
  296.750    0.320    0.407   54.257    9.141
  297.000    0.314    0.398   53.024    9.145
  297.250    0.330    0.386   49.332    9.147
  297.500    0.346    0.383   48.713    9.151
  297.750    0.355    0.397   49.940    9.155
  298.000    0.350    0.403   50.550    9.157
  298.250    0.346    0.407   52.391    9.161
  298.500    0.348    0.417   54.232    9.164
  298.750    0.351    0.394   55.458    9.168
  299.000    0.350    0.391   57.913    9.171
  299.250    0.346    0.413   60.368    9.175
  299.500    0.349    0.410   61.595    9.178
  299.750    0.349    0.401   62.206    9.181
  300.000    0.344    0.401   57.898    9.012
  300.250    0.348    0.398   54.821    9.015
  300.500    0.353    0.401   56.661    9.018
  300.750    0.350    0.407   57.888    9.021
  301.000    0.345    0.414   54.810    9.198
  301.250    0.337    0.408   51.117    9.200
  301.500    0.333    0.401   56.032    9.203
  301.750    0.333    0.406   60.946    9.208
  302.000    0.339    0.413   61.558    9.037
  302.250    0.350    0.418   62.169    9.041
  302.500    0.338    0.422   65.239    9.217
  302.750    0.333    0.410   65.850    9.396
  303.000    0.330    0.402   66.462    9.579
  303.250    0.327    0.403   69.530    9.404
  303.500    0.322    0.397   70.758    9.231
  303.750    0.325    0.391   72.598    8.724
  304.000    0.325    0.397   71.979    8.245
  304.250    0.323    0.420   70.746    8.093
  304.500    0.330    0.441   71.358    7.796
  304.750    0.337    0.444   69.510    7.509
  305.000    0.333    0.423   68.278    7.233
  305.250    0.314    0.407   72.577    6.836
  305.500    0.310    0.417   76.262    6.461
  305.750    0.303    0.431   78.716    5.880
  306.000    0.293    0.446   78.713    5.882
  306.250    0.292    0.430   75.020    5.997
  306.500    0.291    0.424   73.173    6.231
  306.750    0.285    0.431   73.784    6.473
  307.000    0.278    0.424   73.781    6.853
  307.250    0.275    0.411   76.237    7.120
  307.500    0.287    0.432   81.150    6.858
  307.750    0.291    0.445   78.688    6.360
  308.000    0.284    0.436   79.913    6.484
  308.250    0.282    0.441   79.910    6.737
  308.500    0.289    0.459   77.447    7.133
  308.750    0.296    0.436   74.985    7.412
  309.000    0.295    0.422   72.523    7.699
  309.250    0.287    0.417   71.904    8.000
  309.500    0.291    0.414   76.202    8.470
  309.750    0.297    0.424   76.815    8.635
  310.000    0.300    0.440   78.655    8.476
  310.250    0.294    0.434   74.348    8.164
