~VERSION INFORMATION
 VERS.                 2.0:   CWLS LOG ASCII STANDARD -VERSION 2.0
 WRAP.                  NO:   ONE LINE PER DEPTH STEP
~WELL INFORMATION BLOCK
#MNEM.UNIT           DATA                    DESCRIPTION OF MNEMONIC
#---------    -------------------            -------------------------------
# Generated from Intellog Unique Number	CX_WELLS/WELL/2922
WELL.         GULF SURMONT                   : Well_name    - WELL
LOC .         00/06-12-082-09W4/0            : Location     - LOCATION
UWI .         00/06-12-082-09W400            : Uwi          - UNIQUE WELL ID
ENTR.         T                              : Entered      - ENTERED BY
SRVC.         SCHLUMBERGER                   : Scn          - SERVICE COMPANY
STRT.F        950                            : top_depth    - START DEPTH
STOP.F        1689.83                        : bot_depth    - STOP DEPTH
STEP.F        0.82                           : increment    - STEP LENGTH
 NULL. -999.2500:NULL Value
~CURVE INFORMATION BLOCK
#MNEM UNIT       ERCB CURVE CODE    CURVE DESCRIPTION
#-----------   ------------------   ----------------------------------
DEPT.F        00 001 00 00         : DEPTH        - DEPTH
GR  .API      00 310 00 00         : GR           - GAMMA RAY
NPHI.V/V      00 330 00 00         : PHIN         - NEUTRON POROSITY (SANDSTONE)
DPHI.V/V      00 890 00 00         : PHID         - DENSITY POROSITY (SANDSTONE)
ILD .OHMM     00 120 00 00         : RESD         - DEEP RESISTIVITY (OTHER)
~PARAMETER INFORMATION
#MNEM.UNIT           DATA             DESCRIPTION OF MNEMONIC
#---------         -----------     ------------------------------
GL  .F        2413                 : gl           - GROUND LEVEL ELEVATION
EREF.F        2425                 : kb           - ELEVATION OF DEPTH REFERENCE
DATM.F        2425                 : datum        - DATUM ELEVATION
TDD .F        1705                 : tdd          - TOTAL DEPTH DRILLER
RUN .         ONE                  : Run          - RUN NUMBER
ENG .         BILL                 : Engineer     - RECORDING ENGINEER
WIT .         JIM                  : Witness      - WITNESSED BY
MUD .         GEL                  : Mud_type     - MUD TYPE
MATR.         SANDSTONE            : Logunit      - NEUTRON MATRIX
TMAX.F        71.6                 : BHT          - MAXIMUM RECORDED TEMPERATURE
BHTD.F        1710                 : BHTDEP       - MAXIMUM RECORDED TEMPERATURE
MATR.         1                    : LOGUNIT      - NEUTRON MATRIX
RMT .F        73                   : MDTP         - TEMPERATURE OF MUD
NEUT.         1                    : NEUTRON      - NEUTRON TYPE
RESI.         4.65                 : RESIST       - RESISTIVITY TYPE
RMC .OHMM     5.05                 : RMC          - RESISTIVITY OF MUD CAKE
RMF .OHMM     5.05                 : RMF          - RESISTIVITY OF MUD FILTRATE
SUFT.F        35                   : SUFT         - SURFACE TEMPERATURE
~A  DEPTH       GR     PHIN     PHID     RESD
# ...
 1520.870   85.469    0.370    0.234   17.106
 1521.690   77.819    0.367    0.235   16.799
 1522.510   74.304    0.361    0.237   16.497
 1523.330   76.095    0.358    0.240   15.903
 1524.150   79.651    0.364    0.241   16.225
 1524.970   81.443    0.367    0.245   16.869
 1525.790   81.464    0.371    0.249   17.526
 1526.610   76.764    0.377    0.255   18.569
 1527.430   73.249    0.384    0.259   19.663
 1528.250   73.270    0.386    0.259   21.224
 1529.070   74.471    0.391    0.259   21.649
 1529.890   76.262    0.396    0.256   20.879
 1530.710   76.278    0.401    0.247   20.499
 1531.530   76.299    0.404    0.236   20.136
 1532.350   75.145    0.406    0.247   18.001
 1533.170   76.346    0.408    0.260   16.091
 1533.990   79.317    0.408    0.261   15.807
 1534.810   82.884    0.409    0.261   15.826
 1535.630   85.265    0.413    0.262   15.842
 1536.450   85.876    0.415    0.262   15.561
 1537.270   85.892    0.419    0.263   14.996
 1538.090   85.913    0.419    0.263   13.409
 1538.910   86.529    0.413    0.263   12.451
 1539.730   89.506    0.406    0.262   11.996
 1540.550   90.106    0.408    0.261   11.347
 1541.370   93.083    0.411    0.257   10.737
 1542.190   94.869    0.418    0.255    9.600
 1543.010   98.436    0.422    0.246    9.426
 1543.830  101.408    0.432    0.240    8.916
 1544.650  104.379    0.433    0.236    8.279
 1545.470  106.170    0.435    0.227    8.132
 1546.290  107.371    0.435    0.219    7.986
 1547.110  107.397    0.437    0.219    7.845
 1547.930  107.413    0.438    0.216    7.853
 1548.750  105.079    0.440    0.210    8.010
 1549.570  103.914    0.441    0.202    8.328
 1550.390  100.995    0.433    0.203    8.656
 1551.210  100.415    0.419    0.212    8.827
 1552.030   98.666    0.424    0.221    9.004
 1552.850   97.512    0.420    0.229    8.849
 1553.670   96.942    0.412    0.231    8.690
 1554.490   96.958    0.403    0.232    8.379
 1555.310   96.984    0.397    0.228    8.229
 1556.140   98.185    0.396    0.221    8.081
 1556.960   99.386    0.396    0.212    7.942
 1557.780  101.178    0.398    0.211    7.948
 1558.600  102.969    0.403    0.211    7.805
 1559.420  103.580    0.406    0.206    7.815
 1560.240  103.606    0.411    0.205    7.822
 1561.060  103.622    0.414    0.206    7.830
 1561.880  103.643    0.417    0.211    7.838
 1562.700  103.658    0.423    0.213    7.847
 1563.520  103.089    0.431    0.214    7.707
 1564.340  101.930    0.433    0.212    7.570
 1565.160  100.770    0.461    0.209    7.299
 1565.980   99.616    0.462    0.210    7.304
 1566.800   98.451    0.429    0.212    7.175
 1567.620   97.297    0.421    0.215    7.182
 1568.440   95.548    0.415    0.221    7.057
 1569.260   94.979    0.422    0.230    7.064
 1570.080   96.770    0.429    0.230    7.069
 1570.900   99.736    0.433    0.224    7.076
 1571.720  103.298    0.427    0.220    6.952
 1572.540  108.045    0.422    0.220    6.827
 1573.360  112.792    0.418    0.220    6.836
 1574.180  115.168    0.417    0.217    6.842
 1575.000  116.374    0.417    0.216    6.849
 1575.820  116.985    0.423    0.212    6.854
 1576.640  117.001    0.429    0.211    6.861
 1577.460  118.202    0.434    0.211    7.000
 1578.280  115.863    0.440    0.211    7.009
 1579.100  111.758    0.438    0.212    7.146
 1579.920  108.828    0.433    0.213    7.433
 1580.740  107.084    0.427    0.217    7.722
 1581.560  105.914    0.424    0.219    8.025
 1582.380  103.585    0.421    0.220    8.502
 1583.200  103.016    0.416    0.223    9.179
 1584.020  102.436    0.411    0.224    9.539
 1584.840  102.462    0.406    0.225   10.495
 1585.660  103.078    0.404    0.226   11.766
 1586.480  103.089    0.404    0.229   12.224
 1587.300  103.700    0.405    0.231   14.228
 1588.120  104.311    0.406    0.238   16.250
 1588.940  104.922    0.408    0.247   20.014
 1589.760  105.538    0.412    0.254   23.738
 1590.580  105.559    0.412    0.260   27.629
 1591.400   96.728    0.408    0.270   31.573
 1592.220   94.394    0.407    0.279   33.443
 1593.040   91.459    0.407    0.288   36.097
 1593.860   87.934    0.402    0.303   38.225
 1594.690   92.085    0.401    0.289   42.045
 1595.510   96.827    0.407    0.273   47.126
 1596.330   92.127    0.409    0.276   51.834
 1597.150   80.346    0.415    0.294   55.949
 1597.970   75.055    0.412    0.315   56.004
 1598.790   68.585    0.405    0.309   53.003
 1599.610   68.026    0.409    0.305   51.080
 1600.430   69.222    0.410    0.301   50.163
 1601.250   71.598    0.410    0.302   49.286
 1602.070   74.570    0.410    0.305   49.323
 1602.890   78.136    0.405    0.305   49.371
 1603.710   81.103    0.400    0.305   49.432
 1604.530   84.664    0.394    0.305   50.422
 1605.350   85.286    0.390    0.305   52.411
 1606.170   85.296    0.399    0.303   56.571
 1606.990   87.683    0.405    0.303   59.922
 1607.810   90.064    0.416    0.305   63.486
 1608.630   86.544    0.427    0.308   67.262
 1609.450   82.429    0.434    0.317   69.898
 1610.270   67.107    0.440    0.331   72.637
 1611.090   55.916    0.433    0.343   72.726
 1611.910   52.986    0.429    0.346   68.795
 1612.730   53.602    0.425    0.341   66.299
 1613.550   56.574    0.420    0.332   68.930
 1614.370   60.130    0.418    0.320   74.402
 1615.190   63.107    0.426    0.321   80.308
 1616.010   60.172    0.431    0.327   85.064
 1616.830   56.062    0.435    0.342   83.537
 1617.650   54.312    0.434    0.349   77.565
 1618.470   53.163    0.435    0.353   74.750
 1619.290   53.179    0.441    0.353   69.407
 1620.110   53.200    0.447    0.354   66.888
 1620.930   53.215    0.449    0.355   64.492
 1621.750   54.432    0.451    0.355   62.167
 1622.570   55.628    0.454    0.356   61.066
 1623.390   56.824    0.458    0.359   61.111
 1624.210   58.620    0.461    0.360   62.351
 1625.030   59.822    0.467    0.361   64.810
 1625.850   58.662    0.471    0.367   63.663
 1626.670   56.913    0.476    0.373   59.082
 1627.490   53.983    0.487    0.382   52.816
 1628.310   53.414    0.503    0.374   45.479
 1629.130   55.800    0.493    0.350   41.419
 1629.950   56.996    0.465    0.335   37.730
 1630.770   58.782    0.439    0.309   33.728
 1631.590   61.754    0.425    0.302   29.036
 1632.410   67.091    0.432    0.292   25.471
 1633.230   70.647    0.429    0.283   24.101
 1634.060   75.979    0.423    0.281   24.118
 1634.880   82.492    0.424    0.282   24.614
 1635.700   88.424    0.429    0.285   25.578
 1636.520   85.489    0.434    0.288   27.086
 1637.340   79.614    0.436    0.295   31.534
 1638.160   77.264    0.441    0.308   34.045
 1638.980   72.564    0.446    0.312   34.710
 1639.800   66.684    0.442    0.319   32.229
 1640.620   63.169    0.436    0.325   29.917
 1641.440   64.960    0.436    0.327   28.293
 1642.260   64.981    0.436    0.334   25.299
 1643.080   64.997    0.432    0.333   22.621
 1643.900   66.214    0.421    0.310   21.393
 1644.720   68.590    0.416    0.302   20.232
 1645.540   72.151    0.419    0.290   18.439
 1646.360   77.478    0.423    0.270   17.770
 1647.180   89.301    0.423    0.267   16.814
 1648.000   90.503    0.416    0.274   16.508
 1648.820   86.988    0.409    0.270   16.524
 1649.640   84.648    0.405    0.257   16.232
 1650.460   82.894    0.407    0.251   15.948
 1651.280   87.051    0.412    0.255   15.666
 1652.100   90.017    0.418    0.260   15.384
 1652.920   92.409    0.418    0.265   14.833
 1653.740   91.829    0.412    0.272   14.571
 1654.560   90.680    0.417    0.274   14.866
 1655.380   91.881    0.419    0.256   15.157
 1656.200   95.432    0.426    0.261   16.364
 1657.020   98.409    0.434    0.267   18.690
 1657.840   97.845    0.434    0.275   21.754
 1658.660   97.271    0.432    0.275   23.927
 1659.480   96.111    0.434    0.275   25.833
 1660.300   93.772    0.435    0.278   27.890
 1661.120   89.662    0.440    0.283   28.983
 1661.940   82.596    0.443    0.292   30.692
 1662.760   73.765    0.444    0.296   34.410
