~VERSION INFORMATION
 VERS.                 2.0:   CWLS LOG ASCII STANDARD -VERSION 2.0
 WRAP.                  NO:   ONE LINE PER DEPTH STEP
~WELL INFORMATION BLOCK
#MNEM.UNIT           DATA                    DESCRIPTION OF MNEMONIC
#---------    -------------------            -------------------------------
# Generated from Intellog Unique Number	CX_WELLS/WELL/4007
WELL.         PRECAM THORNBURY               : Well_name    - WELL
LOC .         00/04-30-078-13W4/0            : Location     - LOCATION
UWI .         00/04-30-078-13W4/0            : Uwi          - UNIQUE WELL ID
ENTR.         T                              : Entered      - ENTERED BY
SRVC.         SCHLUMBERGER                   : Scn          - SERVICE COMPANY
DATE.         03/06/92                       : Date         - LOG DATE
STRT.M        275                            : top_depth    - START DEPTH
STOP.M        505                            : bot_depth    - STOP DEPTH
STEP.M        0.25                           : increment    - STEP LENGTH
 NULL. -999.2500:NULL Value
~CURVE INFORMATION BLOCK
#MNEM UNIT       ERCB CURVE CODE    CURVE DESCRIPTION
#-----------   ------------------   ----------------------------------
DEPT.M        00 001 00 00         : DEPTH        - DEPTH
GR  .API      00 310 00 00         : GR           - GAMMA RAY
NPHI.V/V      00 330 00 00         : PHIN         - NEUTRON POROSITY (SANDSTONE)
DPHI.V/V      00 890 00 00         : PHID         - DENSITY POROSITY (SANDSTONE)
ILD .OHMM     00 120 00 00         : RESD         - DEEP RESISTIVITY (DIL)
~PARAMETER INFORMATION
#MNEM.UNIT           DATA             DESCRIPTION OF MNEMONIC
#---------         -----------     ------------------------------
GL  .M        675                  : gl           - GROUND LEVEL ELEVATION
EREF.M        679                  : kb           - ELEVATION OF DEPTH REFERENCE
DATM.M        679                  : datum        - DATUM ELEVATION
TDD .M        508                  : tdd          - TOTAL DEPTH DRILLER
RUN .         ONE                  : Run          - RUN NUMBER
ENG .         JO                   : Engineer     - RECORDING ENGINEER
WIT .         TIM                  : Witness      - WITNESSED BY
MUD .         GEL                  : Mud_type     - MUD TYPE
MATR.         SANDSTONE            : Logunit      - NEUTRON MATRIX
TMAX.C        19                   : BHT          - MAXIMUM RECORDED TEMPERATURE
BHTD.M        508                  : BHTDEP       - MAXIMUM RECORDED TEMPERATURE
RMT .C        19                   : MDTP         - TEMPERATURE OF MUD
MUDD.KG/M     1170                 : MWT          - MUD DENSITY
NEUT.         1                    : NEUTRON      - NEUTRON TYPE
RESI.         7.5                  : RESIST       - RESISTIVITY TYPE
RM  .OHMM     7.78                 : RM           - RESISTIVITY OF MUD
RMC .OHMM     7.78                 : RMC          - RESISTIVITY OF MUD CAKE
RMF .OHMM     7.78                 : RMF          - RESISTIVITY OF MUD FILTRATE
SUFT.C        4                    : SUFT         - SURFACE TEMPERATURE
~A  DEPTH       GR     PHIN     PHID     RESD
# ...
  449.000   90.351    0.373    0.264   15.838
  449.250   86.691    0.350    0.253   15.320
  449.500   82.430    0.333    0.249   15.057
  449.750   78.170    0.330    0.249   14.544
  450.000   73.291    0.339    0.240   14.049
  450.250   74.593    0.373    0.237   13.580
  450.500   79.619    0.378    0.240   13.117
  450.750   79.701    0.378    0.240   12.901
  451.000   77.295    0.364    0.237   12.479
  451.250   78.580    0.363    0.231   12.265
  451.500   83.591    0.369    0.222   12.317
  451.750   90.455    0.376    0.215   12.361
  452.000  101.663    0.381    0.211   12.378
  452.250  109.146    0.383    0.212   13.141
  452.500  112.936    0.375    0.216   13.941
  452.750  113.620    0.368    0.219   14.504
  453.000  109.359    0.344    0.225   17.558
  453.250   98.300    0.326    0.232   22.484
  453.500   92.802    0.312    0.243   25.710
  453.750   89.761    0.285    0.259   27.791
  454.000   84.882    0.274    0.274   25.856
  454.250   81.240    0.323    0.288   23.626
  454.500   76.361    0.344    0.288   21.982
  454.750   78.281    0.356    0.251   22.044
  455.000   82.055    0.358    0.221   22.107
  455.250   86.464    0.355    0.216   22.154
  455.500   85.293    0.349    0.220   22.653
  455.750   81.049    0.337    0.216   23.602
  456.000   77.406    0.334    0.209   24.101
  456.250   73.763    0.330    0.204   25.093
  456.500   71.975    0.326    0.228   26.639
  456.750   72.658    0.335    0.240   27.735
  457.000   73.960    0.346    0.236   28.897
  457.250   77.116    0.348    0.225   28.980
  457.500   80.891    0.339    0.205   27.973
  457.750   84.047    0.337    0.195   25.542
  458.000   87.203    0.339    0.199   23.355
  458.250   91.612    0.341    0.199   22.970
  458.500   94.768    0.342    0.195   23.019
  458.750   98.575    0.339    0.187   23.522
  459.000   96.770    0.331    0.183   24.490
  459.250   91.874    0.327    0.178   25.980
  459.500   82.034    0.328    0.176   27.050
  459.750   75.936    0.331    0.213   30.400
  460.000   74.147    0.337    0.227   31.629
  460.250   73.578    0.343    0.233   34.861
  460.500   70.570    0.347    0.244   36.957
  460.750   67.562    0.348    0.261   39.977
  461.000   66.359    0.345    0.270   40.849
  461.250   61.480    0.332    0.276   41.770
  461.500   56.617    0.301    0.283   43.520
  461.750   59.172    0.294    0.286   44.438
  462.000   59.839    0.291    0.287   46.300
  462.250   58.685    0.282    0.291   49.119
  462.500   58.149    0.272    0.291   52.072
  462.750   57.580    0.262    0.297   55.241
  463.000   57.028    0.233    0.309   58.603
  463.250   57.110    0.204    0.320   65.908
  463.500   57.143    0.192    0.343   69.870
  463.750   57.208    0.198    0.356   76.956
  464.000   54.818    0.210    0.345   86.425
  464.250   53.013    0.206    0.348   93.421
  464.500   50.607    0.196    0.363  100.983
  464.750   49.436    0.189    0.369  105.065
  465.000   48.900    0.184    0.368  113.650
  465.250   45.892    0.182    0.370  120.568
  465.500   44.071    0.182    0.375  130.328
  465.750   41.046    0.176    0.379  146.260
  466.000   38.038    0.162    0.386  161.206
  466.250   36.884    0.143    0.399  171.019
  466.500   35.730    0.130    0.411  188.361
  466.750   35.762    0.121    0.420  203.608
  467.000   34.592    0.127    0.427  237.568
  467.250   34.040    0.132    0.431  266.422
  467.500   32.886    0.143    0.428  277.586
  467.750   31.732    0.157    0.424  283.845
  468.000   31.146    0.179    0.415  290.245
  468.250   29.358    0.215    0.388  296.159
  468.500   27.569    0.228    0.375  232.755
  468.750   26.399    0.260    0.366  145.966
  469.000   27.701    0.292    0.355  128.467
  469.250   31.491    0.341    0.329  131.364
  469.500   36.502    0.373    0.315  134.136
  469.750   43.984    0.368    0.315  139.558
  470.000   47.775    0.360    0.322  156.842
  470.250   41.644    0.354    0.318  166.270
  470.500   34.292    0.355    0.318  201.130
  470.750   29.430    0.360    0.319  257.558
  471.000   27.023    0.366    0.319  342.178
  471.250   26.454    0.369    0.320  446.472
  471.500   25.918    0.365    0.317  400.101
  471.750   27.253    0.364    0.311  351.886
  472.000   28.522    0.361    0.309  340.139
  472.250   31.695    0.359    0.302  367.673
  472.500   32.378    0.353    0.306  397.435
  472.750   31.192    0.351    0.308  454.464
  473.000   28.167    0.346    0.309  464.382
  473.250   25.760    0.345    0.310  386.081
  473.500   25.208    0.343    0.310  333.012
  473.750   24.655    0.342    0.308  266.673
  474.000   24.103    0.343    0.306  225.905
  474.250   24.202    0.344    0.306  202.442
  474.500   24.902    0.349    0.306  184.850
  474.750   26.171    0.360    0.303  172.103
  475.000   31.198    0.366    0.304  169.266
  475.250   33.736    0.368    0.314  163.500
  475.500   33.183    0.367    0.314  176.860
  475.750   33.249    0.368    0.315  187.625
  476.000   32.697    0.373    0.321  199.046
  476.250   30.290    0.376    0.324  207.239
  476.500   28.518    0.377    0.326  215.923
  476.750   28.567    0.377    0.324  212.515
  477.000   30.520    0.378    0.322  197.720
  477.250   33.660    0.382    0.324  177.059
  477.500   34.945    0.388    0.331  161.558
  477.750   33.775    0.390    0.332  139.450
  478.000   32.003    0.392    0.333  107.560
  478.250   32.687    0.395    0.331   78.425
  478.500   35.843    0.402    0.324   71.559
  478.750   41.471    0.405    0.319   70.479
  479.000   48.987    0.411    0.318   74.769
  479.250   45.360    0.415    0.321   80.822
  479.500   42.921    0.399    0.326   95.950
  479.750   38.660    0.383    0.329  113.992
  480.000   35.017    0.363    0.327  102.152
  480.250   32.009    0.362    0.321   75.892
  480.500   37.019    0.356    0.311   73.254
  480.750   48.812    0.357    0.297   69.593
  481.000   54.457    0.365    0.286   69.691
  481.250   55.141    0.376    0.291   69.989
  481.500   48.424    0.383    0.293   70.038
  481.750   46.001    0.391    0.294   68.933
  482.000   44.831    0.391    0.300   67.941
  482.250   42.441    0.378    0.304   66.821
  482.500   42.523    0.370    0.294   64.591
  482.750   47.500    0.355    0.271   62.346
  483.000   55.617    0.346    0.258   56.928
  483.250   60.026    0.352    0.251   50.103
  483.500   58.221    0.357    0.249   47.430
  483.750   55.197    0.358    0.246   42.504
  484.000   49.699    0.356    0.255   38.090
  484.250   51.619    0.348    0.264   34.780
  484.500   54.792    0.342    0.252   31.167
  484.750   57.948    0.331    0.222   26.902
  485.000   61.722    0.322    0.184   24.108
  485.250   66.115    0.314    0.164   21.620
  485.500   74.232    0.308    0.169   19.402
  485.750   76.770    0.310    0.177   18.380
  486.000   77.454    0.313    0.188   17.728
  486.250   76.901    0.320    0.192   16.794
  486.500   75.764    0.320    0.190   15.625
  486.750   74.560    0.318    0.188   14.812
  487.000   74.008    0.317    0.185   14.052
  487.250   72.838    0.315    0.194   13.573
  487.500   72.285    0.314    0.200   13.111
  487.750   71.115    0.313    0.203   12.913
  488.000   68.708    0.310    0.198   12.700
  488.250   65.065    0.306    0.191   12.509
  488.500   63.277    0.299    0.182   12.320
  488.750   62.741    0.294    0.192   12.338
  489.000   62.823    0.300    0.204   12.143
  489.250   65.963    0.306    0.210   11.960
  489.500   70.990    0.310    0.212   11.560
  489.750   69.218    0.313    0.213   11.151
  490.000   67.396    0.322    0.218   10.007
  490.250   64.421    0.328    0.219    9.659
  490.500   63.835    0.333    0.225    9.150
  490.750   62.063    0.337    0.229    8.845
  491.000   60.860    0.338    0.232    8.699
  491.250   60.340    0.333    0.228    8.415
  491.500   59.788    0.323    0.228    8.432
  491.750   60.456    0.319    0.229    8.299
  492.000   60.521    0.319    0.229    8.329
  492.250   59.351    0.322    0.229    8.358
