~VERSION INFORMATION
 VERS.                 2.0:   CWLS LOG ASCII STANDARD -VERSION 2.0
 WRAP.                  NO:   ONE LINE PER DEPTH STEP
~WELL INFORMATION BLOCK
#MNEM.UNIT           DATA                    DESCRIPTION OF MNEMONIC
#---------    -------------------            -------------------------------
# Generated from Intellog Unique Number	CN_94_101/WELL/2749
WELL.         COLUMBIA GAS DEVELOPMENT LTD.  : Well_name    - WELL
LOC .         00/07-06-094-20W4/0            : Location     - LOCATION
UWI .         00/07-06-094-20W4/0            : Uwi          - UNIQUE WELL ID
ENTR.         JOETTE                         : Entered      - ENTERED BY
SRVC.         COMPUTALOG                     : Scn          - SERVICE COMPANY
DATE.         07\03\92                       : Date         - LOG DATE
STRT.M        180                            : top_depth    - START DEPTH
STOP.M        353                            : bot_depth    - STOP DEPTH
STEP.M        0.25                           : increment    - STEP LENGTH
 NULL. -999.2500:NULL Value
~CURVE INFORMATION BLOCK
#MNEM UNIT       ERCB CURVE CODE    CURVE DESCRIPTION
#-----------   ------------------   ----------------------------------
DEPT.M        00 001 00 00         : DEPTH        - DEPTH
CALI.MM       00 280 01 00         : CAL          - CALIPER
NPHI.V/V      00 330 00 00         : PHIN         - NEUTRON POROSITY (SANDSTONE)
GR  .API      00 310 00 00         : GR           - GAMMA RAY
DPHI.V/V      00 890 00 00         : PHID         - DENSITY POROSITY (SANDSTONE)
ILD .OHMM     00 120 00 00         : RESD         - DEEP RESISTIVITY (DIL)
~PARAMETER INFORMATION
#MNEM.UNIT           DATA             DESCRIPTION OF MNEMONIC
#---------         -----------     ------------------------------
GL  .M        661.36               : gl           - GROUND LEVEL ELEVATION
EREF.M        664.86               : kb           - ELEVATION OF DEPTH REFERENCE
DATM.M        664.86               : datum        - DATUM ELEVATION
TDD .M        354.7                : tdd          - TOTAL DEPTH DRILLER
RUN .         ONE                  : Run          - RUN NUMBER
ENG .         JO                   : Engineer     - RECORDING ENGINEER
WIT .         TIM                  : Witness      - WITNESSED BY
MUD .         GEL                  : Mud_type     - MUD TYPE
MATR.         SANDSTONE            : Logunit      - NEUTRON MATRIX
TMAX.C        22                   : BHT          - MAXIMUM RECORDED TEMPERATURE
BHTD.M        354.7                : BHTDEP       - MAXIMUM RECORDED TEMPERATURE
RMT .C        12.2                 : MDTP         - TEMPERATURE OF MUD
MUDD.KG/M     1150                 : MWT          - MUD DENSITY
NEUT.         1                    : NEUTRON      - NEUTRON TYPE
RESI.         0                    : RESIST       - RESISTIVITY TYPE
RM  .OHMM     3.3                  : RM           - RESISTIVITY OF MUD
RMC .OHMM     3.3                  : RMC          - RESISTIVITY OF MUD CAKE
RMF .OHMM     2.2                  : RMF          - RESISTIVITY OF MUD FILTRATE
SUFT.C        4                    : SUFT         - SURFACE TEMPERATURE
~A  DEPTH      CAL     PHIN       GR     PHID     RESD
# ...
  216.500  158.745    0.329   51.752    0.238   14.053
  216.750  158.772    0.340   57.757    0.295   12.810
  217.000  157.790    0.348   50.021    0.313   12.342
  217.250  157.827    0.352   48.856    0.339   11.674
  217.500  159.901    0.363   65.026    0.370   10.642
  217.750  160.939    0.372   81.189    0.314    9.702
  218.000  168.043    0.379   99.143    0.261    9.348
  218.250  171.127    0.368   99.779    0.260   10.062
  218.500  169.126    0.357   93.827    0.269   10.831
  218.750  164.133    0.359   82.506    0.218   11.031
  219.000  163.142    0.395   69.990    0.199   10.827
  219.250  161.187    0.411   91.537    0.189    9.167
  219.500  162.205    0.433  107.101    0.217    6.453
  219.750  162.242    0.461  115.497    0.237    5.265
  220.000  163.298    0.490  119.112    0.234    4.296
  220.250  164.344    0.512  116.155    0.232    3.845
  220.500  164.381    0.484  113.796    0.235    3.570
  220.750  165.418    0.470  112.034    0.236    3.636
  221.000  166.465    0.467  112.080    0.230    3.772
  221.250  166.510    0.474  112.111    0.224    4.136
  221.500  166.547    0.481  112.141    0.225    4.370
  221.750  167.603    0.489  112.180    0.226    4.370
  222.000  167.630    0.482  112.195    0.222    4.369
  222.250  169.705    0.471  115.213    0.220    4.532
  222.500  170.742    0.467  113.451    0.221    4.969
  222.750  170.770    0.462  110.494    0.224    5.976
  223.000  172.844    0.454  106.948    0.231    7.881
  223.250  173.872    0.444  105.186    0.234    8.803
  223.500  173.909    0.436  104.619    0.233    9.302
  223.750  170.926    0.402  105.247    0.229    9.651
  224.000  167.924    0.370  105.278    0.220   10.012
  224.250  166.951    0.371  107.101    0.222   10.196
  224.500  171.027    0.379  109.521    0.218   10.194
  224.750  170.054    0.385  107.154    0.213   10.005
  225.000  164.033    0.391  103.003    0.213    9.640
  225.250  159.039    0.385  102.443    0.215    9.461
  225.500  163.115    0.371  102.474    0.216    9.459
  225.750  165.171    0.377  100.115    0.222    9.457
  226.000  165.208    0.385   97.158    0.230   10.180
  226.250  164.235    0.390   93.604    0.241   10.958
  226.500  164.262    0.391   91.245    0.251   11.579
  226.750  167.328    0.382   88.885    0.256   12.464
  227.000  169.384    0.372   88.916    0.257   12.931
  227.250  168.411    0.364   90.149    0.254   12.928
  227.500  167.438    0.370   90.180    0.249   12.456
  227.750  166.474    0.381   89.008    0.246   11.782
  228.000  165.502    0.388   87.246    0.233   11.353
  228.250  164.529    0.395   89.069    0.232   10.541
  228.500  164.575    0.400   95.074    0.238   10.157
  228.750  163.583    0.388   98.100    0.243    9.970
  229.000  161.619    0.402   94.538    0.255    9.606
  229.250  161.656    0.424   93.971    0.264    9.086
  229.500  162.702    0.431  104.166    0.244    8.595
  229.750  166.787    0.434  107.192    0.238    7.980
  230.000  169.852    0.462  104.833    0.254    7.275
  230.250  170.899    0.463  101.278    0.252    6.632
  230.500  170.926    0.462  103.094    0.244    6.046
  230.750  170.963    0.455  106.112    0.237    5.311
  231.000  171.000    0.451  106.150    0.237    4.932
  231.250  172.055    0.445  104.986    0.238    4.665
  231.500  172.083    0.439  103.224    0.239    4.840
  231.750  172.111    0.428   97.272    0.251    5.406
  232.000  172.147    0.418   85.353    0.269    6.265
  232.250  169.164    0.407   86.594    0.281    7.396
  232.500  165.153    0.398   87.812    0.270    8.572
  232.750  161.151    0.390   89.643    0.263    9.574
  233.000  159.178    0.386   90.255    0.276   10.117
  233.250  159.215    0.395   92.684    0.287   10.303
  233.500  159.251    0.399   93.312    0.285   10.302
  233.750  160.316    0.400   89.750    0.271    9.744
  234.000  161.363    0.401   77.831    0.183    8.882
  234.250  161.390    0.404   75.480    0.128    8.402
  234.500  162.427    0.412   74.913    0.145    8.096
  234.750  164.502    0.420   79.126    0.176    7.658
  235.000  164.520    0.411   84.533    0.207    7.111
  235.250  166.576    0.406   89.941    0.243    6.481
  235.500  169.642    0.420   92.959    0.244    6.245
  235.750  169.679    0.438   96.582    0.241    6.018
  236.000  168.706    0.440   98.995    0.232    5.692
  236.250  167.733    0.424  101.415    0.227    6.127
  236.500  166.760    0.413   97.869    0.226    6.595
  236.750  166.806    0.403   93.710    0.222    7.232
  237.000  166.852    0.394   87.766    0.215    8.229
  237.250  165.888    0.376   84.211    0.212    9.362
  237.500  165.916    0.381   84.839    0.221   10.265
  237.750  165.943    0.390   88.455    0.234   10.847
  238.000  164.979    0.365   90.883    0.243   11.047
  238.250  164.016    0.343   90.324    0.249   11.045
  238.500  164.034    0.370   87.957    0.244   10.447
  238.750  164.071    0.390   87.987    0.240    9.881
  239.000  164.126    0.366   91.013    0.255    9.699
  239.250  164.144    0.355   91.641    0.262    9.878
  239.500  165.191    0.346   86.884    0.196   12.099
  239.750  166.237    0.362   76.160    0.146   13.025
  240.000  164.264    0.383   77.386    0.171   13.265
  240.250  163.282    0.395   82.794    0.225   12.547
  240.500  162.318    0.405   86.409    0.245   11.228
  240.750  161.363    0.422   89.427    0.276   10.426
  241.000  161.382    0.406   91.848    0.264    9.862
  241.250  162.446    0.390   95.463    0.251    9.329
  241.500  162.465    0.383   97.301    0.242    8.989
  241.750  164.521    0.382   93.150    0.233    8.193
  242.000  166.586    0.379   93.180    0.241    8.043
  242.250  169.652    0.374   94.996    0.249    7.893
  242.500  171.717    0.377   92.636    0.231    7.746
  242.750  171.735    0.416   87.895    0.220    7.745
  243.000  168.752    0.431   85.528    0.274    7.743
  243.250  165.760    0.441   81.376    0.276    7.324
  243.500  164.787    0.453   88.576    0.260    6.928
  243.750  163.814    0.466   92.789    0.255    5.866
  244.000  162.851    0.475   94.620    0.246    4.613
  244.250  162.869    0.485   95.240    0.241    4.284
  244.500  163.934    0.483   94.689    0.256    4.283
  244.750  162.961    0.476   94.107    0.262    4.696
  245.000  162.998    0.462   93.540    0.258    4.962
  245.250  162.016    0.456   92.376    0.258    5.341
  245.500  162.071    0.458   91.809    0.298    5.542
  245.750  162.098    0.458   90.667    0.307    5.856
  246.000  162.126    0.459   90.683    0.310    5.964
  246.250  162.172    0.460   91.908    0.307    5.641
  246.500  163.218    0.465   95.531    0.296    5.142
  246.750  164.255    0.477   97.952    0.268    4.602
  247.000  165.302    0.482  101.567    0.251    4.517
  247.250  165.338    0.484  104.585    0.230    4.352
  247.500  166.385    0.485  107.005    0.229    4.432
  247.750  166.431    0.485  108.231    0.231    4.771
  248.000  166.458    0.483  108.851    0.231    5.136
  248.250  167.514    0.479  107.097    0.230    5.736
  248.500  167.569    0.474  104.730    0.229    6.175
  248.750  167.597    0.472   99.989    0.232    6.405
  249.000  167.633    0.467   97.025    0.248    6.523
  249.250  167.661    0.456   94.068    0.248    6.521
  249.500  166.697    0.447  106.055    0.245    6.642
  249.750  166.725    0.435  109.073    0.236    6.640
  250.000  166.761    0.429  104.929    0.219    6.762
  250.250  167.808    0.447  102.562    0.205    6.762
  250.500  168.854    0.454  103.198    0.191    6.636
  250.750  168.900    0.450  105.611    0.155    6.514
  251.000  167.936    0.454  109.226    0.192    5.937
  251.250  166.954    0.462  112.252    0.203    5.616
  251.500  166.991    0.468  113.470    0.211    5.119
  251.750  167.019    0.477  116.495    0.217    5.119
  252.000  167.055    0.481  118.916    0.211    5.024
  252.250  170.139    0.482  118.349    0.209    5.023
  252.500  171.177    0.495  116.595    0.200    5.021
  252.750  171.223    0.498  116.028    0.197    5.020
