~VERSION INFORMATION
 VERS.                 2.0:   CWLS LOG ASCII STANDARD -VERSION 2.0
 WRAP.                  NO:   ONE LINE PER DEPTH STEP
~WELL INFORMATION BLOCK
#MNEM.UNIT           DATA                    DESCRIPTION OF MNEMONIC
#---------    -------------------            -------------------------------
# Generated from Intellog Unique Number	CS_67_68/WELL/2177
WELL.         07-23-067-06W4                 : Well_name    - WELL
LOC .         00/07-23-067-06W4/0            : Location     - LOCATION
UWI .         00/07-23-067-06W4/0            : Uwi          - UNIQUE WELL ID
ENTR.         SP                             : Entered      - ENTERED BY
SRVC.         SCHLUMBERGER                   : Scn          - SERVICE COMPANY
STRT.M        325                            : top_depth    - START DEPTH
STOP.M        536                            : bot_depth    - STOP DEPTH
STEP.M        0.25                           : increment    - STEP LENGTH
 NULL. -999.2500:NULL Value
~CURVE INFORMATION BLOCK
#MNEM UNIT       ERCB CURVE CODE    CURVE DESCRIPTION
#-----------   ------------------   ----------------------------------
DEPT.M        00 001 00 00         : DEPTH        - DEPTH
ILD .OHMM     00 120 00 00         : RESD         - DEEP RESISTIVITY (DIL)
DPHI.V/V      00 890 00 00         : PHID         - DENSITY POROSITY (LIMESTONE)
NPHI.V/V      00 330 00 00         : PHIN         - NEUTRON POROSITY (LIMESTONE)
GR  .API      00 310 00 00         : GR           - GAMMA RAY
CALI.MM       00 280 01 00         : CAL          - CALIPER
~PARAMETER INFORMATION
#MNEM.UNIT           DATA             DESCRIPTION OF MNEMONIC
#---------         -----------     ------------------------------
GL  .M        653.7                : gl           - GROUND LEVEL ELEVATION
EREF.M        657                  : kb           - ELEVATION OF DEPTH REFERENCE
DATM.M        657                  : datum        - DATUM ELEVATION
TDD .M        545                  : tdd          - TOTAL DEPTH DRILLER
RUN .         ONE                  : Run          - RUN NUMBER
ENG .         BILL                 : Engineer     - RECORDING ENGINEER
WIT .         JIM                  : Witness      - WITNESSED BY
MUD .         GEL                  : Mud_type     - MUD TYPE
MATR.         LIMESTONE            : Logunit      - NEUTRON MATRIX
TMAX.C        23                   : BHT          - MAXIMUM RECORDED TEMPERATURE
BHTD.M        545                  : BHTDEP       - MAXIMUM RECORDED TEMPERATURE
MATR.         1                    : LOGUNIT      - NEUTRON MATRIX
RMT .C        25                   : MDTP         - TEMPERATURE OF MUD
NEUT.         1                    : NEUTRON      - NEUTRON TYPE
RESI.         0                    : RESIST       - RESISTIVITY TYPE
RMC .OHMM     0.25                 : RMC          - RESISTIVITY OF MUD CAKE
RMF .OHMM     0.25                 : RMF          - RESISTIVITY OF MUD FILTRATE
SUFT.C        15                   : SUFT         - SURFACE TEMPERATURE
~A  DEPTH     RESD     PHID     PHIN       GR      CAL
  325.000    2.518    0.231    0.531  111.322  170.491
  325.250    2.634    0.247    0.531  111.686  168.547
  325.500    2.750    0.259    0.528  112.477  166.908
  325.750    2.801    0.255    0.522  110.332  165.168
  326.000    2.864    0.246    0.513  107.391  164.143
  326.250    2.902    0.243    0.493  108.427  163.933
  326.500    2.825    0.249    0.480  110.260  165.661
  326.750    2.756    0.252    0.493  109.216  166.165
  327.000    2.766    0.224    0.451  102.357  165.342
  327.250    2.828    0.152    0.453  103.945  164.725
  327.500    2.969    0.186    0.480  108.470  164.207
  327.750    3.082    0.220    0.499  112.996  163.897
  328.000    3.206    0.260    0.499  108.341  163.890
  328.250    3.235    0.250    0.492  104.848  164.598
  328.500    3.186    0.259    0.481  104.050  165.306
  328.750    3.149    0.273    0.464  102.394  166.219
  329.000    3.089    0.277    0.479  100.187  167.029
  329.250    3.025    0.283    0.503  101.774  168.553
  329.500    2.973    0.285    0.519  101.097  169.363
  329.750    2.995    0.294    0.525  100.237  169.561
  330.000    3.162    0.281    0.530   99.560  168.739
  330.250    3.428    0.273    0.506  100.230  167.815
  330.500    3.895    0.279    0.455   99.798  166.585
  330.750    4.369    0.286    0.424   97.713  164.947
  331.000    4.973    0.291    0.409   95.874  163.411
  331.250    5.341    0.272    0.401   94.340  162.283
  331.500    5.524    0.219    0.397   96.234  162.684
  331.750    5.627    0.223    0.413  101.004  164.310
  332.000    5.668    0.242    0.431  104.305  163.896
  332.250    5.698    0.256    0.447   98.365  162.360
  332.500    5.654    0.257    0.399   90.589  160.925
  332.750    5.332    0.246    0.378   82.446  160.104
  333.000    5.085    0.257    0.371   75.588  159.383
  333.250    4.876    0.269    0.358   65.058  159.276
  333.500    4.677    0.288    0.351   55.079  158.964
  333.750    4.477    0.283    0.347   45.956  158.856
  334.000    4.501    0.287    0.338   51.400  158.544
  334.250    4.534    0.289    0.328   58.434  158.436
  334.500    4.575    0.277    0.344   65.529  158.226
  334.750    4.557    0.238    0.367   47.594  158.219
  335.000    4.530    0.249    0.363   40.675  158.214
  335.250    4.427    0.269    0.350   37.550  158.208
  335.500    4.343    0.279    0.335   35.650  158.610
  335.750    4.334    0.265    0.344   35.462  158.705
  336.000    4.357    0.268    0.346   35.948  158.700
  336.250    4.372    0.281    0.332   41.453  158.897
  336.500    4.404    0.289    0.323   52.710  158.891
  336.750    4.469    0.243    0.346   60.539  158.988
  337.000    4.510    0.224    0.379   71.307  158.981
  337.250    4.543    0.267    0.406   78.280  158.976
  337.500    4.576    0.282    0.414   86.233  158.970
  337.750    4.609    0.289    0.421   94.368  158.862
  338.000    4.625    0.292    0.424   93.324  158.651
  338.250    4.641    0.289    0.414   96.932  158.646
  338.500    4.605    0.279    0.405   98.948  158.537
  338.750    4.484    0.280    0.414   84.379  158.531
  339.000    4.300    0.289    0.376   72.870  158.627
  339.250    4.163    0.301    0.379   66.011  158.519
  339.500    4.069    0.303    0.404   63.070  158.513
  339.750    3.984    0.283    0.417   54.988  158.508
  340.000    4.028    0.298    0.392   51.190  158.400
  340.250    4.166    0.318    0.377   66.119  158.495
  340.500    4.349    0.308    0.367   80.681  158.592
  340.750    4.610    0.269    0.371   90.959  158.687
  341.000    4.876    0.231    0.392   96.280  158.579
  341.250    5.139    0.240    0.406   96.582  158.471
  341.500    5.365    0.248    0.414   97.497  158.567
  341.750    5.538    0.229    0.418  100.920  158.459
  342.000    5.642    0.229    0.418  102.630  158.453
  342.250    5.545    0.250    0.415  104.891  158.345
  342.500    4.895    0.260    0.397  109.906  158.033
  342.750    4.362    0.250    0.392  115.471  157.925
  343.000    3.991    0.234    0.407  119.751  158.123
  343.250    3.658    0.217    0.432  121.400  158.423
  343.500    3.424    0.205    0.459  119.927  158.825
  343.750    3.253    0.214    0.486  113.988  158.818
  344.000    3.252    0.233    0.500  105.538  158.813
  344.250    3.539    0.269    0.476   95.314  158.909
  344.500    3.822    0.312    0.463   88.457  159.004
  344.750    4.043    0.342    0.449   76.091  158.998
  345.000    4.293    0.345    0.432   82.696  158.789
  345.250    4.567    0.327    0.432   93.403  158.578
  345.500    4.768    0.298    0.426   99.764  158.573
  345.750    4.940    0.244    0.428  106.554  159.586
  346.000    5.004    0.236    0.440   91.373  160.499
  346.250    4.928    0.258    0.450   77.783  160.492
  346.500    4.673    0.291    0.446   68.293  159.874
  346.750    4.448    0.308    0.432   67.004  159.358
  347.000    4.218    0.319    0.418   65.592  159.046
  347.250    4.031    0.330    0.415   65.589  158.632
  347.500    3.888    0.349    0.417   66.626  158.422
  347.750    3.792    0.357    0.427   67.112  157.906
  348.000    3.734    0.353    0.443   67.904  157.900
  348.250    3.698    0.350    0.432   69.247  157.486
  348.500    3.669    0.353    0.433   70.651  157.378
  348.750    3.648    0.358    0.441   73.339  157.066
  349.000    3.599    0.361    0.440   75.172  156.958
  349.250    3.544    0.355    0.422   76.332  156.952
  349.500    3.490    0.364    0.414   71.555  157.048
  349.750    3.436    0.368    0.411   68.062  157.042
  350.000    3.410    0.357    0.416   64.754  156.832
  350.250    3.396    0.354    0.413   61.323  156.519
  350.500    3.459    0.354    0.411   57.954  156.412
  350.750    3.524    0.356    0.412   58.623  155.998
  351.000    3.576    0.359    0.421   62.536  155.379
  351.250    3.636    0.363    0.413   65.531  155.068
  351.500    3.740    0.356    0.411   67.119  154.653
  351.750    4.023    0.344    0.404   64.362  154.545
  352.000    4.256    0.326    0.395   70.845  154.845
  352.250    4.402    0.304    0.402   79.164  155.349
  352.500    4.578    0.293    0.413   85.036  156.363
  352.750    4.744    0.289    0.422   90.785  157.173
  353.000    4.869    0.290    0.433   93.413  157.575
  353.250    4.988    0.283    0.405   92.063  158.487
  353.500    5.025    0.269    0.385   92.059  158.889
  353.750    4.995    0.259    0.391   92.546  158.985
  354.000    4.657    0.257    0.397   91.991  158.979
  354.250    4.358    0.263    0.395   83.175  158.667
  354.500    4.220    0.274    0.383   75.582  158.354
  354.750    4.108    0.284    0.384   72.641  158.144
  355.000    4.068    0.295    0.395   73.616  158.343
  355.250    4.067    0.311    0.399   78.264  158.847
  355.500    4.151    0.290    0.398   83.891  159.555
  355.750    4.285    0.278    0.397   84.194  159.957
  356.000    4.432    0.291    0.397   81.069  160.155
  356.250    4.557    0.304    0.402   78.862  160.046
  356.500    4.660    0.320    0.407   81.184  160.041
  356.750    4.774    0.310    0.399   81.058  160.035
  357.000    5.013    0.298    0.393   80.748  160.131
  357.250    5.020    0.283    0.388   85.273  160.227
  357.500    5.057    0.274    0.372   92.858  160.119
  357.750    5.260    0.264    0.375   96.955  160.010
  358.000    5.318    0.232    0.414  100.440  159.903
  358.250    5.376    0.239    0.443  101.354  159.692
  358.500    5.426    0.203    0.466  100.004  159.686
  358.750    5.475    0.231    0.483   98.777  159.477
  359.000    5.557    0.251    0.468   98.161  158.960
  359.250    5.629    0.260    0.449   98.158  158.239
  359.500    5.670    0.255    0.436   98.276  157.826
  359.750    5.573    0.260    0.442   97.844  157.208
  360.000    5.488    0.251    0.451   96.984  156.794
  360.250    5.424    0.244    0.457   96.430  156.278
  360.500    5.342    0.238    0.448   94.223  155.864
  360.750    5.221    0.245    0.439   91.709  155.449
  361.000    5.083    0.257    0.429   91.461  155.036
  361.250    4.912    0.266    0.421   92.804  154.724
