~VERSION INFORMATION
 VERS.                 2.0:   CWLS LOG ASCII STANDARD -VERSION 2.0
 WRAP.                  NO:   ONE LINE PER DEPTH STEP
~WELL INFORMATION BLOCK
#MNEM.UNIT           DATA                    DESCRIPTION OF MNEMONIC
#---------    -------------------            -------------------------------
# Generated from Intellog Unique Number	CS_73_76/WELL/637
WELL.         AMOCO AEC IPIATIK              : Well_name    - WELL
LOC .         00/06-13-073-06W4/0            : Location     - LOCATION
UWI .         00/06-13-073-06W4/0            : Uwi          - UNIQUE WELL ID
ENTR.         SP                             : Entered      - ENTERED BY
SRVC.         SCHLUMBERGER                   : Scn          - SERVICE COMPANY
STRT.M        305                            : top_depth    - START DEPTH
STOP.M        550                            : bot_depth    - STOP DEPTH
STEP.M        0.25                           : increment    - STEP LENGTH
 NULL. -999.2500:NULL Value
~CURVE INFORMATION BLOCK
#MNEM UNIT       ERCB CURVE CODE    CURVE DESCRIPTION
#-----------   ------------------   ----------------------------------
DEPT.M        00 001 00 00         : DEPTH        - DEPTH
ILD .OHMM     00 120 00 00         : RESD         - DEEP RESISTIVITY (DIL)
DPHI.V/V      00 890 00 00         : PHID         - DENSITY POROSITY (LIMESTONE)
NPHI.V/V      00 330 00 00         : PHIN         - NEUTRON POROSITY (LIMESTONE)
GR  .API      00 310 00 00         : GR           - GAMMA RAY
~PARAMETER INFORMATION
#MNEM.UNIT           DATA             DESCRIPTION OF MNEMONIC
#---------         -----------     ------------------------------
GL  .M        693.7                : gl           - GROUND LEVEL ELEVATION
EREF.M        697.9                : kb           - ELEVATION OF DEPTH REFERENCE
DATM.M        693.7                : datum        - DATUM ELEVATION
TDD .M        570                  : tdd          - TOTAL DEPTH DRILLER
RUN .         ONE                  : Run          - RUN NUMBER
ENG .         BILL                 : Engineer     - RECORDING ENGINEER
WIT .         JIM                  : Witness      - WITNESSED BY
MUD .         GEL                  : Mud_type     - MUD TYPE
MATR.         LIMESTONE            : Logunit      - NEUTRON MATRIX
TMAX.C        20                   : BHT          - MAXIMUM RECORDED TEMPERATURE
BHTD.M        570                  : BHTDEP       - MAXIMUM RECORDED TEMPERATURE
MATR.         1                    : LOGUNIT      - NEUTRON MATRIX
RMT .C        25                   : MDTP         - TEMPERATURE OF MUD
NEUT.         1                    : NEUTRON      - NEUTRON TYPE
RESI.         0                    : RESIST       - RESISTIVITY TYPE
RMC .OHMM     0.25                 : RMC          - RESISTIVITY OF MUD CAKE
RMF .OHMM     0.25                 : RMF          - RESISTIVITY OF MUD FILTRATE
SUFT.C        15                   : SUFT         - SURFACE TEMPERATURE
~A  DEPTH     RESD     PHID     PHIN       GR
# ...
  348.500    5.969    0.209    0.435   99.668
  348.750    5.968    0.216    0.457   97.860
  349.000    5.967    0.220    0.449   96.656
  349.250    5.966    0.204    0.476   94.243
  349.500    5.965    0.217    0.503   89.411
  349.750    5.853    0.223    0.451   84.578
  350.000    5.853    0.236    0.432   94.264
  350.250    5.637    0.215    0.452  102.133
  350.500    5.429    0.205    0.476  108.188
  350.750    5.131    0.229    0.491  111.217
  351.000    4.942    0.207    0.499  113.643
  351.250    4.941    0.205    0.511  111.231
  351.500    4.849    0.196    0.506  108.815
  351.750    4.939    0.193    0.498  103.379
  352.000    5.032    0.196    0.489  100.964
  352.250    5.031    0.200    0.481  103.391
  352.500    5.125    0.215    0.460  102.792
  352.750    5.221    0.202    0.445   97.959
  353.000    5.220    0.200    0.443  102.201
  353.250    5.318    0.211    0.464  104.625
  353.500    5.317    0.226    0.486  102.212
  353.750    5.316    0.234    0.493   96.774
  354.000    5.217    0.248    0.514   85.894
  354.250    5.315    0.259    0.501   86.504
  354.500    5.621    0.265    0.465   90.743
  354.750    5.944    0.241    0.456   93.776
  355.000    6.405    0.224    0.472   94.993
  355.250    6.902    0.239    0.476   94.999
  355.500    7.300    0.244    0.471   95.004
  355.750    7.577    0.251    0.462   95.009
  356.000    7.865    0.238    0.457   96.831
  356.250    8.012    0.216    0.472   97.442
  356.500    7.716    0.133    0.457   98.052
  356.750    7.431    0.090    0.449  101.082
  357.000    7.157    0.135    0.449  104.718
  357.250    6.640    0.196    0.444  104.725
  357.500    6.160    0.221    0.436  104.729
  357.750    5.933    0.228    0.442  105.342
  358.000    5.503    0.234    0.442  106.556
  358.250    5.300    0.222    0.455  104.146
  358.500    5.010    0.236    0.468  102.336
  358.750    5.104    0.251    0.465   97.504
  359.000    5.297    0.256    0.476   92.065
  359.250    5.397    0.252    0.454   86.627
  359.500    5.396    0.252    0.440   84.821
  359.750    5.395    0.252    0.440   83.617
  360.000    5.100    0.270    0.449   78.784
  360.250    4.643    0.294    0.441   69.112
  360.500    4.149    0.311    0.424   64.885
  360.750    3.778    0.306    0.418   66.707
  361.000    3.571    0.301    0.421   67.319
  361.250    3.504    0.309    0.432   66.113
  361.500    3.438    0.307    0.441   63.095
  361.750    3.503    0.301    0.447   61.893
  362.000    3.437    0.293    0.434   63.107
  362.250    3.437    0.292    0.423   66.137
  362.500    3.436    0.295    0.424   70.379
  362.750    3.309    0.303    0.422   73.410
  363.000    3.247    0.315    0.413   74.623
  363.250    3.187    0.303    0.407   74.630
  363.500    3.186    0.295    0.413   74.032
  363.750    3.127    0.286    0.411   73.435
  364.000    3.126    0.282    0.411   73.439
  364.250    3.067    0.282    0.416   71.026
  364.500    3.067    0.299    0.424   68.612
  364.750    3.067    0.312    0.424   67.409
  365.000    3.066    0.298    0.423   69.835
  365.250    3.123    0.292    0.414   72.865
  365.500    3.182    0.282    0.407   77.106
  365.750    3.428    0.275    0.406   81.953
  366.000    3.428    0.268    0.423   83.165
  366.250    3.558    0.255    0.431   86.196
  366.500    3.492    0.247    0.429   80.760
  366.750    3.179    0.252    0.427   75.926
  367.000    2.686    0.296    0.440   61.417
  367.250    2.492    0.318    0.450   55.979
  367.500    2.185    0.305    0.451   52.356
  367.750    1.953    0.301    0.437   51.758
  368.000    1.881    0.318    0.418   53.579
  368.250    1.778    0.320    0.403   55.401
  368.500    1.744    0.310    0.424   56.615
  368.750    1.680    0.321    0.439   56.622
  369.000    1.618    0.335    0.440   56.630
  369.250    1.618    0.327    0.436   57.238
  369.500    1.617    0.324    0.439   58.456
  369.750    1.617    0.316    0.439   59.672
  370.000    1.617    0.316    0.449   59.676
  370.250    1.617    0.328    0.458   60.287
  370.500    1.616    0.324    0.465   60.293
  370.750    1.647    0.328    0.452   59.090
  371.000    1.677    0.326    0.447   58.491
  371.250    1.677    0.324    0.436   58.498
  371.500    1.677    0.328    0.446   57.902
  371.750    1.677    0.334    0.449   57.906
  372.000    1.615    0.347    0.452   57.306
  372.250    1.555    0.355    0.437   57.918
  372.500    1.526    0.342    0.435   57.925
  372.750    1.497    0.332    0.438   58.534
  373.000    1.497    0.327    0.438   59.147
  373.250    1.525    0.315    0.429   59.153
  373.500    1.554    0.309    0.424   59.764
  373.750    1.583    0.304    0.425   59.774
  374.000    1.613    0.294    0.423   59.780
  374.250    1.582    0.275    0.418   54.942
  374.500    1.553    0.290    0.422   54.952
  374.750    1.495    0.314    0.431   54.354
  375.000    1.440    0.327    0.430   54.359
  375.250    1.413    0.329    0.424   54.363
  375.500    1.440    0.316    0.416   54.370
  375.750    1.440    0.309    0.409   54.374
  376.000    1.439    0.307    0.410   54.382
  376.250    1.439    0.318    0.425   54.389
  376.500    1.439    0.323    0.441   54.998
  376.750    1.412    0.328    0.452   56.216
  377.000    1.412    0.333    0.448   57.430
  377.250    1.360    0.340    0.438   59.253
  377.500    1.334    0.345    0.449   60.467
  377.750    1.334    0.338    0.445   62.288
  378.000    1.309    0.334    0.432   62.898
  378.250    1.309    0.343    0.426   61.696
  378.500    1.309    0.334    0.421   61.096
  378.750    1.284    0.329    0.434   59.288
  379.000    1.284    0.341    0.442   58.086
  379.250    1.284    0.337    0.443   58.090
  379.500    1.308    0.334    0.443   59.911
  379.750    1.307    0.335    0.443   58.103
  380.000    1.307    0.329    0.438   55.691
  380.250    1.307    0.329    0.450   54.486
  380.500    1.307    0.325    0.448   58.123
  380.750    1.307    0.330    0.443   61.758
  381.000    1.306    0.343    0.438   63.577
  381.250    1.306    0.345    0.434   62.375
  381.500    1.282    0.341    0.439   59.963
  381.750    1.281    0.336    0.443   58.758
  382.000    1.281    0.327    0.440   58.766
  382.250    1.281    0.321    0.443   59.374
  382.500    1.281    0.323    0.461   61.195
  382.750    1.305    0.333    0.463   60.597
  383.000    1.354    0.340    0.449   57.580
  383.250    1.432    0.338    0.435   53.959
  383.500    1.664    0.290    0.428   51.543
  383.750    1.896    0.145    0.345   48.526
  384.000    2.121    0.089    0.263   46.112
  384.250    2.202    0.092    0.242   47.933
  384.500    2.120    0.191    0.422   52.781
  384.750    1.726    0.292    0.444   55.205
  385.000    1.542    0.345    0.452   57.629
  385.250    1.430    0.362    0.456   58.844
  385.500    1.352    0.380    0.460   57.642
  385.750    1.327    0.384    0.475   55.233
  386.000    1.326    0.359    0.486   54.633
  386.250    1.326    0.323    0.473   53.428
  386.500    1.326    0.328    0.455   51.620
  386.750    1.301    0.313    0.449   50.415
  387.000    1.277    0.302    0.446   49.815
  387.250    1.277    0.320    0.458   49.216
  387.500    1.230    0.343    0.460   51.644
  387.750    1.207    0.345    0.445   52.857
  388.000    1.184    0.334    0.429   55.889
  388.250    1.184    0.334    0.429   57.105
  388.500    1.184    0.336    0.435   59.533
  388.750    1.183    0.329    0.445   60.747
  389.000    1.206    0.331    0.462   61.961
  389.250    1.251    0.312    0.466   63.783
  389.500    1.324    0.307    0.468   66.209
  389.750    1.400    0.309    0.466   68.633
  390.000    1.480    0.309    0.464   71.663
  390.250    1.565    0.297    0.457   73.484
  390.500    1.595    0.290    0.479   75.911
  390.750    1.687    0.294    0.496   78.335
  391.000    1.784    0.293    0.481   83.788
  391.250    1.922    0.271    0.489   86.212
  391.500    2.033    0.273    0.513   88.636
  391.750    2.150    0.281    0.519   85.014
