~VERSION INFORMATION
 VERS.                 2.0:   CWLS LOG ASCII STANDARD -VERSION 2.0
 WRAP.                  NO:   ONE LINE PER DEPTH STEP
~WELL INFORMATION BLOCK
#MNEM.UNIT           DATA                    DESCRIPTION OF MNEMONIC
#---------    -------------------            -------------------------------
# Generated from Intellog Unique Number	CS_73_76/WELL/2389
WELL.         CAVALIER ENERGY INC.           : Well_name    - WELL
LOC .         00/07-24-075-16W4/0            : Location     - LOCATION
UWI .         00/07-24-075-16W4/0            : Uwi          - UNIQUE WELL ID
ENTR.         SP                             : Entered      - ENTERED BY
SRVC.         SCHLUMBERGER                   : Scn          - SERVICE COMPANY
STRT.M        362.712                        : top_depth    - START DEPTH
STOP.M        566.712                        : bot_depth    - STOP DEPTH
STEP.M        0.25                           : increment    - STEP LENGTH
 NULL. -999.2500:NULL Value
~CURVE INFORMATION BLOCK
#MNEM UNIT       ERCB CURVE CODE    CURVE DESCRIPTION
#-----------   ------------------   ----------------------------------
DEPT.M        00 001 00 00         : DEPTH        - DEPTH
GR  .API      00 310 00 00         : GR           - GAMMA RAY
DPHI.V/V      00 890 00 00         : PHID         - DENSITY POROSITY (SANDSTONE)
NPHI.V/V      00 330 00 00         : PHIN         - NEUTRON POROSITY (SANDSTONE)
ILD .OHMM     00 120 00 00         : RESD         - DEEP RESISTIVITY (DIL)
~PARAMETER INFORMATION
#MNEM.UNIT           DATA             DESCRIPTION OF MNEMONIC
#---------         -----------     ------------------------------
GL  .M        726.948              : gl           - GROUND LEVEL ELEVATION
EREF.M        729.691              : kb           - ELEVATION OF DEPTH REFERENCE
DATM.M        726.948              : datum        - DATUM ELEVATION
TDD .M        566.014              : tdd          - TOTAL DEPTH DRILLER
RUN .         ONE                  : Run          - RUN NUMBER
ENG .         BILL                 : Engineer     - RECORDING ENGINEER
WIT .         JIM                  : Witness      - WITNESSED BY
MUD .         GEL                  : Mud_type     - MUD TYPE
MATR.         SANDSTONE            : Logunit      - NEUTRON MATRIX
TMAX.C        23.3333              : BHT          - MAXIMUM RECORDED TEMPERATURE
BHTD.M        566.014              : BHTDEP       - MAXIMUM RECORDED TEMPERATURE
MATR.         1                    : LOGUNIT      - NEUTRON MATRIX
RMT .C        25                   : MDTP         - TEMPERATURE OF MUD
NEUT.         1                    : NEUTRON      - NEUTRON TYPE
RESI.         0                    : RESIST       - RESISTIVITY TYPE
RMC .OHMM     0.25                 : RMC          - RESISTIVITY OF MUD CAKE
RMF .OHMM     0.25                 : RMF          - RESISTIVITY OF MUD FILTRATE
SUFT.C        15                   : SUFT         - SURFACE TEMPERATURE
~A  DEPTH       GR     PHID     PHIN     RESD
# ...
  493.212   55.678    0.310    0.451    7.300
  493.462   55.949    0.324    0.453    6.587
  493.712   57.639    0.328    0.456    5.969
  493.962   58.597    0.318    0.462    5.662
  494.212   59.605    0.307    0.461    5.460
  494.462   60.596    0.324    0.454    5.456
  494.712   61.579    0.328    0.445    5.455
  494.962   63.573    0.317    0.439    5.455
  495.212   64.947    0.327    0.439    5.455
  495.462   67.019    0.324    0.449    5.455
  495.712   68.417    0.313    0.456    5.455
  495.962   69.437    0.318    0.462    5.460
  496.212   66.558    0.326    0.470    5.378
  496.462   66.451    0.312    0.479    5.378
  496.712   69.152    0.311    0.484    5.380
  496.962   72.792    0.332    0.479    5.304
  497.212   74.687    0.321    0.482    5.299
  497.462   74.947    0.316    0.492    5.299
  497.712   75.065    0.304    0.502    5.231
  497.962   73.261    0.301    0.507    5.220
  498.212   71.358    0.316    0.502    5.217
  498.462   69.309    0.325    0.494    5.217
  498.712   70.362    0.318    0.487    5.217
  498.962   72.118    0.311    0.483    5.217
  499.212   71.421    0.298    0.485    5.266
  499.462   70.432    0.275    0.469    5.424
  499.712   72.108    0.243    0.456    5.527
  499.962   74.775    0.241    0.443    5.878
  500.212   77.281    0.256    0.456    6.023
  500.462   78.287    0.244    0.444    6.157
  500.712   76.860    0.219    0.443    6.136
  500.962   79.265    0.229    0.469    5.899
  501.212   82.233    0.269    0.487    5.622
  501.462   83.856    0.287    0.495    5.469
  501.712   83.100    0.299    0.503    5.292
  501.962   81.499    0.285    0.508    5.013
  502.212   81.568    0.277    0.509    4.960
  502.462   82.594    0.282    0.505    4.901
  502.712   84.333    0.286    0.496    4.941
  502.962   84.601    0.291    0.490    5.060
  503.212   84.624    0.298    0.488    5.133
  503.462   83.054    0.292    0.491    5.178
  503.712   80.611    0.283    0.504    5.216
  503.962   78.219    0.287    0.508    5.217
  504.212   76.494    0.294    0.499    5.212
  504.462   77.124    0.302    0.486    5.306
  504.712   80.335    0.304    0.481    5.372
  504.962   77.402    0.299    0.477    5.479
  505.212   75.119    0.291    0.484    5.693
  505.462   73.280    0.285    0.501    5.880
  505.712   70.940    0.274    0.524    6.081
  505.962   72.731    0.269    0.535    6.548
  506.212   74.756    0.278    0.534    6.814
  506.462   75.891    0.293    0.520    6.960
  506.712   75.874    0.310    0.507    6.958
  506.962   75.665    0.286    0.476    6.995
  507.212   74.671    0.190    0.423    7.145
  507.462   73.271    0.158    0.340    7.620
  507.712   71.534    0.125    0.333    8.009
  507.962   74.345    0.146    0.343    8.307
  508.212   78.328    0.182    0.369    8.293
  508.462   81.458    0.228    0.395    7.773
  508.712   83.816    0.261    0.443    7.128
  508.962   85.509    0.272    0.456    6.343
  509.212   85.565    0.278    0.470    5.959
  509.462   84.608    0.264    0.485    5.775
  509.712   82.927    0.269    0.490    5.772
  509.962   82.789    0.279    0.487    5.771
  510.212   82.810    0.263    0.484    5.771
  510.462   82.890    0.248    0.482    5.771
  510.712   82.229    0.243    0.480    5.771
  510.962   81.891    0.260    0.473    5.771
  511.212   81.208    0.268    0.465    5.771
  511.462   82.953    0.252    0.456    5.771
  511.712   85.630    0.262    0.454    5.771
  511.962   86.761    0.250    0.461    5.777
  512.212   87.186    0.246    0.471    5.694
  512.462   87.393    0.240    0.479    5.605
  512.712   89.907    0.236    0.482    5.431
  512.962   92.880    0.223    0.490    5.090
  513.212   95.352    0.221    0.490    4.865
  513.462   96.949    0.226    0.478    4.645
  513.712   96.539    0.226    0.494    4.584
  513.962   91.032    0.244    0.502    4.608
  514.212   84.781    0.256    0.484    4.932
  514.462   77.348    0.241    0.470    5.985
  514.712   72.397    0.213    0.461    6.847
  514.962   70.135    0.124    0.406    7.347
  515.212   71.530    0.075    0.331    7.782
  515.462   75.700    0.183    0.303    7.913
  515.712   83.026    0.235    0.385    7.837
  515.962   86.388    0.250    0.448    7.572
  516.212   90.546    0.229    0.434    6.788
  516.462   95.504    0.213    0.454    6.212
  516.712   89.498    0.211    0.467    5.995
  516.962   86.220    0.228    0.485    6.104
  517.212   83.069    0.222    0.501    6.245
  517.462   83.307    0.208    0.497    6.334
  517.712   85.368    0.215    0.488    6.324
  517.962   87.366    0.225    0.483    6.276
  518.212   89.346    0.213    0.485    6.149
  518.462   91.331    0.204    0.499    5.933
  518.712   93.376    0.195    0.508    5.836
  518.962   94.589    0.179    0.494    5.779
  519.212   94.587    0.187    0.489    5.701
  519.462   92.647    0.181    0.487    5.737
  519.712   90.667    0.191    0.484    5.779
  519.962   88.133    0.212    0.477    5.848
  520.212   87.092    0.213    0.465    5.966
  520.462   86.819    0.200    0.452    6.095
  520.712   86.464    0.217    0.441    6.420
  520.962   84.388    0.189    0.425    6.722
  521.212   79.139    0.175    0.414    7.429
  521.462   74.643    0.142    0.386    7.999
  521.712   70.987    0.102    0.350    8.961
  521.962   72.399    0.101    0.310    9.744
  522.212   75.659    0.133    0.328   11.435
  522.462   79.001    0.112    0.302   12.609
  522.712   80.785    0.091    0.306   13.104
  522.962   84.877    0.126    0.348   12.921
  523.212   89.846    0.143    0.382   12.079
  523.462   96.061    0.167    0.423   10.091
  523.712   99.459    0.178    0.463    8.563
  523.962  103.329    0.189    0.490    7.808
  524.212  105.953    0.185    0.495    6.926
  524.462  102.345    0.182    0.482    6.504
  524.712  104.452    0.199    0.471    6.327
  524.962  108.482    0.205    0.462    6.240
  525.212  109.551    0.211    0.452    6.246
  525.462  110.051    0.220    0.441    6.240
  525.712  107.341    0.226    0.433    6.331
  525.962  103.058    0.214    0.442    6.322
  526.212   98.503    0.205    0.444    6.050
  526.462   96.441    0.207    0.445    5.707
  526.712   95.191    0.207    0.458    5.447
  526.962   92.410    0.197    0.470    5.218
  527.212   89.816    0.181    0.452    5.289
  527.462   89.296    0.163    0.443    4.980
  527.712   94.289    0.130    0.449    4.308
  527.962   98.131    0.177    0.470    3.632
  528.212  100.041    0.208    0.479    3.118
  528.462  100.719    0.210    0.490    2.534
  528.712  101.441    0.242    0.520    2.245
  528.962  100.940    0.263    0.550    1.985
  529.212   99.044    0.284    0.571    1.890
  529.462   97.163    0.292    0.566    1.897
  529.712   96.202    0.301    0.557    1.897
  529.962   96.243    0.277    0.544    1.893
  530.212   98.624    0.253    0.532    1.981
  530.462  101.535    0.242    0.548    2.045
  530.712  105.414    0.235    0.564    2.258
  530.962  104.111    0.231    0.581    2.680
  531.212   98.040    0.224    0.565    3.012
  531.462   97.508    0.199    0.512    3.768
  531.712   97.456    0.181    0.446    4.322
  531.962   98.142    0.169    0.444    4.840
  532.212   98.027    0.186    0.456    5.251
  532.462   95.525    0.179    0.445    5.778
  532.712   92.579    0.158    0.391    6.152
  532.962   90.404    0.127    0.385    6.500
  533.212   90.407    0.168    0.403    6.463
  533.462   91.007    0.193    0.413    6.106
  533.712   89.300    0.189    0.423    5.768
  533.962   89.597    0.167    0.432    5.527
  534.212   92.010    0.184    0.437    5.810
  534.462   91.814    0.179    0.446    5.995
  534.712   91.245    0.153    0.432    6.208
  534.962   89.300    0.093    0.408    6.431
  535.212   90.957    0.062    0.410    6.482
  535.462   93.686    0.164    0.433    6.456
  535.712   94.700    0.179    0.451    6.220
  535.962   93.985    0.194    0.437    6.026
  536.212   95.356    0.185    0.429    5.951
  536.462   97.429    0.166    0.438    6.096
