~VERSION INFORMATION
 VERS.                 2.0:   CWLS LOG ASCII STANDARD -VERSION 2.0
 WRAP.                  NO:   ONE LINE PER DEPTH STEP
~WELL INFORMATION BLOCK
#MNEM.UNIT           DATA                    DESCRIPTION OF MNEMONIC
#---------    -------------------            -------------------------------
# Generated from Intellog Unique Number	CX_WELLS/WELL/3239
WELL.         CHEVRON ALGAR                  : Well_name    - WELL
LOC .         00/06-24-083-16W4/0            : Location     - LOCATION
UWI .         00/06-24-083-16W400            : Uwi          - UNIQUE WELL ID
ENTR.         T                              : Entered      - ENTERED BY
SRVC.         SCHLUMBERGER                   : Scn          - SERVICE COMPANY
DATE.         03/04/92                       : Date         - LOG DATE
STRT.F        300                            : top_depth    - START DEPTH
STOP.F        920.079                        : bot_depth    - STOP DEPTH
STEP.F        0.82                           : increment    - STEP LENGTH
 NULL. -999.2500:NULL Value
~CURVE INFORMATION BLOCK
#MNEM UNIT       ERCB CURVE CODE    CURVE DESCRIPTION
#-----------   ------------------   ----------------------------------
DEPT.F        00 001 00 00         : DEPTH        - DEPTH
GR  .API      00 310 00 00         : GR           - GAMMA RAY
NPHI.V/V      00 330 00 00         : PHIN         - NEUTRON POROSITY (SANDSTONE)
DPHI.V/V      00 890 00 00         : PHID         - DENSITY POROSITY (SANDSTONE)
ILD .OHMM     00 120 00 00         : RESD         - DEEP RESISTIVITY (DIL)
~PARAMETER INFORMATION
#MNEM.UNIT           DATA             DESCRIPTION OF MNEMONIC
#---------         -----------     ------------------------------
GL  .F        1713.5               : gl           - GROUND LEVEL ELEVATION
EREF.F        1724.5               : kb           - ELEVATION OF DEPTH REFERENCE
DATM.F        1724.5               : datum        - DATUM ELEVATION
TDD .F        920                  : tdd          - TOTAL DEPTH DRILLER
RUN .         ONE                  : Run          - RUN NUMBER
ENG .         JO                   : Engineer     - RECORDING ENGINEER
WIT .         TIM                  : Witness      - WITNESSED BY
MUD .         GEL                  : Mud_type     - MUD TYPE
MATR.         SANDSTONE            : Logunit      - NEUTRON MATRIX
TMAX.F        85                   : BHT          - MAXIMUM RECORDED TEMPERATURE
BHTD.F        920                  : BHTDEP       - MAXIMUM RECORDED TEMPERATURE
RMT .F        60                   : MDTP         - TEMPERATURE OF MUD
MUDD.LB/G     1                    : MWT          - MUD DENSITY
NEUT.         1                    : NEUTRON      - NEUTRON TYPE
RESI.         4.27                 : RESIST       - RESISTIVITY TYPE
RM  .OHMM     4.27                 : RM           - RESISTIVITY OF MUD
RMC .OHMM     3.86                 : RMC          - RESISTIVITY OF MUD CAKE
RMF .OHMM     3                    : RMF          - RESISTIVITY OF MUD FILTRATE
SUFT.F        32.2                 : SUFT         - SURFACE TEMPERATURE
~A  DEPTH       GR     PHIN     PHID     RESD
# ...
  728.150   96.519    0.454    0.210   10.155
  728.970   96.500    0.453    0.205   10.142
  729.790   95.273    0.458    0.200   10.324
  730.610   95.851    0.485    0.187   10.898
  731.430   97.617    0.500    0.193   11.302
  732.251   98.188    0.499    0.204   12.156
  733.071   96.968    0.494    0.208   12.602
  733.891   93.352    0.489    0.215   12.589
  734.711   90.333    0.482    0.216   12.347
  735.531   89.113    0.474    0.219   12.339
  736.352   89.087    0.467    0.224   12.553
  737.172   88.471    0.462    0.228   13.019
  737.992   87.244    0.458    0.236   13.496
  738.812   85.413    0.457    0.246   14.242
  739.633   84.803    0.456    0.249   14.237
  740.453   82.973    0.457    0.207   13.960
  741.273   82.362    0.456    0.200   13.447
  742.093   81.739    0.451    0.190   13.193
  742.913   84.096    0.449    0.189   12.703
  743.734   85.862    0.449    0.213   13.166
  744.554   88.219    0.446    0.239   13.906
  745.374   88.790    0.444    0.238   15.235
  746.194   85.772    0.451    0.231   17.967
  747.014   83.363    0.453    0.226   21.582
  747.835   80.948    0.461    0.225   25.453
  748.655   79.131    0.466    0.223   24.963
  749.475   77.313    0.315    0.219   22.744
  750.295   74.892    0.288    0.214   20.730
  751.115   71.886    0.208    0.190   17.875
  751.936   68.277    0.194    0.108   15.700
  752.756   64.661    0.244    0.025   14.307
  753.576   62.837    0.314    0.051   12.561
  754.396   68.193    0.384    0.209   11.659
  755.217   74.737    0.415    0.237   11.024
  756.037   78.873    0.436    0.254   10.616
  756.857   78.860    0.469    0.231   10.414
  757.677   79.431    0.479    0.220   10.405
  758.497   79.406    0.480    0.211   10.590
  759.318   79.380    0.482    0.211   10.778
  760.138   79.945    0.479    0.212   10.967
  760.958   81.704    0.470    0.214   11.162
  761.778   82.873    0.457    0.218   11.361
  762.598   83.457    0.462    0.225   11.555
  763.419   85.204    0.462    0.233   11.765
  764.239   85.191    0.459    0.234   11.758
  765.059   85.172    0.456    0.232   11.114
  765.879   83.945    0.456    0.229   10.706
  766.699   82.121    0.456    0.226    9.576
  767.520   82.095    0.454    0.220    8.887
  768.340   83.270    0.460    0.203    8.558
  769.160   86.822    0.467    0.182    8.241
  769.980   89.789    0.475    0.190    8.087
  770.801   93.931    0.479    0.209    7.505
  771.621   95.697    0.490    0.217    6.965
  772.441   97.463    0.498    0.218    6.585
  773.261   98.638    0.502    0.219    6.111
  774.081  100.995    0.508    0.219    5.888
  774.902  102.157    0.518    0.218    5.668
  775.722  102.138    0.541    0.217    5.561
  776.542  102.118    0.547    0.215    5.454
  777.362  102.086    0.548    0.215    5.759
  778.182  102.047    0.544    0.215    6.669
  779.003  102.034    0.541    0.214    9.114
  779.823  101.398    0.534    0.214   14.700
  780.643  101.386    0.513    0.210   18.321
  781.463  100.756    0.509    0.209   19.705
  782.283   99.536    0.499    0.203   20.055
  783.104   95.323    0.475    0.190   18.954
  783.924   89.928    0.460    0.189   18.253
  784.744   85.117    0.447    0.186   17.582
  785.564   88.682    0.433    0.172   16.317
  786.385   92.837    0.419    0.140   15.714
  787.205   95.200    0.458    0.134   15.415
  788.025   96.369    0.465    0.183   15.118
  788.845   98.128    0.461    0.208   15.109
  789.665   98.700    0.455    0.211   14.821
  790.486   98.674    0.452    0.209   14.539
  791.306   96.252    0.460    0.199   14.253
  792.126   93.838    0.459    0.188   14.244
  792.946   91.423    0.452    0.184   15.320
  793.766   89.008    0.440    0.184   18.072
  794.587   86.593    0.437    0.184   21.312
  795.407   82.386    0.432    0.185   24.226
  796.227   72.207    0.431    0.191   26.056
  797.047   60.229    0.430    0.192   26.514
  797.867   54.828    0.418    0.190   26.487
  798.688   48.823    0.429    0.202   26.465
  799.508   47.603    0.438    0.231   26.449
  800.328   48.174    0.450    0.245   26.422
  801.148   48.746    0.454    0.257   26.400
  801.969   49.908    0.458    0.265   24.961
  802.789   52.271    0.453    0.265   22.746
  803.609   55.232    0.445    0.264   20.350
  804.429   58.186    0.436    0.262   19.240
  805.249   59.965    0.433    0.260   17.533
  806.070   62.925    0.438    0.257   15.396
  806.890   66.483    0.441    0.252   13.523
  807.710   72.417    0.447    0.250   11.239
  808.530   75.384    0.471    0.246   10.240
  809.350   80.130    0.475    0.238    9.331
  810.171   83.090    0.470    0.232    8.503
  810.991   86.057    0.450    0.226    7.467
  811.811   91.407    0.446    0.217    7.193
  812.631   94.965    0.442    0.201    6.672
  813.451   98.516    0.442    0.192    6.427
  814.272   98.490    0.449    0.191    6.191
  815.092   98.465    0.466    0.194    5.639
  815.912  100.231    0.480    0.197    5.433
  816.732  103.191    0.492    0.200    5.326
  817.552  105.548    0.501    0.206    5.323
  818.373  105.516    0.508    0.210    5.223
  819.193  105.490    0.512    0.211    4.846
  820.013  105.470    0.513    0.215    4.668
  820.833  105.445    0.507    0.216    4.494
  821.654  104.224    0.511    0.216    4.492
  822.474  103.601    0.511    0.210    4.568
  823.294  104.173    0.488    0.182    4.567
  824.114  106.536    0.489    0.174    4.563
  824.934  108.302    0.511    0.165    4.559
  825.755  107.679    0.521    0.192    4.555
  826.575  104.660    0.538    0.206    4.809
  827.395  102.843    0.540    0.209    5.368
  828.215   99.831    0.522    0.222    6.331
  829.035   95.027    0.498    0.215   11.196
  829.856   83.055    0.479    0.191   13.954
  830.676   77.641    0.460    0.183   20.908
  831.496   67.462    0.457    0.176   34.989
  832.316   65.053    0.487    0.172   47.814
  833.136   60.249    0.494    0.216   60.688
  833.957   53.647    0.482    0.266   64.070
  834.777   49.441    0.469    0.278   65.234
  835.597   47.026    0.457    0.296   63.991
  836.417   47.591    0.452    0.313   60.490
  837.238   48.162    0.453    0.313   56.125
  838.058   49.324    0.454    0.311   55.078
  838.878   50.493    0.452    0.308   47.483
  839.698   52.259    0.449    0.309   43.279
  840.518   54.019    0.448    0.304   38.720
  841.339   54.597    0.448    0.298   33.381
  842.159   57.551    0.445    0.282   27.237
  842.979   58.726    0.444    0.273   22.637
  843.799   60.498    0.443    0.266   17.155
  844.619   64.050    0.440    0.263   15.064
  845.440   67.017    0.439    0.261   13.986
  846.260   71.763    0.440    0.254   14.234
  847.080   77.106    0.440    0.229   15.310
  847.900   80.670    0.440    0.218   18.729
  848.720   84.221    0.439    0.201   27.557
  849.541   81.813    0.428    0.197   40.537
  850.361   69.244    0.431    0.224   50.522
  851.181   56.669    0.423    0.246   48.645
  852.001   62.616    0.388    0.258   48.605
  852.822   83.501    0.353    0.257   50.388
  853.642   90.636    0.379    0.245   53.207
  854.462   91.799    0.401    0.247   56.184
  855.282   87.001    0.427    0.254   56.138
  856.102   75.024    0.441    0.257   53.055
  856.923   63.643    0.449    0.263   49.247
  857.743   60.638    0.458    0.266   44.887
  858.563   57.028    0.452    0.269   38.705
  859.383   58.794    0.442    0.272   33.362
  860.203   70.714    0.433    0.272   30.402
  861.024   74.869    0.425    0.266   28.219
  861.844   80.218    0.422    0.240   26.194
  862.664   83.776    0.416    0.228   24.770
  863.484   84.341    0.409    0.211   23.405
  864.304   85.497    0.411    0.194   23.831
  865.125   86.075    0.413    0.185   24.249
  865.945   86.653    0.426    0.190   24.229
  866.765   87.218    0.431    0.201   23.767
  867.585   87.783    0.420    0.210   22.889
  868.406   87.770    0.412    0.207   22.444
  869.226   88.341    0.412    0.196   22.025
  870.046   90.094    0.414    0.189   22.003
