~VERSION INFORMATION
 VERS.                 2.0:   CWLS LOG ASCII STANDARD -VERSION 2.0
 WRAP.                  NO:   ONE LINE PER DEPTH STEP
~WELL INFORMATION BLOCK
#MNEM.UNIT           DATA                    DESCRIPTION OF MNEMONIC
#---------    -------------------            -------------------------------
# Generated from Intellog Unique Number	CX_WELLS/WELL/3707
WELL.         HANGINGSTONE                   : Well_name    - WELL
LOC .         00/06-23-085-11W4/0            : Location     - LOCATION
UWI .         00/06-23-085-11W400            : Uwi          - UNIQUE WELL ID
ENTR.         T                              : Entered      - ENTERED BY
SRVC.         SCHLUMBERGER                   : Scn          - SERVICE COMPANY
DATE.         03/04/92                       : Date         - LOG DATE
STRT.M        100                            : top_depth    - START DEPTH
STOP.M        275                            : bot_depth    - STOP DEPTH
STEP.M        0.25                           : increment    - STEP LENGTH
 NULL. -999.2500:NULL Value
~CURVE INFORMATION BLOCK
#MNEM UNIT       ERCB CURVE CODE    CURVE DESCRIPTION
#-----------   ------------------   ----------------------------------
DEPT.M        00 001 00 00         : DEPTH        - DEPTH
GR  .API      00 310 00 00         : GR           - GAMMA RAY
NPHI.V/V      00 330 00 00         : PHIN         - NEUTRON POROSITY (SANDSTONE)
DPHI.V/V      00 890 00 00         : PHID         - DENSITY POROSITY (SANDSTONE)
ILD .OHMM     00 120 00 00         : RESD         - DEEP RESISTIVITY (DIL)
~PARAMETER INFORMATION
#MNEM.UNIT           DATA             DESCRIPTION OF MNEMONIC
#---------         -----------     ------------------------------
GL  .M        520                  : gl           - GROUND LEVEL ELEVATION
EREF.M        524.9                : kb           - ELEVATION OF DEPTH REFERENCE
DATM.M        524.9                : datum        - DATUM ELEVATION
TDD .M        281                  : tdd          - TOTAL DEPTH DRILLER
RUN .         ONE                  : Run          - RUN NUMBER
ENG .         JO                   : Engineer     - RECORDING ENGINEER
WIT .         TIM                  : Witness      - WITNESSED BY
MUD .         GEL                  : Mud_type     - MUD TYPE
MATR.         SANDSTONE            : Logunit      - NEUTRON MATRIX
TMAX.C        26                   : BHT          - MAXIMUM RECORDED TEMPERATURE
BHTD.M        283                  : BHTDEP       - MAXIMUM RECORDED TEMPERATURE
RMT .C        18                   : MDTP         - TEMPERATURE OF MUD
MUDD.KG/M     1                    : MWT          - MUD DENSITY
NEUT.         1                    : NEUTRON      - NEUTRON TYPE
RESI.         0                    : RESIST       - RESISTIVITY TYPE
RM  .OHMM     3.7                  : RM           - RESISTIVITY OF MUD
RMC .OHMM     2.9                  : RMC          - RESISTIVITY OF MUD CAKE
RMF .OHMM     3.4                  : RMF          - RESISTIVITY OF MUD FILTRATE
SUFT.C        4                    : SUFT         - SURFACE TEMPERATURE
~A  DEPTH       GR     PHIN     PHID     RESD
# ...
  187.000  103.167    0.402    0.310    3.680
  187.250   98.444    0.411    0.314    3.825
  187.500   93.733    0.443    0.341    4.205
  187.750   86.655    0.450    0.351    4.623
  188.000   81.932    0.424    0.349    4.805
  188.250   77.815    0.433    0.341    4.904
  188.500   73.709    0.437    0.344    4.912
  188.750   71.374    0.446    0.347    4.915
  189.000   70.812    0.453    0.375    4.923
  189.250   69.667    0.461    0.406    4.929
  189.500   68.521    0.466    0.481    4.934
  189.750   69.159    0.468    0.548    5.036
  190.000   75.740    0.483    0.499    5.136
  190.250   84.698    0.490    0.403    5.239
  190.500   99.028    0.397    0.315    5.551
  190.750  101.437    0.401    0.283    5.769
  191.000  103.869    0.403    0.264    6.110
  191.250  103.912    0.406    0.253    6.471
  191.500  104.549    0.405    0.237    7.116
  191.750  105.198    0.408    0.217    7.678
  192.000  105.230    0.413    0.197    8.128
  192.250  104.679    0.414    0.196    8.773
  192.500  103.533    0.414    0.228    8.951
  192.750  101.199    0.414    0.257    8.799
  193.000  100.043    0.414    0.295    8.485
  193.250   98.897    0.417    0.337    8.031
  193.500  101.318    0.426    0.353    7.467
  193.750  103.144    0.432    0.351    7.067
  194.000  100.821    0.418    0.359    6.943
  194.250   97.882    0.417    0.356    6.700
  194.500   96.142    0.415    0.362    6.706
  194.750   97.374    0.414    0.373    6.971
  195.000   98.627    0.413    0.342    7.524
  195.250   98.659    0.409    0.308    7.965
  195.500   98.703    0.407    0.278    8.603
  195.750   96.974    0.413    0.258    8.768
  196.000   95.806    0.420    0.282    8.780
  196.250   94.661    0.428    0.294    8.791
  196.500   92.932    0.425    0.301    8.806
  196.750   91.203    0.422    0.269    8.817
  197.000   90.036    0.420    0.252    8.829
  197.250   88.296    0.414    0.252    9.010
  197.500   87.150    0.409    0.257    9.195
  197.750   86.610    0.406    0.266    9.204
  198.000   86.059    0.410    0.271    9.217
  198.250   88.479    0.413    0.276    9.055
  198.500   90.295    0.419    0.275    8.899
  198.750   93.331    0.422    0.274    8.746
  199.000   90.986    0.423    0.269    8.760
  199.250   88.641    0.427    0.265    8.934
  199.500   88.695    0.430    0.260    8.946
  199.750   89.333    0.436    0.316    8.316
  200.000   90.565    0.433    0.402    7.725
  200.250   92.391    0.433    0.467    7.178
  200.500   94.228    0.427    0.503    6.796
  200.750   97.827    0.423    0.548    7.066
  201.000  112.728    0.414    0.519    7.486
  201.250  113.377    0.411    0.445    7.778
  201.500  110.437    0.411    0.388    8.240
  201.750  105.132    0.410    0.312    8.404
  202.000   92.099    0.416    0.262    8.415
  202.250   89.181    0.423    0.258    8.270
  202.500   88.630    0.432    0.263    7.542
  202.750   87.474    0.429    0.292    6.879
  203.000   85.755    0.424    0.367    6.158
  203.250   85.183    0.435    0.439    5.614
  203.500   87.614    0.458    0.484    5.026
  203.750   90.618    0.430    0.516    4.584
  204.000   93.644    0.423    0.440    4.259
  204.250   94.282    0.424    0.361    4.189
  204.500   94.919    0.431    0.379    4.191
  204.750   96.140    0.432    0.414    4.197
  205.000   98.582    0.432    0.435    4.285
  205.250  103.975    0.432    0.429    4.368
  205.500  107.584    0.433    0.405    4.456
  205.750  105.844    0.437    0.363    4.632
  206.000  102.916    0.438    0.335    4.815
  206.250  100.571    0.429    0.338    5.197
  206.500   98.236    0.421    0.362    5.711
  206.750   95.902    0.421    0.370    6.518
  207.000   92.379    0.418    0.321    7.872
  207.250   91.828    0.416    0.270    8.333
  207.500   91.871    0.413    0.227    8.662
  207.750   91.925    0.410    0.245    8.837
  208.000   90.185    0.405    0.239    9.018
  208.250   90.218    0.368    0.217    9.027
  208.500   90.855    0.358    0.204    9.216
  208.750   86.738    0.370    0.198    9.054
  209.000   82.632    0.385    0.269    8.898
  209.250   85.647    0.386    0.335    8.422
  209.500   89.850    0.390    0.323    7.973
  209.750   92.854    0.396    0.310    7.140
  210.000   94.691    0.404    0.302    6.757
  210.250   94.735    0.410    0.302    6.279
  210.500   94.173    0.410    0.320    5.727
  210.750   93.027    0.409    0.357    5.223
  211.000   91.882    0.409    0.381    4.764
  211.250   86.587    0.434    0.459    4.426
  211.500   85.441    0.543    0.527    3.962
  211.750   86.089    0.465    0.386    3.750
  212.000   86.705    0.409    0.331    3.485
  212.250   84.393    0.402    0.273    3.761
  212.500   83.225    0.400    0.260    4.456
  212.750   81.496    0.399    0.252    5.085
  213.000   80.945    0.406    0.251    5.490
  213.250   80.383    0.410    0.257    5.494
  213.500   80.427    0.416    0.282    5.204
  213.750   80.481    0.420    0.294    5.017
  214.000   80.524    0.415    0.287    4.750
  214.250   81.745    0.408    0.282    4.670
  214.500   84.187    0.402    0.282    4.674
  214.750   84.209    0.401    0.282    4.769
  215.000   84.263    0.408    0.285    5.244
  215.250   84.900    0.408    0.298    5.449
  215.500   86.143    0.414    0.337    5.357
  215.750   87.969    0.422    0.348    5.070
  216.000   88.001    0.430    0.356    4.626
  216.250   88.045    0.438    0.363    4.378
  216.500   88.682    0.445    0.374    3.995
  216.750   89.914    0.447    0.383    3.851
  217.000   92.335    0.439    0.384    3.716
  217.250   92.972    0.426    0.385    3.652
  217.500   93.026    0.415    0.384    3.591
  217.750   92.475    0.396    0.351    3.593
  218.000   91.924    0.402    0.334    3.666
  218.250   91.967    0.413    0.318    3.886
  218.500   93.793    0.413    0.289    3.890
  218.750   97.392    0.419    0.273    3.892
  219.000  102.222    0.423    0.259    3.897
  219.250  101.649    0.435    0.299    3.831
  219.500  101.693    0.428    0.306    3.764
  219.750  101.736    0.423    0.322    3.700
  220.000  102.373    0.415    0.346    3.704
  220.250  103.022    0.414    0.363    3.642
  220.500  103.065    0.420    0.364    3.650
  220.750  100.136    0.427    0.354    3.651
  221.000   96.613    0.429    0.334    3.726
  221.250   94.268    0.421    0.328    3.875
  221.500   91.934    0.415    0.308    4.178
  221.750   89.600    0.417    0.270    5.043
  222.000   87.255    0.425    0.261    6.439
  222.250   82.543    0.433    0.309    6.691
  222.500   79.020    0.432    0.355    7.088
  222.750   77.281    0.426    0.383    6.964
  223.000   79.701    0.413    0.407    6.719
  223.250   82.727    0.403    0.398    6.362
  223.500   84.553    0.398    0.383    6.254
  223.750   83.408    0.399    0.381    6.260
  224.000   79.895    0.412    0.377    6.632
  224.250   78.134    0.420    0.368    7.428
  224.500   69.262    0.419    0.323    8.800
  224.750   61.579    0.406    0.298   10.039
  225.000   58.650    0.401    0.283   10.835
  225.250   61.071    0.403    0.283   11.259
  225.500   73.617    0.399    0.293   11.707
  225.750   77.215    0.385    0.316   11.084
  226.000   82.013    0.386    0.329    9.555
  226.250   86.811    0.395    0.333    8.395
  226.500   88.638    0.403    0.268    8.097
  226.750   89.869    0.395    0.248    7.963
  227.000   92.884    0.383    0.238    8.121
  227.250   95.899    0.377    0.253    8.288
  227.500   98.936    0.393    0.273    8.450
  227.750  100.168    0.403    0.273    8.949
  228.000  102.588    0.405    0.265    9.480
  228.250  106.781    0.402    0.263   10.040
  228.500  105.646    0.397    0.260   10.632
  228.750  102.707    0.392    0.257   11.917
  229.000   99.789    0.391    0.254   12.383
  229.250   96.861    0.390    0.250   12.867
  229.500   94.516    0.386    0.256   13.383
  229.750   91.587    0.383    0.281   13.649
  230.000   88.669    0.381    0.277   13.924
  230.250   85.147    0.376    0.209   13.943
