~VERSION INFORMATION
 VERS.                 2.0:   CWLS LOG ASCII STANDARD -VERSION 2.0
 WRAP.                  NO:   ONE LINE PER DEPTH STEP
~WELL INFORMATION BLOCK
#MNEM.UNIT           DATA                    DESCRIPTION OF MNEMONIC
#---------    -------------------            -------------------------------
# Generated from Intellog Unique Number	CS_73_76/WELL/1032
WELL.         CANADIAN WORLDWIDE ENERGY      : Well_name    - WELL
LOC .         00/06-04-075-09W4/0            : Location     - LOCATION
UWI .         00/06-04-075-09W4/0            : Uwi          - UNIQUE WELL ID
ENTR.         SP                             : Entered      - ENTERED BY
SRVC.         SCHLUMBERGER                   : Scn          - SERVICE COMPANY
STRT.M        275                            : top_depth    - START DEPTH
STOP.M        494                            : bot_depth    - STOP DEPTH
STEP.M        0.25                           : increment    - STEP LENGTH
 NULL. -999.2500:NULL Value
~CURVE INFORMATION BLOCK
#MNEM UNIT       ERCB CURVE CODE    CURVE DESCRIPTION
#-----------   ------------------   ----------------------------------
DEPT.M        00 001 00 00         : DEPTH        - DEPTH
GR  .API      00 310 00 00         : GR           - GAMMA RAY
NPHI.V/V      00 330 00 00         : PHIN         - NEUTRON POROSITY (LIMESTONE)
DPHI.V/V      00 890 00 00         : PHID         - DENSITY POROSITY (LIMESTONE)
ILD .OHMM     00 120 00 00         : RESD         - DEEP RESISTIVITY (DIL)
~PARAMETER INFORMATION
#MNEM.UNIT           DATA             DESCRIPTION OF MNEMONIC
#---------         -----------     ------------------------------
GL  .M        662.5                : gl           - GROUND LEVEL ELEVATION
EREF.M        666                  : kb           - ELEVATION OF DEPTH REFERENCE
DATM.M        662.5                : datum        - DATUM ELEVATION
TDD .M        500                  : tdd          - TOTAL DEPTH DRILLER
RUN .         ONE                  : Run          - RUN NUMBER
ENG .         BILL                 : Engineer     - RECORDING ENGINEER
WIT .         JIM                  : Witness      - WITNESSED BY
MUD .         GEL                  : Mud_type     - MUD TYPE
MATR.         LIMESTONE            : Logunit      - NEUTRON MATRIX
TMAX.C        21                   : BHT          - MAXIMUM RECORDED TEMPERATURE
BHTD.M        500                  : BHTDEP       - MAXIMUM RECORDED TEMPERATURE
MATR.         1                    : LOGUNIT      - NEUTRON MATRIX
RMT .C        25                   : MDTP         - TEMPERATURE OF MUD
NEUT.         1                    : NEUTRON      - NEUTRON TYPE
RESI.         0                    : RESIST       - RESISTIVITY TYPE
RMC .OHMM     0.25                 : RMC          - RESISTIVITY OF MUD CAKE
RMF .OHMM     0.25                 : RMF          - RESISTIVITY OF MUD FILTRATE
SUFT.C        15                   : SUFT         - SURFACE TEMPERATURE
~A  DEPTH       GR     PHIN     PHID     RESD
  275.000   94.742    0.556    0.229    2.771
  275.250   94.747    0.546    0.220    2.988
  275.500   95.362    0.538    0.198    3.103
  275.750   96.583    0.524    0.192    3.223
  276.000   98.410    0.524    0.205    3.410
  276.250  100.850    0.527    0.221    3.541
  276.500  101.462    0.497    0.213    3.609
  276.750  100.253    0.480    0.193    3.748
  277.000  100.260    0.502    0.208    3.819
  277.250  102.698    0.483    0.211    3.892
  277.500  103.310    0.472    0.200    3.892
  277.750  102.103    0.488    0.195    3.966
  278.000  103.934    0.519    0.208    3.966
  278.250  105.761    0.544    0.221    3.892
  278.500  107.590    0.530    0.236    3.892
  278.750  106.988    0.500    0.242    3.819
  279.000  104.566    0.488    0.210    3.748
  279.250  106.395    0.494    0.212    3.678
  279.500  104.581    0.506    0.211    3.678
  279.750  102.159    0.520    0.198    3.678
  280.000  103.990    0.474    0.187    3.748
  280.250  103.994    0.469    0.172    3.819
  280.500  102.179    0.512    0.184    3.892
  280.750  100.972    0.531    0.200    4.042
  281.000   99.765    0.552    0.219    4.042
  281.250   93.698    0.456    0.196    4.119
  281.500   82.773    0.405    0.145    4.277
  281.750   79.136    0.402    0.161    4.700
  282.000   84.609    0.431    0.225    5.364
  282.250   85.224    0.448    0.254    7.255
  282.500   84.015    0.435    0.268   10.191
  282.750   89.490    0.419    0.275   12.077
  283.000   96.784    0.413    0.239   12.781
  283.250  102.256    0.404    0.227   12.542
  283.500  108.335    0.404    0.229   11.851
  283.750  107.128    0.403    0.237   11.412
  284.000  106.530    0.404    0.224   10.784
  284.250  105.319    0.412    0.208   10.191
  284.500   98.039    0.392    0.197    9.450
  284.750   91.973    0.378    0.202    8.929
  285.000   90.157    0.373    0.204    8.438
  285.250   88.343    0.393    0.201    8.438
  285.500   87.743    0.416    0.194    8.438
  285.750   87.142    0.408    0.186    8.438
  286.000   86.541    0.386    0.190    8.599
  286.250   84.120    0.391    0.223    8.929
  286.500   78.662    0.393    0.254    9.813
  286.750   67.129    0.393    0.292   10.784
  287.000   58.026    0.385    0.323   12.307
  287.250   50.746    0.387    0.314   14.046
  287.500   47.717    0.374    0.296   15.147
  287.750   48.938    0.370    0.287   16.029
  288.000   48.945    0.390    0.287   16.335
  288.250   47.738    0.399    0.296   15.147
  288.500   48.351    0.379    0.304   14.864
  288.750   49.572    0.371    0.292   14.864
  289.000   52.009    0.370    0.282   15.147
  289.250   50.194    0.382    0.275   15.436
  289.500   41.700    0.366    0.289   16.029
  289.750   38.669    0.359    0.304   16.335
  290.000   39.890    0.369    0.287   16.963
  290.250   36.863    0.375    0.288   17.616
  290.500   37.476    0.387    0.281   18.642
  290.750   36.876    0.248    0.260   19.728
  291.000   33.239    0.233    0.229   20.104
  291.250   30.815    0.320    0.243   21.275
  291.500   29.003    0.344    0.300   21.680
  291.750   27.794    0.361    0.313   21.275
  292.000   27.195    0.373    0.313   21.275
  292.250   25.988    0.381    0.313   20.877
  292.500   25.386    0.355    0.311   20.877
  292.750   24.784    0.337    0.309   20.877
  293.000   25.400    0.331    0.292   20.877
  293.250   25.406    0.312    0.241   21.275
  293.500   24.809    0.312    0.234   21.680
  293.750   24.813    0.351    0.258   21.275
  294.000   27.252    0.375    0.280   20.877
  294.250   28.471    0.381    0.301   20.877
  294.500   30.907    0.377    0.306   20.487
  294.750   29.699    0.368    0.295   20.487
  295.000   24.849    0.364    0.300   20.487
  295.250   24.246    0.355    0.306   20.487
  295.500   24.860    0.333    0.310   20.487
  295.750   24.260    0.329    0.311   20.487
  296.000   23.659    0.342    0.311   20.104
  296.250   23.063    0.352    0.311   18.997
  296.500   24.281    0.346    0.312   17.951
  296.750   34.612    0.372    0.302   15.730
  297.000   54.053    0.400    0.268   13.783
  297.250   85.639    0.426    0.203   12.077
  297.500  103.865    0.454    0.183   10.191
  297.750  114.196    0.477    0.144    8.280
  298.000  112.990    0.501    0.117    6.856
  298.250  114.211    0.502    0.150    5.677
  298.500  115.430    0.502    0.168    4.700
  298.750  120.298    0.518    0.173    4.359
  299.000  124.555    0.536    0.204    3.966
  299.250  123.956    0.547    0.225    3.678
  299.500  110.600    0.563    0.240    4.042
  299.750   88.136    0.461    0.267    4.790
  300.000   77.212    0.441    0.295    5.785
  300.250   74.184    0.446    0.308    6.479
  300.500   71.764    0.441    0.321    7.973
  300.750   70.552    0.436    0.316   10.000
  301.000   68.130    0.451    0.315   14.046
  301.250   66.316    0.444    0.318   16.029
  301.500   66.932    0.464    0.329   16.963
  301.750   66.938    0.480    0.335   16.963
  302.000   66.945    0.434    0.337   16.646
  302.250   68.165    0.425    0.311   16.335
  302.500   70.601    0.433    0.296   15.730
  302.750   68.789    0.419    0.286   14.046
  303.000   68.794    0.400    0.274   13.272
  303.250   73.051    0.417    0.264   11.199
  303.500   77.916    0.440    0.246    9.630
  303.750   82.783    0.451    0.230    8.762
  304.000   85.218    0.465    0.223    7.824
  304.250   86.439    0.459    0.221    7.255
  304.500   85.841    0.454    0.223    7.255
  304.750   83.418    0.437    0.229    7.824
  305.000   81.602    0.428    0.233    8.438
  305.250   87.683    0.420    0.221    8.280
  305.500   96.799    0.431    0.200    7.255
  305.750  107.737    0.452    0.174    6.728
  306.000  112.602    0.470    0.152    5.785
  306.250  115.648    0.476    0.145    5.069
  306.500  118.688    0.491    0.143    4.526
  306.750  125.378    0.492    0.152    4.442
  307.000  122.955    0.482    0.153    4.442
  307.250  119.318    0.469    0.163    4.700
  307.500  126.612    0.456    0.176    5.364
  307.750  129.047    0.457    0.195    6.239
  308.000  120.553    0.438    0.218    7.394
  308.250  115.700    0.432    0.232    8.929
  308.500  115.100    0.441    0.251    9.813
  308.750  104.784    0.448    0.265   11.199
  309.000   98.718    0.420    0.278   11.851
  309.250   95.080    0.422    0.238   12.781
  309.500   92.658    0.429    0.214   13.024
  309.750   95.095    0.433    0.207   12.307
  310.000  100.568    0.432    0.224   11.199
  310.250  103.004    0.418    0.250   10.385
  310.500  107.868    0.422    0.253    9.813
  310.750  112.735    0.438    0.238    9.450
  311.000  109.097    0.448    0.228   10.000
  311.250   92.708    0.459    0.259   10.784
  311.500   79.960    0.428    0.276   11.630
  311.750   66.000    0.413    0.303   12.542
  312.000   56.896    0.422    0.313   13.272
  312.250   47.795    0.426    0.314   14.586
  312.500   47.802    0.409    0.313   15.147
  312.750   52.666    0.413    0.309   15.436
  313.000   49.033    0.394    0.305   15.436
  313.250   47.215    0.399    0.304   15.436
  313.500   50.865    0.405    0.300   14.864
  313.750   58.767    0.409    0.287   14.586
  314.000   63.024    0.410    0.276   14.313
  314.250   63.034    0.382    0.281   14.046
  314.500   64.254    0.366    0.287   14.046
  314.750   66.082    0.395    0.266   14.046
  315.000   63.053    0.410    0.257   14.586
  315.250   59.416    0.410    0.279   15.147
  315.500   56.993    0.393    0.303   15.147
  315.750   61.251    0.372    0.288   15.436
  316.000   67.939    0.366    0.268   15.436
  316.250   65.518    0.388    0.263   15.436
  316.500   61.273    0.403    0.272   15.147
  316.750   56.423    0.412    0.280   15.147
  317.000   53.392    0.378    0.288   14.864
  317.250   53.398    0.382    0.269   14.864
  317.500   58.873    0.388    0.263   14.586
  317.750   60.093    0.383    0.273   14.313
  318.000   61.921    0.370    0.258   14.046
  318.250   58.287    0.389    0.255   14.046
