~VERSION INFORMATION
 VERS.                 2.0:   CWLS LOG ASCII STANDARD -VERSION 2.0
 WRAP.                  NO:   ONE LINE PER DEPTH STEP
~WELL INFORMATION BLOCK
#MNEM.UNIT           DATA                    DESCRIPTION OF MNEMONIC
#---------    -------------------            -------------------------------
# Generated from Intellog Unique Number	CS_73_76/WELL/2213
WELL.         PRECAMBRIAN SHIELD RESOURC     : Well_name    - WELL
LOC .         00/07-20-076-09W4/0            : Location     - LOCATION
UWI .         00/07-20-076-09W4/0            : Uwi          - UNIQUE WELL ID
ENTR.         SP                             : Entered      - ENTERED BY
SRVC.         SCHLUMBERGER                   : Scn          - SERVICE COMPANY
STRT.M        245                            : top_depth    - START DEPTH
STOP.M        495                            : bot_depth    - STOP DEPTH
STEP.M        0.25                           : increment    - STEP LENGTH
 NULL. -999.2500:NULL Value
~CURVE INFORMATION BLOCK
#MNEM UNIT       ERCB CURVE CODE    CURVE DESCRIPTION
#-----------   ------------------   ----------------------------------
DEPT.M        00 001 00 00         : DEPTH        - DEPTH
ILD .OHMM     00 120 00 00         : RESD         - DEEP RESISTIVITY (DIL)
DPHI.V/V      00 890 00 00         : PHID         - DENSITY POROSITY (LIMESTONE)
NPHI.V/V      00 330 00 00         : PHIN         - NEUTRON POROSITY (LIMESTONE)
GR  .API      00 310 00 00         : GR           - GAMMA RAY
~PARAMETER INFORMATION
#MNEM.UNIT           DATA             DESCRIPTION OF MNEMONIC
#---------         -----------     ------------------------------
GL  .M        677.49               : gl           - GROUND LEVEL ELEVATION
EREF.M        681.99               : kb           - ELEVATION OF DEPTH REFERENCE
DATM.M        677.49               : datum        - DATUM ELEVATION
TDD .M        498                  : tdd          - TOTAL DEPTH DRILLER
RUN .         ONE                  : Run          - RUN NUMBER
ENG .         BILL                 : Engineer     - RECORDING ENGINEER
WIT .         JIM                  : Witness      - WITNESSED BY
MUD .         GEL                  : Mud_type     - MUD TYPE
MATR.         LIMESTONE            : Logunit      - NEUTRON MATRIX
TMAX.C        20                   : BHT          - MAXIMUM RECORDED TEMPERATURE
BHTD.M        498                  : BHTDEP       - MAXIMUM RECORDED TEMPERATURE
MATR.         1                    : LOGUNIT      - NEUTRON MATRIX
RMT .C        25                   : MDTP         - TEMPERATURE OF MUD
NEUT.         1                    : NEUTRON      - NEUTRON TYPE
RESI.         0                    : RESIST       - RESISTIVITY TYPE
RMC .OHMM     0.25                 : RMC          - RESISTIVITY OF MUD CAKE
RMF .OHMM     0.25                 : RMF          - RESISTIVITY OF MUD FILTRATE
SUFT.C        15                   : SUFT         - SURFACE TEMPERATURE
~A  DEPTH     RESD     PHID     PHIN       GR
# ...
  462.500   13.462    0.220    0.370   65.577
  462.750   14.524    0.234    0.388   66.819
  463.000   15.669    0.263    0.374   71.118
  463.250   17.229    0.247    0.378   74.802
  463.500   21.635    0.247    0.392   69.919
  463.750   25.183    0.275    0.401   65.032
  464.000   28.760    0.302    0.402   56.473
  464.250   36.807    0.331    0.391   50.978
  464.500   42.842    0.320    0.392   52.217
  464.750   45.352    0.334    0.402   54.069
  465.000   47.106    0.336    0.413   54.690
  465.250   48.009    0.328    0.420   58.380
  465.500   48.928    0.333    0.420   58.393
  465.750   47.106    0.340    0.418   59.017
  466.000   43.663    0.330    0.408   61.479
  466.250   38.964    0.317    0.399   68.230
  466.500   36.115    0.314    0.391   72.528
  466.750   32.846    0.316    0.386   73.766
  467.000   30.445    0.319    0.391   69.493
  467.250   27.169    0.323    0.405   67.672
  467.500   22.903    0.311    0.399   68.910
  467.750   19.307    0.298    0.387   71.988
  468.000   15.669    0.291    0.380   73.835
  468.250   13.720    0.289    0.381   76.297
  468.500   12.717    0.290    0.387   76.924
  468.750   11.135    0.261    0.392   76.937
  469.000   10.321    0.236    0.382   80.011
  469.250    9.750    0.220    0.373   83.697
  469.500    9.387    0.207    0.378   86.772
  469.750    9.211    0.223    0.373   86.176
  470.000    9.037    0.232    0.357   86.800
  470.250    8.537    0.229    0.338   87.424
  470.500    8.377    0.224    0.344   89.275
  470.750    8.065    0.230    0.351   92.350
  471.000    7.618    0.226    0.366   96.649
  471.250    7.475    0.221    0.381  100.337
  471.500    7.475    0.220    0.361  104.025
  471.750    7.475    0.222    0.368  107.709
  472.000    7.618    0.230    0.384  107.112
  472.250    7.764    0.220    0.395  102.226
  472.500    8.377    0.221    0.374   91.831
  472.750    9.037    0.225    0.353   83.274
  473.000    9.567    0.216    0.325   77.778
  473.250    9.750    0.204    0.326   77.178
  473.500    9.567    0.184    0.334   82.089
  473.750    9.567    0.178    0.340   88.227
  474.000    9.567    0.191    0.347   87.628
  474.250    9.937    0.209    0.358   79.683
  474.500   10.127    0.228    0.348   74.796
  474.750   10.321    0.239    0.354   68.075
  475.000   10.519    0.252    0.337   70.540
  475.250   10.519    0.228    0.337   75.448
  475.500   10.721    0.205    0.340   80.973
  475.750   11.135    0.214    0.352   78.537
  476.000   11.349    0.242    0.349   75.489
  476.250   11.788    0.255    0.353   72.444
  476.500   12.014    0.257    0.359   71.231
  476.750   12.244    0.245    0.365   70.631
  477.000   12.717    0.248    0.371   66.974
  477.250   13.462    0.240    0.354   65.148
  477.500   13.720    0.232    0.348   66.389
  477.750   13.983    0.245    0.353   67.015
  478.000   14.524    0.263    0.368   65.803
  478.250   14.524    0.272    0.355   63.977
  478.500   14.802    0.265    0.348   64.606
  478.750   15.375    0.274    0.348   64.618
  479.000   15.669    0.285    0.351   60.345
  479.250   16.587    0.270    0.367   57.909
  479.500   18.238    0.266    0.383   62.212
  479.750   20.830    0.286    0.396   58.550
  480.000   23.342    0.297    0.407   49.992
  480.250   25.665    0.317    0.349   42.045
  480.500   28.220    0.303    0.355   46.956
  480.750   30.445    0.277    0.364   52.480
  481.000   29.873    0.287    0.376   46.373
  481.250   25.665    0.302    0.376   43.325
  481.500   22.472    0.292    0.365   51.913
  481.750   19.677    0.275    0.361   60.500
  482.000   17.896    0.261    0.357   64.794
  482.250   16.905    0.251    0.358   59.296
  482.500   17.559    0.275    0.360   52.576
  482.750   18.238    0.289    0.357   52.590
  483.000   19.677    0.283    0.355   52.602
  483.250   18.238    0.297    0.355   51.392
  483.500   17.229    0.304    0.337   51.404
  483.750   15.970    0.283    0.337   58.155
  484.000   14.524    0.252    0.346   64.904
  484.250   13.462    0.256    0.358   60.017
  484.500   12.244    0.283    0.355   53.298
  484.750   11.788    0.273    0.345   53.921
  485.000   11.135    0.237    0.361   61.899
  485.250   10.721    0.231    0.375   66.806
  485.500   10.321    0.232    0.374   75.390
  485.750   10.127    0.245    0.372   69.284
  486.000   10.519    0.251    0.381   67.458
  486.250   10.721    0.273    0.368   64.411
  486.500   10.519    0.287    0.359   58.913
  486.750   10.321    0.277    0.369   63.216
  487.000   10.127    0.275    0.380   62.004
  487.250    9.750    0.253    0.369   63.852
  487.500    9.567    0.243    0.366   71.213
  487.750    9.211    0.235    0.358   79.801
  488.000    9.037    0.215    0.353   84.710
  488.250    9.211    0.203    0.379   84.722
  488.500    9.937    0.212    0.407   76.165
  488.750   10.721    0.230    0.390   70.668
  489.000   11.349    0.233    0.360   76.192
  489.250   12.014    0.242    0.359   76.820
  489.500   12.244    0.252    0.361   73.771
  489.750   12.244    0.251    0.369   73.172
  490.000   12.244    0.260    0.364   75.021
  490.250   12.478    0.243    0.369   81.159
  490.500   12.961    0.233    0.377   90.355
  490.750   14.802    0.238    0.377  166.900
  491.000   16.905    0.225    0.360  149.771
  491.250   17.896    0.206    0.295  137.540
  491.500   20.054    0.153    0.242   95.307
  491.750   23.342    0.008    0.216   75.727
  492.000   29.873    0.000    0.236   54.312
  492.250   38.231    0.000    0.227   57.396
  492.500   50.821    0.000    0.176   59.242
  492.750   59.153    0.000    0.134   60.477
  493.000   70.170    0.000    0.120   59.884
  493.250   74.281    0.000    0.116   59.895
  493.500   61.441    0.000    0.118   59.294
  493.750   50.821    0.009    0.125   59.309
  494.000   38.964    0.028    0.146   59.319
  494.250   32.846    0.047    0.149   59.336
  494.500   26.658    0.060    0.140   59.349
  494.750   24.709    0.052    0.128   59.365
  495.000   22.903    0.022    0.120   59.990
