~VERSION INFORMATION
 VERS.                 2.0:   CWLS LOG ASCII STANDARD -VERSION 2.0
 WRAP.                  NO:   ONE LINE PER DEPTH STEP
~WELL INFORMATION BLOCK
#MNEM.UNIT           DATA                    DESCRIPTION OF MNEMONIC
#---------    -------------------            -------------------------------
# Generated from Intellog Unique Number	CW_82_90/WELL/3054
WELL.         TEXEX WOODEN                   : Well_name    - WELL
LOC .         00/06-11-087-22W4/0            : Location     - LOCATION
UWI .         00/06-11-087-22W4/0            : Uwi          - UNIQUE WELL ID
ENTR.         MAX                            : Entered      - ENTERED BY
SRVC.         SCHLUMBERGER                   : Scn          - SERVICE COMPANY
STRT.M        106.68                         : top_depth    - START DEPTH
STOP.M        335.18                         : bot_depth    - STOP DEPTH
STEP.M        0.25                           : increment    - STEP LENGTH
 NULL. -999.2500:NULL Value
~CURVE INFORMATION BLOCK
#MNEM UNIT       ERCB CURVE CODE    CURVE DESCRIPTION
#-----------   ------------------   ----------------------------------
DEPT.M        00 001 00 00         : DEPTH        - DEPTH
GR  .API      00 310 00 00         : GR           - GAMMA RAY
CALI.MM       00 280 01 00         : CAL          - CALIPER
DPHI.V/V      00 890 00 00         : PHID         - DENSITY POROSITY (SANDSTONE)
NPHI.V/V      00 330 00 00         : PHIN         - NEUTRON POROSITY (SANDSTONE)
ILD .OHMM     00 120 00 00         : RESD         - DEEP RESISTIVITY (DIL)
~PARAMETER INFORMATION
#MNEM.UNIT           DATA             DESCRIPTION OF MNEMONIC
#---------         -----------     ------------------------------
GL  .M        559.613              : gl           - GROUND LEVEL ELEVATION
EREF.M        563.27               : kb           - ELEVATION OF DEPTH REFERENCE
DATM.M        559.613              : datum        - DATUM ELEVATION
TDD .M        338.633              : tdd          - TOTAL DEPTH DRILLER
RUN .         ONE                  : Run          - RUN NUMBER
ENG .         BILL                 : Engineer     - RECORDING ENGINEER
WIT .         JIM                  : Witness      - WITNESSED BY
MUD .         GEL                  : Mud_type     - MUD TYPE
MATR.         SANDSTONE            : Logunit      - NEUTRON MATRIX
TMAX.C        22.2222              : BHT          - MAXIMUM RECORDED TEMPERATURE
BHTD.M        338.633              : BHTDEP       - MAXIMUM RECORDED TEMPERATURE
MATR.         1                    : LOGUNIT      - NEUTRON MATRIX
RMT .C        14.4444              : MDTP         - TEMPERATURE OF MUD
NEUT.         1                    : NEUTRON      - NEUTRON TYPE
RESI.         0                    : RESIST       - RESISTIVITY TYPE
RMC .OHMM     5.92                 : RMC          - RESISTIVITY OF MUD CAKE
RMF .OHMM     5.92                 : RMF          - RESISTIVITY OF MUD FILTRATE
SUFT.C        -20.5556             : SUFT         - SURFACE TEMPERATURE
~A  DEPTH       GR      CAL     PHID     PHIN     RESD
# ...
  289.180  103.762  214.135    0.162    0.443   11.554
  289.430  104.664  214.666    0.163    0.440   11.459
  289.680  105.849  214.705    0.171    0.444   11.571
  289.930  106.451  213.244    0.174    0.460   11.684
  290.180  105.009  212.290    0.174    0.444   11.903
  290.430  100.060  210.837    0.178    0.433   12.460
  290.680  100.081  210.868    0.184    0.425   12.926
  290.930  100.102  210.907    0.181    0.421   13.656
  291.180   99.246  210.444    0.175    0.417   14.039
  291.430   98.096  209.988    0.168    0.413   14.563
  291.680   96.651  210.016    0.155    0.408   15.383
  291.930   95.800  210.043    0.145    0.402   16.394
  292.180   95.230  210.581    0.145    0.393   17.954
  292.430   92.913  210.608    0.117    0.379   17.966
  292.680   90.012  210.647    0.086    0.337   17.818
  292.930   93.827  210.671    0.012    0.311   16.741
  293.180   99.399  213.176    0.050    0.380   14.767
  293.430  103.218  214.201    0.158    0.431   13.503
  293.680  101.778  212.748    0.189    0.431   13.394
  293.930   99.749  213.286    0.199    0.427   13.645
  294.180   99.186  213.808    0.184    0.418   13.178
  294.430   98.620  213.843    0.179    0.401   13.301
  294.680   98.930  213.380    0.170    0.390   13.796
  294.930   98.371  212.916    0.147    0.377   14.313
  295.180   98.684  212.952    0.133    0.421   14.066
  295.430  100.451  213.474    0.099    0.439   12.187
  295.680  103.976  215.983    0.090    0.458   10.184
  295.930  108.964  216.513    0.143    0.475    7.991
  296.180  112.197  216.540    0.164    0.486    7.374
  296.430  111.341  217.074    0.161    0.482    7.183
  296.680  107.856  213.638    0.151    0.481    7.384
  296.930  104.076  211.196    0.135    0.480    7.799
  297.180  104.968  209.751    0.126    0.480    8.542
  297.430  106.742  213.736    0.102    0.480    9.438
  297.680  104.131  214.270    0.167    0.475   10.810
  297.930  100.643  212.813    0.168    0.456   12.161
  298.180   94.528  209.876    0.136    0.424   13.438
  298.430   92.796  208.930    0.112    0.405   14.985
  298.680   92.815  208.957    0.131    0.406   15.825
  298.930   91.082  208.498    0.196    0.439   16.870
  299.180   88.177  208.529    0.200    0.440   16.729
  299.430   83.520  209.059    0.164    0.419   16.296
  299.680   78.866  209.090    0.128    0.387   15.728
  299.930   87.066  208.132    0.066    0.337   15.182
  300.180   95.268  207.178    0.069    0.371   14.266
  300.430   99.963  207.209    0.137    0.433   13.645
  300.680  100.861  207.731    0.149    0.440   12.935
  300.930  100.295  208.261    0.152    0.439   11.938
  301.180  100.024  209.781    0.153    0.442   11.626
  301.430  100.332  212.286    0.138    0.447   11.530
  301.680  101.519  213.307    0.151    0.455   11.332
  301.930  102.711  213.342    0.167    0.491   11.137
  302.180  100.977  211.395    0.141    0.482   11.245
  302.430   95.736  210.935    0.113    0.458   11.355
  302.680   96.633  210.966    0.073    0.434   11.570
  302.930  100.156  212.486    0.116    0.459   11.790
  303.180  102.808  211.532    0.165    0.451   11.904
  303.430  101.658  212.553    0.150    0.441   11.804
  303.680  100.800  213.570    0.131    0.425   11.396
  303.930  101.987  217.563    0.100    0.420   10.999
  304.180  106.683  218.584    0.130    0.422   10.617
  304.430  112.545  217.630    0.143    0.450    9.976
  304.680  118.997  217.170    0.138    0.444    8.959
  304.930  120.182  218.187    0.141    0.432    8.417
  305.180  116.988  218.222    0.161    0.429    8.274
  305.430  112.040  217.268    0.139    0.438    8.430
  305.680  106.214  212.842    0.103    0.422    9.065
  305.930  102.727  211.888    0.063    0.391   10.017
  306.180  107.130  212.414    0.004    0.342   11.269
  306.430  111.826  213.938    0.117    0.359   12.230
  306.680  113.890  214.460    0.111    0.360   12.349
  306.930  118.583  214.990    0.128    0.390   12.138
  307.180  118.020  216.015    0.140    0.422   11.610
  307.430  110.442  216.541    0.147    0.437   11.209
  307.680  109.001  215.088    0.153    0.434   11.216
  307.930  111.360  214.138    0.157    0.426   11.324
  308.180  109.917  214.165    0.157    0.429   12.288
  308.430  103.798  213.702    0.146    0.392   14.725
  308.680   91.544  212.743    0.124    0.290   17.645
  308.930   79.291  211.789    0.097    0.267   20.211
  309.180   77.266  211.824    0.000    0.281   23.154
  309.430   93.065  211.852    0.009    0.302   24.018
  309.680  100.096  212.382    0.021    0.335   22.773
  309.930  103.626  212.908    0.056    0.363   20.823
  310.180  103.934  212.955    0.133    0.380   17.878
  310.430  103.955  212.975    0.120    0.391   15.630
  310.680  103.973  213.006    0.138    0.391   14.816
  310.930  104.579  212.056    0.150    0.387   13.922
  311.180  105.474  211.592    0.145    0.372   13.438
  311.430  106.953  210.646    0.141    0.348   13.326
  311.680  105.221  210.669    0.140    0.345   13.702
  311.930  103.778  210.697    0.138    0.418   14.343
  312.180  101.170  211.725    0.124    0.416   15.426
  312.430   96.805  212.742    0.108    0.393   16.440
  312.680   88.350  212.789    0.070    0.369   18.166
  312.930   80.480  211.325    0.020    0.308   19.538
  313.180   81.375  210.374   -0.004    0.264   19.028
  313.430   93.375  210.406   -0.006    0.289   16.938
  313.680   98.948  210.936    0.002    0.336   12.935
  313.930  104.810  210.468    0.141    0.391   11.937
  314.180  105.710  209.510    0.146    0.413   10.625
  314.430  106.310  210.539    0.123    0.414    9.717
  314.680  107.498  211.564    0.129    0.446    9.294
  314.930  108.395  212.584    0.137    0.459    8.891
  315.180  108.706  212.612    0.163    0.475    8.354
  315.430  108.437  211.658    0.158    0.479    7.992
  315.680  109.037  213.177    0.164    0.486    7.854
  315.930  107.013  213.208    0.168    0.494    8.075
  316.180  106.157  211.261    0.171    0.480    8.301
  316.430  106.762  209.808    0.127    0.433    8.849
  316.680  108.826  208.850    0.015    0.407    9.262
  316.930  112.641  208.885    0.038    0.410    9.783
  317.180  115.583  210.895    0.147    0.443   10.241
  317.430  108.005  211.425    0.180    0.436   10.819
  317.680  105.394  210.467    0.155    0.431   11.325
  317.930  106.583  210.993    0.148    0.465   11.434
  318.180  100.758  211.531    0.140    0.445   11.969
  318.430   97.857  211.555    0.124    0.422   12.874
  318.680   98.752  211.586    0.181    0.420   13.597
  318.930   92.050  210.639    0.221    0.414   17.513
  319.180   71.324  210.663    0.247    0.389   19.877
  319.430   64.330  211.193    0.282    0.418   29.567
  319.680   60.258  212.709    0.247    0.448   45.595
  319.930   61.739  213.235    0.271    0.456   61.430
  320.180   64.682  213.274    0.256    0.443   59.832
  320.430   67.330  213.301    0.239    0.440   56.717
  320.680   66.472  212.842    0.240    0.440   51.413
  320.930   68.538  211.884    0.215    0.466   50.981
  321.180   69.433  211.420    0.220    0.468   51.015
  321.430   70.041  210.961    0.206    0.447   50.150
  321.680   73.273  210.501    0.197    0.450   48.395
  321.930   74.461  210.533    0.190    0.464   41.551
  322.180   75.650  211.059    0.176    0.450   31.732
  322.430   77.714  212.080    0.117    0.436   27.005
  322.680   81.533  213.104    0.086    0.428   24.471
  322.930   80.381  213.630    0.192    0.466   20.450
  323.180   73.679  213.674    0.160    0.468   17.558
  323.430   62.010  213.206    0.160    0.475   17.104
  323.680   50.049  211.258    0.206    0.452   18.727
  323.930   37.503  210.300    0.230    0.401   24.556
  324.180   35.773  209.841    0.247    0.396   32.197
  324.430   38.127  210.375    0.279    0.388   65.651
  324.680   41.362  210.398    0.268    0.385   86.086
  324.930   42.844  210.433    0.262    0.386   83.847
  325.180   44.615  210.465    0.273    0.399   75.993
  325.430   46.387  210.496    0.266    0.407   68.864
