~VERSION INFORMATION
 VERS.                 2.0:   CWLS LOG ASCII STANDARD -VERSION 2.0
 WRAP.                  NO:   ONE LINE PER DEPTH STEP
~WELL INFORMATION BLOCK
#MNEM.UNIT           DATA                    DESCRIPTION OF MNEMONIC
#---------    -------------------            -------------------------------
# Generated from Intellog Unique Number	CW_82_90/WELL/2586
WELL.         06-01-082-01W5                 : Well_name    - WELL
LOC .         00/06-01-082-01W5/0            : Location     - LOCATION
UWI .         00/06-01-082-01W5/0            : Uwi          - UNIQUE WELL ID
ENTR.         JJ                             : Entered      - ENTERED BY
SRVC.         SCHLUMBERGER                   : Scn          - SERVICE COMPANY
DATE.         25 NOV 73                      : Date         - LOG DATE
STRT.M        304.8                          : top_depth    - START DEPTH
STOP.M        432.8                          : bot_depth    - STOP DEPTH
STEP.M        0.25                           : increment    - STEP LENGTH
 NULL. -999.2500:NULL Value
~CURVE INFORMATION BLOCK
#MNEM UNIT       ERCB CURVE CODE    CURVE DESCRIPTION
#-----------   ------------------   ----------------------------------
DEPT.M        00 001 00 00         : DEPTH        - DEPTH
ILD .OHMM     00 120 00 00         : RESD         - DEEP RESISTIVITY (DIL)
GR  .API      00 310 00 00         : GR           - GAMMA RAY
DELT.US/F     00 520 00 00         : DELT         - SONIC TRAVEL TIME
~PARAMETER INFORMATION
#MNEM.UNIT           DATA             DESCRIPTION OF MNEMONIC
#---------         -----------     ------------------------------
GL  .M        562.051              : gl           - GROUND LEVEL ELEVATION
EREF.M        565.404              : kb           - ELEVATION OF DEPTH REFERENCE
DATM.M        565.404              : datum        - DATUM ELEVATION
TDD .M        435.864              : tdd          - TOTAL DEPTH DRILLER
RUN .         ONE                  : Run          - RUN NUMBER
ENG .         CHAUDHARY            : Engineer     - RECORDING ENGINEER
WIT .         DAVIS                : Witness      - WITNESSED BY
BASE.         EDM                  : Branch       - HOME BASE OF LOGGING UNIT
MUD .         GEL                  : Mud_type     - MUD TYPE
MATR.         SANDSTONE            : Logunit      - NEUTRON MATRIX
TMAX.C        24.4444              : BHT          - MAXIMUM RECORDED TEMPERATURE
BHTD.M        435.864              : BHTDEP       - MAXIMUM RECORDED TEMPERATURE
RMT .C        11.1111              : MDTP         - TEMPERATURE OF MUD
MUDD.KG/M     1152                 : MWT          - MUD DENSITY
NEUT.         1                    : NEUTRON      - NEUTRON TYPE
RESI.         0                    : RESIST       - RESISTIVITY TYPE
RM  .OHMM     2.01                 : RM           - RESISTIVITY OF MUD
RMC .OHMM     1.445                : RMC          - RESISTIVITY OF MUD CAKE
RMF .OHMM     1.96                 : RMF          - RESISTIVITY OF MUD FILTRATE
SUFT.C        5                    : SUFT         - SURFACE TEMPERATURE
~A  DEPTH     RESD       GR     DELT
# ...
  359.050   20.109   76.807  390.910
  359.300   16.974   74.930  399.181
  359.550   14.742   72.610  387.850
  359.800   13.456   71.866  364.780
  360.050   12.604   74.336  388.458
  360.300   12.330   76.553  414.039
  360.550   12.087   76.635  406.838
  360.800   11.889   76.321  378.588
  361.050   11.892   75.870  376.240
  361.300   11.927   72.816  373.493
  361.550   11.974   71.630  386.420
  361.800   12.286   73.316  411.016
  362.050   12.772   72.170  416.336
  362.300   13.402   71.529  356.617
  362.550   13.538   76.127  348.694
  362.800   13.611   79.945  432.887
  363.050   13.539   81.954  441.160
  363.300   12.917   81.645  429.760
  363.550   11.896   81.730  425.115
  363.800   11.083   83.806  411.488
  364.050   10.583   86.934  396.090
  364.300   10.475   90.115  393.018
  364.550   10.233   91.118  393.685
  364.800   10.019   88.382  395.336
  365.050    9.984   84.340  394.293
  365.300   10.016   82.591  393.189
  365.550   10.058   83.332  390.315
  365.800   10.455   84.553  384.883
  366.050   11.323   82.489  373.025
  366.300   12.216   75.338  353.759
  366.550   12.821   70.818  335.936
  366.800   12.599   73.382  348.272
  367.050   11.943   76.818  364.344
  367.300   11.319   79.703  384.877
  367.550   10.868   80.323  395.508
  367.800   10.461   77.084  395.190
  368.050   10.242   78.787  382.152
  368.300   10.140   82.463  384.982
  368.550   10.111   85.718  391.285
  368.800   10.048   89.523  398.375
  369.050   10.127   93.110  402.320
  369.300   10.335   89.680  394.395
  369.550   10.688   83.232  382.409
  369.800   11.267   78.047  374.026
  370.050   12.132   77.698  379.935
  370.300   13.332   76.311  385.847
  370.550   14.775   73.876  374.317
  370.800   16.569   73.165  365.344
  371.050   19.452   72.653  361.881
  371.300   22.764   69.359  344.580
  371.550   26.147   65.930  343.083
  371.800   28.688   64.181  355.419
  372.050   31.250   64.241  369.394
  372.300   34.323   61.366  367.371
  372.550   37.411   59.421  363.842
  372.800   40.131   60.727  367.326
  373.050   42.482   57.872  370.941
  373.300   45.261   59.153  372.589
  373.550   45.880   62.396  364.928
  373.800   44.208   61.804  305.931
  374.050   42.887   58.864  280.436
  374.300   40.795   60.930  293.887
  374.550   37.510   64.733  319.925
  374.800   33.496   67.717  370.944
  375.050   29.114   66.207  377.051
  375.300   29.038   63.032  365.524
  375.550   33.378   59.483  362.388
  375.800   37.403   57.184  360.166
  376.050   41.437   57.217  353.883
  376.300   45.649   60.835  346.615
  376.550   44.677   64.703  346.756
  376.800   32.602   69.654  356.141
  377.050   21.367   75.322  367.428
  377.300   15.159   82.148  377.664
  377.550   11.577   88.491  390.920
  377.800    9.400   87.980  399.517
  378.050    8.530   88.050  406.214
  378.300    8.558   90.935  393.439
  378.550    8.736   90.122  390.105
  378.800    9.037   86.679  387.889
  379.050    9.418   86.752  384.619
  379.300   10.011   89.159  377.352
  379.550   11.063   87.547  374.606
  379.800   12.355   83.565  374.157
  380.050   14.833   80.365  372.527
  380.300   18.753   76.799  367.162
  380.550   24.151   71.989  334.849
  380.800   30.099   65.903  265.360
  381.050   36.609   60.519  238.489
  381.300   37.460   63.871  233.057
  381.550   33.158   69.150  313.056
  381.800   27.390   72.626  328.145
  382.050   22.732   75.004  357.660
  382.300   19.486   76.399  364.226
  382.550   17.136   75.485  365.417
  382.800   15.201   73.328  364.966
  383.050   13.704   71.524  363.271
  383.300   12.405   72.914  359.609
  383.550   11.070   75.711  351.619
  383.800   10.553   79.100  364.742
  384.050   10.421   83.662  378.651
  384.300   10.503   84.651  386.398
  384.550   10.904   88.872  385.098
  384.800   11.391   91.853  383.599
  385.050   11.752   88.950  374.823
  385.300   11.718   87.081  362.637
  385.550   11.333   88.356  362.190
  385.800   11.270   85.265  370.461
  386.050   11.249   83.846  380.174
  386.300   11.320   84.624  386.740
  386.550   11.390   89.050  383.800
  386.800   11.478   90.830  372.991
  387.050   11.607   92.195  364.018
  387.300   11.958   90.104  365.536
  387.550   12.010   86.896  377.085
  387.800   11.990   83.212  382.536
  388.050   12.042   80.325  374.876
  388.300   12.115   84.375  346.889
  388.550   12.149   84.318  254.913
  388.800   12.227   84.093  321.405
  389.050   12.287   84.349  384.028
  389.300   11.440   88.059  388.890
  389.550   11.609   86.233  364.444
  389.800   11.804   87.778  367.077
  390.050   12.005   86.124  403.278
  390.300   12.164   88.336  421.712
  390.550   12.155   92.389  439.751
  390.800   12.026   95.871  433.926
  391.050   11.753   99.522  377.419
  391.300   11.210   98.369  381.431
  391.550   10.202   91.463  383.537
  391.800   10.141   84.064  362.631
  392.050   12.050   77.189  370.969
  392.300   14.337   69.639  371.372
  392.550   19.088   64.940  275.331
  392.800   24.908   69.108  256.917
  393.050   29.883   69.547  272.924
  393.300   36.341   73.248  294.570
  393.550   39.321   71.156  319.233
  393.800   37.526   72.531  330.454
  394.050   36.518   68.468  345.806
  394.300   34.274   64.460  360.960
  394.550   32.089   64.311  355.070
  394.800   30.515   68.157  339.869
  395.050   31.480   66.854  316.078
  395.300   35.972   62.638  264.293
  395.550   40.235   61.440  253.747
  395.800   43.367   64.787  247.201
  396.050   44.861   67.334  263.339
  396.300   44.400   68.557  308.588
  396.550   42.778   64.265  325.185
  396.800   40.314   50.898  348.274
  397.050   37.405   45.077  370.903
  397.300   31.177   59.838  382.846
  397.550   26.647   61.621  379.250
  397.800   23.471   63.427  366.212
  398.050   21.505   67.064  357.699
  398.300   20.095   68.999  360.659
  398.550   21.091   69.694  371.159
  398.800   24.195   70.889  324.028
  399.050   27.542   71.080  348.691
  399.300   31.894   68.200  363.125
  399.550   37.759   64.402  283.147
  399.800   46.091   60.423  262.503
  400.050   55.629   54.373  241.926
  400.300   55.655   51.974  216.824
  400.550   37.996   61.259  215.590
  400.800   27.512   72.898  219.730
  401.050   18.992   81.224  240.588
  401.300   13.968   84.698  323.406
  401.550   11.753   82.260  379.539
  401.800   10.673   81.721  379.745
  402.050   10.357   83.346  372.149
  402.300   10.594   82.198  349.015
  402.550   10.933   82.767  344.502
  402.800   11.249   88.285  360.443
  403.050   11.397   85.600  366.879
  403.300   11.225   89.728  365.249
  403.550   10.910   92.293  368.471
  403.800   10.792   86.592  365.663
  404.050   10.792   85.937  359.247
  404.300   10.774   90.919  358.405
  404.550   10.756   90.346  369.494
  404.800   10.755   88.393  368.195
  405.050   10.789   89.492  373.054
  405.300   10.864   85.976  377.130
  405.550   10.898   82.170  370.911
  405.800   10.921   84.325  354.990
  406.050   10.919   88.522  357.884
  406.300   10.914   90.472  372.909
  406.550   10.910   88.760  377.310
  406.800   10.924   82.783  376.861
  407.050   11.029   75.591  362.185
  407.300   11.304   78.098  349.999
  407.550   11.530   82.672  348.500
  407.800   11.329   82.968  367.720
  408.050   10.977   84.960  382.090
  408.300   10.648   81.972  363.152
  408.550   10.227   84.008  365.260
  408.800    9.906   91.319  382.316
  409.050    9.713   91.597  388.686
  409.300    9.481   90.659  389.747
  409.550    9.343   88.846  388.443
  409.800    9.351   88.733  377.438
  410.050    9.526   90.040  364.074
  410.300    9.856   88.968  332.415
  410.550   10.340   95.465  340.030
  410.800   10.909  100.589  357.350
  411.050   11.126   97.589  369.094
  411.300   11.098   93.043  367.990
  411.550   10.802   89.059  360.789
  411.800   10.345   84.506  360.012
  412.050    9.927   83.149  363.234
  412.300    9.310   84.387  368.227
  412.550    8.709   86.521  370.990
  412.800    8.178   90.088  375.458
  413.050    8.354   90.939  394.810
