~VERSION INFORMATION
 VERS.                 2.0:   CWLS LOG ASCII STANDARD -VERSION 2.0
 WRAP.                  NO:   ONE LINE PER DEPTH STEP
~WELL INFORMATION BLOCK
#MNEM.UNIT           DATA                    DESCRIPTION OF MNEMONIC
#---------    -------------------            -------------------------------
# Generated from Intellog Unique Number	CN_94_101/WELL/3210
WELL.         PARAMOUNT RESOURCES LTD.       : Well_name    - WELL
LOC .         00/04-05-095-17W4/0            : Location     - LOCATION
UWI .         00/04-05-095-17W400            : Uwi          - UNIQUE WELL ID
ENTR.         JOETTE                         : Entered      - ENTERED BY
SRVC.         COMPUTALOG                     : Scn          - SERVICE COMPANY
DATE.         07/20/92                       : Date         - LOG DATE
STRT.M        175                            : top_depth    - START DEPTH
STOP.M        290                            : bot_depth    - STOP DEPTH
STEP.M        0.25                           : increment    - STEP LENGTH
 NULL. -999.2500:NULL Value
~CURVE INFORMATION BLOCK
#MNEM UNIT       ERCB CURVE CODE    CURVE DESCRIPTION
#-----------   ------------------   ----------------------------------
DEPT.M        00 001 00 00         : DEPTH        - DEPTH
GR  .API      00 310 00 00         : GR           - GAMMA RAY
NPHI.V/V      00 330 00 00         : PHIN         - NEUTRON POROSITY (SANDSTONE)
DPHI.V/V      00 890 00 00         : PHID         - DENSITY POROSITY (SANDSTONE)
ILD .OHMM     00 120 00 00         : RESD         - DEEP RESISTIVITY (DIL)
~PARAMETER INFORMATION
#MNEM.UNIT           DATA             DESCRIPTION OF MNEMONIC
#---------         -----------     ------------------------------
GL  .M        556.2                : gl           - GROUND LEVEL ELEVATION
EREF.M        557.6                : kb           - ELEVATION OF DEPTH REFERENCE
DATM.M        557.6                : datum        - DATUM ELEVATION
TDD .M        300                  : tdd          - TOTAL DEPTH DRILLER
RUN .         ONE                  : Run          - RUN NUMBER
ENG .         JO                   : Engineer     - RECORDING ENGINEER
WIT .         TIM                  : Witness      - WITNESSED BY
MUD .         GEL                  : Mud_type     - MUD TYPE
MATR.         SANDSTONE            : Logunit      - NEUTRON MATRIX
TMAX.C        30                   : BHT          - MAXIMUM RECORDED TEMPERATURE
BHTD.M        300                  : BHTDEP       - MAXIMUM RECORDED TEMPERATURE
RMT .C        15                   : MDTP         - TEMPERATURE OF MUD
MUDD.KG/M     1090                 : MWT          - MUD DENSITY
NEUT.         1                    : NEUTRON      - NEUTRON TYPE
RESI.         0                    : RESIST       - RESISTIVITY TYPE
RM  .OHMM     3.9                  : RM           - RESISTIVITY OF MUD
RMC .OHMM     3.9                  : RMC          - RESISTIVITY OF MUD CAKE
RMF .OHMM     6                    : RMF          - RESISTIVITY OF MUD FILTRATE
SUFT.C        4                    : SUFT         - SURFACE TEMPERATURE
~A  DEPTH       GR     PHIN     PHID     RESD
  175.000  103.796    0.468    0.219    4.668
  175.250  103.212    0.471    0.227    4.580
  175.500  102.650    0.485    0.236    4.408
  175.750  100.842    0.510    0.250    4.243
  176.000   99.652    0.517    0.278    4.008
  176.250   97.833    0.513    0.307    3.714
  176.500   96.643    0.508    0.317    3.644
  176.750   94.218    0.499    0.344    3.377
  177.000   90.569    0.505    0.355    3.313
  177.250   87.526    0.511    0.345    3.129
  177.500   86.953    0.513    0.356    3.012
  177.750   88.862    0.510    0.366    2.955
  178.000   89.513    0.507    0.375    2.844
  178.250   88.940    0.508    0.362    2.844
  178.500   88.356    0.506    0.328    2.843
  178.750   87.177    0.499    0.314    2.897
  179.000   86.604    0.487    0.318    2.952
  179.250   86.020    0.483    0.322    3.066
  179.500   85.447    0.476    0.314    3.184
  179.750   84.257    0.466    0.312    3.307
  180.000   80.597    0.443    0.305    3.635
  180.250   75.713    0.428    0.298    4.073
  180.500   72.041    0.421    0.289    4.740
  180.750   66.540    0.414    0.286    5.729
  181.000   62.868    0.405    0.278    6.925
  181.250   62.295    0.392    0.262    7.470
  181.500   62.958    0.384    0.246    7.906
  181.750   64.855    0.384    0.235    8.056
  182.000   69.851    0.419    0.247    8.054
  182.250   73.589    0.445    0.267    8.053
  182.500   79.214    0.441    0.281    7.901
  182.750   81.717    0.434    0.285    7.461
  183.000   79.292    0.406    0.272    7.321
  183.250   75.643    0.389    0.261    6.914
  183.500   75.688    0.410    0.257    6.913
  183.750   79.437    0.428    0.264    7.044
  184.000   82.558    0.431    0.273    7.178
  184.250   91.248    0.432    0.273    7.042
  184.500   88.823    0.426    0.281    6.908
  184.750   81.458    0.420    0.285    6.650
  185.000   74.092    0.427    0.246    6.524
  185.250   66.727    0.438    0.246    6.523
  185.500   59.979    0.425    0.293    6.774
  185.750   55.702    0.406    0.316    7.169
  186.000   51.424    0.406    0.317    7.588
  186.250   53.938    0.405    0.316    8.030
  186.500   53.994    0.406    0.317    8.184
  186.750   52.198    0.410    0.303    8.661
  187.000   50.985    0.409    0.241    8.660
  187.250   51.030    0.396    0.210    8.824
  187.500   54.173    0.402    0.199    8.334
  187.750   56.677    0.423    0.305    7.436
  188.000   62.290    0.435    0.322    6.635
  188.250   69.127    0.448    0.293    5.920
  188.500   77.200    0.462    0.277    5.182
  188.750   82.802    0.474    0.262    4.713
  189.000   86.574    0.472    0.255    4.451
  189.250   87.225    0.467    0.248    4.284
  189.500   87.898    0.463    0.241    4.366
  189.750   89.167    0.461    0.237    4.449
  190.000   90.447    0.461    0.232    4.620
  190.250   92.344    0.457    0.228    4.983
  190.500   92.400    0.447    0.233    5.176
  190.750   94.297    0.473    0.248    5.478
  191.000   96.194    0.484    0.255    5.688
  191.250   98.080    0.499    0.194    5.580
  191.500   93.802    0.497    0.123    5.579
  191.750   79.027    0.426    0.107    5.473
  192.000   66.733    0.403    0.135    5.473
  192.250   74.177    0.425    0.180    5.577
  192.500   76.085    0.405    0.229    5.791
  192.750   74.906    0.426    0.254    6.014
  193.000   74.311    0.434    0.234    6.246
  193.250   74.356    0.426    0.239    6.611
  193.500   74.400    0.416    0.245    6.736
  193.750   73.221    0.411    0.242    6.996
  194.000   72.020    0.421    0.232    7.404
  194.250   70.212    0.430    0.232    7.545
  194.500   77.678    0.432    0.242    7.688
  194.750   84.526    0.414    0.253    7.834
  195.000   84.571    0.415    0.266    7.982
  195.250   80.900    0.422    0.235    8.134
  195.500   75.387    0.424    0.229    8.288
  195.750   72.962    0.424    0.232    8.287
  196.000   72.400    0.419    0.245    8.285
  196.250   72.445    0.416    0.252    8.443
  196.500   73.118    0.414    0.247    8.441
  196.750   73.769    0.409    0.244    8.440
  197.000   74.431    0.401    0.243    8.280
  197.250   74.465    0.409    0.244    8.123
  197.500   75.745    0.440    0.245    7.672
  197.750   76.418    0.441    0.244    7.527
  198.000   73.375    0.435    0.247    7.109
  198.250   69.715    0.429    0.252    7.107
  198.500   69.760    0.429    0.257    7.242
  198.750   74.127    0.458    0.264    6.840
  199.000   81.582    0.488    0.273    6.585
  199.250   88.419    0.496    0.276    5.987
  199.500   87.846    0.506    0.279    5.763
  199.750   85.443    0.497    0.285    5.654
  200.000   84.242    0.481    0.291    5.546
  200.250   82.423    0.462    0.300    5.652
  200.500   79.380    0.449    0.305    6.213
  200.750   73.878    0.439    0.284    6.576
  201.000   68.972    0.428    0.256    6.961
  201.250   62.224    0.413    0.237    7.652
  201.500   56.712    0.413    0.264    8.412
  201.750   57.374    0.414    0.291    8.904
  202.000   62.976    0.418    0.291    9.073
  202.250   67.972    0.421    0.275    8.733
  202.500   71.093    0.426    0.265    8.407
  202.750   76.706    0.438    0.265    7.644
  203.000   81.691    0.443    0.264    7.499
  203.250   87.304    0.454    0.264    6.691
  203.500   91.672    0.476    0.263    6.320
  203.750   94.186    0.467    0.261    5.969
  204.000   94.849    0.449    0.256    5.638
  204.250   93.041    0.439    0.251    5.637
  204.500   90.615    0.448    0.249    5.966
  204.750   88.201    0.455    0.256    6.435
  205.000   85.159    0.440    0.267    6.811
  205.250   83.946    0.425    0.279    7.209
  205.500   80.286    0.397    0.242    7.775
  205.750   77.243    0.382    0.195    7.924
  206.000   77.288    0.383    0.144    8.228
  206.250   83.519    0.387    0.173    8.227
  206.500   90.984    0.397    0.198    8.071
  206.750   91.658    0.407    0.212    7.769
  207.000   91.063    0.406    0.227    7.478
  207.250   89.266    0.394    0.235    7.199
  207.500   89.311    0.397    0.242    6.799
  207.750   91.208    0.445    0.245    6.421
  208.000   92.488    0.465    0.238    6.300
  208.250   91.297    0.469    0.229    5.951
  208.500   90.714    0.455    0.225    5.620
  208.750   93.857    0.445    0.225    5.208
  209.000   99.459    0.460    0.226    4.827
  209.250  105.690    0.477    0.221    4.646
  209.500  108.811    0.486    0.210    4.472
  209.750  109.473    0.471    0.193    4.387
  210.000  104.578    0.458    0.175    4.387
  210.250   98.448    0.445    0.136    4.386
  210.500   96.023    0.470    0.164    4.822
  210.750   95.450    0.477    0.175    5.103
  211.000   97.987    0.489    0.199    5.200
  211.250  100.479    0.461    0.219    5.199
  211.500  104.869    0.450    0.231    5.400
  211.750  105.520    0.437    0.230    5.608
  212.000  104.947    0.422    0.225    6.049
  212.250  101.287    0.403    0.220    6.650
  212.500   96.403    0.391    0.219    7.450
  212.750   96.436    0.396    0.215    7.885
  213.000  105.126    0.403    0.214    8.834
  213.250  110.111    0.403    0.213    9.175
  213.500  108.303    0.385    0.215    9.528
  213.750   94.774    0.381    0.219    9.709
  214.000   91.102    0.376    0.221    9.893
  214.250   86.836    0.365    0.215   10.081
  214.500   85.017    0.360    0.195   10.079
  214.750   83.220    0.362    0.176   10.077
  215.000   82.636    0.395    0.194   10.076
  215.250   83.916    0.424    0.211    9.885
  215.500   88.901    0.432    0.218    9.336
  215.750   93.268    0.428    0.215    9.159
  216.000   95.176    0.417    0.215    8.985
  216.250   95.232    0.396    0.219    8.815
  216.500   94.648    0.363    0.226    8.813
  216.750   94.087    0.334    0.254    8.980
  217.000   92.268    0.327    0.268    9.327
  217.250   88.608    0.334    0.264    9.871
  217.500   88.652    0.344    0.250   10.251
  217.750   93.019    0.358    0.242   10.446
  218.000   91.840    0.358    0.233   10.444
  218.250   87.574    0.343    0.207   10.642
