~VERSION INFORMATION
 VERS.                 2.0:   CWLS LOG ASCII STANDARD -VERSION 2.0
 WRAP.                  NO:   ONE LINE PER DEPTH STEP
~WELL INFORMATION BLOCK
#MNEM.UNIT           DATA                    DESCRIPTION OF MNEMONIC
#---------    -------------------            -------------------------------
# Generated from Intellog Unique Number	CS_67_68/WELL/774
WELL.         MERLAND EXPLORATION            : Well_name    - WELL
LOC .         00/07-20-068-10W4/0            : Location     - LOCATION
UWI .         00/07-20-068-10W4/0            : Uwi          - UNIQUE WELL ID
ENTR.         SP                             : Entered      - ENTERED BY
SRVC.         SCHLUMBERGER                   : Scn          - SERVICE COMPANY
STRT.M        375                            : top_depth    - START DEPTH
STOP.M        615                            : bot_depth    - STOP DEPTH
STEP.M        0.25                           : increment    - STEP LENGTH
 NULL. -999.2500:NULL Value
~CURVE INFORMATION BLOCK
#MNEM UNIT       ERCB CURVE CODE    CURVE DESCRIPTION
#-----------   ------------------   ----------------------------------
DEPT.M        00 001 00 00         : DEPTH        - DEPTH
ILD .OHMM     00 120 00 00         : RESD         - DEEP RESISTIVITY (DIL)
DPHI.V/V      00 890 00 00         : PHID         - DENSITY POROSITY (LIMESTONE)
NPHI.V/V      00 330 00 00         : PHIN         - NEUTRON POROSITY (LIMESTONE)
GR  .API      00 310 00 00         : GR           - GAMMA RAY
~PARAMETER INFORMATION
#MNEM.UNIT           DATA             DESCRIPTION OF MNEMONIC
#---------         -----------     ------------------------------
GL  .M        690.3                : gl           - GROUND LEVEL ELEVATION
EREF.M        693.05               : kb           - ELEVATION OF DEPTH REFERENCE
DATM.M        690.3                : datum        - DATUM ELEVATION
TDD .M        616                  : tdd          - TOTAL DEPTH DRILLER
RUN .         ONE                  : Run          - RUN NUMBER
ENG .         BILL                 : Engineer     - RECORDING ENGINEER
WIT .         JIM                  : Witness      - WITNESSED BY
MUD .         GEL                  : Mud_type     - MUD TYPE
MATR.         LIMESTONE            : Logunit      - NEUTRON MATRIX
TMAX.C        26                   : BHT          - MAXIMUM RECORDED TEMPERATURE
BHTD.M        616                  : BHTDEP       - MAXIMUM RECORDED TEMPERATURE
MATR.         1                    : LOGUNIT      - NEUTRON MATRIX
RMT .C        25                   : MDTP         - TEMPERATURE OF MUD
NEUT.         1                    : NEUTRON      - NEUTRON TYPE
RESI.         0                    : RESIST       - RESISTIVITY TYPE
RMC .OHMM     0.25                 : RMC          - RESISTIVITY OF MUD CAKE
RMF .OHMM     0.25                 : RMF          - RESISTIVITY OF MUD FILTRATE
SUFT.C        15                   : SUFT         - SURFACE TEMPERATURE
~A  DEPTH     RESD     PHID     PHIN       GR
# ...
  418.500    7.164    0.290    0.361   46.522
  418.750    7.136    0.277    0.366   45.432
  419.000    7.094    0.272    0.369   44.830
  419.250    7.040    0.274    0.373   43.679
  419.500    6.999    0.273    0.372   42.468
  419.750    6.946    0.294    0.366   42.414
  420.000    6.880    0.308    0.363   43.334
  420.250    6.815    0.299    0.371   43.767
  420.500    6.775    0.297    0.372   44.139
  420.750    6.736    0.298    0.372   43.660
  421.000    6.734    0.299    0.367   44.152
  421.250    6.720    0.313    0.358   46.837
  421.500    6.718    0.318    0.355   48.792
  421.750    6.704    0.308    0.357   50.078
  422.000    6.665    0.305    0.371   49.415
  422.250    6.639    0.295    0.379   47.291
  422.500    6.588    0.298    0.398   45.349
  422.750    6.550    0.306    0.392   48.278
  423.000    6.500    0.308    0.383   53.338
  423.250    6.462    0.306    0.374   49.691
  423.500    6.473    0.295    0.364   42.941
  423.750    6.471    0.286    0.363   39.599
  424.000    6.481    0.284    0.369   38.510
  424.250    6.516    0.290    0.364   38.093
  424.500    6.514    0.307    0.365   37.794
  424.750    6.537    0.308    0.372   38.044
  425.000    6.535    0.304    0.373   38.659
  425.250    6.485    0.308    0.375   39.395
  425.500    6.459    0.311    0.373   41.047
  425.750    6.469    0.309    0.369   42.819
  426.000    6.504    0.311    0.366   43.861
  426.250    6.502    0.298    0.372   43.502
  426.500    6.346    0.292    0.370   41.317
  426.750    6.205    0.300    0.367   39.679
  427.000    6.078    0.302    0.368   39.442
  427.250    6.009    0.297    0.370   41.276
  427.500    5.963    0.298    0.371   43.900
  427.750    5.951    0.302    0.364   47.804
  428.000    5.927    0.295    0.355   52.011
  428.250    5.915    0.284    0.350   56.340
  428.500    5.902    0.270    0.373   60.304
  428.750    5.857    0.274    0.408   54.466
  429.000    5.866    0.296    0.389   46.802
  429.250    5.876    0.309    0.375   37.128
  429.500    5.907    0.304    0.364   40.302
  429.750    5.873    0.299    0.361   44.082
  430.000    5.828    0.296    0.367   48.167
  430.250    5.826    0.287    0.389   51.523
  430.500    5.824    0.288    0.402   54.269
  430.750    5.856    0.296    0.387   40.212
  431.000    5.843    0.298    0.376   30.905
  431.250    5.810    0.303    0.378   26.285
  431.500    5.776    0.314    0.369   24.708
  431.750    5.753    0.320    0.363   24.655
  432.000    5.741    0.316    0.372   25.087
  432.250    5.729    0.321    0.383   25.156
  432.500    5.509    0.310    0.377   25.223
  432.750    5.487    0.324    0.373   24.926
  433.000    5.496    0.316    0.393   24.323
  433.250    5.494    0.327    0.406   23.965
  433.500    5.513    0.340    0.400   23.850
  433.750    5.491    0.330    0.385   23.673
  434.000    5.500    0.322    0.373   23.620
  434.250    5.499    0.311    0.366   23.870
  434.500    5.487    0.315    0.372   23.693
  434.750    5.465    0.322    0.371   23.822
  435.000    5.404    0.326    0.371   23.890
  435.250    5.352    0.324    0.377   24.139
  435.500    5.302    0.330    0.379   24.390
  435.750    5.232    0.330    0.374   24.457
  436.000    5.211    0.324    0.380   24.464
  436.250    5.171    0.325    0.392   24.532
  436.500    5.142    0.330    0.404   24.660
  436.750    5.102    0.332    0.416   25.276
  437.000    5.101    0.328    0.428   26.317
  437.250    5.081    0.329    0.419   31.742
  437.500    5.023    0.336    0.405   42.342
  437.750    4.966    0.329    0.395   42.470
  438.000    4.937    0.326    0.397   26.101
  438.250    4.918    0.335    0.401   22.515
  438.500    4.908    0.347    0.403   22.461
  438.750    4.906    0.354    0.406   22.650
  439.000    4.933    0.358    0.409   22.963
  439.250    4.968    0.349    0.409   23.151
  439.500    5.022    0.344    0.404   23.583
  439.750    5.030    0.346    0.404   23.834
  440.000    5.029    0.345    0.408   24.084
  440.250    5.037    0.348    0.405   25.126
  440.500    5.026    0.347    0.409   26.777
  440.750    5.034    0.346    0.418   28.305
  441.000    5.052    0.347    0.413   30.259
  441.250    5.088    0.336    0.412   34.832
  441.500    5.162    0.343    0.418   41.231
  441.750    5.248    0.350    0.428   50.187
  442.000    5.424    0.326    0.441   63.283
  442.250    5.607    0.297    0.454   76.074
  442.500    5.850    0.272    0.465   94.101
  442.750    6.171    0.262    0.466   99.710
  443.000    6.414    0.253    0.453  101.237
  443.250    6.484    0.244    0.458  102.401
  443.500    6.507    0.258    0.456  101.555
  443.750    6.469    0.269    0.449   98.579
  444.000    6.420    0.252    0.446   93.228
  444.250    6.335    0.223    0.450   94.452
  444.500    6.298    0.219    0.452   95.920
  444.750    6.498    0.235    0.460   96.597
  445.000    6.805    0.245    0.476   91.611
  445.250    7.232    0.259    0.495   85.286
  445.500    7.672    0.297    0.520   80.544
  445.750    8.229    0.352    0.580   73.795
  446.000    8.697    0.491    0.612   67.774
  446.250    9.007    0.513    0.633   65.832
  446.500    9.055    0.461    0.615   66.021
  446.750    8.755    0.439    0.593   69.072
  447.000    8.083    0.441    0.574   73.157
  447.250    7.531    0.426    0.591   78.705
  447.500    7.095    0.426    0.574   82.972
  447.750    6.760    0.329    0.518   87.301
  448.000    6.573    0.272    0.449   89.621
  448.250    6.523    0.266    0.431   88.837
  448.500    6.557    0.269    0.427   88.661
  448.750    6.641    0.256    0.423   90.494
  449.000    6.714    0.251    0.416   94.093
  449.250    6.775    0.257    0.415   98.117
  449.500    6.861    0.246    0.428  101.290
  449.750    6.885    0.248    0.441  103.245
  450.000    6.820    0.237    0.439  103.069
  450.250    6.718    0.245    0.426  101.127
  450.500    6.556    0.239    0.415  103.023
  450.750    6.399    0.229    0.422  103.819
  451.000    6.085    0.217    0.423  103.827
  451.250    5.851    0.220    0.423  102.615
  451.500    5.753    0.231    0.433  105.545
  451.750    5.762    0.223    0.450  105.490
  452.000    5.803    0.216    0.464   96.243
  452.250    5.877    0.224    0.468   97.163
  452.500    5.930    0.251    0.477   91.812
  452.750    5.995    0.276    0.475   73.799
  453.000    6.039    0.294    0.459   65.708
  453.250    6.082    0.297    0.447   66.629
  453.500    6.114    0.288    0.438   69.558
  453.750    6.124    0.289    0.428   72.608
  454.000    6.145    0.283    0.420   75.538
  454.250    6.155    0.285    0.417   77.248
  454.500    6.164    0.291    0.425   79.081
  454.750    6.186    0.277    0.441   82.558
  455.000    6.150    0.249    0.448   86.766
  455.250    6.092    0.238    0.460   88.355
  455.500    5.978    0.251    0.452   86.596
  455.750    5.867    0.271    0.431   85.080
  456.000    5.758    0.271    0.418   86.002
  456.250    5.599    0.260    0.411   87.103
  456.500    5.505    0.249    0.407   87.659
  456.750    5.422    0.257    0.404   87.543
  457.000    5.361    0.247    0.406   87.610
  457.250    5.310    0.234    0.401   90.357
  457.500    5.309    0.226    0.400   91.398
  457.750    5.337    0.238    0.400   89.091
  458.000    5.345    0.249    0.415   83.924
  458.250    5.354    0.257    0.425   79.304
  458.500    5.343    0.250    0.416   77.179
  458.750    5.361    0.253    0.407   75.846
  459.000    5.350    0.283    0.405   75.366
  459.250    5.359    0.298    0.406   74.826
  459.500    5.377    0.288    0.402   74.284
  459.750    5.395    0.289    0.408   72.281
  460.000    5.464    0.296    0.412   72.836
  460.250    5.514    0.280    0.411   77.471
  460.500    5.636    0.267    0.410   81.008
  460.750    5.677    0.258    0.420   83.997
  461.000    5.676    0.254    0.411   86.866
  461.250    5.601    0.278    0.417   88.760
  461.500    5.548    0.293    0.433   90.166
  461.750    5.525    0.310    0.433   81.590
