~VERSION INFORMATION
 VERS.                 2.0:   CWLS LOG ASCII STANDARD -VERSION 2.0
 WRAP.                  NO:   ONE LINE PER DEPTH STEP
~WELL INFORMATION BLOCK
#MNEM.UNIT           DATA                    DESCRIPTION OF MNEMONIC
#---------    -------------------            -------------------------------
# Generated from Intellog Unique Number	CS_67_68/WELL/2183
WELL.         GOLDEN EAGLE OIL & GAS         : Well_name    - WELL
LOC .         00/08-02-067-15W4/0            : Location     - LOCATION
UWI .         00/08-02-067-15W4/0            : Uwi          - UNIQUE WELL ID
ENTR.         SP                             : Entered      - ENTERED BY
SRVC.         SCHLUMBERGER                   : Scn          - SERVICE COMPANY
STRT.M        335                            : top_depth    - START DEPTH
STOP.M        513                            : bot_depth    - STOP DEPTH
STEP.M        0.25                           : increment    - STEP LENGTH
 NULL. -999.2500:NULL Value
~CURVE INFORMATION BLOCK
#MNEM UNIT       ERCB CURVE CODE    CURVE DESCRIPTION
#-----------   ------------------   ----------------------------------
DEPT.M        00 001 00 00         : DEPTH        - DEPTH
ILD .OHMM     00 120 00 00         : RESD         - DEEP RESISTIVITY (DIL)
DPHI.V/V      00 890 00 00         : PHID         - DENSITY POROSITY (LIMESTONE)
NPHI.V/V      00 330 00 00         : PHIN         - NEUTRON POROSITY (LIMESTONE)
GR  .API      00 310 00 00         : GR           - GAMMA RAY
CALI.MM       00 280 01 00         : CAL          - CALIPER
~PARAMETER INFORMATION
#MNEM.UNIT           DATA             DESCRIPTION OF MNEMONIC
#---------         -----------     ------------------------------
GL  .M        594.3                : gl           - GROUND LEVEL ELEVATION
EREF.M        597.3                : kb           - ELEVATION OF DEPTH REFERENCE
DATM.M        597.3                : datum        - DATUM ELEVATION
TDD .M        515                  : tdd          - TOTAL DEPTH DRILLER
RUN .         ONE                  : Run          - RUN NUMBER
ENG .         BILL                 : Engineer     - RECORDING ENGINEER
WIT .         JIM                  : Witness      - WITNESSED BY
MUD .         GEL                  : Mud_type     - MUD TYPE
MATR.         LIMESTONE            : Logunit      - NEUTRON MATRIX
TMAX.C        25                   : BHT          - MAXIMUM RECORDED TEMPERATURE
BHTD.M        516                  : BHTDEP       - MAXIMUM RECORDED TEMPERATURE
MATR.         1                    : LOGUNIT      - NEUTRON MATRIX
RMT .C        25                   : MDTP         - TEMPERATURE OF MUD
NEUT.         1                    : NEUTRON      - NEUTRON TYPE
RESI.         0                    : RESIST       - RESISTIVITY TYPE
RMC .OHMM     0.25                 : RMC          - RESISTIVITY OF MUD CAKE
RMF .OHMM     0.25                 : RMF          - RESISTIVITY OF MUD FILTRATE
SUFT.C        15                   : SUFT         - SURFACE TEMPERATURE
~A  DEPTH     RESD     PHID     PHIN       GR      CAL
# ...
  444.500    2.176    0.303    0.404   78.420  183.589
  444.750    2.159    0.293    0.396   76.052  183.293
  445.000    2.138    0.293    0.388   73.684  182.795
  445.250    2.130    0.297    0.384   73.750  182.298
  445.500    2.125    0.299    0.378   75.216  182.103
  445.750    2.148    0.297    0.372   77.595  181.808
  446.000    2.176    0.291    0.379   82.043  181.614
  446.250    2.233    0.302    0.380   85.151  181.523
  446.500    2.303    0.289    0.372   83.696  181.529
  446.750    2.394    0.298    0.370   78.529  181.538
  447.000    2.484    0.294    0.380   76.343  181.649
  447.250    2.601    0.294    0.388   76.775  181.861
  447.500    2.674    0.296    0.391   77.146  181.971
  447.750    2.703    0.289    0.383   78.064  181.981
  448.000    2.682    0.298    0.377   79.590  181.989
  448.250    2.593    0.282    0.358   76.979  181.390
  448.500    2.666    0.250    0.339   75.402  179.370
  448.750    2.876    0.248    0.327   74.678  178.973
  449.000    3.114    0.281    0.331   76.388  179.591
  449.250    3.309    0.296    0.326   76.270  180.716
  449.500    3.446    0.182    0.310   74.268  181.740
  449.750    3.140    0.089    0.292   73.786  182.356
  450.000    2.772    0.150    0.261   71.053  182.467
  450.250    2.497    0.217    0.330   71.606  181.462
  450.500    2.348    0.261    0.390   70.090  180.760
  450.750    2.241    0.312    0.389   70.217  179.958
  451.000    2.203    0.292    0.373   73.327  179.358
  451.250    2.203    0.299    0.371   74.610  178.961
  451.500    2.210    0.298    0.373   75.528  178.362
  451.750    2.222    0.293    0.384   76.446  177.762
  452.000    2.225    0.281    0.371   77.425  177.163
  452.250    2.229    0.270    0.384   78.100  176.666
  452.500    2.237    0.272    0.391   79.078  176.270
  452.750    2.278    0.287    0.379   81.336  176.075
  453.000    2.350    0.280    0.372   80.732  175.981
  453.250    2.420    0.281    0.371   82.747  175.686
  453.500    2.447    0.280    0.376   84.760  175.289
  453.750    2.414    0.272    0.380   86.651  175.299
  454.000    2.339    0.268    0.380   85.622  175.307
  454.250    2.236    0.282    0.370   80.699  175.622
  454.500    2.198    0.298    0.365   78.635  175.427
  454.750    2.210    0.298    0.373   80.831  175.133
  455.000    2.238    0.285    0.366   82.601  174.838
  455.250    2.263    0.276    0.369   84.128  174.743
  455.500    2.296    0.269    0.380   84.803  174.651
  455.750    2.321    0.264    0.368   85.903  174.660
  456.000    2.386    0.257    0.375   87.552  174.770
  456.250    2.536    0.250    0.382   87.739  175.083
  456.500    2.849    0.264    0.378   85.189  175.803
  456.750    3.410    0.252    0.371   80.874  176.522
  457.000    3.846    0.230    0.374   84.348  176.834
  457.250    4.219    0.191    0.383   90.256  176.945
  457.500    4.386    0.182    0.389   96.774  177.258
  457.750    4.264    0.204    0.399  101.281  177.673
  458.000    3.899    0.212    0.396  105.364  177.985
  458.250    3.660    0.204    0.403  103.787  178.605
  458.500    3.340    0.197    0.408  107.506  179.119
  458.750    3.089    0.217    0.421  109.518  179.534
  459.000    2.867    0.216    0.441  111.775  180.457
  459.250    2.772    0.234    0.454  111.050  182.392
  459.500    2.675    0.255    0.461  108.986  187.473
  459.750    2.577    0.245    0.459  111.487  190.726
  460.000    2.487    0.223    0.461  114.231  193.677
  460.250    2.533    0.233    0.454  116.123  195.918
  460.500    2.662    0.243    0.443  117.284  198.056
  460.750    2.861    0.214    0.449  116.072  199.687
  461.000    3.075    0.226    0.457  113.826  200.508
  461.250    3.244    0.244    0.453  112.006  200.010
  461.500    3.329    0.231    0.439  114.019  196.976
  461.750    3.352    0.173    0.425  111.712  191.914
  462.000    3.283    0.165    0.413  108.918  188.373
  462.250    3.222    0.167    0.403  109.593  186.759
  462.500    3.381    0.170    0.399  111.120  185.754
  462.750    3.694    0.167    0.402  112.587  185.458
  463.000    4.083    0.164    0.409  113.930  185.061
  463.250    4.404    0.179    0.400  111.258  184.766
  463.500    4.655    0.174    0.392  106.760  184.369
  463.750    5.059    0.186    0.394  101.166  183.973
  464.000    5.437    0.121    0.395   95.634  183.577
  464.250    5.865    0.148    0.377   90.893  183.281
  464.500    5.864    0.188    0.356   91.994  182.986
  464.750    5.786    0.218    0.344   94.981  182.792
  465.000    5.710    0.201    0.335   94.257  182.598
  465.250    5.634    0.191    0.344   91.523  182.505
  465.500    5.878    0.143    0.336   88.547  182.414
  465.750    6.099    0.119    0.323   89.222  182.320
  466.000    5.842    0.108    0.310   90.139  182.431
  466.250    5.413    0.115    0.312   94.770  182.745
  466.500    5.090    0.138    0.338   99.217  183.767
  466.750    4.804    0.166    0.360  104.092  185.297
  467.000    4.542    0.164    0.371  106.044  186.016
  467.250    4.440    0.154    0.377  102.582  186.025
  467.500    4.382    0.151    0.369  100.031  185.629
  467.750    4.421    0.158    0.365   99.367  185.030
  468.000    4.470    0.162    0.368  101.319  184.430
  468.250    4.502    0.165    0.375  102.846  183.627
  468.500    4.534    0.171    0.368  102.851  183.027
  468.750    4.499    0.169    0.362  103.343  182.833
  469.000    4.514    0.170    0.355  105.479  182.335
  469.250    4.589    0.184    0.351  106.822  182.242
  469.500    4.674    0.174    0.344  107.132  182.860
  469.750    4.760    0.187    0.340  108.294  183.478
  470.000    4.856    0.197    0.350  108.299  183.892
  470.250    4.937    0.204    0.348  106.784  184.003
  470.500    4.954    0.186    0.357  106.058  184.519
  470.750    4.870    0.165    0.349  105.090  184.224
  471.000    4.770    0.149    0.352  105.766  183.726
  471.250    4.569    0.154    0.364  106.865  183.227
  471.500    4.443    0.169    0.362  109.062  182.628
  471.750    4.376    0.179    0.354  111.015  182.130
  472.000    4.391    0.178    0.348  112.237  181.734
  472.250    4.439    0.172    0.352  111.209  181.336
  472.500    4.470    0.164    0.355  109.996  180.838
  472.750    4.486    0.157    0.354  107.324  180.948
  473.000    4.510    0.149    0.351  105.138  180.857
  473.250    4.533    0.141    0.355  104.048  180.763
  473.500    4.557    0.132    0.364  103.628  180.265
  473.750    4.607    0.143    0.374  104.059  179.970
  474.000    4.878    0.153    0.377  104.612  179.674
  474.250    5.371    0.167    0.368  105.166  179.683
  474.500    5.957    0.178    0.362  107.057  179.591
  474.750    6.535    0.181    0.358  104.080  179.601
  475.000    7.142    0.155    0.360  104.512  179.710
  475.250    7.819    0.159    0.355  106.283  179.517
  475.500    8.373    0.182    0.347  107.383  179.424
  475.750    8.801    0.199    0.345  100.390  179.331
  476.000    7.769    0.217    0.342   94.127  179.545
  476.250    6.499    0.117    0.335   92.125  179.655
  476.500    5.632    0.146    0.329   95.356  179.766
  476.750    5.170    0.164    0.324   98.465  179.976
  477.000    4.961    0.188    0.369  101.147  180.593
  477.250    4.932    0.156    0.374  104.195  181.008
  477.500    4.876    0.141    0.378  105.113  181.726
  477.750    4.501    0.135    0.367  102.381  182.547
  478.000    3.641    0.144    0.359  101.595  184.077
  478.250    3.040    0.160    0.362  102.391  187.028
  478.500    2.577    0.173    0.362  104.405  191.197
  478.750    2.296    0.189    0.374  102.219  194.246
  479.000    2.069    0.221    0.401  100.947  197.703
  479.250    2.091    0.253    0.422  103.021  199.640
  479.500    2.146    0.259    0.444  102.113  198.635
  479.750    2.230    0.235    0.446  105.285  197.934
  480.000    2.297    0.229    0.437  107.053  196.624
  480.250    2.352    0.236    0.428  108.945  195.010
  480.500    2.418    0.222    0.419  110.046  193.700
  480.750    2.476    0.223    0.412  111.938  192.594
