~VERSION INFORMATION
 VERS.                 2.0:   CWLS LOG ASCII STANDARD -VERSION 2.0
 WRAP.                  NO:   ONE LINE PER DEPTH STEP
~WELL INFORMATION BLOCK
#MNEM.UNIT           DATA                    DESCRIPTION OF MNEMONIC
#---------    -------------------            -------------------------------
# Generated from Intellog Unique Number	CS_73_76/WELL/2001
WELL.         BOW VALLEY INDUSTRIES LTD.     : Well_name    - WELL
LOC .         00/07-03-075-14W4/0            : Location     - LOCATION
UWI .         00/07-03-075-14W4/0            : Uwi          - UNIQUE WELL ID
ENTR.         SP                             : Entered      - ENTERED BY
SRVC.         SCHLUMBERGER                   : Scn          - SERVICE COMPANY
STRT.M        410                            : top_depth    - START DEPTH
STOP.M        640                            : bot_depth    - STOP DEPTH
STEP.M        0.25                           : increment    - STEP LENGTH
 NULL. -999.2500:NULL Value
~CURVE INFORMATION BLOCK
#MNEM UNIT       ERCB CURVE CODE    CURVE DESCRIPTION
#-----------   ------------------   ----------------------------------
DEPT.M        00 001 00 00         : DEPTH        - DEPTH
ILD .OHMM     00 120 00 00         : RESD         - DEEP RESISTIVITY (DIL)
DPHI.V/V      00 890 00 00         : PHID         - DENSITY POROSITY (LIMESTONE)
NPHI.V/V      00 330 00 00         : PHIN         - NEUTRON POROSITY (LIMESTONE)
GR  .API      00 310 00 00         : GR           - GAMMA RAY
~PARAMETER INFORMATION
#MNEM.UNIT           DATA             DESCRIPTION OF MNEMONIC
#---------         -----------     ------------------------------
GL  .M        774.5                : gl           - GROUND LEVEL ELEVATION
EREF.M        777.8                : kb           - ELEVATION OF DEPTH REFERENCE
DATM.M        774.5                : datum        - DATUM ELEVATION
TDD .M        653.4                : tdd          - TOTAL DEPTH DRILLER
RUN .         ONE                  : Run          - RUN NUMBER
ENG .         BILL                 : Engineer     - RECORDING ENGINEER
WIT .         JIM                  : Witness      - WITNESSED BY
MUD .         GEL                  : Mud_type     - MUD TYPE
MATR.         LIMESTONE            : Logunit      - NEUTRON MATRIX
TMAX.C        27.1                 : BHT          - MAXIMUM RECORDED TEMPERATURE
BHTD.M        653.4                : BHTDEP       - MAXIMUM RECORDED TEMPERATURE
MATR.         1                    : LOGUNIT      - NEUTRON MATRIX
RMT .C        25                   : MDTP         - TEMPERATURE OF MUD
NEUT.         1                    : NEUTRON      - NEUTRON TYPE
RESI.         0                    : RESIST       - RESISTIVITY TYPE
RMC .OHMM     0.25                 : RMC          - RESISTIVITY OF MUD CAKE
RMF .OHMM     0.25                 : RMF          - RESISTIVITY OF MUD FILTRATE
SUFT.C        15                   : SUFT         - SURFACE TEMPERATURE
~A  DEPTH     RESD     PHID     PHIN       GR
# ...
  584.000    3.173    0.181    0.550  100.086
  584.250    3.231    0.177    0.556   96.443
  584.500    3.542    0.167    0.532   90.978
  584.750    4.028    0.111    0.491   84.906
  585.000    4.581    0.069    0.458   83.692
  585.250    5.022    0.134    0.477   87.336
  585.500    5.404    0.176    0.482   92.196
  585.750    5.605    0.155    0.479   94.625
  586.000    5.501    0.158    0.474   95.841
  586.250    5.500    0.164    0.489   96.449
  586.500    5.498    0.181    0.495   96.449
  586.750    5.496    0.173    0.494   95.843
  587.000    5.495    0.161    0.477   89.771
  587.250    5.595    0.137    0.465   83.091
  587.500    5.803    0.112    0.466   80.662
  587.750    6.018    0.055    0.402   74.590
  588.000    6.129    0.033    0.356   71.555
  588.250    6.241    0.110    0.388   89.167
  588.500    6.240    0.161    0.442   98.884
  588.750    6.124    0.176    0.468  102.529
  589.000    5.901    0.202    0.454  105.566
  589.250    5.582    0.173    0.447  104.959
  589.500    5.478    0.158    0.445   99.495
  589.750    5.682    0.135    0.441   94.030
  590.000    5.786    0.137    0.435   90.994
  590.250    5.892    0.147    0.441   86.743
  590.500    6.225    0.135    0.450   90.388
  590.750    6.456    0.147    0.459   91.603
  591.000    6.107    0.169    0.467   93.426
  591.250    5.885    0.153    0.474   94.641
  591.500    5.883    0.143    0.477   95.249
  591.750    5.773    0.137    0.478   95.857
  592.000    5.879    0.121    0.469   90.999
  592.250    5.877    0.100    0.462   91.000
  592.500    5.985    0.142    0.481   92.822
  592.750    6.094    0.138    0.487   95.252
  593.000    6.321    0.119    0.484   95.253
  593.250    6.320    0.114    0.485   95.861
  593.500    6.318    0.115    0.471   89.182
  593.750    6.553    0.044    0.439   92.219
  594.000    6.673    0.066    0.442   98.293
  594.250    6.921    0.152    0.461  101.329
  594.500    7.177    0.133    0.472   97.079
  594.750    7.176    0.113    0.455  103.153
  595.000    7.174    0.158    0.418  114.692
  595.250    7.172    0.179    0.433  121.373
  595.500    7.039    0.179    0.445  114.086
  595.750    7.037    0.172    0.444  102.549
  596.000    7.166    0.188    0.438   99.513
  596.250    9.619    0.211    0.436   94.655
  596.500   12.218    0.214    0.442   89.190
  596.750   16.401    0.231    0.442   81.903
  597.000   20.452    0.248    0.448   76.438
  597.250   22.007    0.265    0.452   75.832
  597.500   22.002    0.258    0.448   78.261
  597.750   20.059    0.233    0.452   86.157
  598.000   17.628    0.205    0.463   92.838
  598.250   15.491    0.214    0.444   94.053
  598.500   15.487    0.220    0.431   88.588
  598.750   15.770    0.222    0.417   81.302
  599.000   16.057    0.239    0.399   77.051
  599.250   16.053    0.218    0.391   81.303
  599.500   15.468    0.205    0.376   87.377
  599.750   14.632    0.187    0.369   87.985
  600.000   13.841    0.194    0.363   86.771
  600.250   14.094    0.184    0.358   86.165
  600.500   14.617    0.184    0.380   86.165
  600.750   14.614    0.179    0.411   86.166
  601.000   14.882    0.191    0.416   85.559
  601.250   14.605    0.202    0.407   82.523
  601.500   14.334    0.176    0.401   91.633
  601.750   14.068    0.172    0.391   93.456
  602.000   13.808    0.193    0.376   87.991
  602.250   13.552    0.206    0.362   83.133
  602.500   13.299    0.203    0.369   82.527
  602.750   13.794    0.217    0.401   83.742
  603.000   14.308    0.228    0.411   80.706
  603.250   15.117    0.234    0.410   78.278
  603.500   15.972    0.233    0.398   75.849
  603.750   17.187    0.220    0.386   72.814
  604.000   18.159    0.230    0.394   70.385
  604.250   19.183    0.180    0.388   68.564
  604.500   19.180    0.082    0.370   75.852
  604.750   15.947    0.092    0.343   86.784
  605.000   12.319    0.137    0.375   97.109
  605.250    9.342    0.164    0.411  106.826
  605.500    7.351    0.166    0.440  112.900
  605.750    6.341    0.099    0.484   98.933
  606.000    6.951    0.153    0.504   90.431
  606.250    8.668    0.197    0.464   84.966
  606.500   10.041    0.214    0.433   80.716
  606.750   11.212    0.223    0.422   74.037
  607.000   13.980    0.235    0.429   71.001
  607.250   15.900    0.246    0.435   69.180
  607.500   18.762    0.259    0.445   69.788
  607.750   22.549    0.272    0.447   71.003
  608.000   25.646    0.261    0.438   72.218
  608.250   26.600    0.266    0.434   74.041
  608.500   24.250    0.252    0.430   77.686
  608.750   23.368    0.242    0.429   81.937
  609.000   20.161    0.253    0.430   84.974
  609.250   16.762    0.247    0.424   89.226
  609.500   15.284    0.225    0.429   92.263
  609.750   13.185    0.205    0.421   97.730
  610.000   11.587    0.173    0.416  103.196
  610.250   10.372    0.162    0.417  105.626
  610.500    9.115    0.159    0.434  111.092
  610.750    7.862    0.160    0.446  113.522
  611.000    7.576    0.166    0.449  116.559
  611.250    7.166    0.137    0.438  112.916
  611.500    7.034    0.142    0.429  106.844
  611.750    7.163    0.157    0.418  106.237
  612.000    7.566    0.166    0.412  108.667
  612.250    7.994    0.154    0.401  109.882
  612.500    8.446    0.184    0.439  106.239
  612.750    9.089    0.209    0.447  105.025
  613.000    9.603    0.218    0.430  105.633
  613.250    9.961    0.186    0.418  106.241
  613.500   10.143    0.171    0.409  103.206
  613.750    9.953    0.171    0.397  100.170
  614.000    9.950    0.174    0.391   96.527
  614.250    9.948    0.163    0.386   91.669
  614.500   10.511    0.163    0.374   89.241
  614.750   11.311    0.165    0.367   88.634
  615.000   12.629    0.178    0.389   89.850
  615.250   14.101    0.194    0.397   89.243
  615.500   16.036    0.207    0.393   84.385
  615.750   17.258    0.218    0.395   81.349
  616.000   18.917    0.225    0.397   77.706
  616.250   19.622    0.231    0.403   75.278
  616.500   18.906    0.249    0.403   76.493
  616.750   15.720    0.251    0.393   78.316
  617.000   13.315    0.260    0.381   80.139
  617.250   10.870    0.263    0.395   81.354
  617.500    9.552    0.244    0.397   83.176
  617.750    8.708    0.242    0.393   84.392
  618.000    7.939    0.236    0.386   80.749
  618.250    7.651    0.220    0.378   78.927
  618.500    7.236    0.208    0.387   77.713
  618.750    6.973    0.202    0.380   77.107
  619.000    6.844    0.206    0.380   77.108
  619.250    6.474    0.206    0.387   77.109
  619.500    6.124    0.186    0.382   76.502
  619.750    5.901    0.167    0.377   75.895
  620.000    5.686    0.156    0.368   72.859
  620.250    5.379    0.182    0.375   69.824
  620.500    4.995    0.231    0.394   66.788
  620.750    4.903    0.246    0.403   67.396
  621.000    4.724    0.258    0.387   71.041
  621.250    4.551    0.238    0.371   72.256
  621.500    4.549    0.229    0.371   74.078
  621.750    4.548    0.244    0.389   75.293
  622.000    4.464    0.253    0.399   75.901
  622.250    4.223    0.217    0.400   75.295
  622.500    3.922    0.224    0.405   69.830
  622.750    3.849    0.226    0.411   64.365
  623.000    3.848    0.253    0.408   61.329
  623.250    3.918    0.278    0.394   66.796
  623.500    4.064    0.253    0.400   72.869
  623.750    4.537    0.247    0.384   79.550
  624.000    4.707    0.226    0.372   81.980
  624.250    5.159    0.194    0.374   85.017
  624.500    5.451    0.178    0.380   88.054
  624.750    5.550    0.192    0.382   88.662
  625.000    5.946    0.208    0.382   82.547
  625.250    5.623    0.192    0.388   79.553
  625.500    5.319    0.179    0.396   81.979
  625.750    5.221    0.190    0.388   88.023
  626.000    5.031    0.201    0.391   95.276
  626.250    5.031    0.214    0.395   99.511
  626.500    5.031    0.198    0.403  107.965
  626.750    5.125    0.205    0.411  128.469
  627.000    5.221    0.184    0.396  145.358
  627.250    5.319    0.146    0.406  136.946
