~VERSION INFORMATION
 VERS.                 2.0:   CWLS LOG ASCII STANDARD -VERSION 2.0
 WRAP.                  NO:   ONE LINE PER DEPTH STEP
~WELL INFORMATION BLOCK
#MNEM.UNIT           DATA                    DESCRIPTION OF MNEMONIC
#---------    -------------------            -------------------------------
# Generated from Intellog Unique Number	CS_67_68/WELL/702
WELL.         FISHER CREEK                   : Well_name    - WELL
LOC .         00/06-29-068-04W4/0            : Location     - LOCATION
UWI .         00/06-29-068-04W4/0            : Uwi          - UNIQUE WELL ID
ENTR.         SP                             : Entered      - ENTERED BY
SRVC.         SCHLUMBERGER                   : Scn          - SERVICE COMPANY
STRT.M        350                            : top_depth    - START DEPTH
STOP.M        585                            : bot_depth    - STOP DEPTH
STEP.M        0.25                           : increment    - STEP LENGTH
 NULL. -999.2500:NULL Value
~CURVE INFORMATION BLOCK
#MNEM UNIT       ERCB CURVE CODE    CURVE DESCRIPTION
#-----------   ------------------   ----------------------------------
DEPT.M        00 001 00 00         : DEPTH        - DEPTH
ILD .OHMM     00 120 00 00         : RESD         - DEEP RESISTIVITY (DIL)
DPHI.V/V      00 890 00 00         : PHID         - DENSITY POROSITY (LIMESTONE)
NPHI.V/V      00 330 00 00         : PHIN         - NEUTRON POROSITY (LIMESTONE)
GR  .API      00 310 00 00         : GR           - GAMMA RAY
~PARAMETER INFORMATION
#MNEM.UNIT           DATA             DESCRIPTION OF MNEMONIC
#---------         -----------     ------------------------------
GL  .M        710.98               : gl           - GROUND LEVEL ELEVATION
EREF.M        714.48               : kb           - ELEVATION OF DEPTH REFERENCE
DATM.M        710.98               : datum        - DATUM ELEVATION
TDD .M        589                  : tdd          - TOTAL DEPTH DRILLER
RUN .         ONE                  : Run          - RUN NUMBER
ENG .         BILL                 : Engineer     - RECORDING ENGINEER
WIT .         JIM                  : Witness      - WITNESSED BY
MUD .         GEL                  : Mud_type     - MUD TYPE
MATR.         LIMESTONE            : Logunit      - NEUTRON MATRIX
TMAX.C        29                   : BHT          - MAXIMUM RECORDED TEMPERATURE
BHTD.M        589                  : BHTDEP       - MAXIMUM RECORDED TEMPERATURE
MATR.         1                    : LOGUNIT      - NEUTRON MATRIX
RMT .C        25                   : MDTP         - TEMPERATURE OF MUD
NEUT.         1                    : NEUTRON      - NEUTRON TYPE
RESI.         0                    : RESIST       - RESISTIVITY TYPE
RMC .OHMM     0.25                 : RMC          - RESISTIVITY OF MUD CAKE
RMF .OHMM     0.25                 : RMF          - RESISTIVITY OF MUD FILTRATE
SUFT.C        15                   : SUFT         - SURFACE TEMPERATURE
~A  DEPTH     RESD     PHID     PHIN       GR
# ...
  524.000   31.581    0.043    0.295   74.387
  524.250   25.866    0.096    0.296   81.870
  524.500   20.370    0.125    0.326   90.028
  524.750   16.403    0.175    0.368   97.879
  525.000   12.257    0.200    0.393  101.130
  525.250    9.724    0.229    0.409   93.466
  525.500    9.338    0.264    0.420   85.372
  525.750    9.521    0.288    0.429   76.788
  526.000    9.928    0.310    0.415   70.964
  526.250   10.629    0.298    0.401   71.333
  526.500   11.082    0.290    0.389   76.486
  526.750   11.470    0.287    0.385   82.068
  527.000   10.550    0.300    0.392   87.281
  527.250    9.055    0.308    0.395   92.863
  527.500    8.330    0.294    0.399   98.752
  527.750    7.984    0.282    0.397  102.003
  528.000    7.554    0.274    0.397  105.194
  528.250    7.418    0.273    0.398  106.483
  528.500    7.592    0.283    0.401  102.069
  528.750    7.799    0.270    0.404   98.452
  529.000    8.012    0.264    0.390   98.453
  529.250    8.092    0.265    0.381   99.313
  529.500    8.128    0.264    0.373   99.376
  529.750    8.240    0.261    0.376   96.679
  530.000    8.403    0.259    0.370   92.081
  530.250    8.472    0.249    0.366   95.025
  530.500    8.414    0.234    0.369  106.433
  530.750    8.218    0.217    0.383  116.492
  531.000    8.040    0.199    0.399  122.380
  531.250    7.765    0.193    0.412  122.443
  531.500    7.611    0.187    0.397  115.637
  531.750    7.476    0.207    0.396  103.128
  532.000    7.481    0.239    0.405   93.686
  532.250    7.669    0.279    0.419   85.776
  532.500    8.225    0.305    0.429   81.546
  532.750    7.694    0.323    0.431   82.099
  533.000    6.909    0.330    0.431   85.535
  533.250    6.560    0.316    0.434   87.805
  533.500    6.241    0.305    0.430   87.377
  533.750    5.982    0.302    0.418   84.925
  534.000    5.715    0.313    0.411   81.554
  534.250    5.674    0.312    0.406   79.961
  534.500    5.730    0.305    0.404   82.047
  534.750    5.920    0.300    0.406   85.606
  535.000    6.231    0.298    0.402   86.956
  535.250    6.473    0.299    0.397   87.877
  535.500    6.826    0.294    0.392   87.326
  535.750    7.118    0.270    0.387   85.611
  536.000    7.436    0.246    0.378   83.895
  536.250    7.726    0.234    0.372   81.995
  536.500    7.818    0.232    0.374   80.586
  536.750    7.300    0.245    0.383   79.299
  537.000    6.765    0.272    0.396   77.768
  537.250    6.364    0.303    0.409   76.359
  537.500    6.077    0.318    0.416   75.808
  537.750    5.968    0.315    0.415   75.993
  538.000    5.851    0.307    0.412   77.650
  538.250    5.757    0.300    0.412   80.718
  538.500    5.750    0.297    0.413   83.295
  538.750    6.020    0.291    0.413   85.626
  539.000    6.148    0.285    0.415   87.468
  539.250    6.280    0.282    0.420   88.143
  539.500    6.379    0.285    0.423   85.140
  539.750    6.359    0.281    0.417   72.324
  540.000    6.188    0.293    0.395   47.796
  540.250    5.920    0.303    0.368   39.641
  540.500    5.706    0.309    0.347   27.684
  540.750    5.753    0.318    0.345   21.675
  541.000    5.977    0.325    0.353   21.063
  541.250    6.339    0.320    0.358   37.929
  541.500    6.709    0.269    0.357   89.872
  541.750    7.209    0.207    0.351  102.261
  542.000    7.616    0.191    0.356  107.475
  542.250    7.956    0.176    0.375  102.816
  542.500    8.174    0.194    0.383  100.855
  542.750    8.179    0.190    0.367  102.021
  543.000    8.002    0.175    0.351  104.353
  543.250    7.816    0.181    0.347  105.152
  543.500    7.807    0.198    0.370  105.398
  543.750    7.755    0.186    0.382  108.650
  544.000    7.758    0.175    0.374  110.184
  544.250    7.766    0.164    0.368  110.431
  544.500    7.741    0.163    0.365  103.993
  544.750    7.675    0.189    0.377   94.857
  545.000    7.594    0.206    0.378   83.207
  545.250    7.485    0.224    0.368   78.670
  545.500    7.242    0.236    0.362   81.063
  545.750    6.762    0.248    0.359   81.187
  546.000    6.266    0.244    0.360   72.296
  546.250    5.862    0.288    0.367   60.400
  546.500    5.494    0.317    0.372   53.411
  546.750    5.237    0.321    0.378   55.436
  547.000    5.211    0.300    0.383   57.767
  547.250    5.293    0.279    0.384   61.387
  547.500    5.479    0.253    0.380   65.129
  547.750    5.628    0.257    0.375   62.432
  548.000    5.738    0.285    0.372   53.909
  548.250    5.785    0.304    0.373   48.023
  548.500    5.746    0.318    0.377   43.425
  548.750    5.487    0.319    0.368   41.893
  549.000    5.349    0.298    0.361   44.102
  549.250    5.332    0.271    0.364   46.251
  549.500    5.386    0.276    0.376   47.907
  549.750    5.441    0.299    0.384   49.687
  550.000    5.496    0.304    0.375   52.203
  550.250    5.468    0.302    0.368   54.228
  550.500    5.310    0.303    0.364   54.658
  550.750    5.100    0.309    0.369   50.489
  551.000    5.009    0.315    0.371   49.571
  551.250    4.892    0.319    0.373   50.554
  551.500    4.996    0.324    0.374   51.291
  551.750    4.898    0.312    0.374   52.090
  552.000    4.874    0.301    0.372   52.459
  552.250    4.932    0.301    0.371   53.073
  552.500    5.030    0.318    0.377   53.688
  552.750    5.186    0.326    0.391   55.038
  553.000    5.357    0.331    0.393   60.436
  553.250    5.628    0.315    0.369   66.877
  553.500    5.792    0.276    0.352   70.557
  553.750    5.961    0.248    0.349   72.828
  554.000    6.033    0.270    0.362   66.206
  554.250    5.892    0.287    0.374   56.947
  554.500    5.563    0.306    0.387   51.858
  554.750    5.146    0.318    0.393   46.402
  555.000    4.979    0.326    0.392   42.601
  555.250    4.918    0.333    0.388   40.517
  555.500    4.884    0.331    0.382   50.024
  555.750    4.879    0.312    0.377   56.832
  556.000    4.967    0.282    0.371   63.825
  556.250    5.082    0.257    0.367   71.982
  556.500    5.279    0.223    0.363   77.871
  556.750    5.577    0.244    0.367   80.938
  557.000    5.915    0.251    0.361   79.223
  557.250    6.098    0.242    0.355   75.054
  557.500    6.288    0.237    0.350   67.328
  557.750    6.198    0.260    0.361   58.805
  558.000    5.744    0.281    0.378   52.919
  558.250    5.526    0.303    0.385   49.548
  558.500    5.378    0.315    0.388   52.677
  558.750    5.342    0.325    0.383   61.632
  559.000    5.366    0.317    0.381   68.746
  559.250    5.410    0.278    0.389   74.022
  559.500    5.505    0.250    0.405   71.386
  559.750    5.581    0.271    0.423   62.679
  560.000    5.700    0.286    0.428   58.204
  560.250    5.547    0.292    0.420   58.144
  560.500    5.397    0.303    0.418   56.121
  560.750    5.202    0.315    0.413   50.971
  561.000    5.099    0.326    0.404   47.784
  561.250    5.036    0.310    0.399   54.102
  561.500    5.060    0.292    0.411   59.377
  561.750    5.091    0.319    0.419   55.331
  562.000    5.133    0.337    0.420   47.237
  562.250    5.155    0.347    0.415   41.229
  562.500    5.120    0.351    0.407   38.716
  562.750    4.954    0.365    0.404   37.123
  563.000    4.731    0.385    0.406   36.081
  563.250    4.612    0.388    0.413   34.856
  563.500    4.520    0.388    0.409   33.632
  563.750    4.383    0.382    0.396   32.529
  564.000    4.321    0.371    0.388   31.733
  564.250    4.267    0.359    0.385   31.366
  564.500    4.230    0.354    0.387   31.736
  564.750    4.233    0.350    0.394   32.411
  565.000    4.244    0.353    0.402   33.088
  565.250    4.246    0.357    0.401   33.457
  565.500    4.249    0.356    0.391   33.765
  565.750    4.252    0.354    0.385   33.827
  566.000    4.279    0.351    0.382   35.607
  566.250    4.298    0.349    0.384   36.835
  566.500    4.341    0.347    0.387   37.081
  566.750    4.435    0.330    0.381   36.102
  567.000    4.547    0.320    0.375   34.569
  567.250    4.627    0.316    0.372   33.099
