~VERSION INFORMATION
 VERS.                 2.0:   CWLS LOG ASCII STANDARD -VERSION 2.0
 WRAP.                  NO:   ONE LINE PER DEPTH STEP
~WELL INFORMATION BLOCK
#MNEM.UNIT           DATA                    DESCRIPTION OF MNEMONIC
#---------    -------------------            -------------------------------
# Generated from Intellog Unique Number	CW_82_90/WELL/199
WELL.         SHELL FINA RUBIN 03-25         : Well_name    - WELL
LOC .         00/03-25-083-02W5/0            : Location     - LOCATION
UWI .         00/03-25-083-02W5/0            : Uwi          - UNIQUE WELL ID
ENTR.         JAYE                           : Entered      - ENTERED BY
SRVC.         SCHLUMBERGER                   : Scn          - SERVICE COMPANY
DATE.         9 JAN 79                       : Date         - LOG DATE
STRT.M        225                            : top_depth    - START DEPTH
STOP.M        485                            : bot_depth    - STOP DEPTH
STEP.M        0.25                           : increment    - STEP LENGTH
 NULL. -999.2500:NULL Value
~CURVE INFORMATION BLOCK
#MNEM UNIT       ERCB CURVE CODE    CURVE DESCRIPTION
#-----------   ------------------   ----------------------------------
DEPT.M        00 001 00 00         : DEPTH        - DEPTH
CALI.MM       00 280 01 00         : CAL          - CALIPER
GR  .API      00 310 00 00         : GR           - GAMMA RAY
NPHI.V/V      00 330 00 00         : PHIN         - NEUTRON POROSITY (SANDSTONE)
DPHI.V/V      00 890 00 00         : PHID         - DENSITY POROSITY (SANDSTONE)
ILD .OHMM     00 120 00 00         : RESD         - DEEP RESISTIVITY (DIL)
~PARAMETER INFORMATION
#MNEM.UNIT           DATA             DESCRIPTION OF MNEMONIC
#---------         -----------     ------------------------------
GL  .M        613.4                : gl           - GROUND LEVEL ELEVATION
EREF.M        618                  : kb           - ELEVATION OF DEPTH REFERENCE
DATM.M        613.4                : datum        - DATUM ELEVATION
TDD .M        413.2                : tdd          - TOTAL DEPTH DRILLER
RUN .         ONE                  : Run          - RUN NUMBER
WIT .         CRAIG                : Witness      - WITNESSED BY
BASE.         EDMONTON             : Branch       - HOME BASE OF LOGGING UNIT
MUD .         GEL                  : Mud_type     - MUD TYPE
MATR.         SANDSTONE            : Logunit      - NEUTRON MATRIX
TMAX.C        0                    : BHT          - MAXIMUM RECORDED TEMPERATURE
BHTD.M        413.2                : BHTDEP       - MAXIMUM RECORDED TEMPERATURE
RMT .C        15                   : MDTP         - TEMPERATURE OF MUD
MUDD.KG/M     1050                 : MWT          - MUD DENSITY
NEUT.         1                    : NEUTRON      - NEUTRON TYPE
RESI.         0                    : RESIST       - RESISTIVITY TYPE
RM  .OHMM     2.26                 : RM           - RESISTIVITY OF MUD
RMC .OHMM     0                    : RMC          - RESISTIVITY OF MUD CAKE
RMF .OHMM     3.6                  : RMF          - RESISTIVITY OF MUD FILTRATE
SUFT.C        0                    : SUFT         - SURFACE TEMPERATURE
~A  DEPTH      CAL       GR     PHIN     PHID     RESD
# ...
  298.000  302.174   41.791    0.511    0.330    9.582
  298.250  302.248   39.431    0.503    0.338   10.908
  298.500  302.206   39.341    0.521    0.333   11.662
  298.750  301.957   40.243    0.526    0.328   11.750
  299.000  301.299   41.886    0.529    0.321   11.123
  299.250  295.924   43.462    0.533    0.328    9.945
  299.500  293.320   46.951    0.542    0.336    8.652
  299.750  295.641   51.185    0.547    0.323    7.829
  300.000  300.111   52.270    0.545    0.301    7.545
  300.250  302.634   50.086    0.554    0.305    8.065
  300.500  300.965   48.156    0.552    0.316    8.702
  300.750  294.971   49.544    0.548    0.308    9.392
  301.000  292.378   51.008    0.542    0.283    9.709
  301.250  292.433   52.394    0.532    0.245    9.128
  301.500  292.801   57.489    0.522    0.286    7.542
  301.750  294.190   63.197    0.519    0.311    5.931
  302.000  300.302   70.698    0.536    0.304    4.876
  302.250  307.236   78.192    0.561    0.277    4.117
  302.500  312.020   81.746    0.617    0.253    3.870
  302.750  313.004   80.673    0.635    0.266    3.904
  303.000  316.960   72.141    0.638    0.279    3.990
  303.250  314.252   67.807    0.629    0.284    4.310
  303.500  310.623   65.005    0.607    0.298    4.805
  303.750  306.494   64.241    0.585    0.281    5.313
  304.000  303.783   66.191    0.565    0.275    5.830
  304.250  301.381   68.880    0.538    0.294    6.301
  304.500  297.135   67.993    0.536    0.327    6.646
  304.750  287.766   59.156    0.520    0.395    6.803
  305.000  265.068   57.403    0.511    0.388    6.853
  305.250  251.605   59.970    0.509    0.285    7.124
  305.500  262.626   58.280    0.511    0.268    7.629
  305.750  296.731   53.077    0.529    0.292    8.037
  306.000  302.130   50.960    0.512    0.258    8.239
  306.250  301.576   52.353    0.514    0.238    8.288
  306.500  299.595   55.972    0.542    0.227    8.217
  306.750  298.743   60.382    0.541    0.297    8.028
  307.000  298.186   66.404    0.537    0.303    7.706
  307.250  298.140   71.373    0.527    0.291    7.366
  307.500  298.714   75.228    0.509    0.271    7.110
  307.750  299.201   77.736    0.511    0.256    6.908
  308.000  299.472   77.587    0.509    0.260    6.785
  308.250  299.208   79.596    0.516    0.253    6.745
  308.500  298.236   80.378    0.528    0.258    6.774
  308.750  297.379   79.733    0.542    0.254    6.857
  309.000  297.647   80.574    0.541    0.264    7.093
  309.250  298.429   81.352    0.514    0.273    7.574
  309.500  298.793   80.033    0.481    0.271    8.164
  309.750  298.348   74.769    0.486    0.268    8.585
  310.000  298.414   70.495    0.500    0.287    8.884
  310.250  296.947   68.867    0.493    0.299    8.958
  310.500  295.464   70.261    0.491    0.282    9.009
  310.750  294.803   72.706    0.506    0.264    9.024
  311.000  296.614   74.532    0.519    0.260    8.833
  311.250  298.938   74.507    0.525    0.254    8.351
  311.500  299.618   74.236    0.533    0.271    7.168
  311.750  299.766   78.342    0.521    0.284    5.561
  312.000  300.046   84.363    0.517    0.296    4.836
  312.250  301.031   87.480    0.514    0.279    4.379
  312.500  301.398   90.357    0.499    0.259    3.948
  312.750  300.947   89.959    0.551    0.234    3.766
  313.000  300.079   85.498    0.573    0.222    3.691
  313.250  298.916   82.329    0.558    0.234    3.565
  313.500  297.027   82.552    0.540    0.238    3.317
  313.750  299.766   85.735    0.557    0.246    3.001
  314.000  301.773   91.018    0.580    0.253    2.659
  314.250  302.544   94.382    0.565    0.258    2.479
  314.500  303.635   96.326    0.619    0.265    2.494
  314.750  304.005   93.468    0.633    0.250    2.677
  315.000  303.777   86.112    0.623    0.262    2.934
  315.250  303.824   83.745    0.596    0.288    3.256
  315.500  303.687   82.919    0.591    0.302    3.662
  315.750  303.639   82.469    0.578    0.294    4.006
  316.000  303.188   81.886    0.583    0.304    4.279
  316.250  301.408   80.749    0.584    0.297    4.565
  316.500  301.984   79.616    0.555    0.267    4.766
  316.750  303.079   76.389    0.534    0.246    4.541
  317.000  302.822   70.632    0.502    0.183    3.847
  317.250  302.886   70.117    0.474    0.159    3.605
  317.500  303.870   70.400    0.453    0.225    3.901
  317.750  304.560   67.661    0.477    0.242    4.554
  318.000  303.896   58.395    0.484    0.258    5.581
  318.250  301.907   52.636    0.518    0.306    6.908
  318.500  300.637   52.242    0.509    0.339    8.196
  318.750  302.851   52.776    0.496    0.381    9.419
  319.000  304.883   55.215    0.489    0.379    9.783
  319.250  305.458   56.924    0.530    0.380    9.591
  319.500  305.909   56.779    0.545    0.375    9.378
  319.750  305.770   56.195    0.540    0.381    9.031
  320.000  304.609   57.955    0.532    0.377    8.472
  320.250  304.050   66.933    0.516    0.375    7.408
  320.500  303.805   73.196    0.526    0.315    6.201
  320.750  306.635   78.660    0.535    0.139    5.261
  321.000  309.871   89.671    0.533    0.079    4.412
  321.250  305.020   96.863    0.488    0.103    3.835
  321.500  303.960   96.717    0.584    0.220    3.385
  321.750  303.914   96.758    0.601    0.239    3.128
  322.000  304.492   97.843    0.598    0.243    3.028
  322.250  304.870   99.110    0.581    0.246    3.052
  322.500  305.021   99.338    0.533    0.234    3.107
  322.750  304.582   99.866    0.540    0.217    3.176
  323.000  304.125  100.516    0.560    0.207    3.249
  323.250  303.773  100.184    0.566    0.213    3.306
  323.500  302.914   99.489    0.560    0.225    3.356
  323.750  302.564   98.041    0.554    0.222    3.448
  324.000  302.828   93.147    0.558    0.217    3.577
  324.250  303.405   91.710    0.554    0.236    3.701
  324.500  303.678   89.281    0.577    0.244    3.798
  324.750  303.127   85.680    0.591    0.259    3.860
  325.000  302.157   83.624    0.570    0.268    3.904
  325.250  300.691   85.266    0.556    0.264    3.907
  325.500  300.235   87.703    0.559    0.246    3.830
  325.750  299.883   89.782    0.581    0.254    3.706
  326.000  299.861   89.324    0.585    0.268    3.604
  326.250  299.608   85.909    0.579    0.267    3.533
  326.500  298.646   82.493    0.572    0.274    3.475
  326.750  297.674   81.486    0.552    0.279    3.484
  327.000  296.915   80.168    0.540    0.280    3.597
  327.250  296.982   78.170    0.559    0.287    3.838
  327.500  298.075   74.138    0.568    0.298    4.245
  327.750  298.130   69.369    0.564    0.312    4.925
  328.000  297.986   63.857    0.557    0.323    6.012
  328.250  299.077   60.878    0.548    0.338    6.861
  328.500  300.265   61.284    0.533    0.350    8.445
  328.750  300.656   60.332    0.530    0.345    9.772
  329.000  300.698   57.166    0.522    0.347   10.739
  329.250  300.972   56.590    0.507    0.364   11.241
  329.500  301.338   52.620    0.507    0.358   11.485
  329.750  301.913   50.876    0.519    0.349   11.594
  330.000  302.794   51.709    0.515    0.351   11.639
  330.250  303.161   52.670    0.543    0.348   11.664
  330.500  302.730   52.163    0.543    0.351   11.840
  330.750  302.262   52.193    0.535    0.354   12.018
  331.000  300.796   53.649    0.529    0.347   12.142
  331.250  299.829   56.773    0.517    0.338   12.222
  331.500  299.482   58.347    0.516    0.361   12.248
  331.750  299.650   58.077    0.518    0.359   12.241
  332.000  300.433   56.580    0.512    0.359   12.207
  332.250  301.406   55.439    0.508    0.360   12.030
  332.500  302.500   56.033    0.508    0.354   11.867
  332.750  303.906   57.796    0.508    0.351   11.839
  333.000  304.671   59.561    0.513    0.358   11.840
  333.250  305.363   63.055    0.521    0.364   11.831
  333.500  305.110   67.159    0.525    0.358   11.801
  333.750  304.241   66.765    0.530    0.358   11.752
  334.000  303.394   63.725    0.542    0.360   11.667
  334.250  303.453   61.914    0.509    0.362   11.617
