~VERSION INFORMATION
 VERS.                 2.0:   CWLS LOG ASCII STANDARD -VERSION 2.0
 WRAP.                  NO:   ONE LINE PER DEPTH STEP
~WELL INFORMATION BLOCK
#MNEM.UNIT           DATA                    DESCRIPTION OF MNEMONIC
#---------    -------------------            -------------------------------
# Generated from Intellog Unique Number	CW_70_72/WELL/1028
NULL.         -999.25                        : NULL_VALUE
WELL.         MANNVILLE ET AL PETER 09-34    : Well_name    - WELL              
LOC .         09-34-072-01W5                 : Location     - LOCATION          
UWI .         00/09-34-072-01W5/0            : Uwi          - UNIQUE WELL ID    
ENTR.         JAYE                           : Entered      - ENTERED BY        
SRVC.         WESTERN ATLAS                  : Scn          - SERVICE COMPANY   
DATE.         7 SEPT 80                      : Date         - LOG DATE          
STRT.M        440                            : top_depth    - START DEPTH       
STOP.M        695                            : bot_depth    - STOP DEPTH        
STEP.M        0.25                           : increment    - STEP LENGTH       
~CURVE INFORMATION BLOCK
#MNEM UNIT       ERCB CURVE CODE    CURVE DESCRIPTION
#-----------   ------------------   ----------------------------------
DEPT.M        00 001 00 00         : DEPTH        - DEPTH                       
DPHI.V/V      00 890 00 00         : PHID         - DENSITY POROSITY (SANDSTONE)
NPHI.V/V      00 330 00 00         : PHIN         - NEUTRON POROSITY (SANDSTONE)
GR  .API      00 310 00 00         : GR           - GAMMA RAY                   
CALI.MM       00 280 01 00         : CAL          - CALIPER                     
ILD .OHMM     00 120 00 00         : RESD         - DEEP RESISTIVITY (DIL)      
~PARAMETER INFORMATION       
#MNEM.UNIT           DATA             DESCRIPTION OF MNEMONIC
#---------         -----------     ------------------------------
GL  .M        651.1                : gl           - GROUND LEVEL ELEVATION      
EREF.M        654                  : kb           - ELEVATION OF DEPTH REFERENCE
DATM.M        651.1                : datum        - DATUM ELEVATION             
TDD .M        696                  : tdd          - TOTAL DEPTH DRILLER         
RUN .         ONE                  : Run          - RUN NUMBER                  
ENG .         IRELAND              : Engineer     - RECORDING ENGINEER          
WIT .         KELLY                : Witness      - WITNESSED BY                
BASE.         EDM                  : Branch       - HOME BASE OF LOGGING UNIT   
MUD .         GEL-CHEM             : Mud_type     - MUD TYPE                    
MATR.         SANDSTONE            : Logunit      - NEUTRON MATRIX              
TMAX.C        27.1                 : BHT          - MAXIMUM RECORDED TEMPERATURE
BHTD.M        697                  : BHTDEP       - MAXIMUM RECORDED TEMPERATURE
RMT .C        21.6                 : MDTP         - TEMPERATURE OF MUD          
MUDD.KG/M     1210                 : MWT          - MUD DENSITY                 
NEUT.         1                    : NEUTRON      - NEUTRON TYPE                
RESI.         0                    : RESIST       - RESISTIVITY TYPE            
RM  .OHMM     1.84                 : RM           - RESISTIVITY OF MUD          
RMC .OHMM     0                    : RMC          - RESISTIVITY OF MUD CAKE     
RMF .OHMM     1.47                 : RMF          - RESISTIVITY OF MUD FILTRATE 
SUFT.C        32                   : SUFT         - SURFACE TEMPERATURE         
~A  DEPTH     PHID     PHIN       GR      CAL     RESD
# ...
  549.500    0.281    0.435   69.928  155.765    3.820
  549.750    0.291    0.440   67.725  155.607    3.866
  550.000    0.305    0.442   63.773  155.675    3.928
  550.250    0.311    0.426   67.107  155.627    3.983
  550.500    0.298    0.421   76.667  155.476    4.024
  550.750    0.287    0.432   78.945  155.531    4.049
  551.000    0.273    0.440   74.497  155.609    4.075
  551.250    0.258    0.441   68.124  155.545    4.117
  551.500    0.269    0.439   62.867  155.508    4.160
  551.750    0.286    0.434   58.544  155.559    4.194
  552.000    0.302    0.428   62.689  155.826    4.197
  552.250    0.296    0.427   66.583  155.890    4.192
  552.500    0.279    0.436   64.380  155.944    4.195
  552.750    0.270    0.434   60.557  155.900    4.175
  553.000    0.282    0.422   61.585  155.961    4.108
  553.250    0.295    0.408   66.104  156.022    3.958
  553.500    0.304    0.418   71.305  156.188    3.772
  553.750    0.305    0.434   75.448  155.516    3.587
  554.000    0.298    0.445   76.480  156.412    3.444
  554.250    0.287    0.451   70.603  157.198    3.288
  554.500    0.282    0.460   68.460  158.093    3.162
  554.750    0.298    0.454   72.729  158.661    3.076
  555.000    0.292    0.438   73.011  159.131    2.998
  555.250    0.287    0.412   68.815  159.097    2.928
  555.500    0.300    0.439   68.852  159.157    2.903
  555.750    0.316    0.454   71.317  159.006    2.943
  556.000    0.311    0.464   70.231  158.961    3.048
  556.250    0.301    0.471   68.025  159.534    3.179
  556.500    0.296    0.484   67.251  160.944    3.354
  556.750    0.294    0.429   65.918  162.867    3.667
  557.000    0.277    0.319   61.160  165.837    4.203
  557.250    0.223    0.288   57.026  166.619    5.176
  557.500    0.133    0.263   56.253  166.778    6.209
  557.750    0.114    0.247   57.288  165.701    7.502
  558.000    0.126    0.258   59.496  163.476    8.471
  558.250    0.160    0.281   62.960  161.262    7.528
  558.500    0.285    0.306   66.048  159.968    6.111
  558.750    0.313    0.365   69.315  159.197    5.199
  559.000    0.324    0.415   72.089  158.333    4.391
  559.250    0.321    0.444   73.558  157.873    3.931
  559.500    0.317    0.441   73.840  158.137    3.416
  559.750    0.316    0.428   73.689  158.396    3.152
  560.000    0.316    0.425   74.721  158.766    2.992
  560.250    0.312    0.450   76.187  158.830    2.927
  560.500    0.314    0.467   72.615  159.097    2.832
  560.750    0.324    0.459   72.648  159.365    2.770
  561.000    0.332    0.450   74.864  159.732    2.762
  561.250    0.333    0.446   75.209  159.999    2.795
  561.500    0.323    0.463   68.337  160.378    2.840
  561.750    0.307    0.483   70.987  160.635    2.907
  562.000    0.291    0.493   76.811  160.900    2.964
  562.250    0.310    0.472   78.774  161.170    3.046
  562.500    0.311    0.459   73.023  161.543    3.154
  562.750    0.287    0.446   70.261  161.699    3.240
  563.000    0.268    0.435   71.288  162.383    3.406
  563.250    0.294    0.427   74.686  163.682    3.559
  563.500    0.294    0.445   78.330  166.233    3.699
  563.750    0.283    0.435   82.722  167.745    3.794
  564.000    0.258    0.423   83.321  165.727    3.797
  564.250    0.264    0.431   75.947  163.504    3.743
  564.500    0.287    0.463   77.850  162.219    3.675
  564.750    0.278    0.457   77.390  161.965    3.602
  565.000    0.270    0.462   75.622  162.239    3.524
  565.250    0.288    0.473   77.523  162.612    3.422
  565.500    0.258    0.464   84.466  163.079    3.380
  565.750    0.233    0.459   90.166  164.172    3.408
  566.000    0.256    0.454   91.197  165.583    3.522
  566.250    0.274    0.447   91.671  166.782    3.646
  566.500    0.240    0.434   90.583  167.566    3.839
  566.750    0.225    0.440   80.849  168.253    4.012
  567.000    0.227    0.429   81.941  168.207    4.154
  567.250    0.208    0.429   87.204  167.224    4.125
  567.500    0.218    0.466   84.874  165.732    3.991
  567.750    0.244    0.469   78.250  164.129    3.839
  568.000    0.269    0.457   74.679  162.945    3.720
  568.250    0.278    0.439   77.264  162.898    3.633
  568.500    0.255    0.450   80.663  164.416    3.649
  568.750    0.237    0.437   85.489  166.239    3.807
  569.000    0.216    0.435   78.618  167.752    4.016
  569.250    0.184    0.455   74.916  168.632    4.367
  569.500    0.145    0.308   76.510  169.532    4.866
  569.750    0.141    0.309   81.593  169.692    5.192
  570.000    0.181    0.374   85.299  168.607    5.295
  570.250    0.202    0.420   89.125  166.693    4.998
  570.500    0.216    0.433   88.974  164.893    4.253
  570.750    0.232    0.440   86.956  164.017    3.902
  571.000    0.249    0.445   87.675  163.658    3.732
  571.250    0.249    0.447   86.658  163.714    3.624
  571.500    0.228    0.453   82.146  163.366    3.593
  571.750    0.231    0.461   78.573  163.841    3.582
  572.000    0.248    0.451   78.362  164.203    3.585
  572.250    0.269    0.424   80.331  164.470    3.587
  572.500    0.282    0.442   82.911  164.950    3.590
  572.750    0.274    0.455   86.495  165.942    3.606
  573.000    0.243    0.431   89.582  167.555    3.643
  573.250    0.227    0.414   92.788  168.648    3.694
  573.500    0.216    0.437   95.936  168.294    3.753
  573.750    0.202    0.449   91.867  166.488    3.820
  574.000    0.217    0.461   88.353  165.714    3.911
  574.250    0.233    0.442   86.769  166.813    3.980
  574.500    0.225    0.446   90.108  168.642    4.051
  574.750    0.208    0.443   92.692  169.939    4.123
  575.000    0.193    0.420   94.159  171.671    4.229
  575.250    0.183    0.425   94.692  172.449    4.313
  575.500    0.205    0.440   92.299  173.231    4.415
  575.750    0.210    0.453   90.717  174.123    4.553
  576.000    0.201    0.462   91.998  174.800    4.678
  576.250    0.209    0.444   94.712  175.275    4.789
  576.500    0.209    0.426   95.678  175.540    4.930
  576.750    0.203    0.430   97.582  175.600    5.066
  577.000    0.208    0.445   92.581  175.769    5.235
  577.250    0.226    0.442   88.752  175.829    5.379
  577.500    0.216    0.435   85.053  176.205    5.528
  577.750    0.213    0.432   82.598  176.364    5.573
  578.000    0.234    0.432   82.387  176.634    5.391
  578.250    0.238    0.433   87.029  176.793    5.166
  578.500    0.223    0.435   91.609  177.054    4.997
  578.750    0.210    0.432   93.510  177.323    4.926
  579.000    0.207    0.422   90.370  177.588    4.930
  579.250    0.206    0.419   89.721  177.858    5.008
  579.500    0.210    0.433   91.315  178.221    5.117
  579.750    0.225    0.449   92.411  178.706    5.277
  580.000    0.210    0.463   92.445  178.864    5.568
  580.250    0.193    0.431   91.544  178.926    5.808
  580.500    0.195    0.419   88.968  178.981    5.968
  580.750    0.220    0.437   85.020  178.934    6.075
  581.000    0.242    0.443   85.367  178.895    6.113
  581.250    0.235    0.438   94.118  178.643    5.869
  581.500    0.211    0.423   98.259  178.398    5.295
  581.750    0.200    0.424   98.483  178.143    4.859
  582.000    0.190    0.438   98.767  177.986    4.656
  582.250    0.181    0.445   98.303  177.541    4.616
  582.500    0.198    0.452   96.223  176.768    4.797
  582.750    0.202    0.457   94.452  175.677    5.137
  583.000    0.194    0.435   92.874  173.974    5.575
  583.250    0.182    0.413   89.794  171.445    6.063
  583.500    0.200    0.421   97.735  169.523    6.371
  583.750    0.232    0.442  105.800  169.177    6.685
  584.000    0.243    0.434   99.486  170.795    6.842
  584.250    0.234    0.427   86.886  172.829    6.834
  584.500    0.237    0.438   77.773  174.957    6.624
  584.750    0.241    0.443   71.584  176.253    6.323
  585.000    0.234    0.437   73.115  176.525    6.547
  585.250    0.204    0.416   71.156  176.169    6.854
  585.500    0.176    0.395   70.073  175.601    7.314
  585.750    0.160    0.373   70.048  174.725    8.058
