~VERSION INFORMATION
 VERS.                 2.0:   CWLS LOG ASCII STANDARD -VERSION 2.0
 WRAP.                  NO:   ONE LINE PER DEPTH STEP
~WELL INFORMATION BLOCK
#MNEM.UNIT           DATA                    DESCRIPTION OF MNEMONIC
#---------    -------------------            -------------------------------
# Generated from Intellog Unique Number	CS_71_72/WELL/768
WELL.         SULPETRO BRENDA IPIATIK        : Well_name    - WELL
LOC .         00/06-09-072-09W4/0            : Location     - LOCATION
UWI .         00/06-09-072-09W4/0            : Uwi          - UNIQUE WELL ID
ENTR.         SP                             : Entered      - ENTERED BY
SRVC.         SCHLUMBERGER                   : Scn          - SERVICE COMPANY
STRT.M        315                            : top_depth    - START DEPTH
STOP.M        510                            : bot_depth    - STOP DEPTH
STEP.M        0.25                           : increment    - STEP LENGTH
 NULL. -999.2500:NULL Value
~CURVE INFORMATION BLOCK
#MNEM UNIT       ERCB CURVE CODE    CURVE DESCRIPTION
#-----------   ------------------   ----------------------------------
DEPT.M        00 001 00 00         : DEPTH        - DEPTH
ILD .OHMM     00 120 00 00         : RESD         - DEEP RESISTIVITY (DIL)
DPHI.V/V      00 890 00 00         : PHID         - DENSITY POROSITY (LIMESTONE)
NPHI.V/V      00 330 00 00         : PHIN         - NEUTRON POROSITY (LIMESTONE)
GR  .API      00 310 00 00         : GR           - GAMMA RAY
~PARAMETER INFORMATION
#MNEM.UNIT           DATA             DESCRIPTION OF MNEMONIC
#---------         -----------     ------------------------------
GL  .M        678.34               : gl           - GROUND LEVEL ELEVATION
EREF.M        681.39               : kb           - ELEVATION OF DEPTH REFERENCE
DATM.M        678.34               : datum        - DATUM ELEVATION
TDD .M        519                  : tdd          - TOTAL DEPTH DRILLER
RUN .         ONE                  : Run          - RUN NUMBER
ENG .         BILL                 : Engineer     - RECORDING ENGINEER
WIT .         JIM                  : Witness      - WITNESSED BY
MUD .         GEL                  : Mud_type     - MUD TYPE
MATR.         LIMESTONE            : Logunit      - NEUTRON MATRIX
TMAX.C        28                   : BHT          - MAXIMUM RECORDED TEMPERATURE
BHTD.M        519                  : BHTDEP       - MAXIMUM RECORDED TEMPERATURE
MATR.         1                    : LOGUNIT      - NEUTRON MATRIX
RMT .C        25                   : MDTP         - TEMPERATURE OF MUD
NEUT.         1                    : NEUTRON      - NEUTRON TYPE
RESI.         0                    : RESIST       - RESISTIVITY TYPE
RMC .OHMM     0.25                 : RMC          - RESISTIVITY OF MUD CAKE
RMF .OHMM     0.25                 : RMF          - RESISTIVITY OF MUD FILTRATE
SUFT.C        15                   : SUFT         - SURFACE TEMPERATURE
~A  DEPTH     RESD     PHID     PHIN       GR
# ...
  445.500    6.095    0.237    0.459   94.945
  445.750    6.091    0.231    0.444   92.519
  446.000    5.974    0.224    0.427   91.916
  446.250    5.859    0.213    0.400   94.957
  446.500    5.639    0.209    0.384   97.390
  446.750    5.428    0.204    0.368   99.215
  447.000    4.756    0.200    0.353  101.042
  447.250    4.090    0.200    0.368  101.653
  447.500    3.584    0.204    0.420  104.694
  447.750    3.200    0.206    0.443  104.696
  448.000    2.912    0.211    0.472  104.701
  448.250    2.751    0.215    0.489  110.170
  448.500    2.598    0.222    0.453  112.603
  448.750    2.549    0.226    0.429  111.392
  449.000    2.745    0.215    0.417  103.502
  449.250    3.128    0.211    0.426   98.042
  449.500    3.565    0.226    0.432   96.829
  449.750    3.987    0.237    0.438   95.618
  450.000    4.216    0.236    0.415   94.410
  450.250    4.626    0.205    0.383   93.806
  450.500    5.174    0.186    0.353   93.809
  450.750    5.369    0.172    0.328   93.812
  451.000    5.784    0.173    0.310   91.387
  451.250    6.116    0.168    0.343   78.031
  451.500    6.589    0.137    0.379   69.533
  451.750    6.965    0.114    0.375   68.321
  452.000    7.226    0.085    0.361   78.650
  452.250    7.497    0.059    0.241   85.941
  452.500    7.493    0.132    0.285   93.232
  452.750    6.944    0.155    0.350   95.666
  453.000    6.686    0.165    0.364   95.064
  453.250    6.435    0.170    0.389   95.065
  453.500    6.311    0.176    0.405   99.928
  453.750    6.187    0.177    0.396  102.968
  454.000    6.185    0.182    0.379  105.401
  454.250    6.181    0.187    0.367  100.548
  454.500    6.061    0.193    0.361   95.693
  454.750    6.057    0.196    0.379   93.874
  455.000    5.941    0.195    0.390   93.878
  455.250    5.938    0.198    0.405   90.846
  455.500    5.931    0.201    0.391   88.420
  455.750    5.928    0.189    0.384   92.070
  456.000    5.925    0.185    0.384   95.109
  456.250    5.921    0.178    0.383   96.934
  456.500    5.916    0.184    0.386   99.974
  456.750    5.913    0.195    0.397   99.979
  457.000    5.910    0.199    0.408   98.769
  457.250    5.904    0.198    0.385   98.164
  457.500    6.013    0.194    0.371  103.633
  457.750    6.009    0.189    0.353  107.281
  458.000    6.005    0.185    0.354  107.892
  458.250    6.112    0.179    0.357  104.861
  458.500    6.108    0.172    0.354  102.434
  458.750    6.104    0.167    0.341   98.795
  459.000    6.101    0.161    0.331  100.621
  459.250    5.874    0.168    0.322   98.195
  459.500    4.958    0.177    0.337   93.342
  459.750    3.669    0.191    0.354   90.915
  460.000    3.156    0.205    0.369   87.275
  460.250    2.871    0.221    0.430   96.996
  460.500    2.712    0.233    0.450  100.643
  460.750    2.561    0.229    0.455  102.470
  461.000    2.465    0.227    0.441  103.081
  461.250    2.418    0.226    0.461  106.729
  461.500    2.462    0.222    0.480  109.162
  461.750    2.653    0.218    0.499  106.736
  462.000    2.857    0.211    0.507  100.060
  462.250    3.021    0.206    0.368   93.383
  462.500    3.194    0.200    0.347   86.708
  462.750    3.850    0.188    0.336   84.890
  463.000    4.071    0.178    0.361   86.715
  463.250    4.468    0.172    0.379   89.149
  463.500    4.382    0.174    0.385   89.152
  463.750    4.138    0.175    0.409   87.941
  464.000    4.059    0.178    0.430   92.806
  464.250    4.057    0.181    0.452   94.630
  464.500    4.054    0.185    0.431   96.455
  464.750    4.284    0.189    0.413  100.712
  465.000    4.530    0.188    0.396  101.321
  465.250    4.789    0.183    0.388   90.395
  465.500    4.120    0.192    0.409   85.540
  465.750    4.196    0.225    0.418   80.078
  466.000    4.436    0.238    0.420   72.795
  466.250    4.778    0.248    0.379   69.154
  466.500    5.344    0.247    0.391   69.767
  466.750    6.564    0.243    0.416   71.592
  467.000    6.813    0.230    0.431   72.809
  467.250    7.911    0.202    0.347   66.742
  467.500    8.521    0.130    0.250   66.138
  467.750    9.009    0.083    0.212   66.749
  468.000    8.836    0.097    0.212   69.791
  468.250    7.743    0.161    0.310   71.615
  468.500    6.293    0.194    0.380   72.832
  468.750    5.515    0.212    0.394   72.230
  469.000    5.113    0.227    0.402   73.448
  469.250    4.922    0.225    0.425   75.274
  469.500    4.825    0.225    0.443   75.885
  469.750    4.914    0.223    0.447   76.496
  470.000    4.911    0.222    0.409   74.678
  470.250    5.001    0.223    0.366   73.468
  470.500    5.092    0.213    0.358   72.866
  470.750    5.185    0.202    0.349   71.654
  471.000    5.279    0.197    0.343   70.443
  471.250    5.178    0.186    0.349   69.233
  471.500    4.984    0.182    0.349   75.917
  471.750    4.619    0.190    0.348   81.386
  472.000    4.447    0.204    0.342   86.855
  472.250    4.201    0.211    0.338   86.253
  472.500    3.894    0.196    0.335   87.470
  472.750    3.679    0.190    0.335   94.763
  473.000    3.474    0.181    0.351   96.587
  473.250    3.408    0.179    0.381   97.199
  473.500    3.219    0.177    0.410   97.202
  473.750    3.099    0.179    0.431   95.991
  474.000    2.982    0.179    0.449   97.817
  474.250    2.925    0.175    0.417   96.607
  474.500    2.923    0.174    0.405  100.861
  474.750    2.921    0.173    0.417  105.725
  475.000    3.030    0.168    0.450  108.157
  475.250    3.264    0.168    0.485  108.768
  475.500    3.452    0.170    0.498  106.950
  475.750    3.934    0.175    0.464  100.882
  476.000    5.017    0.168    0.435   94.206
  476.250    6.399    0.164    0.401   88.743
  476.500    7.432    0.159    0.350   81.460
  476.750    8.793    0.172    0.305   75.390
  477.000    9.653    0.191    0.283   70.536
  477.250    9.645    0.212    0.268   67.505
  477.500    9.460    0.214    0.279   68.722
  477.750    9.634    0.203    0.303   71.154
  478.000    9.624    0.198    0.327   72.982
  478.250    9.800    0.190    0.335   74.200
  478.500    9.795    0.180    0.333   72.989
  478.750    9.789    0.161    0.325   70.564
  479.000    9.782    0.148    0.312   73.605
  479.250    9.595    0.142    0.307   75.429
  479.500    9.587    0.158    0.316   79.078
  479.750    9.581    0.180    0.322   79.689
  480.000    9.394    0.204    0.302   77.263
  480.250    8.875    0.226    0.273   73.624
  480.500    8.226    0.251    0.254   76.056
  480.750    7.773    0.290    0.234   80.313
  481.000    7.342    0.273    0.275   81.530
  481.250    6.936    0.254    0.343   82.141
  481.500    6.802    0.248    0.398   80.322
  481.750    7.327    0.275    0.398   73.647
  482.000    8.350    0.296    0.324   70.615
  482.250    9.880    0.283    0.306   71.226
  482.500   11.052    0.242    0.327   75.481
  482.750   11.045    0.227    0.350   78.521
  483.000    8.644    0.222    0.366   80.953
  483.250    7.866    0.231    0.376   81.565
  483.500    7.158    0.235    0.378   77.925
  483.750    6.153    0.220    0.360   73.677
  484.000    5.924    0.204    0.345   73.074
  484.250    5.596    0.194    0.336   77.936
  484.500    5.387    0.193    0.334   84.013
  484.750    5.088    0.199    0.334   88.268
  485.000    5.084    0.202    0.326   90.093
  485.250    5.177    0.205    0.323   97.385
  485.500    5.272    0.209    0.315  106.498
  485.750    5.787    0.202    0.311  113.182
  486.000    6.234    0.194    0.314  122.297
  486.250    6.716    0.191    0.335  123.514
  486.500    7.799    0.202    0.362  109.550
  486.750    8.888    0.248    0.358   90.121
  487.000   10.916    0.274    0.344   71.906
  487.250   11.541    0.280    0.335   63.408
  487.500   11.975    0.273    0.348   64.627
  487.750   11.968    0.270    0.348   70.706
  488.000   11.305    0.265    0.331   73.138
  488.250   10.482    0.248    0.314   74.355
  488.500    9.011    0.231    0.301   76.789
  488.750    8.355    0.206    0.292   79.220
