~VERSION INFORMATION
 VERS.                 2.0:   CWLS LOG ASCII STANDARD -VERSION 2.0
 WRAP.                  NO:   ONE LINE PER DEPTH STEP
~WELL INFORMATION BLOCK
#MNEM.UNIT           DATA                    DESCRIPTION OF MNEMONIC
#---------    -------------------            -------------------------------
# Generated from Intellog Unique Number	CS_77_79/WELL/843
WELL.         CANADIAN WORLDWIDE ENERGY      : Well_name    - WELL
LOC .         00/03-01-077-05W4/0            : Location     - LOCATION
UWI .         00/03-01-077-05W4/0            : Uwi          - UNIQUE WELL ID
ENTR.         SP                             : Entered      - ENTERED BY
SRVC.         SCHLUMBERGER                   : Scn          - SERVICE COMPANY
STRT.M        150                            : top_depth    - START DEPTH
STOP.M        405                            : bot_depth    - STOP DEPTH
STEP.M        0.25                           : increment    - STEP LENGTH
 NULL. -999.2500:NULL Value
~CURVE INFORMATION BLOCK
#MNEM UNIT       ERCB CURVE CODE    CURVE DESCRIPTION
#-----------   ------------------   ----------------------------------
DEPT.M        00 001 00 00         : DEPTH        - DEPTH
ILD .OHMM     00 120 00 00         : RESD         - DEEP RESISTIVITY (DIL)
DPHI.V/V      00 890 00 00         : PHID         - DENSITY POROSITY (SANDSTONE)
NPHI.V/V      00 330 00 00         : PHIN         - NEUTRON POROSITY (SANDSTONE)
GR  .API      00 310 00 00         : GR           - GAMMA RAY
~PARAMETER INFORMATION
#MNEM.UNIT           DATA             DESCRIPTION OF MNEMONIC
#---------         -----------     ------------------------------
GL  .M        571.1                : gl           - GROUND LEVEL ELEVATION
EREF.M        574.9                : kb           - ELEVATION OF DEPTH REFERENCE
DATM.M        571.1                : datum        - DATUM ELEVATION
TDD .M        405.5                : tdd          - TOTAL DEPTH DRILLER
RUN .         ONE                  : Run          - RUN NUMBER
ENG .         BILL                 : Engineer     - RECORDING ENGINEER
WIT .         JIM                  : Witness      - WITNESSED BY
MUD .         GEL                  : Mud_type     - MUD TYPE
MATR.         SANDSTONE            : Logunit      - NEUTRON MATRIX
TMAX.C        21                   : BHT          - MAXIMUM RECORDED TEMPERATURE
BHTD.M        431                  : BHTDEP       - MAXIMUM RECORDED TEMPERATURE
MATR.         1                    : LOGUNIT      - NEUTRON MATRIX
RMT .C        25                   : MDTP         - TEMPERATURE OF MUD
NEUT.         1                    : NEUTRON      - NEUTRON TYPE
RESI.         0                    : RESIST       - RESISTIVITY TYPE
RMC .OHMM     0.25                 : RMC          - RESISTIVITY OF MUD CAKE
RMF .OHMM     0.25                 : RMF          - RESISTIVITY OF MUD FILTRATE
SUFT.C        15                   : SUFT         - SURFACE TEMPERATURE
~A  DEPTH     RESD     PHID     PHIN       GR
# ...
  367.500   10.558    0.169    0.345  105.563
  367.750    9.612    0.173    0.356  114.330
  368.000    9.437    0.155    0.350  120.599
  368.250    9.446    0.147    0.353  121.864
  368.500   10.005    0.181    0.361  115.005
  368.750   10.797    0.264    0.380   71.273
  369.000   12.338    0.302    0.390   61.291
  369.250   13.067    0.320    0.383   66.313
  369.500   13.840    0.312    0.370   76.324
  369.750   13.847    0.308    0.361   79.477
  370.000   12.606    0.303    0.365   79.483
  370.250   11.695    0.277    0.365   90.126
  370.500   10.448    0.186    0.361  108.269
  370.750    9.879    0.178    0.360  107.660
  371.000    9.340    0.179    0.361  105.802
  371.250    9.168    0.178    0.362  112.700
  371.500    9.004    0.176    0.355  113.337
  371.750    9.010    0.168    0.352  112.728
  372.000    9.015    0.176    0.360  108.994
  372.250    9.025    0.184    0.362  106.515
  372.500    8.861    0.192    0.361  105.905
  372.750    8.865    0.190    0.357  105.295
  373.000    8.876    0.190    0.362  104.689
  373.250    8.881    0.186    0.361  109.080
  373.500    8.885    0.179    0.358  109.720
  373.750    8.724    0.181    0.353  103.488
  374.000    8.730    0.186    0.346  102.885
  374.250    8.737    0.188    0.343  102.277
  374.500    8.908    0.194    0.348  101.041
  374.750    9.084    0.187    0.338  100.430
  375.000    9.806    0.175    0.332   99.197
  375.250   10.789    0.165    0.318   92.341
  375.500   11.211    0.185    0.311   76.107
  375.750   12.103    0.207    0.306   62.998
  376.000   12.339    0.235    0.297   51.140
  376.250   13.572    0.256    0.306   41.158
  376.500   14.374    0.284    0.319   34.929
  376.750   15.225    0.307    0.340   33.695
  377.000   15.237    0.332    0.348   33.089
  377.250   13.872    0.333    0.351   33.105
  377.500   12.161    0.329    0.351   34.374
  377.750   11.281    0.327    0.350   35.010
  378.000    9.890    0.335    0.346   36.288
  378.250    9.349    0.344    0.345   37.547
  378.500    9.006    0.339    0.349   40.063
  378.750    8.201    0.319    0.347   40.704
  379.000    7.753    0.315    0.347   38.848
  379.250    7.611    0.319    0.351   37.619
  379.500    7.064    0.323    0.360   37.009
  379.750    6.935    0.345    0.367   37.021
  380.000    6.681    0.358    0.369   41.415
  380.250    6.317    0.350    0.375   48.310
  380.500    6.086    0.329    0.371   46.446
  380.750    5.647    0.325    0.363   42.088
  381.000    5.338    0.328    0.357   38.361
  381.250    4.953    0.331    0.359   39.001
  381.500    4.864    0.338    0.359   39.018
  381.750    4.688    0.338    0.358   38.408
  382.000    4.602    0.336    0.357   35.925
  382.250    4.518    0.336    0.354   34.066
  382.500    4.437    0.336    0.350   33.461
  382.750    4.440    0.328    0.342   32.854
  383.000    4.442    0.317    0.328   31.619
  383.250    4.362    0.310    0.315   28.519
  383.500    4.365    0.315    0.313   27.279
  383.750    4.453    0.323    0.313   26.050
  384.000    4.457    0.327    0.316   26.059
  384.250    4.460    0.323    0.314   31.709
  384.500    4.462    0.308    0.311   36.096
  384.750    4.465    0.292    0.309   34.861
  385.000    4.467    0.295    0.307   31.753
  385.250    4.557    0.307    0.309   31.148
  385.500    4.559    0.318    0.314   30.549
  385.750    4.562    0.323    0.307   30.561
  386.000    4.565    0.301    0.299   30.572
  386.250    4.568    0.284    0.297   31.845
  386.500    4.659    0.284    0.297   32.481
  386.750    4.662    0.286    0.302   34.379
  387.000    4.666    0.282    0.304   35.642
  387.250    4.668    0.287    0.304   35.657
  387.500    4.760    0.294    0.302   33.179
  387.750    4.855    0.297    0.300   31.316
  388.000    4.859    0.297    0.300   29.461
  388.250    4.954    0.292    0.300   28.223
  388.500    4.958    0.283    0.303   26.990
  388.750    4.960    0.280    0.303   27.636
  389.000    4.964    0.294    0.303   28.277
  389.250    4.875    0.298    0.305   28.919
  389.500    4.879    0.305    0.306   28.309
  389.750    4.881    0.310    0.309   30.203
  390.000    4.886    0.306    0.312   30.843
  390.250    4.888    0.300    0.315   30.234
  390.500    4.891    0.297    0.311   32.754
  390.750    5.282    0.291    0.302   35.896
  391.000    5.386    0.285    0.299   38.416
  391.250    5.491    0.268    0.291   41.559
  391.500    5.706    0.249    0.279   44.074
  391.750    6.160    0.231    0.272   46.590
  392.000    6.281    0.218    0.270   47.856
  392.250    6.406    0.227    0.276   45.997
  392.500    6.410    0.251    0.286   42.266
  392.750    6.295    0.272    0.293   42.907
  393.000    6.066    0.287    0.301   48.547
  393.250    5.844    0.277    0.306   52.312
  393.500    5.632    0.271    0.314   54.830
  393.750    5.529    0.282    0.324   50.474
  394.000    5.429    0.307    0.331   49.242
  394.250    5.333    0.305    0.338   50.506
  394.500    5.336    0.300    0.344   54.273
  394.750    5.239    0.298    0.349   59.291
  395.000    5.242    0.305    0.349   63.056
  395.250    5.147    0.314    0.351   55.579
  395.500    5.054    0.323    0.352   49.969
  395.750    5.058    0.327    0.342   48.107
  396.000    4.966    0.303    0.332   52.504
  396.250    5.065    0.282    0.326   52.516
  396.500    5.068    0.285    0.324   47.536
  396.750    5.071    0.296    0.325   50.054
  397.000    5.172    0.291    0.328   51.941
  397.250    5.478    0.270    0.325   40.714
  397.500    5.802    0.256    0.315   37.603
  397.750    6.029    0.237    0.299   33.870
  398.000    6.635    0.213    0.284   30.762
  398.250    7.028    0.186    0.279   37.656
  398.500    7.302    0.158    0.280   53.920
  398.750    8.032    0.126    0.282   77.686
  399.000    8.834    0.000    0.279   80.830
  399.250   10.885    0.000    0.259   63.972
  399.500   14.468    0.000    0.250   52.742
  399.750   18.169    0.000    0.226   49.011
  400.000   20.756    0.000    0.213   47.154
  400.250   23.715    0.000    0.206   46.538
  400.500   25.594    0.000    0.198   47.184
  400.750   29.800    0.000    0.192   49.703
  401.000   31.559    0.000    0.193   50.340
  401.250   32.809    0.000    0.196   49.731
  401.500   32.823    0.000    0.196   49.749
  401.750   32.850    0.000    0.197   50.400
  402.000   32.876    0.000    0.199   51.036
  402.250   32.892    0.000    0.200   51.053
  402.500   32.915    0.000    0.203   51.069
  402.750   33.568    0.000    0.205   51.086
  403.000   34.232    0.000    0.208   51.107
  403.250   34.908    0.000    0.209   50.493
  403.500   34.938    0.000    0.210   50.519
  403.750   34.976    0.000    0.211   50.531
  404.000   34.992    0.000    0.213   51.170
  404.250   35.007    0.000    0.212   51.196
  404.500   35.036    0.000    0.214   51.208
  404.750   35.064    0.000    0.214   50.603
  405.000   34.429    0.000    0.214   49.987
