~VERSION INFORMATION
 VERS.                 2.0:   CWLS LOG ASCII STANDARD -VERSION 2.0
 WRAP.                  NO:   ONE LINE PER DEPTH STEP
~WELL INFORMATION BLOCK
#MNEM.UNIT           DATA                    DESCRIPTION OF MNEMONIC
#---------    -------------------            -------------------------------
# Generated from Intellog Unique Number	CW_82_90/WELL/620
WELL.         ANDEX WABASCA 07-27            : Well_name    - WELL
LOC .         00/07-27-082-21W4/0            : Location     - LOCATION
UWI .         00/07-27-082-21W4/0            : Uwi          - UNIQUE WELL ID
ENTR.         JAYE                           : Entered      - ENTERED BY
SRVC.         SCHLUMBERGER                   : Scn          - SERVICE COMPANY
DATE.         13 FEB 74                      : Date         - LOG DATE
STRT.M        228.6                          : top_depth    - START DEPTH
STOP.M        460.35                         : bot_depth    - STOP DEPTH
STEP.M        0.25                           : increment    - STEP LENGTH
 NULL. -999.2500:NULL Value
~CURVE INFORMATION BLOCK
#MNEM UNIT       ERCB CURVE CODE    CURVE DESCRIPTION
#-----------   ------------------   ----------------------------------
DEPT.M        00 001 00 00         : DEPTH        - DEPTH
CALI.MM       00 280 01 00         : CAL          - CALIPER
GR  .API      00 310 00 00         : GR           - GAMMA RAY
NPHI.V/V      00 330 00 00         : PHIN         - NEUTRON POROSITY (SANDSTONE)
DPHI.V/V      00 890 00 00         : PHID         - DENSITY POROSITY (SANDSTONE)
ILD .OHMM     00 120 00 00         : RESD         - DEEP RESISTIVITY (DIL)
~PARAMETER INFORMATION
#MNEM.UNIT           DATA             DESCRIPTION OF MNEMONIC
#---------         -----------     ------------------------------
GL  .M        623.621              : gl           - GROUND LEVEL ELEVATION
EREF.M        627.278              : kb           - ELEVATION OF DEPTH REFERENCE
DATM.M        623.621              : datum        - DATUM ELEVATION
TDD .M        467.868              : tdd          - TOTAL DEPTH DRILLER
RUN .         ONE                  : Run          - RUN NUMBER
ENG .         WOON                 : Engineer     - RECORDING ENGINEER
WIT .         McARTHUR             : Witness      - WITNESSED BY
BASE.         EDMONTON             : Branch       - HOME BASE OF LOGGING UNIT
MUD .         GEL                  : Mud_type     - MUD TYPE
MATR.         SANDSTONE            : Logunit      - NEUTRON MATRIX
TMAX.C        30.5556              : BHT          - MAXIMUM RECORDED TEMPERATURE
BHTD.M        467.868              : BHTDEP       - MAXIMUM RECORDED TEMPERATURE
RMT .C        15.5556              : MDTP         - TEMPERATURE OF MUD
MUDD.KG/M     9500                 : MWT          - MUD DENSITY
NEUT.         1                    : NEUTRON      - NEUTRON TYPE
RESI.         0                    : RESIST       - RESISTIVITY TYPE
RM  .OHMM     0.25                 : RM           - RESISTIVITY OF MUD
RMC .OHMM     0.25                 : RMC          - RESISTIVITY OF MUD CAKE
RMF .OHMM     2.23                 : RMF          - RESISTIVITY OF MUD FILTRATE
SUFT.C        4                    : SUFT         - SURFACE TEMPERATURE
~A  DEPTH      CAL       GR     PHIN     PHID     RESD
# ...
  338.100  148.266   79.558    0.478    0.239    9.146
  338.350  144.566   79.807    0.482    0.241    8.877
  338.600  144.475   79.630    0.482    0.255    8.712
  338.850  145.102   76.107    0.484    0.260    8.743
  339.100  147.072   74.653    0.490    0.267    8.840
  339.350  148.938   74.659    0.487    0.278    9.398
  339.600  151.420   77.647    0.483    0.274    9.770
  339.850  154.626   81.426    0.482    0.256    9.256
  340.100  156.490   84.292    0.489    0.239    8.051
  340.350  157.839   87.767    0.503    0.238    6.194
  340.600  158.781   91.668    0.527    0.235    4.910
  340.850  159.098   89.545    0.558    0.228    4.440
  341.100  159.005   82.430    0.565    0.227    4.302
  341.350  157.779   77.447    0.546    0.262    4.398
  341.600  156.862   71.063    0.494    0.253    5.159
  341.850  155.741   64.802    0.468    0.259    6.691
  342.100  154.721   59.757    0.443    0.233    8.376
  342.350  153.906   55.260    0.375    0.178   10.313
  342.600  153.091   55.570    0.268    0.102   11.809
  342.850  152.791   60.445    0.304    0.071   12.073
  343.100  152.493   66.963    0.366    0.213   11.062
  343.350  151.992   71.289    0.450    0.250    9.693
  343.600  151.694   73.365    0.511    0.296    8.353
  343.850  151.701   74.222    0.533    0.294    8.244
  344.100  152.535   71.429    0.532    0.285    8.796
  344.350  152.545   70.705    0.514    0.273    9.162
  344.600  152.967   73.086    0.479    0.274    9.281
  344.850  154.010   77.655    0.470    0.286    9.159
  345.100  154.742   83.807    0.488    0.274    8.661
  345.350  155.163   84.605    0.492    0.247    7.921
  345.600  155.689   84.062    0.484    0.227    7.490
  345.850  155.905   84.190    0.480    0.232    7.658
  346.100  154.784   86.145    0.499    0.244    8.111
  346.350  154.588   85.120    0.491    0.233    8.559
  346.600  154.187   84.757    0.482    0.224    8.997
  346.850  154.095   85.067    0.464    0.222    9.233
  347.100  153.898   86.777    0.460    0.227    9.300
  347.350  154.423   90.132    0.477    0.238    9.247
  347.600  155.053   91.901    0.490    0.246    9.009
  347.850  156.197   94.281    0.485    0.239    8.598
  348.100  157.854   96.234    0.481    0.226    8.011
  348.350  159.103   97.640    0.483    0.236    7.732
  348.600  158.905   96.856    0.492    0.234    7.659
  348.850  157.888   95.765    0.486    0.238    7.701
  349.100  157.175   91.451    0.485    0.242    7.815
  349.350  159.761   89.025    0.486    0.253    7.960
  349.600  161.424   87.327    0.475    0.249    8.093
  349.850  160.402   83.804    0.463    0.238    8.524
  350.100  159.587   81.496    0.462    0.219    9.492
  350.350  157.846   79.312    0.458    0.212   10.110
  350.600  156.929   78.040    0.457    0.234   10.828
  350.850  155.701   77.620    0.473    0.255   11.174
  351.100  153.240   77.687    0.481    0.249   10.724
  351.350  152.837   77.633    0.475    0.223   10.236
  351.600  155.219   75.145    0.473    0.210    9.752
  351.850  156.774   73.081    0.469    0.215   10.026
  352.100  156.372   70.044    0.414    0.197   10.758
  352.350  155.662   66.886    0.354    0.185   12.457
  352.600  157.526   66.163    0.324    0.133   15.770
  352.850  159.804   67.507    0.337    0.110   20.413
  353.100  159.814   70.496    0.381    0.115   23.202
  353.350  158.383   71.110    0.405    0.192   22.813
  353.600  157.259   72.089    0.416    0.233   21.176
  353.850  156.241   73.495    0.448    0.241   19.081
  354.100  156.250   75.389    0.468    0.256   17.256
  354.350  156.261   76.064    0.483    0.258   15.840
  354.600  156.995   76.801    0.467    0.263   15.260
  354.850  157.002   78.266    0.454    0.261   14.484
  355.100  156.292   79.550    0.464    0.250   13.876
  355.350  156.302   79.131    0.461    0.237   13.443
  355.600  156.933   78.772    0.460    0.219   12.831
  355.850  157.045   78.780    0.454    0.205   12.876
  356.100  156.848   79.272    0.431    0.208   13.638
  356.350  155.828   80.008    0.390    0.198   14.204
  356.600  154.499   81.839    0.396    0.164   14.175
  356.850  152.658   84.401    0.449    0.226   13.939
  357.100  151.945   84.894    0.471    0.232   13.255
  357.350  151.853   84.474    0.490    0.241   11.745
  357.600  153.101   85.028    0.515    0.236   11.168
  357.850  154.553   86.920    0.523    0.210   10.900
  358.100  150.234   87.900    0.512    0.199   10.758
  358.350  147.978   87.663    0.485    0.204   10.978
  358.600  149.226   86.939    0.477    0.234   11.223
  358.850  151.296   86.276    0.468    0.236   11.348
  359.100  156.460   85.065    0.466    0.229   11.559
  359.350  157.502   83.551    0.475    0.231   11.729
  359.600  158.437   82.583    0.464    0.237   11.729
  359.850  157.522   82.771    0.460    0.230   11.618
  360.100  155.784   84.360    0.465    0.220   11.172
  360.350  155.173   84.853    0.467    0.214   10.863
  360.600  154.976   85.163    0.457    0.213   10.642
  360.850  154.987   85.351    0.455    0.211   10.522
  361.100  155.203   84.566    0.466    0.198   10.520
  361.350  155.110   84.269    0.469    0.213   10.519
  361.600  155.123   84.823    0.464    0.202   10.497
  361.850  155.238   86.045    0.469    0.204   10.418
  362.100  155.347   87.573    0.469    0.194   10.377
  362.350  155.364   89.648    0.469    0.179   10.396
  362.600  155.270   90.324    0.471    0.200   10.414
  362.850  155.379   88.870    0.485    0.213   10.470
  363.100  155.084   85.712    0.482    0.213   10.586
  363.350  155.198   83.527    0.480    0.208   10.743
  363.600  155.104   81.221    0.470    0.215   10.861
  363.850  155.218   77.636    0.469    0.236   11.063
  364.100  155.328   74.417    0.474    0.237   11.416
  364.350  155.854   74.910    0.474    0.236   11.650
  364.600  156.279   77.229    0.457    0.214   11.845
  364.850  156.701   79.000    0.440    0.223   11.865
  365.100  156.813   81.684    0.441    0.235   11.367
  365.350  156.720   84.184    0.449    0.215   10.223
  365.600  156.319   87.538    0.463    0.203    9.367
  365.850  155.713   89.491    0.494    0.210    8.581
  366.100  157.472   86.273    0.502    0.228    8.486
  366.350  160.988   84.574    0.487    0.231    8.145
  366.600  162.028   82.025    0.463    0.229    7.876
  366.850  161.628   79.719    0.453    0.231    7.715
  367.100  158.957   76.865    0.458    0.243    7.743
  367.350  156.906   74.376    0.467    0.235    7.828
  367.600  156.507   73.347    0.484    0.223    8.184
  367.850  156.412   73.049    0.488    0.204    8.880
  368.100  156.528   73.969    0.455    0.252    9.492
  368.350  156.329   75.739    0.443    0.247   10.110
  368.600  154.280   76.353    0.451    0.236   10.550
  368.850  152.846   72.952    0.464    0.241   11.091
  369.100  153.374   68.273    0.475    0.236   11.638
  369.350  154.929   66.454    0.465    0.219   11.854
  369.600  156.177   66.825    0.424    0.185   11.809
  369.850  157.630   67.439    0.389    0.167   12.163
  370.100  158.257   64.159    0.339    0.135   13.026
  370.350  159.092   60.273    0.310    0.136   13.951
  370.600  160.341   58.816    0.290    0.118   15.652
  370.850  161.380   56.146    0.270    0.096   17.890
  371.100  161.391   51.406    0.214    0.073   20.524
  371.350  160.579   48.673    0.187    0.044   23.026
  371.600  159.762   49.105    0.182    0.008   26.811
  371.850  159.155   51.789    0.189    0.009   32.522
  372.100  159.166   55.994    0.211    0.046   40.413
  372.350  158.763   59.103    0.257    0.089   40.183
  372.600  156.405   68.906    0.307    0.120   29.132
  372.850  154.972   85.160    0.408    0.167   16.962
  373.100  155.191   86.871    0.466    0.214   12.692
  373.350  155.203   87.302    0.465    0.224   10.499
  373.600  155.725   82.502    0.470    0.221    9.513
  373.850  155.941   82.631    0.468    0.207    9.267
  374.100  156.366   83.731    0.469    0.200    9.231
  374.350  157.095   86.902    0.473    0.211    9.212
