~VERSION INFORMATION
 VERS.                 2.0:   CWLS LOG ASCII STANDARD -VERSION 2.0
 WRAP.                  NO:   ONE LINE PER DEPTH STEP
~WELL INFORMATION BLOCK
#MNEM.UNIT           DATA                    DESCRIPTION OF MNEMONIC
#---------    -------------------            -------------------------------
# Generated from Intellog Unique Number	CW_76_78/WELL/468
WELL.         PCP MARTIN HILLS 06-05         : Well_name    - WELL
LOC .         00/06-05-076-04W5/0            : Location     - LOCATION
UWI .         00/06-05-076-04W5/0            : Uwi          - UNIQUE WELL ID
ENTR.         JAYE                           : Entered      - ENTERED BY
SRVC.         SCHLUMBERGER                   : Scn          - SERVICE COMPANY
DATE.         8 MAR 74                       : Date         - LOG DATE
STRT.M        682.752                        : top_depth    - START DEPTH
STOP.M        905.252                        : bot_depth    - STOP DEPTH
STEP.M        0.25                           : increment    - STEP LENGTH
 NULL. -999.2500:NULL Value
~CURVE INFORMATION BLOCK
#MNEM UNIT       ERCB CURVE CODE    CURVE DESCRIPTION
#-----------   ------------------   ----------------------------------
DEPT.M        00 001 00 00         : DEPTH        - DEPTH
ILD .OHMM     00 120 00 00         : RESD         - DEEP RESISTIVITY (DIL)
NPHI.V/V      00 330 00 00         : PHIN         - NEUTRON POROSITY (SANDSTONE)
DPHI.V/V      00 890 00 00         : PHID         - DENSITY POROSITY (SANDSTONE)
GR  .API      00 310 00 00         : GR           - GAMMA RAY
CALI.MM       00 280 01 00         : CAL          - CALIPER
~PARAMETER INFORMATION
#MNEM.UNIT           DATA             DESCRIPTION OF MNEMONIC
#---------         -----------     ------------------------------
GL  .M        955.243              : gl           - GROUND LEVEL ELEVATION
EREF.M        958.596              : kb           - ELEVATION OF DEPTH REFERENCE
DATM.M        955.243              : datum        - DATUM ELEVATION
TDD .M        920.496              : tdd          - TOTAL DEPTH DRILLER
RUN .         ONE                  : Run          - RUN NUMBER
BASE.         EDM                  : Branch       - HOME BASE OF LOGGING UNIT
MATR.         SANDSTONE            : Logunit      - NEUTRON MATRIX
TMAX.C        33.3333              : BHT          - MAXIMUM RECORDED TEMPERATURE
BHTD.M        825.094              : BHTDEP       - MAXIMUM RECORDED TEMPERATURE
RMT .C        2.22222              : MDTP         - TEMPERATURE OF MUD
MUDD.KG/M     0                    : MWT          - MUD DENSITY
NEUT.         1                    : NEUTRON      - NEUTRON TYPE
RESI.         0                    : RESIST       - RESISTIVITY TYPE
RM  .OHMM     2.5                  : RM           - RESISTIVITY OF MUD
RMC .OHMM     0                    : RMC          - RESISTIVITY OF MUD CAKE
RMF .OHMM     4.8                  : RMF          - RESISTIVITY OF MUD FILTRATE
SUFT.C        -17.7778             : SUFT         - SURFACE TEMPERATURE
~A  DEPTH     RESD     PHIN     PHID       GR      CAL
# ...
  719.252    7.452    0.397    0.352   47.731  191.414
  719.502    8.246    0.379    0.345   43.363  190.727
  719.752    8.124    0.383    0.331   47.404  191.068
  720.002    7.917    0.377    0.321   49.803  191.516
  720.252    8.078    0.376    0.315   48.542  192.581
  720.502    8.599    0.387    0.321   44.660  193.335
  720.752    9.238    0.391    0.325   45.292  193.374
  721.002    9.322    0.393    0.328   46.041  192.997
  721.252    8.643    0.384    0.327   47.096  192.922
  721.502    8.043    0.377    0.327   48.092  192.852
  721.752    7.610    0.376    0.326   49.208  192.473
  722.002    7.266    0.385    0.329   50.387  192.097
  722.252    7.067    0.419    0.337   47.967  191.924
  722.502    6.886    0.432    0.341   45.124  192.055
  722.752    6.747    0.404    0.343   45.021  192.813
  723.002    6.710    0.401    0.345   45.590  193.462
  723.252    6.660    0.408    0.348   46.342  195.148
  723.502    6.561    0.410    0.352   46.664  196.315
  723.752    6.500    0.397    0.354   45.953  197.278
  724.002    6.452    0.389    0.357   45.910  197.001
  724.252    6.380    0.398    0.363   45.809  195.182
  724.502    6.344    0.412    0.370   45.646  194.178
  724.752    6.355    0.414    0.372   45.482  192.870
  725.002    6.343    0.409    0.366   46.112  192.081
  725.252    6.319    0.405    0.354   47.655  192.009
  725.502    6.318    0.388    0.351   50.478  191.742
  725.752    6.317    0.380    0.358   50.803  191.873
  726.002    6.316    0.405    0.358   49.725  192.114
  726.252    6.292    0.422    0.355   50.355  192.143
  726.502    6.315    0.399    0.349   52.874  192.180
  726.752    6.326    0.374    0.346   50.699  192.004
  727.002    6.325    0.372    0.347   44.502  192.654
  727.252    6.278    0.374    0.349   48.239  194.028
  727.502    6.265    0.381    0.353   49.478  196.747
  727.752    6.253    0.390    0.351   49.131  200.390
  728.002    6.241    0.401    0.350   49.152  193.510
  728.252    6.229    0.415    0.354   49.720  188.900
  728.502    6.251    0.403    0.357   51.203  187.903
  728.752    6.250    0.388    0.358   52.196  188.657
  729.002    6.226    0.368    0.358   53.621  189.515
  729.252    6.191    0.368    0.357   54.735  190.274
  729.502    6.225    0.383    0.352   52.744  191.546
  729.752    6.305    0.409    0.343   50.203  193.020
  730.002    6.421    0.407    0.337   49.919  194.293
  730.252    6.480    0.394    0.339   50.975  194.328
  730.502    6.575    0.393    0.342   51.423  193.434
  730.752    6.648    0.403    0.347   53.451  191.918
  731.002    6.783    0.410    0.349   56.396  190.503
  731.252    6.972    0.411    0.345   55.806  190.021
  731.502    7.180    0.419    0.338   57.959  189.951
  731.752    7.503    0.412    0.332   59.260  190.090
  732.002    7.899    0.426    0.331   59.462  190.228
  732.252    7.972    0.431    0.330   59.420  190.261
  732.502    7.898    0.417    0.326   59.439  190.303
  732.752    7.940    0.405    0.334   55.621  190.225
  733.002    8.192    0.408    0.339   50.520  190.158
  733.252    8.899    0.417    0.331   47.187  190.398
  733.502    9.525    0.409    0.321   49.343  190.843
  733.752   10.309    0.418    0.319   51.737  191.390
  734.002   10.735    0.424    0.325   54.806  190.699
  734.252   10.852    0.415    0.329   57.749  189.600
  734.502   10.871    0.392    0.331   51.371  189.010
  734.752   10.850    0.379    0.334   48.586  188.947
  735.002   10.828    0.406    0.339   49.705  188.665
  735.252   10.768    0.401    0.344   50.698  187.981
  735.502   10.648    0.396    0.347   48.583  188.007
  735.752   10.491    0.409    0.347   48.238  187.536
  736.002   10.431    0.417    0.344   49.782  187.465
  736.252   10.373    0.411    0.347   50.654  187.696
  736.502   10.352    0.402    0.349   51.588  187.844
  736.752   10.351    0.405    0.346   53.498  188.073
  737.002   10.388    0.409    0.344   52.116  188.208
  737.252   10.349    0.417    0.339   46.222  188.139
  737.502   10.272    0.420    0.335   44.658  188.071
  737.752   10.083    0.411    0.335   48.577  188.207
  738.002   10.044    0.387    0.335   52.194  188.445
  738.252   10.118    0.382    0.345   53.615  188.788
  738.502    9.769    0.393    0.344   50.343  188.819
  738.752    9.362    0.388    0.342   49.998  189.163
  739.002    9.072    0.390    0.347   52.760  191.781
  739.252    8.857    0.403    0.347   54.120  192.846
  739.502    8.662    0.428    0.347   54.811  192.566
  739.752    8.425    0.420    0.350   55.501  191.672
  740.002    8.255    0.391    0.355   54.300  191.297
  740.252    8.073    0.383    0.359   49.690  191.118
  740.502    7.867    0.385    0.355   50.745  190.951
  740.752    7.765    0.382    0.344   56.066  191.083
  741.002    7.836    0.399    0.332   53.892  191.224
  741.252    7.996    0.403    0.320   50.193  190.944
  741.502    8.249    0.396    0.328   48.569  190.567
  741.752    8.510    0.403    0.331   50.601  190.701
  742.002    8.861    0.395    0.332   52.081  191.765
  742.252    9.108    0.386    0.340   52.651  193.866
  742.502    9.362    0.378    0.336   52.793  195.549
  742.752    9.606    0.375    0.326   52.873  196.199
  743.002    9.801    0.382    0.321   51.186  196.239
  743.252   10.019    0.394    0.321   49.620  196.065
  743.502   10.223    0.398    0.322   50.372  195.991
  743.752   10.527    0.403    0.319   52.950  195.610
  744.002   11.043    0.402    0.312   56.263  195.545
  744.252   11.777    0.403    0.306   56.159  195.473
  744.502   12.444    0.406    0.299   55.875  195.505
  744.752   12.148    0.401    0.285   57.235  195.440
  745.002   11.600    0.390    0.261   60.485  195.671
  745.252   10.834    0.373    0.240   61.662  199.216
  745.502    9.935    0.344    0.188   60.099  201.827
  745.752    8.829    0.233    0.136   59.265  200.107
  746.002    7.831    0.243    0.171   60.748  194.568
  746.252    6.671    0.365    0.229   64.363  190.059
  746.502    5.630    0.434    0.262   69.075  188.443
  746.752    4.805    0.436    0.285   73.058  189.507
  747.002    4.302    0.421    0.292   76.307  190.469
  747.252    4.062    0.415    0.295   79.617  190.916
  747.502    3.937    0.413    0.296   78.296  190.742
  747.752    3.871    0.411    0.296   76.000  190.465
  748.002    3.835    0.416    0.293   79.616  190.396
  748.252    3.814    0.435    0.288   84.144  191.874
  748.502    3.813    0.431    0.284   84.715  194.487
  748.752    3.827    0.431    0.287   85.099  197.826
  749.002    3.883    0.431    0.287   88.896  198.994
  749.252    3.984    0.420    0.286   88.428  199.540
  749.502    4.095    0.413    0.285   84.793  198.853
  749.752    4.156    0.442    0.287   82.192  198.369
  750.002    4.248    0.433    0.289   77.213  197.887
  750.252    4.279    0.419    0.290   76.135  197.612
  750.502    4.294    0.411    0.285   77.680  197.543
  750.752    4.278    0.406    0.279   79.406  197.573
  751.002    4.246    0.394    0.273   80.704  197.405
  751.252    4.253    0.399    0.266   82.127  196.921
  751.502    4.253    0.419    0.263   81.902  196.951
  751.752    4.292    0.440    0.261   81.253  197.089
  752.002    4.347    0.423    0.258   79.624  197.740
  752.252    4.435    0.402    0.248   76.109  197.880
  752.502    4.459    0.386    0.243   77.165  196.879
  752.752    4.426    0.368    0.245   80.232  195.157
  753.002    4.393    0.378    0.242   81.655  194.055
  753.252    4.352    0.399    0.240   82.831  193.986
  753.502    4.312    0.426    0.238   85.352  194.743
  753.752    4.272    0.456    0.244   87.504  196.014
  754.002    4.240    0.486    0.236   89.473  197.906
  754.252    4.216    0.511    0.231   88.822  199.385
  754.502    4.177    0.470    0.236   85.553  200.240
  754.752    4.169    0.471    0.235   85.327  200.691
  755.002    4.191    0.456    0.239   84.676  201.030
  755.252    4.198    0.442    0.247   82.135  201.476
  755.502    4.206    0.436    0.242   79.534  201.823
