~VERSION INFORMATION
 VERS.                 2.0:   CWLS LOG ASCII STANDARD -VERSION 2.0
 WRAP.                  NO:   ONE LINE PER DEPTH STEP
~WELL INFORMATION BLOCK
#MNEM.UNIT           DATA                    DESCRIPTION OF MNEMONIC
#---------    -------------------            -------------------------------
# Generated from Intellog Unique Number	CW_82_90/WELL/3055
WELL.         06-28-087-22W4                 : Well_name    - WELL
LOC .         00/06-28-087-22W4/0            : Location     - LOCATION
UWI .         00/06-28-087-22W4/0            : Uwi          - UNIQUE WELL ID
ENTR.         MAX                            : Entered      - ENTERED BY
SRVC.         SCHLUMBERGER                   : Scn          - SERVICE COMPANY
STRT.M        106.68                         : top_depth    - START DEPTH
STOP.M        303.68                         : bot_depth    - STOP DEPTH
STEP.M        0.25                           : increment    - STEP LENGTH
 NULL. -999.2500:NULL Value
~CURVE INFORMATION BLOCK
#MNEM UNIT       ERCB CURVE CODE    CURVE DESCRIPTION
#-----------   ------------------   ----------------------------------
DEPT.M        00 001 00 00         : DEPTH        - DEPTH
GR  .API      00 310 00 00         : GR           - GAMMA RAY
CALI.MM       00 280 01 00         : CAL          - CALIPER
DPHI.V/V      00 890 00 00         : PHID         - DENSITY POROSITY (SANDSTONE)
NPHI.V/V      00 330 00 00         : PHIN         - NEUTRON POROSITY (SANDSTONE)
ILD .OHMM     00 120 00 00         : RESD         - DEEP RESISTIVITY (DIL)
~PARAMETER INFORMATION
#MNEM.UNIT           DATA             DESCRIPTION OF MNEMONIC
#---------         -----------     ------------------------------
GL  .M        536.448              : gl           - GROUND LEVEL ELEVATION
EREF.M        539.801              : kb           - ELEVATION OF DEPTH REFERENCE
DATM.M        536.448              : datum        - DATUM ELEVATION
TDD .M        307.238              : tdd          - TOTAL DEPTH DRILLER
RUN .         ONE                  : Run          - RUN NUMBER
ENG .         BILL                 : Engineer     - RECORDING ENGINEER
WIT .         JIM                  : Witness      - WITNESSED BY
MUD .         GEL                  : Mud_type     - MUD TYPE
MATR.         SANDSTONE            : Logunit      - NEUTRON MATRIX
TMAX.C        20                   : BHT          - MAXIMUM RECORDED TEMPERATURE
BHTD.M        307.238              : BHTDEP       - MAXIMUM RECORDED TEMPERATURE
MATR.         1                    : LOGUNIT      - NEUTRON MATRIX
RMT .C        17.2222              : MDTP         - TEMPERATURE OF MUD
NEUT.         1                    : NEUTRON      - NEUTRON TYPE
RESI.         0                    : RESIST       - RESISTIVITY TYPE
RMC .OHMM     1.12                 : RMC          - RESISTIVITY OF MUD CAKE
RMF .OHMM     1.23                 : RMF          - RESISTIVITY OF MUD FILTRATE
SUFT.C        -15                  : SUFT         - SURFACE TEMPERATURE
~A  DEPTH       GR      CAL     PHID     PHIN     RESD
# ...
  179.680   73.894  242.742    0.247    0.571    4.195
  179.930   75.356  242.255    0.248    0.574    4.347
  180.180   77.403  241.768    0.250    0.574    4.381
  180.430   78.575  241.281    0.258    0.574    4.419
  180.680   77.120  240.301    0.257    0.574    4.457
  180.930   73.915  239.320    0.257    0.558    4.454
  181.180   68.668  236.858    0.257    0.526    4.410
  181.430   64.005  234.394    0.251    0.511    4.407
  181.680   62.842  232.426    0.247    0.513    4.566
  181.930   59.054  230.458    0.256    0.510    4.907
  182.180   57.309  228.490    0.280    0.508    5.879
  182.430   59.647  228.495    0.309    0.509    6.318
  182.680   63.443  228.503    0.316    0.532    7.104
  182.930   65.197  228.510    0.310    0.536    8.513
  183.180   67.536  230.494    0.310    0.543    9.572
  183.430   70.749  231.984    0.293    0.531   11.059
  183.680   75.421  233.472    0.257    0.531   11.565
  183.930   82.135  234.467    0.215    0.541   10.844
  184.180   83.014  234.968    0.203    0.553    8.403
  184.430   86.519  234.977    0.210    0.571    7.329
  184.680   89.733  234.983    0.235    0.592    4.822
  184.930   87.112  234.990    0.237    0.598    4.361
  185.180   84.199  234.998    0.225    0.598    4.127
  185.430   82.744  235.004    0.258    0.598    4.049
  185.680   80.124  235.012    0.273    0.598    4.046
  185.930   77.502  234.526    0.283    0.596    4.044
  186.180   76.047  234.039    0.271    0.588    4.040
  186.430   72.551  233.058    0.264    0.579    4.111
  186.680   69.638  233.066    0.255    0.566    4.184
  186.930   67.309  233.072    0.252    0.544    4.335
  187.180   65.562  232.585    0.253    0.515    4.616
  187.430   64.692  233.087    0.286    0.521    5.383
  187.680   64.696  233.094    0.288    0.525    5.836
  187.930   62.659  232.113    0.282    0.544    6.445
  188.180   61.787  231.626    0.285    0.582    7.246
  188.430   59.458  231.139    0.290    0.596    7.858
  188.680   56.837  230.653    0.279    0.591    8.755
  188.930   56.549  230.166    0.279    0.582    9.156
  189.180   56.553  229.680    0.292    0.567    9.838
  189.430   57.433  229.686    0.308    0.550   10.380
  189.680   58.896  229.693    0.282    0.532   10.952
  189.930   60.650  229.207    0.258    0.515   11.453
  190.180   62.113  229.215    0.277    0.510   11.762
  190.430   63.576  228.728    0.299    0.494   12.298
  190.680   63.872  229.230    0.283    0.487   12.179
  190.930   64.168  230.224    0.282    0.491   11.735
  191.180   65.340  230.725    0.276    0.526   11.105
  191.430   68.261  231.227    0.258    0.550   10.133
  191.680   68.849  231.728    0.241    0.584    9.332
  191.930   66.520  231.735    0.240    0.589    8.361
  192.180   65.940  232.236    0.250    0.554    7.984
  192.430   65.069  232.243    0.276    0.510    7.764
  192.680   65.074  232.746    0.296    0.502    7.619
  192.930   66.536  233.247    0.281    0.501    7.476
  193.180   69.166  233.748    0.266    0.500    7.204
  193.430   70.921  237.213    0.252    0.499    6.816
  193.680   71.509  238.210    0.246    0.527    6.221
  193.930   70.638  237.723    0.253    0.576    5.728
  194.180   68.017  236.740    0.259    0.572    5.227
  194.430   65.687  234.772    0.275    0.562    5.037
  194.680   61.315  232.803    0.295    0.559    5.363
  194.930   57.235  231.329    0.302    0.558    5.976
  195.180   54.614  230.843    0.314    0.563    6.720
  195.430   54.619  229.863    0.313    0.569    7.626
  195.680   53.747  229.869    0.311    0.571    8.420
  195.930   50.834  229.876    0.318    0.558    9.297
  196.180   47.922  229.884    0.317    0.541   10.266
  196.430   47.926  229.892    0.301    0.510   11.543
  196.680   49.680  230.392    0.283    0.517   12.863
  196.930   52.019  231.388    0.305    0.541   14.201
  197.180   53.482  232.383    0.300    0.564   14.454
  197.430   55.820  232.884    0.260    0.565   13.553
  197.680   57.866  233.879    0.237    0.564   11.091
  197.930   61.080  235.369    0.290    0.563    7.920
  198.180   63.710  236.858    0.285    0.561    6.027
  198.430   66.339  239.829    0.272    0.555    5.068
  198.680   70.720  243.788    0.260    0.554    4.380
  198.930   73.641  246.758    0.253    0.565    3.924
  199.180   73.645  248.741    0.273    0.570    3.714
  199.430   73.066  248.254    0.265    0.568    3.677
  199.680   71.612  247.768    0.264    0.566    3.880
  199.930   71.616  248.269    0.262    0.549    4.169
  200.180   71.329  249.264    0.253    0.526    4.604
  200.430   70.166  249.272    0.236    0.543    5.224
  200.680   67.545  247.304    0.236    0.556    6.091
  200.930   61.131  243.853    0.254    0.552    6.727
  201.180   56.175  241.389    0.248    0.524    7.428
  201.430   51.221  237.445    0.209    0.375    8.351
  201.680   48.016  234.489    0.088    0.317    9.306
  201.930   50.646  234.002    0.148    0.297   10.560
  202.180   57.360  233.515    0.218    0.347   12.313
  202.430   62.032  233.522    0.265    0.441   13.720
  202.680   63.786  234.024    0.277    0.516   12.983
  202.930   63.791  234.526    0.281    0.551   10.246
  203.180   64.379  234.533    0.279    0.555    9.015
  203.430   64.674  234.541    0.273    0.500    8.301
  203.680   64.679  234.546    0.268    0.550    8.073
  203.930   64.391  234.554    0.269    0.548    7.922
  204.180   64.104  233.574    0.260    0.538    7.702
  204.430   63.526  233.582    0.244    0.556    7.356
  204.680   62.946  233.094    0.236    0.560    7.024
  204.930   63.242  233.101    0.244    0.557    7.082
  205.180   63.246  233.108    0.292    0.525    7.474
  205.430   66.460  233.115    0.295    0.507    7.958
  205.680   70.257  233.123    0.289    0.537    7.262
  205.930   68.218  232.637    0.286    0.549    6.107
  206.180   62.096  232.150    0.286    0.539    5.182
  206.430   58.599  231.663    0.272    0.515    4.686
  206.680   58.605  231.670    0.257    0.489    5.221
  206.930   60.359  231.677    0.236    0.472    5.871
  207.180   61.530  231.685    0.205    0.532    6.425
  207.430   61.826  232.188    0.244    0.519    7.159
  207.680   62.122  232.194    0.220    0.510    7.904
  207.930   63.002  233.189    0.208    0.516    7.479
  208.180   64.465  233.689    0.228    0.549    6.405
  208.430   65.928  235.673    0.261    0.559    5.845
  208.680   66.807  237.163    0.266    0.564    5.735
  208.930   67.394  237.665    0.279    0.573    5.476
  209.180   65.648  237.673    0.266    0.565    5.324
  209.430   63.902  237.680    0.232    0.558    5.568
  209.680   65.366  238.179    0.237    0.553    5.876
  209.930   65.953  238.187    0.246    0.550    6.489
  210.180   65.666  238.195    0.255    0.551    7.230
  210.430   65.378  238.201    0.289    0.538    7.984
  210.680   65.091  238.208    0.274    0.531    8.736
  210.930   64.804  238.217    0.271    0.523    9.821
  211.180   64.516  238.224    0.275    0.510   10.086
  211.430   63.938  238.231    0.257    0.510   10.078
  211.680   63.357  238.237    0.232    0.529    9.889
  211.930   62.195  238.246    0.212    0.536    9.617
  212.180   61.324  238.252    0.184    0.520    9.267
  212.430   59.869  238.753    0.145    0.374    9.177
  212.680   61.041  239.751    0.100    0.341    9.338
  212.930   65.422  240.745    0.187    0.415    9.943
  213.180   68.342  242.728    0.241    0.499   10.781
  213.430   72.432  244.217    0.217    0.511   10.675
  213.680   71.853  244.718    0.219    0.528    9.832
  213.930   71.274  245.712    0.220    0.536    9.219
  214.180   71.569  246.707    0.216    0.523    8.963
  214.430   72.157  248.198    0.220    0.502    8.795
  214.680   71.577  248.699    0.212    0.488    8.790
  214.930   70.415  249.199    0.202    0.481    8.863
  215.180   68.086  249.208    0.181    0.489    9.018
  215.430   66.047  248.720    0.152    0.457    9.344
  215.680   64.010  248.727    0.141    0.388    9.597
  215.930   63.431  248.240    0.154    0.423    9.676
