~VERSION INFORMATION
 VERS.                 2.0:   CWLS LOG ASCII STANDARD -VERSION 2.0
 WRAP.                  NO:   ONE LINE PER DEPTH STEP
~WELL INFORMATION BLOCK
#MNEM.UNIT           DATA                    DESCRIPTION OF MNEMONIC
#---------    -------------------            -------------------------------
# Generated from Intellog Unique Number	CC_84_87/WELL/1054
NULL.         -999.25                        : NULL_VALUE
WELL.         PETROREP ET AL HOUSE           : Well_name    - WELL
LOC .         04-23-085-17W4                 : Location     - LOCATION          
UWI .         00/04-23-085-17W400            : Uwi          - UNIQUE WELL ID    
ENTR.         DW                             : Entered      - ENTERED BY        
SRVC.         COMPUTALOG                     : Scn          - SERVICE COMPANY   
DATE.         01 FEB 81                      : Date         - LOG DATE
STRT.M        100                            : top_depth    - START DEPTH       
STOP.M        253.002                        : bot_depth    - STOP DEPTH        
STEP.M        0.3                            : increment    - STEP LENGTH       
~CURVE INFORMATION BLOCK
#MNEM UNIT       ERCB CURVE CODE    CURVE DESCRIPTION
#-----------   ------------------   ----------------------------------
DEPT.M        00 001 00 00         : DEPTH        - DEPTH                       
DPHI.V/V      00 890 00 00         : PHID         - DENSITY POROSITY (LIMESTONE)
NPHI.V/V      00 330 00 00         : PHIN         - NEUTRON POROSITY (LIMESTONE)
GR  .API      00 310 00 00         : GR           - GAMMA RAY                   
ILD .OHMM     00 120 00 00         : RESD         - DEEP RESISTIVITY (DIL)      
~PARAMETER INFORMATION       
#MNEM.UNIT           DATA             DESCRIPTION OF MNEMONIC
#---------         -----------     ------------------------------
GL  .M        512.2                : gl           - GROUND LEVEL ELEVATION      
EREF.M        515.86               : kb           - ELEVATION OF DEPTH REFERENCE
DATM.M        515.86               : datum        - DATUM ELEVATION             
TDD .M        254                  : tdd          - TOTAL DEPTH DRILLER         
RUN .         ONE                  : Run          - RUN NUMBER                  
ENG .         BILL                 : Engineer     - RECORDING ENGINEER          
WIT .         JIM                  : Witness      - WITNESSED BY                
MUD .         GEL                  : Mud_type     - MUD TYPE                    
MATR.         LIMESTONE            : Logunit      - NEUTRON MATRIX              
TMAX.C        16                   : BHT          - MAXIMUM RECORDED TEMPERATURE
BHTD.M        254                  : BHTDEP       - MAXIMUM RECORDED TEMPERATURE
MATR.         1                    : LOGUNIT      - NEUTRON MATRIX              
RMT .C        25                   : MDTP         - TEMPERATURE OF MUD          
NEUT.         1                    : NEUTRON      - NEUTRON TYPE                
RESI.         0                    : RESIST       - RESISTIVITY TYPE            
RMC .OHMM     0.25                 : RMC          - RESISTIVITY OF MUD CAKE     
RMF .OHMM     0.25                 : RMF          - RESISTIVITY OF MUD FILTRATE 
SUFT.C        15                   : SUFT         - SURFACE TEMPERATURE         
~A  DEPTH     PHID     PHIN       GR     RESD
# ...
  152.201    0.298    0.390   76.454    8.825
  152.501    0.286    0.389   80.172    8.499
  152.801    0.283    0.420   79.542    8.342
  153.101    0.281    0.486   77.675    8.035
  153.401    0.287    0.465   78.291    7.594
  153.701    0.291    0.427   86.973    7.043
  154.001    0.286    0.426   91.930    6.657
  154.301    0.281    0.490   80.133    6.412
  154.601    0.285    0.457   70.197    6.293
  154.901    0.297    0.379   72.671    5.836
  155.201    0.339    0.371   78.873    4.744
  155.501    0.339    0.522   85.692    3.713
  155.801    0.319    0.499   93.133    3.255
  156.101    0.270    0.389   99.954    3.317
  156.401    0.237    0.460  109.256    3.578
  156.701    0.205    0.414  117.937    4.083
  157.001    0.184    0.397  126.619    4.749
  157.301    0.175    0.417  131.577    5.318
  157.601    0.174    0.384  131.570    5.629
  157.901    0.167    0.357  127.842    5.629
  158.201    0.167    0.365  124.730    5.222
  158.501    0.172    0.438  126.585    4.935
  158.801    0.179    0.427  127.821    4.665
  159.101    0.189    0.388  126.574    4.665
  159.401    0.208    0.383  123.465    4.845
  159.701    0.233    0.446  120.976    5.635
  160.001    0.240    0.420  120.970    6.311
  160.301    0.204    0.377  113.517    7.340
  160.601    0.190    0.366  108.545    8.067
  160.901    0.202    0.384  107.918    9.035
  161.201    0.204    0.388  108.531    9.383
  161.501    0.195    0.387  107.285    9.745
  161.801    0.178    0.389  102.934   10.121
  162.101    0.184    0.400   99.824   10.315
  162.401    0.194    0.419  102.300   10.318
  162.701    0.185    0.419  103.535   10.319
  163.001    0.184    0.381  102.286   10.128
  163.301    0.204    0.409  103.522    9.940
  163.601    0.209    0.450  106.619    9.396
  163.901    0.210    0.448  110.957    9.049
  164.201    0.183    0.411  110.329    8.715
  164.501    0.193    0.402  102.877    8.717
  164.801    0.210    0.382   99.766    9.054
  165.101    0.212    0.356   97.278    9.403
  165.401    0.201    0.333   95.410    9.583
  165.701    0.167    0.330   95.404    9.768
  166.001    0.174    0.357   92.915    9.586
  166.301    0.194    0.416   86.082    9.233
  166.601    0.214    0.440   79.249    9.062
  166.901    0.233    0.415   80.483    8.895
  167.201    0.200    0.349   91.027    8.896
  167.501    0.190    0.359   97.225    9.067
  167.801    0.205    0.463   94.738    8.899
  168.101    0.193    0.450   84.181    8.733
  168.401    0.156    0.378   84.795    7.655
  168.701    0.142    0.353   97.201    7.235
  169.001    0.204    0.398  105.882    7.101
  169.301    0.224    0.452  100.912    7.515
  169.601    0.249    0.503   87.251    8.577
  169.901    0.241    0.453   85.382    8.579
  170.201    0.201    0.424   90.340    7.957
  170.501    0.165    0.380   90.955    6.974
  170.801    0.184    0.365   94.672    6.717
  171.101    0.217    0.434   95.908    7.666
  171.401    0.246    0.473   90.317    9.797
  171.701    0.248    0.457   82.863   10.972
  172.001    0.235    0.434   73.547   11.183
  172.301    0.155    0.403   67.334    9.439
  172.601    0.069    0.294   68.569    7.967
  172.901    0.152    0.323   78.493    7.251
  173.201    0.197    0.434   94.621    6.984
  173.501    0.202    0.444   99.579    7.118
  173.801    0.190    0.430  100.813    7.393
  174.101    0.192    0.396   99.567    7.679
  174.401    0.199    0.449   95.838    7.826
  174.701    0.195    0.486   92.726    7.537
  175.001    0.193    0.450   93.339    7.260
  175.301    0.191    0.432   94.577    7.261
  175.601    0.192    0.414  102.638    7.262
  175.901    0.192    0.423  106.356    7.402
  176.201    0.192    0.430  105.107    7.264
  176.501    0.194    0.409  103.860    7.130
  176.801    0.193    0.395  104.474    7.131
  177.101    0.193    0.389  106.330    7.547
  177.401    0.197    0.398  111.907    7.838
  177.701    0.194    0.411  113.142    8.615
  178.001    0.191    0.414  111.893    8.947
  178.301    0.203    0.375  110.028    9.833
  178.601    0.208    0.368   99.471   10.407
  178.901    0.193    0.421   80.847   10.809
  179.201    0.256    0.384   72.772   10.608
  179.501    0.305    0.360   71.525   10.027
  179.801    0.277    0.366   80.207    9.301
  180.101    0.214    0.416   92.612    9.302
  180.401    0.158    0.442  104.397    9.480
  180.701    0.175    0.414  106.872    9.662
  181.001    0.237    0.383  100.660   10.035
  181.301    0.253    0.395   93.207   10.422
  181.601    0.258    0.410   90.097   11.030
  181.901    0.258    0.403   86.988   13.575
  182.201    0.246    0.370   81.396   19.063
  182.501    0.186    0.188   73.321   27.280
  182.801    0.000    0.154   66.490   39.040
  183.101    0.000    0.121   57.174   46.269
  183.401    0.000    0.111   52.204   39.053
  183.701    0.000    0.111   51.575   28.348
  184.001    0.000    0.121   52.811   19.816
  184.301    0.000    0.147   61.492   15.805
  184.601    0.100    0.251   72.657   12.372
  184.901    0.163    0.340   80.098   11.261
  185.201    0.198    0.404   82.573   10.845
  185.501    0.209    0.423   88.772   10.645
  185.801    0.225    0.416   96.212   10.447
  186.101    0.214    0.380   99.930   10.062
  186.401    0.217    0.415  100.544    9.876
  186.701    0.217    0.443   99.916    9.512
  187.001    0.198    0.442  100.531    9.514
  187.301    0.181    0.386  101.767    9.515
  187.601    0.164    0.341  107.965    9.517
  187.901    0.177    0.345  109.821    9.518
  188.201    0.193    0.372  109.815    9.701
  188.501    0.192    0.448  103.601    9.702
  188.801    0.182    0.461   99.253    9.705
  189.101    0.170    0.347   98.625    9.706
  189.401    0.161    0.337  102.963    9.892
  189.701    0.189    0.377  106.680    9.893
  190.001    0.187    0.399  105.432    9.895
  190.301    0.175    0.394   97.977    9.896
  190.601    0.174    0.356   97.973    9.899
  190.901    0.178    0.345  102.311    9.901
  191.201    0.184    0.377  107.888    9.902
  191.501    0.189    0.404  109.744    9.904
  191.801    0.187    0.423  108.496    9.720
  192.101    0.184    0.428  105.387    9.362
  192.401    0.163    0.441  101.036    9.363
  192.701    0.125    0.476   99.168    9.189
  193.001    0.136    0.420  106.609    9.191
  193.301    0.163    0.373  109.086    9.192
  193.601    0.196    0.403  107.217    9.023
  193.901    0.197    0.409  102.244    9.024
  194.201    0.170    0.356   99.137    8.857
  194.501    0.203    0.345   93.545    8.858
  194.801    0.229    0.321   98.501    9.028
  195.101    0.239    0.352  102.219    9.376
  195.401    0.232    0.400  104.076    9.556
  195.701    0.197    0.383  104.690    9.740
  196.001    0.190    0.366  109.028    9.927
  196.301    0.178    0.413  106.539    9.928
  196.601    0.167    0.403  105.911    9.931
  196.901    0.169    0.393  110.249    9.932
  197.201    0.190    0.403  105.898   10.122
  197.501    0.211    0.363  102.168   10.513
  197.801    0.208    0.340  102.782   11.338
  198.101    0.163    0.361  103.397   11.776
  198.401    0.159    0.406  104.010   11.778
  198.701    0.202    0.418  103.383   11.560
  199.001    0.206    0.399  103.377   11.345
  199.301    0.190    0.374  103.992   10.928
  199.601    0.195    0.357  107.709   10.930
  199.901    0.206    0.355  107.702   11.139
  200.201    0.225    0.362  104.593   11.570
  200.501    0.233    0.378  100.242   11.792
  200.801    0.243    0.405   95.890   11.793
  201.101    0.241    0.388   93.403   11.795
  201.401    0.136    0.375   89.673   11.797
  201.701    0.124    0.392   91.529   11.363
  202.001    0.199    0.415  101.452   11.152
  202.301    0.206    0.350  105.169   10.541
  202.601    0.189    0.327  108.886   10.151
  202.901    0.185    0.372  116.947    8.731
  203.201    0.179    0.398  127.491    7.370
  203.501    0.175    0.431  129.345    7.098
  203.801    0.183    0.461  124.995    8.902
  204.101    0.180    0.475  113.819   10.956
