~VERSION INFORMATION
 VERS.                 2.0:   CWLS LOG ASCII STANDARD -VERSION 2.0
 WRAP.                  NO:   ONE LINE PER DEPTH STEP
~WELL INFORMATION BLOCK
#MNEM.UNIT           DATA                    DESCRIPTION OF MNEMONIC
#---------    -------------------            -------------------------------
# Generated from Intellog Unique Number	CS_77_79/WELL/879
WELL.         HB THORNBURY EV                : Well_name    - WELL
LOC .         00/06-20-078-11W4/0            : Location     - LOCATION
UWI .         00/06-20-078-11W4/0            : Uwi          - UNIQUE WELL ID
ENTR.         JHS                            : Entered      - ENTERED BY
SRVC.         SCHLUMBERGER                   : Scn          - SERVICE COMPANY
STRT.M        259.080                        : top_depth    - START DEPTH
STOP.M        493.580                        : bot_depth    - STOP DEPTH
STEP.M        0.25                           : increment    - STEP LENGTH
 NULL. -999.2500:NULL Value
~CURVE INFORMATION BLOCK
#MNEM UNIT       ERCB CURVE CODE    CURVE DESCRIPTION
#-----------   ------------------   ----------------------------------
DEPT.M        00 001 00 00         : DEPTH        - DEPTH
RHOB.KG/M3    00 350 00 00         : DENS         - BULK DENSITY
GR  .API      00 310 00 00         : GR           - GAMMA RAY
DPHI.V/V      00 890 00 00         : PHID         - DENSITY POROSITY (SANDSTONE)
NPHI.V/V      00 330 00 00         : PHIN         - NEUTRON POROSITY (SANDSTONE)
ILD .OHMM     00 120 00 00         : RESD         - DEEP RESISTIVITY (DIL)
~PARAMETER INFORMATION
#MNEM.UNIT           DATA             DESCRIPTION OF MNEMONIC
#---------         -----------     ------------------------------
GL  .M        704.088              : gl           - GROUND LEVEL ELEVATION
EREF.M        721.462              : kb           - ELEVATION OF DEPTH REFERENCE
DATM.M        721.462              : datum        - DATUM ELEVATION
TDD .M        498.348              : tdd          - TOTAL DEPTH DRILLER
RUN .         ONE                  : Run          - RUN NUMBER
ENG .         BILL                 : Engineer     - RECORDING ENGINEER
WIT .         JIM                  : Witness      - WITNESSED BY
MUD .         GEL                  : Mud_type     - MUD TYPE
MATR.         SANDSTONE            : Logunit      - NEUTRON MATRIX
TMAX.C        60                   : BHT          - MAXIMUM RECORDED TEMPERATURE
BHTD.M        498.348              : BHTDEP       - MAXIMUM RECORDED TEMPERATURE
MATR.         1                    : LOGUNIT      - NEUTRON MATRIX
RMT .C        25                   : MDTP         - TEMPERATURE OF MUD
NEUT.         1                    : NEUTRON      - NEUTRON TYPE
RESI.         0                    : RESIST       - RESISTIVITY TYPE
RMC .OHMM     0.25                 : RMC          - RESISTIVITY OF MUD CAKE
RMF .OHMM     0.25                 : RMF          - RESISTIVITY OF MUD FILTRATE
SUFT.C        15                   : SUFT         - SURFACE TEMPERATURE
~A  DEPTH     DENS       GR     PHID     PHIN     RESD
  259.080    0.000  102.601    0.290    0.540    3.373
  259.330    0.000  103.026    0.282    0.557    3.432
  259.580    0.000  103.189    0.289    0.542    3.511
  259.830    0.000  103.239    0.274    0.553    3.507
  260.080    0.000  102.321    0.270    0.574    3.546
  260.330    0.000  100.552    0.257    0.584    3.575
  260.580    0.000   99.113    0.268    0.569    3.577
  260.830    0.000   98.107    0.272    0.543    3.550
  261.080    0.000   97.883    0.274    0.543    3.518
  261.330    0.000   99.365    0.263    0.569    3.519
  261.580    0.000  100.073    0.278    0.587    3.522
  261.830    0.000   99.001    0.269    0.573    3.524
  262.080    0.000   96.345    0.279    0.547    3.526
  262.330    0.000   95.285    0.285    0.527    3.527
  262.580    0.000   94.292    0.296    0.523    3.532
  262.830    0.000   94.977    0.286    0.532    3.462
  263.080    0.000   96.121    0.270    0.542    3.456
  263.330    0.000   95.638    0.260    0.547    3.412
  263.580    0.000   93.331    0.279    0.561    3.342
  263.830    0.000   91.756    0.299    0.577    3.344
  264.080    0.000   90.805    0.311    0.609    3.243
  264.330    0.000   91.000    0.313    0.597    3.144
  264.580    0.000   91.335    0.299    0.595    3.116
  264.830    0.000   92.762    0.270    0.579    3.062
  265.080    0.000   94.498    0.242    0.567    3.086
  265.330    0.000   96.743    0.194    0.571    3.126
  265.580    0.000   98.505    0.243    0.600    3.130
  265.830    0.000   99.766    0.303    0.619    3.145
  266.080    0.000   99.734    0.304    0.592    3.188
  266.330    0.000  100.792    0.313    0.563    3.258
  266.580    0.000  101.137    0.287    0.556    3.265
  266.830    0.000  102.724    0.284    0.570    3.313
  267.080    0.000  102.505    0.290    0.575    3.388
  267.330    0.000  101.455    0.290    0.595    3.388
  267.580    0.000   99.432    0.301    0.615    3.451
  267.830    0.000   98.759    0.284    0.591    3.474
  268.080    0.000   99.838    0.280    0.552    3.514
  268.330    0.000  101.944    0.279    0.536    3.564
  268.580    0.000  102.224    0.272    0.557    3.580
  268.830    0.000  101.620    0.256    0.574    3.651
  269.080    0.000  101.296    0.262    0.554    3.714
  269.330    0.000  100.247    0.250    0.557    3.893
  269.580    0.000   99.817    0.232    0.570    4.006
  269.830    0.000   99.827    0.229    0.540    4.137
  270.080    0.000   99.831    0.207    0.496    4.168
  270.330    0.000   99.882    0.202    0.476    4.171
  270.580    0.000   98.968    0.239    0.474    4.148
  270.830    0.000   98.016    0.252    0.492    4.025
  271.080    0.000   98.556    0.268    0.511    3.980
  271.330    0.000   99.030    0.285    0.529    3.880
  271.580    0.000  100.474    0.283    0.534    3.888
  271.830    0.000  100.124    0.271    0.535    3.840
  272.080    0.000   99.242    0.266    0.533    3.810
  272.330    0.000   99.270    0.276    0.540    3.688
  272.580    0.000  100.244    0.287    0.564    3.687
  272.830    0.000  101.185    0.303    0.553    3.679
  273.080    0.000  100.092    0.292    0.550    3.620
  273.330    0.000   98.164    0.273    0.554    3.732
  273.580    0.000   95.454    0.281    0.552    3.854
  273.830    0.000   92.108    0.290    0.544    4.048
  274.080    0.000   85.787    0.243    0.567    4.228
  274.330    0.000   79.815    0.228    0.589    4.551
  274.580    0.000   71.468    0.198    0.584    5.248
  274.830    0.000   64.745    0.212    0.517    5.985
  275.080    0.000   56.219    0.216    0.467    7.589
  275.330    0.000   48.388    0.279    0.466   12.254
  275.580    0.000   43.787    0.364    0.469   16.287
  275.830    0.000   43.564    0.359    0.443   20.046
  276.080    0.000   43.746    0.357    0.427   24.402
  276.330    0.000   46.300    0.362    0.422   28.209
  276.580    0.000   52.410    0.372    0.429   33.568
  276.830    0.000   56.510    0.376    0.459   35.645
  277.080    0.000   58.073    0.371    0.482   35.946
  277.330    0.000   60.083    0.376    0.473   36.020
  277.580    0.000   61.862    0.367    0.455   35.014
  277.830    0.000   62.802    0.366    0.464   34.699
  278.080    0.000   61.826    0.369    0.490   33.002
  278.330    0.000   59.883    0.379    0.514   31.940
  278.580    0.000   56.925    0.398    0.536   30.591
  278.830    0.000   50.719    0.405    0.573   29.378
  279.080    0.000   44.598    0.470    0.602   28.313
  279.330    0.000   44.917    0.485    0.597   27.933
  279.580    0.000   43.072    0.384    0.506   28.159
  279.830    0.000   40.433    0.329    0.433   29.848
  280.080    0.000   40.955    0.346    0.429   33.358
  280.330    0.000   44.712    0.345    0.418   35.822
  280.580    0.000   50.371    0.336    0.406   37.678
  280.830    0.000   53.312    0.342    0.400   38.310
  281.080    0.000   53.994    0.333    0.407   39.039
  281.330    0.000   54.482    0.343    0.429   37.021
  281.580    0.000   53.890    0.336    0.440   35.539
  281.830    0.000   53.094    0.322    0.443   34.408
  282.080    0.000   52.648    0.334    0.427   34.422
  282.330    0.000   54.858    0.333    0.413   35.223
  282.580    0.000   58.799    0.335    0.417   34.340
  282.830    0.000   63.263    0.335    0.429   30.864
  283.080    0.000   67.785    0.324    0.432   26.815
  283.330    0.000   73.988    0.329    0.415   22.869
  283.580    0.000   74.940    0.313    0.428   22.666
  283.830    0.000   76.305    0.328    0.451   22.930
  284.080    0.000   81.059    0.349    0.440   24.451
  284.330    0.000   85.788    0.341    0.442   26.210
  284.580    0.000   92.897    0.354    0.461   26.117
  284.830    0.000   97.609    0.322    0.449   23.645
  285.080    0.000  102.308    0.295    0.433   19.135
  285.330    0.000  103.382    0.256    0.428   15.267
  285.580    0.000  102.730    0.238    0.445   12.723
  285.830    0.000   98.313    0.238    0.451   12.228
  286.080    0.000   85.781    0.281    0.452   12.937
  286.330    0.000   72.936    0.294    0.463   14.139
  286.580    0.000   74.206    0.322    0.469   16.364
  286.830    0.000   82.430    0.340    0.459   18.069
  287.080    0.000   90.251    0.322    0.444   19.843
  287.330    0.000   95.504    0.326    0.451   22.127
  287.580    0.000   97.813    0.353    0.457   24.167
  287.830    0.000   98.568    0.364    0.467   26.719
  288.080    0.000   97.039    0.362    0.463   28.324
  288.330    0.000   94.991    0.363    0.459   30.160
  288.580    0.000   92.280    0.366    0.475   30.287
  288.830    0.000   91.168    0.346    0.466   28.884
  289.080    0.000   92.219    0.333    0.454   27.730
  289.330    0.000   93.997    0.334    0.440   25.561
  289.580    0.000   94.129    0.335    0.436   24.645
  289.830    0.000   90.584    0.321    0.450   23.513
  290.080    0.000   85.907    0.302    0.450   22.985
  290.330    0.000   77.828    0.293    0.445   23.042
  290.580    0.000   72.324    0.283    0.424   23.513
  290.830    0.000   73.912    0.279    0.387   23.590
  291.080    0.000   84.548    0.268    0.363   24.375
  291.330    0.000   91.863    0.249    0.354   24.159
  291.580    0.000   96.983    0.264    0.400   23.464
  291.830    0.000   97.866    0.267    0.418   22.007
  292.080    0.000   98.261    0.260    0.419   19.473
  292.330    0.000   98.728    0.260    0.412   15.214
  292.580    0.000  100.860    0.247    0.417   11.721
  292.830    0.000  101.811    0.239    0.448    9.723
  293.080    0.000  103.580    0.216    0.480    8.679
  293.330    0.000  109.196    0.213    0.470    8.161
  293.580    0.000  114.282    0.177    0.467    7.713
  293.830    0.000  118.964    0.162    0.475    7.415
  294.080    0.000  119.962    0.154    0.496    7.022
  294.330    0.000  120.050    0.189    0.508    6.741
  294.580    0.000  118.433    0.215    0.514    6.544
  294.830    0.000  117.821    0.239    0.511    6.244
  295.080    0.000  121.918    0.225    0.504    5.810
  295.330    0.000  126.437    0.250    0.514    5.677
