~VERSION INFORMATION
 VERS.                 2.0:   CWLS LOG ASCII STANDARD -VERSION 2.0
 WRAP.                  NO:   ONE LINE PER DEPTH STEP
~WELL INFORMATION BLOCK
#MNEM.UNIT           DATA                    DESCRIPTION OF MNEMONIC
#---------    -------------------            -------------------------------
# Generated from Intellog Unique Number	CS_77_79/WELL/3269
WELL.         AMOCO CANADA PETROLEUM CO.LTD. : Well_name    - WELL
LOC .         00/02-30-078-08W4/0            : Location     - LOCATION
UWI .         00/02-30-078-08W4/0            : Uwi          - UNIQUE WELL ID
ENTR.         JOETTE                         : Entered      - ENTERED BY
SRVC.         WESTERN ATLAS                  : Scn          - SERVICE COMPANY
DATE.         08-14-92                       : Date         - LOG DATE
STRT.M        165                            : top_depth    - START DEPTH
STOP.M        345                            : bot_depth    - STOP DEPTH
STEP.M        0.25                           : increment    - STEP LENGTH
 NULL. -999.2500:NULL Value
~CURVE INFORMATION BLOCK
#MNEM UNIT       ERCB CURVE CODE    CURVE DESCRIPTION
#-----------   ------------------   ----------------------------------
DEPT.M        00 001 00 00         : DEPTH        - DEPTH
ILD .OHMM     00 120 00 00         : RESD         - DEEP RESISTIVITY (DIL)
DPHI.V/V      00 890 00 00         : PHID         - DENSITY POROSITY (SANDSTONE)
NPHI.V/V      00 330 00 00         : PHIN         - NEUTRON POROSITY (SANDSTONE)
GR  .API      00 310 00 00         : GR           - GAMMA RAY
~PARAMETER INFORMATION
#MNEM.UNIT           DATA             DESCRIPTION OF MNEMONIC
#---------         -----------     ------------------------------
GL  .M        588.9                : gl           - GROUND LEVEL ELEVATION
EREF.M        592.4                : kb           - ELEVATION OF DEPTH REFERENCE
DATM.M        592.4                : datum        - DATUM ELEVATION
TDD .M        349.7                : tdd          - TOTAL DEPTH DRILLER
RUN .         ONE                  : Run          - RUN NUMBER
ENG .         BILL                 : Engineer     - RECORDING ENGINEER
WIT .         JIM                  : Witness      - WITNESSED BY
MUD .         GEL                  : Mud_type     - MUD TYPE
MATR.         SANDSTONE            : Logunit      - NEUTRON MATRIX
TMAX.C        29                   : BHT          - MAXIMUM RECORDED TEMPERATURE
BHTD.M        349.7                : BHTDEP       - MAXIMUM RECORDED TEMPERATURE
RMT .C        17                   : MDTP         - TEMPERATURE OF MUD
MUDD.KG/M     1100                 : MWT          - MUD DENSITY
NEUT.         1                    : NEUTRON      - NEUTRON TYPE
RESI.         0                    : RESIST       - RESISTIVITY TYPE
RM  .OHMM     4                    : RM           - RESISTIVITY OF MUD
RMC .OHMM     4.6                  : RMC          - RESISTIVITY OF MUD CAKE
RMF .OHMM     3.8                  : RMF          - RESISTIVITY OF MUD FILTRATE
SUFT.C        4                    : SUFT         - SURFACE TEMPERATURE
~A  DEPTH     RESD     PHID     PHIN       GR
# ...
  252.000    3.724    0.264    0.505  111.561
  252.250    3.591    0.262    0.518  112.249
  252.500    3.465    0.247    0.532  112.321
  252.750    3.467    0.251    0.515  112.350
  253.000    3.475    0.281    0.509  114.899
  253.250    3.544    0.290    0.555  115.572
  253.500    3.833    0.277    0.517  112.538
  253.750    4.220    0.265    0.458  106.426
  254.000    4.560    0.257    0.491  102.790
  254.250    4.832    0.268    0.515  110.865
  254.500    5.027    0.303    0.522  104.767
  254.750    5.234    0.346    0.449   96.808
  255.000    5.240    0.365    0.423   99.944
  255.250    4.865    0.366    0.488  107.431
  255.500    4.603    0.332    0.478  105.012
  255.750    4.271    0.321    0.492  103.825
  256.000    3.891    0.278    0.498  106.359
  256.250    3.680    0.273    0.499  105.801
  256.500    3.546    0.269    0.507  103.397
  256.750    3.486    0.282    0.517  105.917
  257.000    3.493    0.334    0.520  106.590
  257.250    3.635    0.350    0.517  104.171
  257.500    3.781    0.348    0.502   98.689
  257.750    4.006    0.340    0.488  103.070
  258.000    4.497    0.312    0.472  100.036
  258.250    5.552    0.292    0.424   92.707
  258.500    7.535    0.283    0.436   82.301
  258.750    8.458    0.280    0.438   82.358
  259.000    9.143    0.297    0.438   83.046
  259.250    9.160    0.294    0.437   84.335
  259.500    8.662    0.328    0.437   89.303
  259.750    8.038    0.347    0.413   91.207
  260.000    7.050    0.317    0.442   87.572
  260.250    6.667    0.297    0.476   88.259
  260.500    6.679    0.297    0.449   93.227
  260.750    6.946    0.292    0.441   97.608
  261.000    7.653    0.263    0.411   96.449
  261.250    7.958    0.254    0.416   92.184
  261.500    8.602    0.259    0.412   86.701
  261.750    9.124    0.264    0.416   90.453
  262.000    9.306    0.268    0.431   92.972
  262.250    8.804    0.269    0.448   92.429
  262.500    8.488    0.266    0.440   90.640
  262.750    7.591    0.261    0.441   94.992
  263.000    7.178    0.267    0.444   98.758
  263.250    6.661    0.282    0.444  101.278
  263.500    5.842    0.297    0.437  101.951
  263.750    5.421    0.294    0.432   99.532
  264.000    5.231    0.293    0.436   95.897
  264.250    5.142    0.301    0.441   89.183
  264.500    5.148    0.307    0.481   89.241
  264.750    5.055    0.297    0.499  103.471
  265.000    4.350    0.276    0.444  109.684
  265.250    4.036    0.272    0.453  111.588
  265.500    3.472    0.286    0.498  111.661
  265.750    3.224    0.313    0.502  114.796
  266.000    3.109    0.321    0.491  116.085
  266.250    3.358    0.335    0.481  110.617
  266.500    4.145    0.342    0.471  107.568
  266.750    5.736    0.296    0.463  108.886
  267.000    6.564    0.275    0.488  105.837
  267.250    7.367    0.282    0.497  100.355
  267.500    8.110    0.310    0.502   89.333
  267.750    8.599    0.323    0.471   82.019
  268.000    8.615    0.325    0.435   84.525
  268.250    8.306    0.328    0.413   88.290
  268.500    7.861    0.321    0.440   87.732
  268.750    7.719    0.299    0.449   86.544
  269.000    7.302    0.290    0.460   86.617
  269.250    6.656    0.290    0.468   90.368
  269.500    6.538    0.290    0.435   94.749
  269.750    6.424    0.290    0.415   97.870
  270.000    6.432    0.290    0.397   99.173
  270.250    7.088    0.286    0.424   93.676
  270.500    7.657    0.285    0.467   86.348
  270.750    8.594    0.287    0.453   83.958
  271.000    9.646    0.286    0.444   88.310
  271.250   10.227    0.245    0.436   88.983
  271.500   10.647    0.219    0.372   82.270
  271.750   10.459    0.259    0.395   83.559
  272.000    9.890    0.265    0.427   87.925
  272.250    9.008    0.260    0.420   95.370
  272.500    8.367    0.254    0.413  101.597
  272.750    8.216    0.230    0.412   95.485
  273.000    8.547    0.073    0.400   71.537
  273.250   10.962    0.099    0.312   63.593
  273.500   12.545    0.167    0.318   70.421
  273.750   12.323    0.229    0.425   78.481
  274.000   11.443    0.262    0.471   85.925
  274.250   10.617    0.263    0.466   97.077
  274.500    9.673    0.272    0.458   97.750
  274.750    8.813    0.297    0.449  100.285
  275.000    8.657    0.308    0.443   97.880
  275.250    8.190    0.300    0.436   98.539
  275.500    7.899    0.281    0.443  102.290
  275.750    7.905    0.277    0.475  104.839
  276.000    7.917    0.283    0.478   99.944
  276.250    7.786    0.292    0.466   96.323
  276.500    7.645    0.284    0.468   95.149
  276.750    7.515    0.269    0.473   94.591
  277.000    7.385    0.264    0.419   96.481
  277.250    7.118    0.278    0.422  100.862
  277.500    6.612    0.306    0.423  102.151
  277.750    6.253    0.315    0.444  104.686
  278.000    5.802    0.318    0.428  100.420
  278.250    3.975    0.286    0.445   98.631
  278.500    3.758    0.283    0.440  101.767
  278.750    3.358    0.330    0.440  107.364
  279.000    2.889    0.340    0.471  108.038
  279.250    2.485    0.358    0.490  108.711
  279.500    2.307    0.364    0.529  113.707
  279.750    2.141    0.362    0.563  112.534
  280.000    2.146    0.342    0.585  102.113
  280.250    2.231    0.332    0.591   97.877
  280.500    2.601    0.321    0.594   99.151
  280.750    3.213    0.307    0.538  104.162
  281.000    3.605    0.292    0.512  101.128
  281.250    5.483    0.275    0.508   91.322
  281.500    5.706    0.272    0.481   83.378
  281.750    6.166    0.277    0.473   82.820
  282.000    6.663    0.306    0.441   80.430
  282.250    7.481    0.317    0.406   78.011
  282.500    8.400    0.338    0.378   79.930
  282.750    8.900    0.353    0.380   81.835
  283.000   10.188    0.368    0.355   82.508
  283.250   10.595    0.381    0.347   87.490
  283.500   10.607    0.385    0.333   86.932
  283.750   10.239    0.381    0.345   80.205
  284.000   10.053    0.338    0.362   78.416
  284.250    9.689    0.267    0.377   82.797
  284.500    8.997    0.216    0.390   85.317
  284.750    8.512    0.268    0.384   85.374
  285.000    8.361    0.282    0.358   81.739
  285.250    7.910    0.269    0.351   77.488
  285.500    7.629    0.264    0.384   76.315
  285.750    7.497    0.275    0.402   80.066
  286.000    7.228    0.302    0.392   83.831
  286.250    7.103    0.306    0.458   85.736
  286.500    6.977    0.304    0.453   87.024
  286.750    6.990    0.310    0.444   88.299
  287.000    6.998    0.316    0.470   85.894
  287.250    6.879    0.292    0.461   84.120
  287.500    6.895    0.285    0.473   86.039
  287.750    7.038    0.281    0.488   88.559
  288.000    7.046    0.287    0.459   87.371
  288.250    7.054    0.295    0.433   81.903
  288.500    7.069    0.300    0.413   81.346
  288.750    7.075    0.302    0.444   86.929
  289.000    7.088    0.299    0.441   99.913
  289.250    6.963    0.288    0.430  101.832
  289.500    6.976    0.282    0.429  103.750
  289.750    6.986    0.277    0.402  105.640
  290.000    7.131    0.267    0.398   98.312
  290.250    7.142    0.268    0.443   93.460
  290.500    7.429    0.265    0.451   91.671
  290.750    7.583    0.265    0.453   87.391
  291.000    7.886    0.276    0.426   87.448
  291.250    8.364    0.285    0.413   91.214
  291.500    8.537    0.290    0.418   93.118
  291.750    8.714    0.284    0.430   92.575
  292.000    8.727    0.286    0.428   88.925
  292.250    8.579    0.293    0.436   83.443
  292.500    8.272    0.311    0.411   79.177
  292.750    7.975    0.324    0.406   79.250
  293.000    7.837    0.328    0.438   81.784
  293.250    7.698    0.333    0.476   83.073
  293.500    7.428    0.303    0.437   85.578
  293.750    7.436    0.297    0.458   88.714
  294.000    7.445    0.287    0.458   92.479
  294.250    7.462    0.285    0.441   96.230
  294.500    7.470    0.287    0.449   93.811
  294.750    7.478    0.283    0.441   91.407
  295.000    7.349    0.278    0.426   92.095
  295.250    7.363    0.275    0.416   94.615
