~VERSION INFORMATION
 VERS.                 2.0:   CWLS LOG ASCII STANDARD -VERSION 2.0
 WRAP.                  NO:   ONE LINE PER DEPTH STEP
~WELL INFORMATION BLOCK
#MNEM.UNIT           DATA                    DESCRIPTION OF MNEMONIC
#---------    -------------------            -------------------------------
# Generated from Intellog Unique Number	CS_73_76/WELL/2016
WELL.         09-29-073-07W4                 : Well_name    - WELL
LOC .         AA/09-29-073-07W4/0            : Location     - LOCATION
UWI .         AA/09-29-073-07W4/0            : Uwi          - UNIQUE WELL ID
ENTR.         TIM                            : Entered      - ENTERED BY
SRVC.         SCHLUMBERGER                   : Scn          - SERVICE COMPANY
STRT.M        360                            : top_depth    - START DEPTH
STOP.M        595                            : bot_depth    - STOP DEPTH
STEP.M        0.25                           : increment    - STEP LENGTH
 NULL. -999.2500:NULL Value
~CURVE INFORMATION BLOCK
#MNEM UNIT       ERCB CURVE CODE    CURVE DESCRIPTION
#-----------   ------------------   ----------------------------------
DEPT.M        00 001 00 00         : DEPTH        - DEPTH
NPHI.V/V      00 330 00 00         : PHIN         - NEUTRON POROSITY (SANDSTONE)
DPHI.V/V      00 890 00 00         : PHID         - DENSITY POROSITY (SANDSTONE)
GR  .API      00 310 00 00         : GR           - GAMMA RAY
ILD .OHMM     00 120 00 00         : RESD         - DEEP RESISTIVITY (DIL)
CALI.MM       00 280 01 00         : CAL          - CALIPER
~PARAMETER INFORMATION
#MNEM.UNIT           DATA             DESCRIPTION OF MNEMONIC
#---------         -----------     ------------------------------
GL  .M        727.6                : gl           - GROUND LEVEL ELEVATION
EREF.M        731.5                : kb           - ELEVATION OF DEPTH REFERENCE
DATM.M        731.5                : datum        - DATUM ELEVATION
TDD .M        602                  : tdd          - TOTAL DEPTH DRILLER
RUN .         ONE                  : Run          - RUN NUMBER
ENG .         BILL                 : Engineer     - RECORDING ENGINEER
WIT .         JIM                  : Witness      - WITNESSED BY
MUD .         GEL                  : Mud_type     - MUD TYPE
MATR.         SANDSTONE            : Logunit      - NEUTRON MATRIX
TMAX.C        23                   : BHT          - MAXIMUM RECORDED TEMPERATURE
BHTD.M        602                  : BHTDEP       - MAXIMUM RECORDED TEMPERATURE
RMT .C        22                   : MDTP         - TEMPERATURE OF MUD
MUDD.KG/M     1090                 : MWT          - MUD DENSITY
NEUT.         1                    : NEUTRON      - NEUTRON TYPE
RESI.         0                    : RESIST       - RESISTIVITY TYPE
RM  .OHMM     6.09                 : RM           - RESISTIVITY OF MUD
RMC .OHMM     7.05                 : RMC          - RESISTIVITY OF MUD CAKE
RMF .OHMM     7.05                 : RMF          - RESISTIVITY OF MUD FILTRATE
SUFT.C        4                    : SUFT         - SURFACE TEMPERATURE
~A  DEPTH     PHIN     PHID       GR     RESD      CAL
# ...
  433.000    0.435    0.361   42.808    8.482  232.920
  433.250    0.451    0.360   42.193    8.489  232.913
  433.500    0.444    0.350   42.797    8.493  232.901
  433.750    0.426    0.342   44.620    8.500  232.894
  434.000    0.415    0.343   46.441    8.347  233.898
  434.250    0.414    0.343   47.656    8.197  234.904
  434.500    0.418    0.344   50.087    8.051  235.911
  434.750    0.421    0.347   51.910    7.908  236.919
  435.000    0.427    0.348   52.514    7.911  238.937
  435.250    0.437    0.349   52.508    7.917  238.930
  435.500    0.445    0.352   50.064    7.923  239.939
  435.750    0.456    0.354   49.449    7.925  240.945
  436.000    0.460    0.354   49.443    7.932  242.965
  436.250    0.448    0.355   50.657    7.938  243.969
  436.500    0.451    0.357   51.260    7.943  243.962
  436.750    0.466    0.353   49.426    8.097  243.950
  437.000    0.468    0.350   48.201    8.102  243.943
  437.250    0.453    0.355   48.194    8.107  241.899
  437.500    0.434    0.358   48.799    8.111  240.873
  437.750    0.448    0.357   49.401    8.116  237.815
  438.000    0.465    0.354   50.004    7.972  235.774
  438.250    0.448    0.354   49.389    7.685  233.735
  438.500    0.438    0.358   49.386    7.690  232.707
  438.750    0.448    0.360   48.159    7.841  232.700
  439.000    0.448    0.359   47.545    7.992  232.690
  439.250    0.443    0.355   46.930    8.146  232.678
  439.500    0.436    0.354   47.534    8.153  232.666
  439.750    0.425    0.357   48.746    8.159  232.659
  440.000    0.433    0.358   49.958    8.163  232.647
  440.250    0.455    0.362   50.563    8.167  232.647
  440.500    0.458    0.363   51.166    8.022  231.612
  440.750    0.452    0.359   51.163    8.026  231.607
  441.000    0.444    0.346   51.764    7.883  231.595
  441.250    0.442    0.348   52.370    7.743  232.604
  441.500    0.436    0.351   52.363    7.747  232.594
  441.750    0.430    0.354   52.357    7.610  233.600
  442.000    0.426    0.358   51.742    7.612  234.604
  442.250    0.429    0.347   51.735    7.617  236.627
  442.500    0.449    0.328   51.732    7.622  237.633
  442.750    0.477    0.305   51.726    7.627  239.653
  443.000    0.489    0.306   50.501    7.631  240.662
  443.250    0.487    0.316   48.665    7.496  241.668
  443.500    0.464    0.336   47.440    7.500  241.659
  443.750    0.453    0.344   47.434    7.233  239.617
  444.000    0.446    0.342   49.867    7.102  236.560
  444.250    0.447    0.347   52.301    6.974  235.534
  444.500    0.451    0.351   53.515    6.848  233.492
  444.750    0.452    0.355   51.679    6.604  232.464
  445.000    0.452    0.338   49.844    6.487  232.452
  445.250    0.449    0.336   48.619    6.370  232.448
  445.500    0.448    0.342   49.833    6.373  232.438
  445.750    0.446    0.350   52.875    6.378  232.429
  446.000    0.446    0.356   54.698    6.501  232.417
  446.250    0.450    0.355   54.692    6.879  232.409
  446.500    0.452    0.362   53.467    7.146  233.416
  446.750    0.451    0.364   52.852    7.284  233.406
  447.000    0.446    0.367   52.234    7.710  233.392
  447.250    0.436    0.360   52.231    7.860  233.385
  447.500    0.420    0.350   52.833    7.865  232.361
  447.750    0.416    0.344   52.829    7.580  232.352
  448.000    0.429    0.340   53.433    7.307  232.342
  448.250    0.450    0.341   54.035    7.044  232.330
  448.500    0.455    0.345   54.029    6.792  232.323
  448.750    0.441    0.346   54.633    6.546  231.295
  449.000    0.430    0.349   55.848    6.310  231.285
  449.250    0.444    0.349   57.061    6.083  231.278
  449.500    0.466    0.350   57.665    5.973  232.280
  449.750    0.483    0.351   58.269    5.867  232.273
  450.000    0.475    0.350   60.091    5.656  232.263
  450.250    0.477    0.346   61.304    5.660  232.256
  450.500    0.502    0.348   60.079    5.663  233.262
  450.750    0.478    0.350   58.245    5.773  233.253
  451.000    0.467    0.350   60.068    5.776  234.259
  451.250    0.473    0.348   62.500    5.780  235.263
  451.500    0.479    0.342   64.934    5.784  236.269
  451.750    0.472    0.334   64.929    5.787  236.262
  452.000    0.473    0.327   62.484    5.685  236.248
  452.250    0.478    0.329   62.479    5.687  236.243
  452.500    0.479    0.337   63.691    5.585  237.249
  452.750    0.482    0.333   66.125    5.187  237.240
  453.000    0.485    0.321   69.167    4.728  238.241
  453.250    0.480    0.314   71.600    4.474  238.237
  453.500    0.465    0.313   74.032    4.393  238.225
  453.750    0.461    0.317   74.636    4.396  238.217
  454.000    0.469    0.328   74.629    4.317  238.205
  454.250    0.474    0.330   74.015    4.320  239.212
  454.500    0.479    0.327   74.616    4.243  239.202
  454.750    0.488    0.325   79.487    4.091  239.188
  455.000    0.500    0.322   84.358    3.943  239.183
  455.250    0.510    0.318   88.621    3.663  240.187
  455.500    0.511    0.302   95.320    3.530  240.180
  455.750    0.513    0.302  100.800    3.402  241.181
  456.000    0.521    0.309   95.919    3.880  242.193
  456.250    0.527    0.321   83.111    4.507  243.199
  456.500    0.517    0.298   72.133    5.045  243.187
  456.750    0.498    0.301   61.764    4.598  244.191
  457.000    0.483    0.320   68.464    4.037  244.184
  457.250    0.462    0.291   75.773    3.680  244.177
  457.500    0.436    0.261   78.815    3.355  245.181
  457.750    0.490    0.251   79.419    3.234  246.187
  458.000    0.526    0.253   80.633    3.236  247.193
  458.250    0.517    0.261   81.237    3.489  249.216
  458.500    0.527    0.264   81.840    3.624  250.225
  458.750    0.518    0.257   81.225    3.835  253.261
  459.000    0.514    0.252   79.391    3.909  255.283
  459.250    0.526    0.247   76.335    4.061  256.292
  459.500    0.550    0.248   74.501    4.063  257.296
  459.750    0.514    0.257   75.105    3.990  258.305
  460.000    0.500    0.259   77.537    3.846  258.295
  460.250    0.500    0.255   79.971    3.640  258.285
  460.500    0.506    0.250   85.452    3.574  258.276
  460.750    0.516    0.245   89.102    3.445  258.266
  461.000    0.515    0.236   90.924    3.383  258.254
  461.250    0.505    0.244   90.921    3.261  258.247
  461.500    0.488    0.249   91.525    3.203  258.235
  461.750    0.498    0.255   92.127    3.206  258.225
  462.000    0.520    0.260   91.512    3.208  257.200
  462.250    0.538    0.256   88.458    3.458  257.190
  462.500    0.543    0.244   84.185    3.870  256.162
  462.750    0.566    0.246   81.133    4.936  256.158
  463.000    0.575    0.250   79.298    6.414  256.146
  463.250    0.538    0.250   76.854    7.314  256.138
  463.500    0.509    0.251   74.410    8.035  256.124
  463.750    0.475    0.258   74.401    8.193  256.112
  464.000    0.455    0.267   74.396    8.197  257.123
  464.250    0.452    0.268   73.171    7.902  258.127
  464.500    0.452    0.258   71.946    7.905  259.134
  464.750    0.442    0.254   70.721    7.763  259.124
  465.000    0.449    0.254   71.934    7.768  259.117
  465.250    0.429    0.254   73.148    7.920  260.121
  465.500    0.406    0.255   74.971    7.926  260.114
  465.750    0.434    0.251   76.184    7.931  260.104
  466.000    0.442    0.242   76.180    7.788  261.106
  466.250    0.457    0.235   76.171    7.508  261.098
  466.500    0.467    0.242   75.559    7.374  261.089
  466.750    0.468    0.250   74.334    7.107  262.093
  467.000    0.457    0.257   73.109    6.980  263.104
  467.250    0.448    0.265   72.493    6.855  265.126
  467.500    0.447    0.251   72.488    6.733  267.146
  467.750    0.452    0.232   73.700    6.612  268.155
  468.000    0.457    0.214   74.305    6.376  269.162
  468.250    0.464    0.204   75.517    6.378  271.182
  468.500    0.469    0.217   76.122    6.149  271.174
  468.750    0.467    0.225   76.117    6.039  271.162
  469.000    0.457    0.228   76.109    6.044  270.139
  469.250    0.459    0.230   77.934    6.047  268.095
