~VERSION INFORMATION
 VERS.                 2.0:   CWLS LOG ASCII STANDARD -VERSION 2.0
 WRAP.                  NO:   ONE LINE PER DEPTH STEP
~WELL INFORMATION BLOCK
#MNEM.UNIT           DATA                    DESCRIPTION OF MNEMONIC
#---------    -------------------            -------------------------------
# Generated from Intellog Unique Number	CW_73_75/WELL/2729
WELL.         MANNVILLE ET AL MITSUE 07-20   : Well_name    - WELL
LOC .         00/07-20-073-02W5/0            : Location     - LOCATION
UWI .         00/07-20-073-02W5/0            : Uwi          - UNIQUE WELL ID
ENTR.         JAYE                           : Entered      - ENTERED BY
SRVC.         SCHLUMBERGER                   : Scn          - SERVICE COMPANY
DATE.         21 MAR 78                      : Date         - LOG DATE
STRT.M        393.192                        : top_depth    - START DEPTH
STOP.M        603.442                        : bot_depth    - STOP DEPTH
STEP.M        0.25                           : increment    - STEP LENGTH
 NULL. -999.2500:NULL Value
~CURVE INFORMATION BLOCK
#MNEM UNIT       ERCB CURVE CODE    CURVE DESCRIPTION
#-----------   ------------------   ----------------------------------
DEPT.M        00 001 00 00         : DEPTH        - DEPTH
DPHI.V/V      00 890 00 00         : PHID         - DENSITY POROSITY (SANDSTONE)
NPHI.V/V      00 330 00 00         : PHIN         - NEUTRON POROSITY (SANDSTONE)
GR  .API      00 310 00 00         : GR           - GAMMA RAY
CALI.MM       00 280 01 00         : CAL          - CALIPER
ILD .OHMM     00 120 00 00         : RESD         - DEEP RESISTIVITY (DIL)
~PARAMETER INFORMATION
#MNEM.UNIT           DATA             DESCRIPTION OF MNEMONIC
#---------         -----------     ------------------------------
GL  .M        627.583              : gl           - GROUND LEVEL ELEVATION
EREF.M        630.631              : kb           - ELEVATION OF DEPTH REFERENCE
DATM.M        627.583              : datum        - DATUM ELEVATION
TDD .M        606.552              : tdd          - TOTAL DEPTH DRILLER
RUN .         ONE                  : Run          - RUN NUMBER
ENG .         DEROCHIE             : Engineer     - RECORDING ENGINEER
WIT .         RILEY                : Witness      - WITNESSED BY
MUD .         GEL GELEX            : Mud_type     - MUD TYPE
MATR.         SANDSTONE            : Logunit      - NEUTRON MATRIX
TMAX.C        17.2222              : BHT          - MAXIMUM RECORDED TEMPERATURE
BHTD.M        607.466              : BHTDEP       - MAXIMUM RECORDED TEMPERATURE
RMT .C        16.1111              : MDTP         - TEMPERATURE OF MUD
MUDD.KG/M     1188                 : MWT          - MUD DENSITY
NEUT.         1                    : NEUTRON      - NEUTRON TYPE
RESI.         0                    : RESIST       - RESISTIVITY TYPE
RM  .OHMM     4.53                 : RM           - RESISTIVITY OF MUD
RMC .OHMM     0                    : RMC          - RESISTIVITY OF MUD CAKE
RMF .OHMM     0                    : RMF          - RESISTIVITY OF MUD FILTRATE
SUFT.C        -17.7778             : SUFT         - SURFACE TEMPERATURE
~A  DEPTH     PHID     PHIN       GR      CAL     RESD
# ...
  575.692    0.148    0.407  112.886  160.769    6.547
  575.942    0.128    0.393  109.959  159.210    7.401
  576.192    0.105    0.364  105.021  157.756    8.397
  576.442    0.089    0.340   97.638  156.930    9.313
  576.692    0.065    0.317   90.318  155.897   10.191
  576.942    0.034    0.289   89.333  154.763   10.236
  577.192    0.027    0.273   94.619  154.154    9.561
  577.442    0.067    0.302  103.041  153.653    8.371
  577.692    0.113    0.339  110.586  153.259    7.456
  577.942    0.142    0.372  115.244  153.077    6.911
  578.192    0.142    0.395  116.704  152.895    6.506
  578.442    0.128    0.415  112.394  153.140    6.509
  578.692    0.117    0.394  114.736  153.276    6.550
  578.942    0.118    0.383  116.510  153.309    6.578
  579.192    0.136    0.376  117.592  153.233    6.619
  579.442    0.133    0.373  117.109  153.049    6.674
  579.692    0.146    0.369  115.559  152.874    6.728
  579.942    0.127    0.370  113.318  152.899    6.770
  580.192    0.128    0.368  112.081  152.716    6.838
  580.442    0.145    0.359  113.103  152.639    6.894
  580.692    0.136    0.366  116.383  152.564    6.976
  580.942    0.118    0.378  116.150  152.698    7.349
  581.192    0.107    0.371  113.032  153.688    7.756
  581.442    0.123    0.359  108.784  154.248    8.108
  581.692    0.103    0.343  109.366  154.808    8.173
  581.942    0.078    0.333  114.840  155.689    7.349
  582.192    0.061    0.345  121.005  156.566    5.695
  582.442    0.111    0.380  128.298  157.343    3.620
  582.692    0.126    0.406  126.623  158.753    2.589
  582.942    0.143    0.463  126.766  163.136    2.076
  583.192    0.167    0.505  129.293  168.479    1.801
  583.442    0.201    0.555  128.244  171.907    1.616
  583.692    0.211    0.549  129.893  173.849    1.559
  583.942    0.193    0.540  125.709  167.718    1.684
  584.192    0.157    0.523  128.551  162.863    2.000
  584.442    0.143    0.490  131.579  161.408    2.300
  584.692    0.154    0.476  135.046  161.122    2.670
  584.942    0.136    0.483  126.534  161.150    3.232
  585.192    0.090    0.463  113.318  161.185    3.774
  585.442    0.077    0.374  109.261  161.215    4.282
  585.692    0.098    0.351  115.675  161.456    4.887
  585.942    0.122    0.352  122.404  161.698    5.430
  586.192    0.125    0.372  125.368  161.834    6.022
  586.442    0.119    0.381  123.068  161.654    6.129
  586.692    0.104    0.374  123.084  161.049    6.005
  586.942    0.081    0.374  124.107  160.543    5.806
  587.192    0.063    0.378  124.876  160.575    5.742
  587.442    0.039    0.392  119.751  160.817    5.702
  587.692    0.019    0.393  110.174  162.866    5.726
  587.942   -0.000    0.349  105.425  164.489    5.828
  588.192    0.009    0.330  110.022  165.792    5.989
  588.442    0.077    0.372  117.941  166.887    6.072
  588.692    0.091    0.366  115.576  167.234    6.018
  588.942    0.071    0.335  113.587  165.459    5.941
  589.192    0.069    0.336  117.432  162.197    5.776
  589.442    0.114    0.369  121.902  160.849    5.469
  589.692    0.103    0.402  121.606  160.454    5.307
  589.942    0.075    0.374  118.300  159.851    5.199
  590.192    0.042    0.361  113.803  159.664    5.252
  590.442    0.032    0.374  115.515  159.701    5.366
  590.692    0.068    0.372  123.058  159.618    5.556
  590.942    0.082    0.364  128.972  159.648    5.841
  591.192    0.093    0.361  134.634  159.573    5.946
  591.442    0.099    0.361  136.784  159.392    5.858
  591.692    0.084    0.364  132.037  159.422    5.729
  591.942    0.057    0.372  132.183  159.455    5.602
  592.192    0.068    0.386  133.201  159.271    5.416
  592.442    0.077    0.402  136.795  159.200    5.296
  592.692    0.082    0.416  138.943  159.012    5.120
  592.942    0.091    0.404  129.679  159.043    5.054
  593.192    0.125    0.376  116.840  158.652    5.125
  593.442    0.132    0.330   83.995  158.469    5.368
  593.692    0.139    0.319   75.672  158.179    5.697
  593.942    0.137    0.308   75.062  157.785    6.105
  594.192    0.124    0.319   79.722  157.813    6.630
  594.442    0.099    0.339   83.064  157.956    7.051
  594.692    0.104    0.366   88.726  157.768    7.399
  594.942    0.200    0.385   93.636  157.803    7.646
  595.192    0.227    0.410   98.670  157.302    7.933
  595.442    0.281    0.435   97.435  157.116    8.214
  595.692    0.344    0.464   91.369  157.147    8.376
  595.942    0.385    0.541   99.039  156.965    8.412
  596.192    0.502    0.575  120.191  157.211    8.337
  596.442    0.403    0.600  135.010  157.664    8.013
  596.692    0.258    0.486  149.014  155.675    7.586
  596.942    0.198    0.448  160.070  155.280    6.874
  597.192    0.194    0.424  135.691  155.524    6.192
  597.442    0.257    0.429  135.270  156.298    5.741
  597.692    0.314    0.515  147.518  156.964    5.624
  597.942    0.375    0.549  145.655  157.422    5.714
  598.192    0.350    0.590  149.060  157.770    5.827
  598.442    0.140    0.544  159.300  157.694    5.965
  598.692    0.113    0.380  129.339  157.405    6.247
  598.942    0.116    0.376  112.926  156.692    6.481
  599.192    0.126    0.376  101.344  156.300    7.024
  599.442    0.122    0.348   92.831  156.118    7.716
  599.692    0.117    0.289   87.204  156.361    8.477
  599.942    0.117    0.245   89.982  156.813    9.329
  600.192    0.135    0.229   94.389  157.057   10.171
  600.442    0.155    0.262   94.283  157.301   10.754
  600.692    0.171    0.302   88.279  156.695   11.370
  600.942    0.110    0.330   84.659  156.192   12.138
  601.192    0.077    0.314   81.792  155.484   13.182
  601.442    0.050    0.082   83.879  155.408   16.050
  601.692    0.031    0.054   90.108  155.966   19.543
  601.942    0.010    0.037   91.819  156.844   25.245
  602.192   -0.000    0.028   92.843  157.942   35.262
  602.442    0.001    0.032   93.612  158.288   39.331
  602.692    0.003    0.036   94.632  158.105   40.724
  602.942    0.005    0.034   95.653  157.925   40.826
  603.192    0.006    0.036   94.669  158.061   41.327
  603.442    0.007    0.036   93.494  158.302   41.817
