~VERSION INFORMATION
 VERS.                 2.0:   CWLS LOG ASCII STANDARD -VERSION 2.0
 WRAP.                  NO:   ONE LINE PER DEPTH STEP
~WELL INFORMATION BLOCK
#MNEM.UNIT           DATA                    DESCRIPTION OF MNEMONIC
#---------    -------------------            -------------------------------
# Generated from Intellog Unique Number	CS_77_79/WELL/855
WELL.         CWWE HARDY                     : Well_name    - WELL
LOC .         00/05-15-078-04W4/0            : Location     - LOCATION
UWI .         00/05-15-078-04W4/0            : Uwi          - UNIQUE WELL ID
ENTR.         JHS                            : Entered      - ENTERED BY
SRVC.         SCHLUMBERGER                   : Scn          - SERVICE COMPANY
STRT.M        140                            : top_depth    - START DEPTH
STOP.M        405                            : bot_depth    - STOP DEPTH
STEP.M        0.25                           : increment    - STEP LENGTH
 NULL. -999.2500:NULL Value
~CURVE INFORMATION BLOCK
#MNEM UNIT       ERCB CURVE CODE    CURVE DESCRIPTION
#-----------   ------------------   ----------------------------------
DEPT.M        00 001 00 00         : DEPTH        - DEPTH
DPHI.V/V      00 890 00 00         : PHID         - DENSITY POROSITY (LIMESTONE)
NPHI.V/V      00 330 00 00         : PHIN         - NEUTRON POROSITY (LIMESTONE)
GR  .API      00 310 00 00         : GR           - GAMMA RAY
ILD .OHMM     00 120 00 00         : RESD         - DEEP RESISTIVITY (DIL)
RHOB.KG/M3    00 350 00 00         : DENS         - BULK DENSITY
~PARAMETER INFORMATION
#MNEM.UNIT           DATA             DESCRIPTION OF MNEMONIC
#---------         -----------     ------------------------------
GL  .M        562.55               : gl           - GROUND LEVEL ELEVATION
EREF.M        566.5                : kb           - ELEVATION OF DEPTH REFERENCE
DATM.M        566.5                : datum        - DATUM ELEVATION
TDD .M        420                  : tdd          - TOTAL DEPTH DRILLER
RUN .         ONE                  : Run          - RUN NUMBER
ENG .         BILL                 : Engineer     - RECORDING ENGINEER
WIT .         JIM                  : Witness      - WITNESSED BY
MUD .         GEL                  : Mud_type     - MUD TYPE
MATR.         LIMESTONE            : Logunit      - NEUTRON MATRIX
TMAX.C        23                   : BHT          - MAXIMUM RECORDED TEMPERATURE
BHTD.M        420                  : BHTDEP       - MAXIMUM RECORDED TEMPERATURE
MATR.         1                    : LOGUNIT      - NEUTRON MATRIX
RMT .C        25                   : MDTP         - TEMPERATURE OF MUD
NEUT.         1                    : NEUTRON      - NEUTRON TYPE
RESI.         0                    : RESIST       - RESISTIVITY TYPE
RMC .OHMM     0.25                 : RMC          - RESISTIVITY OF MUD CAKE
RMF .OHMM     0.25                 : RMF          - RESISTIVITY OF MUD FILTRATE
SUFT.C        15                   : SUFT         - SURFACE TEMPERATURE
~A  DEPTH     PHID     PHIN       GR     RESD     DENS
# ...
  359.000    0.382    0.402   45.226    2.095 2056.950
  359.250    0.357    0.400   47.115    2.097 2099.280
  359.500    0.342    0.393   49.011    2.061 2124.710
  359.750    0.336    0.373   45.304    2.026 2135.340
  360.000    0.332    0.361   38.487    2.027 2141.810
  360.250    0.332    0.356   34.788    2.030 2141.890
  360.500    0.327    0.351   34.187    1.994 2150.420
  360.750    0.323    0.351   35.464    1.960 2156.840
  361.000    0.335    0.356   37.354    1.962 2137.930
  361.250    0.341    0.359   38.006    1.964 2127.470
  361.500    0.341    0.357   36.796    1.929 2127.580
  361.750    0.354    0.363   38.062    1.932 2104.440
  362.000    0.371    0.375   40.582    1.934 2074.980
  362.250    0.374    0.385   37.498    1.974 2070.860
  362.500    0.359    0.380   35.035    2.014 2096.280
  362.750    0.334    0.360   37.554    2.054 2138.620
  363.000    0.324    0.339   41.938    2.097 2155.590
  363.250    0.318    0.337   43.835    2.099 2166.250
  363.500    0.323    0.355   42.618    2.102 2157.880
  363.750    0.329    0.364   40.781    2.104 2147.430
  364.000    0.329    0.361   39.568    2.068 2147.540
  364.250    0.320    0.347   38.354    2.069 2162.410
  364.500    0.312    0.346   38.371    2.033 2177.280
  364.750    0.307    0.347   38.401    1.961 2185.810
  365.000    0.306    0.339   39.053    1.926 2185.900
  365.250    0.315    0.332   39.705    1.928 2171.230
  365.500    0.324    0.336   40.976    1.894 2156.550
  365.750    0.329    0.352   42.245    1.861 2148.190
  366.000    0.328    0.369   42.278    1.829 2148.280
  366.250    0.335    0.370   39.197    1.866 2137.820
  366.500    0.348    0.368   39.839    1.977 2114.710
  366.750    0.343    0.370   52.938    2.217 2123.230
  367.000    0.283    0.368   75.995    2.394 2226.770
  367.250    0.259    0.358   85.362    2.536 2266.970
  367.500    0.241    0.365   81.653    2.687 2298.740
  367.750    0.243    0.376   71.103    2.793 2294.620
  368.000    0.263    0.363   61.797    2.797 2260.920
  368.250    0.292    0.359   57.466    2.747 2210.360
  368.500    0.295    0.362   63.097    2.504 2206.240
  368.750    0.286    0.362   66.235    2.369 2221.130
  369.000    0.297    0.360   62.528    2.242 2202.210
  369.250    0.308    0.362   56.337    2.203 2183.300
  369.500    0.314    0.364   54.493    2.247 2172.860
  369.750    0.315    0.361   58.875    2.292 2170.840
  370.000    0.293    0.363   69.489    2.338 2208.930
  370.250    0.273    0.353   73.870    2.387 2242.790
  370.500    0.265    0.356   72.031    2.389 2257.650
  370.750    0.295    0.361   63.345    2.303 2204.980
  371.000    0.325    0.367   50.926    2.220 2154.420
  371.250    0.337    0.372   44.110    2.101 2133.400
  371.500    0.338    0.373   43.515    2.025 2131.390
  371.750    0.344    0.361   44.167    1.917 2120.930
  372.000    0.342    0.358   46.682    1.848 2125.250
  372.250    0.339    0.367   47.960    1.886 2129.560
  372.500    0.343    0.371   47.983    1.924 2123.320
  372.750    0.343    0.375   55.482    2.001 2123.420
  373.000    0.324    0.376   65.466    2.040 2155.190
  373.250    0.298    0.366   77.322    2.162 2199.600
  373.500    0.286    0.360   74.239    2.165 2220.810
  373.750    0.309    0.371   53.725    2.208 2180.800
  374.000    0.317    0.365   51.885    2.211 2168.220
  374.250    0.292    0.351   61.876    2.172 2210.560
  374.500    0.292    0.351   63.767    2.094 2210.650
  374.750    0.320    0.346   53.837    2.057 2162.190
  375.000    0.335    0.338   42.667    2.022 2136.940
  375.250    0.323    0.344   38.340    2.063 2158.150
  375.500    0.310    0.345   37.744    2.066 2179.360
  375.750    0.315    0.341   39.637    2.107 2171.000
  376.000    0.310    0.337   45.890    2.191 2179.560
  376.250    0.277    0.322   62.723    2.366 2236.630
  376.500    0.242    0.314   69.597    2.554 2295.850
  376.750    0.220    0.313   67.765    2.863 2333.940
  377.000    0.227    0.309   60.939    3.211 2321.380
  377.250    0.244    0.303   55.370    3.600 2291.920
  377.500    0.235    0.305   59.125    3.963 2308.900
  377.750    0.226    0.311   65.376    4.118 2323.760
  378.000    0.233    0.321   64.162    4.202 2311.180
  378.250    0.254    0.326   57.344    4.207 2275.390
  378.500    0.274    0.317   52.390    4.133 2241.730
  378.750    0.261    0.310   55.537    3.911 2262.930
  379.000    0.247    0.308   54.318    3.770 2288.350
  379.250    0.237    0.309   48.122    3.635 2305.330
  379.500    0.248    0.312   44.413    3.440 2286.450
  379.750    0.258    0.311   47.557    3.380 2269.640
  380.000    0.261    0.306   55.674    3.383 2263.400
  380.250    0.212    0.298   60.681    3.387 2347.930
  380.500    0.197    0.291   61.953    3.327 2373.370
  380.750    0.224    0.303   47.665    2.976 2327.010
  381.000    0.283    0.319   42.715    2.816 2225.780
  381.250    0.302    0.328   42.744    2.614 2194.220
  381.500    0.299    0.330   43.404    2.427 2198.520
  381.750    0.297    0.339   41.555    2.339 2202.870
  382.000    0.295    0.342   39.717    2.256 2205.090
  382.250    0.299    0.340   37.882    2.217 2198.840
  382.500    0.304    0.336   38.540    2.219 2190.480
  382.750    0.305    0.336   39.185    2.182 2188.480
  383.000    0.307    0.340   39.210    2.183 2184.340
  383.250    0.315    0.348   39.242    2.185 2171.760
  383.500    0.325    0.355   38.020    2.187 2154.980
  383.750    0.327    0.359   36.802    2.232 2150.870
  384.000    0.324    0.349   34.960    2.235 2155.190
  384.250    0.312    0.340   38.105    2.237 2176.370
  384.500    0.303    0.350   36.263    2.198 2191.230
  384.750    0.301    0.364   31.312    2.120 2195.560
  385.000    0.324    0.360   29.479    2.123 2155.560
  385.250    0.329    0.350   30.745    2.125 2147.190
  385.500    0.323    0.353   34.517    2.168 2157.880
  385.750    0.312    0.352   36.405    2.212 2176.930
  386.000    0.292    0.346   36.439    2.301 2210.820
  386.250    0.275    0.328   35.847    2.346 2240.470
  386.500    0.271    0.324   38.357    2.439 2246.880
  386.750    0.273    0.323   44.606    2.585 2242.760
  387.000    0.267    0.318   50.233    2.738 2253.400
  387.250    0.255    0.313   49.021    2.794 2274.610
  387.500    0.256    0.311   40.958    2.644 2272.600
  387.750    0.274    0.315   35.383    2.550 2241.030
  388.000    0.293    0.320   31.677    2.458 2209.460
  388.250    0.310    0.325   31.091    2.369 2179.990
  388.500    0.294    0.328   34.845    2.200 2207.550
  388.750    0.284    0.331   37.988    2.081 2224.530
  389.000    0.290    0.338   35.537    2.007 2214.050
  389.250    0.333    0.353   34.306    1.971 2140.270
  389.500    0.339    0.355   31.846    1.938 2129.810
  389.750    0.333    0.352   30.010    1.939 2140.480
  390.000    0.321    0.341   29.411    1.978 2161.690
  390.250    0.312    0.329   30.069    2.097 2176.560
  390.500    0.307    0.321   32.583    2.180 2185.080
  390.750    0.306    0.317   38.208    2.267 2187.290
  391.000    0.288    0.328   46.952    2.312 2216.930
  391.250    0.256    0.322   46.982    2.316 2271.910
  391.500    0.247    0.323   37.677    2.276 2286.780
  391.750    0.280    0.328   32.100    2.277 2231.990
  392.000    0.299    0.329   28.394    2.237 2198.340
  392.250    0.297    0.328   32.781    2.283 2202.660
  392.500    0.281    0.328   41.521    2.374 2230.190
  392.750    0.272    0.335   44.657    2.421 2245.050
  393.000    0.278    0.470   43.442    2.566 2234.590
  393.250    0.315    0.557   49.069    2.823 2171.350
  393.500    0.546    0.603   72.751    3.048 1776.700
  393.750    0.551    0.615   93.938    3.417 1768.350
  394.000    0.469    0.619  116.372    3.690 1907.770
  394.250    0.314    0.620  132.588    3.695 2173.840
  394.500    0.294    0.621  136.971    3.563 2207.710
  394.750    0.285    0.621  139.490    3.499 2222.610
  395.000    0.290    0.621  138.891    3.572 2214.260
  395.250    0.331    0.620  133.945    3.856 2144.670
