~VERSION INFORMATION
 VERS.                 2.0:   CWLS LOG ASCII STANDARD -VERSION 2.0
 WRAP.                  NO:   ONE LINE PER DEPTH STEP
~WELL INFORMATION BLOCK
#MNEM.UNIT           DATA                    DESCRIPTION OF MNEMONIC
#---------    -------------------            -------------------------------
# Generated from Intellog Unique Number	CX_WELLS/WELL/2948
WELL.         GULF SYREBY                    : Well_name    - WELL
LOC .         00/06-35-082-09W4/0            : Location     - LOCATION
UWI .         00/06-35-082-09W4/0            : Uwi          - UNIQUE WELL ID
ENTR.         T                              : Entered      - ENTERED BY
SRVC.         SCHLUMBERGER                   : Scn          - SERVICE COMPANY
STRT.F        1150                           : top_depth    - START DEPTH
STOP.F        1629.82                        : bot_depth    - STOP DEPTH
STEP.F        0.82                           : increment    - STEP LENGTH
 NULL. -999.2500:NULL Value
~CURVE INFORMATION BLOCK
#MNEM UNIT       ERCB CURVE CODE    CURVE DESCRIPTION
#-----------   ------------------   ----------------------------------
DEPT.F        00 001 00 00         : DEPTH        - DEPTH
GR  .API      00 310 00 00         : GR           - GAMMA RAY
NPHI.V/V      00 330 00 00         : PHIN         - NEUTRON POROSITY (SANDSTONE)
DPHI.V/V      00 890 00 00         : PHID         - DENSITY POROSITY (SANDSTONE)
ILD .OHMM     00 120 00 00         : RESD         - DEEP RESISTIVITY (OTHER)
~PARAMETER INFORMATION
#MNEM.UNIT           DATA             DESCRIPTION OF MNEMONIC
#---------         -----------     ------------------------------
GL  .F        2380                 : gl           - GROUND LEVEL ELEVATION
EREF.F        2387                 : kb           - ELEVATION OF DEPTH REFERENCE
DATM.F        2387                 : datum        - DATUM ELEVATION
TDD .F        1640                 : tdd          - TOTAL DEPTH DRILLER
RUN .         ONE                  : Run          - RUN NUMBER
ENG .         BILL                 : Engineer     - RECORDING ENGINEER
WIT .         JIM                  : Witness      - WITNESSED BY
MUD .         GEL                  : Mud_type     - MUD TYPE
MATR.         SANDSTONE            : Logunit      - NEUTRON MATRIX
TMAX.F        71.6                 : BHT          - MAXIMUM RECORDED TEMPERATURE
BHTD.F        1640                 : BHTDEP       - MAXIMUM RECORDED TEMPERATURE
MATR.         1                    : LOGUNIT      - NEUTRON MATRIX
RMT .F        77                   : MDTP         - TEMPERATURE OF MUD
NEUT.         1                    : NEUTRON      - NEUTRON TYPE
RESI.         6.29                 : RESIST       - RESISTIVITY TYPE
RMC .OHMM     7.15                 : RMC          - RESISTIVITY OF MUD CAKE
RMF .OHMM     7.15                 : RMF          - RESISTIVITY OF MUD FILTRATE
SUFT.F        32                   : SUFT         - SURFACE TEMPERATURE
~A  DEPTH       GR     PHIN     PHID     RESD
 1150.000   78.734    0.429    0.303   12.683
 1150.820   86.172    0.440    0.299   12.971
 1151.640   92.991    0.451    0.288   12.772
 1152.460  105.389    0.455    0.283   12.383
 1153.280  114.067    0.451    0.271   11.535
 1154.100  115.306    0.458    0.259    8.609
 1154.920  115.925    0.460    0.229    7.178
 1155.740  117.784    0.447    0.233    5.997
 1156.560  118.403    0.446    0.243    5.005
 1157.380  114.062    0.454    0.239    4.663
 1158.200  114.680    0.462    0.227    4.681
 1159.020  115.919    0.489    0.235    4.968
 1159.840  115.918    0.503    0.240    5.487
 1160.660  112.817    0.523    0.239    5.601
 1161.480  106.617    0.538    0.243    5.840
 1162.300   96.076    0.509    0.250    6.314
 1163.120   88.636    0.482    0.262    7.349
 1163.940   83.055    0.467    0.264    8.405
 1164.760   83.674    0.457    0.262    8.141
 1165.580   92.972    0.459    0.270    7.452
 1166.400  106.610    0.461    0.273    6.697
 1167.220  108.469    0.464    0.260    5.794
 1168.040  112.187    0.470    0.247    5.018
 1168.860  114.666    0.474    0.234    4.427
 1169.690  114.045    0.484    0.213    4.124
 1170.510  115.904    0.485    0.213    3.845
 1171.330  119.002    0.488    0.217    3.656
 1172.150  121.481    0.492    0.225    3.538
 1172.970  122.100    0.497    0.232    3.427
 1173.790  122.099    0.504    0.247    3.437
 1174.610  122.098    0.519    0.246    3.454
 1175.430  122.717    0.536    0.242    3.468
 1176.250  124.576    0.507    0.240    3.355
 1177.070  124.574    0.512    0.240    3.132
 1177.890  121.473    0.537    0.238    3.027
 1178.710  118.992    0.537    0.237    2.876
 1179.530  115.892    0.533    0.240    2.887
 1180.350  115.891    0.564    0.248    2.899
 1181.170  115.269    0.577    0.251    2.910
 1181.990  114.648    0.547    0.248    2.983
 1182.810  112.787    0.523    0.249    3.047
 1183.630  107.207    0.501    0.255    3.237
 1184.450   98.526    0.506    0.265    3.369
 1185.270   93.565    0.513    0.268    3.579
 1186.090   95.424    0.501    0.272    3.798
 1186.910   97.903    0.479    0.272    4.344
 1187.730  100.381    0.476    0.262    4.873
 1188.550  101.000    0.481    0.252    4.892
 1189.370   99.139    0.487    0.242    4.743
 1190.190   94.179    0.496    0.232    4.670
 1191.010   88.598    0.494    0.232    4.603
 1191.830   82.397    0.485    0.256    4.976
 1192.650   77.436    0.464    0.276    5.912
 1193.470   74.336    0.451    0.286    6.504
 1194.290   70.615    0.414    0.320    7.863
 1195.110   67.514    0.412    0.330    9.683
 1195.930   66.893    0.425    0.322   10.662
 1196.750   66.891    0.434    0.324   12.423
 1197.570   66.891    0.425    0.324   12.955
 1198.390   66.270    0.415    0.315   13.249
 1199.210   67.508    0.409    0.311   13.578
 1200.030   71.847    0.405    0.317   13.605
 1200.850   76.185    0.408    0.318   13.673
 1201.670   71.845    0.411    0.320   13.477
 1202.490   65.644    0.413    0.322   13.531
 1203.310   65.023    0.405    0.327   13.585
 1204.130   63.162    0.398    0.329   13.667
 1204.950   61.921    0.400    0.331   13.708
 1205.770   61.300    0.407    0.329   13.776
 1206.590   61.919    0.417    0.328   13.818
 1207.410   62.538    0.422    0.329   13.887
 1208.230   64.396    0.411    0.329   13.957
 1209.060   67.495    0.405    0.327   13.985
 1209.880   68.734    0.405    0.326   14.040
 1210.700   69.353    0.403    0.329   14.125
 1211.520   66.252    0.396    0.330   14.182
 1212.340   64.391    0.393    0.328   14.253
 1213.160   64.389    0.398    0.321   14.281
 1213.980   63.149    0.417    0.319   14.353
 1214.800   61.908    0.425    0.321   14.425
 1215.620   63.146    0.446    0.320   14.468
 1216.440   66.865    0.453    0.317   14.540
 1217.260   70.584    0.455    0.316   14.599
 1218.080   70.582    0.443    0.319   14.389
 1218.900   70.581    0.431    0.320   13.937
 1219.720   71.820    0.417    0.320   13.722
 1220.540   72.439    0.412    0.320   13.552
 1221.360   72.438    0.436    0.320   13.357
 1222.180   71.817    0.445    0.321   13.384
 1223.000   66.856    0.422    0.326   13.465
 1223.820   70.575    0.415    0.329   13.505
 1224.640   68.714    0.418    0.334   13.573
 1225.460   64.993    0.411    0.336   13.614
 1226.280   64.992    0.412    0.335   13.951
 1227.100   67.470    0.422    0.328   13.993
 1227.920   67.469    0.422    0.321   14.063
 1228.740   64.988    0.422    0.321   14.105
 1229.560   63.748    0.425    0.327   14.190
 1230.380   60.647    0.425    0.325   14.219
 1231.200   61.885    0.419    0.322   14.304
 1232.020   63.124    0.412    0.324   14.347
 1232.840   65.603    0.407    0.328   14.405
 1233.660   66.222    0.407    0.325   14.477
 1234.480   65.601    0.409    0.324   14.269
 1235.300   65.600    0.407    0.323   14.326
 1236.120   65.599    0.410    0.322   14.398
 1236.940   65.598    0.416    0.319   14.455
 1237.760   66.216    0.429    0.317   14.499
 1238.580   66.215    0.441    0.315   14.290
 1239.400   67.454    0.448    0.315   14.376
 1240.220   67.453    0.441    0.329   14.184
 1241.040   68.692    0.434    0.329   14.212
 1241.860   68.071    0.435    0.325   14.269
 1242.680   63.110    0.434    0.322   13.820
 1243.500   61.869    0.432    0.322   13.876
 1244.320   62.487    0.426    0.322   13.945
 1245.140   63.727    0.414    0.316   14.015
 1245.960   63.725    0.413    0.312   14.043
 1246.780   59.385    0.411    0.300   14.100
 1247.600   50.084    0.408    0.280   14.170
 1248.430   55.043    0.402    0.245   14.241
 1249.250   63.101    0.398    0.143   14.284
 1250.070   66.820    0.400    0.148   14.341
 1250.890   69.918    0.408    0.188   14.413
 1251.710   66.198    0.414    0.225   14.456
 1252.530   59.377    0.404    0.144   14.543
 1253.350   56.896    0.340    0.112   14.587
 1254.170   67.434    0.277    0.227   14.919
 1254.990   69.293    0.308    0.249   15.008
 1255.810   66.812    0.338    0.279   15.053
 1256.630   61.851    0.377    0.311   14.852
 1257.450   61.850    0.425    0.325   14.911
 1258.270   63.709    0.435    0.330   14.682
 1259.090   66.187    0.432    0.330   14.471
 1259.910   67.426    0.431    0.328   14.263
 1260.730   66.805    0.431    0.328   14.058
 1261.550   66.184    0.432    0.324   13.884
 1262.370   66.183    0.424    0.317   13.684
 1263.190   68.662    0.413    0.314   13.739
 1264.010   69.281    0.410    0.312   13.808
 1264.830   71.139    0.406    0.312   13.850
 1265.650   71.758    0.403    0.316   14.193
 1266.470   72.377    0.402    0.321   14.236
 1267.290   72.376    0.431    0.321   14.278
 1268.110   72.375    0.432    0.320   14.115
 1268.930   72.374    0.426    0.315   13.885
 1269.750   71.752    0.425    0.312   13.940
 1270.570   71.132    0.428    0.316   14.038
 1271.390   70.510    0.433    0.319   14.066
 1272.210   69.889    0.438    0.321   14.123
 1273.030   69.268    0.444    0.315   14.179
 1273.850   69.267    0.448    0.313   14.236
 1274.670   69.266    0.456    0.315   14.322
 1275.490   68.645    0.455    0.319   14.365
 1276.310   67.404    0.443    0.313   14.408
 1277.130   66.783    0.430    0.300   14.495
 1277.950   66.782    0.424    0.287   14.300
 1278.770   66.781    0.440    0.287   14.343
 1279.590   66.779    0.420    0.310   14.386
 1280.410   66.779    0.413    0.309   14.459
 1281.230   68.637    0.410    0.282   14.517
 1282.050   70.496    0.427    0.272   13.789
 1282.870   74.835    0.436    0.278   12.610
 1283.690   89.713    0.441    0.289    9.957
 1284.510  100.251    0.433    0.266    7.855
 1285.330  107.069    0.431    0.262    6.318
 1286.150  110.788    0.457    0.248    4.989
 1286.980  110.787    0.485    0.244    4.160
 1287.800  110.165    0.490    0.246    3.812
 1288.620  109.544    0.503    0.247    3.971
 1289.440  107.063    0.502    0.253    4.301
 1290.260  102.723    0.479    0.258    4.472
 1291.080   97.142    0.476    0.264    5.115
 1291.900   91.561    0.467    0.259    5.954
