~VERSION INFORMATION
 VERS.                 2.0:   CWLS LOG ASCII STANDARD -VERSION 2.0
 WRAP.                  NO:   ONE LINE PER DEPTH STEP
~WELL INFORMATION BLOCK
#MNEM.UNIT           DATA                    DESCRIPTION OF MNEMONIC
#---------    -------------------            -------------------------------
# Generated from Intellog Unique Number	CW_70_72/WELL/3014
NULL.         -999.25                        : NULL_VALUE
WELL.         DEKALB ET AL MITSUE 06-35      : Well_name    - WELL              
LOC .         06-35-070-03W5                : Location     - LOCATION          
UWI .         00/06-35-070-03W5/0            : Uwi          - UNIQUE WELL ID    
ENTR.         JAYE                           : Entered      - ENTERED BY        
SRVC.         SCHLUMBERGER                   : Scn          - SERVICE COMPANY   
DATE.         10 FEB 80                      : Date         - LOG DATE          
STRT.M        460                            : top_depth    - START DEPTH       
STOP.M        680                            : bot_depth    - STOP DEPTH        
STEP.M        0.25                           : increment    - STEP LENGTH       
~CURVE INFORMATION BLOCK
#MNEM UNIT       ERCB CURVE CODE    CURVE DESCRIPTION
#-----------   ------------------   ----------------------------------
DEPT.M        00 001 00 00         : DEPTH        - DEPTH                       
ILD .OHMM     00 120 00 00         : RESD         - DEEP RESISTIVITY (DIL)      
CALI.MM       00 280 01 00         : CAL          - CALIPER                     
GR  .API      00 310 00 00         : GR           - GAMMA RAY                   
NPHI.V/V      00 330 00 00         : PHIN         - NEUTRON POROSITY (SANDSTONE)
DPHI.V/V      00 890 00 00         : PHID         - DENSITY POROSITY (SANDSTONE)
~PARAMETER INFORMATION       
#MNEM.UNIT           DATA             DESCRIPTION OF MNEMONIC
#---------         -----------     ------------------------------
GL  .M        617.4                : gl           - GROUND LEVEL ELEVATION      
EREF.M        620.6                : kb           - ELEVATION OF DEPTH REFERENCE
DATM.M        617.4                : datum        - DATUM ELEVATION             
TDD .M        685                  : tdd          - TOTAL DEPTH DRILLER         
RUN .         ONE                  : Run          - RUN NUMBER                  
ENG .         COOK                 : Engineer     - RECORDING ENGINEER          
WIT .         LOWTHER              : Witness      - WITNESSED BY                
BASE.         RD                   : Branch       - HOME BASE OF LOGGING UNIT   
MUD .         GEL CHEM             : Mud_type     - MUD TYPE                    
MATR.         SANDSTONE            : Logunit      - NEUTRON MATRIX              
TMAX.C        31                   : BHT          - MAXIMUM RECORDED TEMPERATURE
BHTD.M        686                  : BHTDEP       - MAXIMUM RECORDED TEMPERATURE
RMT .C        10                   : MDTP         - TEMPERATURE OF MUD          
MUDD.KG/M     1120                 : MWT          - MUD DENSITY                 
NEUT.         1                    : NEUTRON      - NEUTRON TYPE                
RESI.         0                    : RESIST       - RESISTIVITY TYPE            
RM  .OHMM     4.39                 : RM           - RESISTIVITY OF MUD          
RMC .OHMM     0.25                 : RMC          - RESISTIVITY OF MUD CAKE     
RMF .OHMM     2.49                 : RMF          - RESISTIVITY OF MUD FILTRATE 
SUFT.C        0                    : SUFT         - SURFACE TEMPERATURE         
~A  DEPTH     RESD      CAL       GR     PHIN     PHID
# ...
  569.500    2.198  160.365   61.483    0.442    0.291
  569.750    2.195  160.392   62.302    0.441    0.297
  570.000    2.180  160.106   62.748    0.445    0.296
  570.250    2.174  160.441   64.066    0.459    0.289
  570.500    2.241  160.360   60.295    0.410    0.241
  570.750    2.504  160.898   58.760    0.321    0.193
  571.000    2.904  161.126   58.835    0.291    0.164
  571.250    3.274  161.255   60.152    0.310    0.206
  571.500    3.720  161.280   61.841    0.359    0.267
  571.750    4.124  161.095   63.654    0.316    0.238
  572.000    4.473  161.531   57.713    0.256    0.114
  572.250    4.751  162.070   53.323    0.245    0.094
  572.500    5.009  161.990   53.774    0.248    0.120
  572.750    4.820  161.703   56.205    0.296    0.165
  573.000    4.100  161.211   60.003    0.333    0.247
  573.250    3.449  159.270   63.183    0.428    0.283
  573.500    2.929  160.947   64.561    0.446    0.280
  573.750    2.543  159.936   63.645    0.446    0.280
  574.000    2.213  159.856   62.106    0.439    0.277
  574.250    2.013  159.364   63.363    0.424    0.248
  574.500    2.053  159.289   65.485    0.429    0.189
  574.750    2.349  159.307   64.879    0.320    0.041
  575.000    2.669  159.124   56.642    0.239    0.033
  575.250    3.836  160.183   51.694    0.197    0.035
  575.500    5.233  160.722   50.594    0.186    0.048
  575.750    6.217  159.095   54.267    0.209    0.074
  576.000    6.999  157.258   57.134    0.220    0.069
  576.250    7.282  156.560   58.573    0.209    0.061
  576.500    6.601  156.683   60.573    0.207    0.071
  576.750    5.818  156.911   63.937    0.238    0.084
  577.000    5.138  157.247   69.287    0.259    0.100
  577.250    4.429  157.165   66.262    0.278    0.132
  577.500    3.831  156.989   61.873    0.292    0.168
  577.750    3.327  157.315   59.776    0.309    0.205
  578.000    2.862  157.859   58.737    0.331    0.253
  578.250    2.556  158.292   57.261    0.407    0.261
  578.500    2.387  158.424   62.858    0.413    0.236
  578.750    2.310  158.243   68.084    0.433    0.242
  579.000    2.320  158.468   70.703    0.427    0.236
  579.250    2.419  158.387   70.099    0.420    0.223
  579.500    2.513  158.003   68.872    0.437    0.235
  579.750    2.654  158.022   67.211    0.443    0.230
  580.000    2.721  158.257   66.419    0.427    0.215
  580.250    2.743  158.171   66.617    0.423    0.221
  580.500    2.700  158.617   68.989    0.445    0.236
  580.750    2.672  159.050   70.866    0.452    0.236
  581.000    2.659  158.862   70.198    0.437    0.219
  581.250    2.621  158.274   70.584    0.419    0.218
  581.500    2.598  157.570   72.087    0.408    0.244
  581.750    2.571  156.970   74.022    0.420    0.248
  582.000    2.563  156.791   76.642    0.438    0.235
  582.250    2.551  157.017   79.138    0.449    0.233
  582.500    2.510  157.249   74.810    0.445    0.239
  582.750    2.493  156.865   73.025    0.441    0.255
  583.000    2.458  156.365   72.049    0.458    0.263
  583.250    2.410  156.076   71.440    0.443    0.242
  583.500    2.389  156.000   72.943    0.435    0.219
  583.750    2.386  156.332   74.570    0.460    0.218
  584.000    2.406  156.255   75.453    0.445    0.241
  584.250    2.430  156.590   74.226    0.437    0.261
  584.500    2.482  157.023   75.297    0.444    0.274
  584.750    2.521  157.358   75.807    0.425    0.221
  585.000    2.648  157.590   75.819    0.409    0.190
  585.250    3.003  157.715   75.710    0.399    0.176
  585.500    3.367  158.048   75.723    0.416    0.188
  585.750    3.644  158.277   79.770    0.405    0.208
  586.000    3.626  158.096   83.322    0.402    0.215
  586.250    3.470  158.121   84.639    0.414    0.208
  586.500    3.271  158.142   83.287    0.423    0.217
  586.750    3.055  158.372   85.288    0.425    0.213
  587.000    2.837  159.126   87.348    0.421    0.206
  587.250    2.735  159.358   85.625    0.411    0.215
  587.500    2.712  159.274   81.112    0.401    0.234
  587.750    2.739  159.099   79.202    0.396    0.233
  588.000    2.834  159.428   80.642    0.394    0.217
  588.250    2.944  159.754   84.132    0.404    0.219
  588.500    3.087  160.717   87.928    0.403    0.215
  588.750    3.236  160.735   91.851    0.394    0.199
  589.000    3.356  160.761   93.233    0.401    0.193
  589.250    3.415  160.369   93.246    0.412    0.188
  589.500    3.462  160.287   95.740    0.421    0.182
  589.750    3.543  160.102   97.305    0.433    0.174
  590.000    3.592  160.130   94.280    0.441    0.168
  590.250    3.697  160.460   92.930    0.440    0.167
  590.500    3.762  160.591   93.751    0.420    0.167
  590.750    3.828  160.923   94.012    0.404    0.170
  591.000    3.895  160.949   93.654    0.404    0.163
  591.250    3.934  161.390   92.240    0.393    0.157
  591.500    3.996  161.624   92.070    0.388    0.159
  591.750    4.060  161.533   95.061    0.385    0.159
  592.000    4.116  161.562   96.378    0.398    0.147
  592.250    4.165  161.692   91.429    0.407    0.136
  592.500    4.106  161.818   93.677    0.390    0.142
  592.750    4.026  162.040   98.468    0.384    0.167
  593.000    3.976  162.069  100.779    0.410    0.186
  593.250    3.847  162.092   98.807    0.416    0.188
  593.500    3.654  162.113   92.059    0.414    0.196
  593.750    3.556  162.347   86.428    0.429    0.202
  594.000    3.512  162.161   83.094    0.439    0.195
  594.250    3.469  162.492   80.936    0.438    0.189
  594.500    3.452  162.723   86.659    0.433    0.190
  594.750    3.487  162.438   90.764    0.428    0.188
  595.000    3.528  162.255   94.689    0.420    0.182
  595.250    3.603  162.071   96.003    0.417    0.171
  595.500    3.701  161.782   92.234    0.431    0.165
  595.750    3.838  162.121   88.215    0.417    0.161
  596.000    3.942  162.559   91.519    0.419    0.164
  596.250    3.996  162.581   98.232    0.439    0.159
  596.500    3.984  162.609  100.603    0.451    0.157
  596.750    3.936  162.736   94.537    0.452    0.164
  597.000    3.858  162.451   89.341    0.439    0.172
  597.250    3.804  162.273   85.013    0.426    0.187
  597.500    3.736  161.977   83.228    0.420    0.215
  597.750    3.669  161.490   83.739    0.415    0.215
  598.000    3.511  161.192   84.436    0.411    0.186
  598.250    3.560  160.905   85.878    0.425    0.150
  598.500    3.670  160.828   88.931    0.440    0.127
  598.750    3.763  161.063   92.294    0.440    0.119
  599.000    3.916  161.295   94.232    0.432    0.128
  599.250    4.022  161.729   94.184    0.428    0.138
  599.500    4.070  162.161   90.971    0.424    0.158
  599.750    4.134  162.083   89.373    0.428    0.151
  600.000    4.152  162.210   90.630    0.413    0.135
  600.250    4.078  161.302   93.186    0.392    0.123
  600.500    3.998  161.844   94.875    0.428    0.133
  600.750    3.942  162.594   94.084    0.433    0.146
  601.000    3.908  162.102   88.637    0.414    0.163
  601.250    3.874  161.710   88.159    0.395    0.173
  601.500    3.863  161.011   89.969    0.408    0.166
  601.750    3.872  161.342   89.301    0.416    0.149
  602.000    3.861  161.572   85.904    0.421    0.143
  602.250    3.820  161.801   85.732    0.419    0.155
  602.500    3.752  161.625   88.600    0.408    0.158
  602.750    3.665  161.747   92.832    0.422    0.153
  603.000    3.566  161.874   97.001    0.439    0.157
  603.250    3.438  162.101   89.509    0.457    0.159
  603.500    3.217  162.542   74.388    0.436    0.187
  603.750    3.061  162.975   65.839    0.422    0.235
  604.000    2.929  163.209   61.201    0.411    0.266
  604.250    2.792  163.028   59.975    0.405    0.292
  604.500    2.642  163.153   59.802    0.408    0.297
  604.750    2.571  162.765   59.880    0.420    0.290
  605.000    2.563  162.267   60.266    0.409    0.281
  605.250    2.594  160.844   60.217    0.402    0.278
  605.500    2.629  159.729   60.046    0.415    0.269
  605.750    2.636  158.929   60.309    0.421    0.265
