~VERSION INFORMATION
 VERS.                 2.0:   CWLS LOG ASCII STANDARD -VERSION 2.0
 WRAP.                  NO:   ONE LINE PER DEPTH STEP
~WELL INFORMATION BLOCK
#MNEM.UNIT           DATA                    DESCRIPTION OF MNEMONIC
#---------    -------------------            -------------------------------
# Generated from Intellog Unique Number	CS_73_76/WELL/2104
WELL.         CAVALIER ENERTY LIMITED        : Well_name    - WELL
LOC .         00/07-08-076-15W4/0            : Location     - LOCATION
UWI .         00/07-08-076-15W4/0            : Uwi          - UNIQUE WELL ID
ENTR.         SP                             : Entered      - ENTERED BY
SRVC.         SCHLUMBERGER                   : Scn          - SERVICE COMPANY
STRT.M        360                            : top_depth    - START DEPTH
STOP.M        585                            : bot_depth    - STOP DEPTH
STEP.M        0.25                           : increment    - STEP LENGTH
 NULL. -999.2500:NULL Value
~CURVE INFORMATION BLOCK
#MNEM UNIT       ERCB CURVE CODE    CURVE DESCRIPTION
#-----------   ------------------   ----------------------------------
DEPT.M        00 001 00 00         : DEPTH        - DEPTH
DPHI.V/V      00 890 00 00         : PHID         - DENSITY POROSITY (LIMESTONE)
NPHI.V/V      00 330 00 00         : PHIN         - NEUTRON POROSITY (LIMESTONE)
GR  .API      00 310 00 00         : GR           - GAMMA RAY
ILD .OHMM     00 120 00 00         : RESD         - DEEP RESISTIVITY (DIL)
~PARAMETER INFORMATION
#MNEM.UNIT           DATA             DESCRIPTION OF MNEMONIC
#---------         -----------     ------------------------------
GL  .M        735.6                : gl           - GROUND LEVEL ELEVATION
EREF.M        739.7                : kb           - ELEVATION OF DEPTH REFERENCE
DATM.M        735.6                : datum        - DATUM ELEVATION
TDD .M        595                  : tdd          - TOTAL DEPTH DRILLER
RUN .         ONE                  : Run          - RUN NUMBER
ENG .         BILL                 : Engineer     - RECORDING ENGINEER
WIT .         JIM                  : Witness      - WITNESSED BY
MUD .         GEL                  : Mud_type     - MUD TYPE
MATR.         LIMESTONE            : Logunit      - NEUTRON MATRIX
TMAX.C        20                   : BHT          - MAXIMUM RECORDED TEMPERATURE
BHTD.M        595                  : BHTDEP       - MAXIMUM RECORDED TEMPERATURE
MATR.         1                    : LOGUNIT      - NEUTRON MATRIX
RMT .C        25                   : MDTP         - TEMPERATURE OF MUD
NEUT.         1                    : NEUTRON      - NEUTRON TYPE
RESI.         0                    : RESIST       - RESISTIVITY TYPE
RMC .OHMM     0.25                 : RMC          - RESISTIVITY OF MUD CAKE
RMF .OHMM     0.25                 : RMF          - RESISTIVITY OF MUD FILTRATE
SUFT.C        15                   : SUFT         - SURFACE TEMPERATURE
~A  DEPTH     PHID     PHIN       GR     RESD
# ...
  403.500    0.278    0.446   89.075    7.863
  403.750    0.285    0.455   77.486    8.956
  404.000    0.324    0.456   65.898   10.585
  404.250    0.363    0.388   52.481   12.280
  404.500    0.376    0.337   47.600   14.248
  404.750    0.368    0.343   45.767   14.255
  405.000    0.346    0.374   44.544   13.742
  405.250    0.339    0.392   48.200   12.303
  405.500    0.347    0.394   51.245   11.643
  405.750    0.348    0.391   47.584   11.021
  406.000    0.345    0.394   44.532   10.824
  406.250    0.338    0.407   41.480   10.631
  406.500    0.335    0.425   39.648   10.633
  406.750    0.336    0.432   38.425   10.639
  407.000    0.339    0.428   40.861   10.643
  407.250    0.346    0.422   43.906   10.847
  407.500    0.344    0.416   46.342   10.852
  407.750    0.348    0.402   47.558   11.060
  408.000    0.354    0.414   48.165   11.066
  408.250    0.356    0.408   50.600   11.072
  408.500    0.356    0.401   49.987   11.075
  408.750    0.357    0.397   49.984   10.878
  409.000    0.354    0.407   49.371   11.089
  409.250    0.351    0.442   46.929   11.092
  409.500    0.347    0.449   46.316   11.096
  409.750    0.349    0.426   46.312   11.103
  410.000    0.352    0.405   46.919   11.106
  410.250    0.353    0.416   48.136   11.112
  410.500    0.352    0.425   48.133   10.913
  410.750    0.344    0.423   47.519   10.917
  411.000    0.336    0.419   47.516   11.128
  411.250    0.335    0.425   48.123   10.927
  411.500    0.340    0.419   49.338   10.932
  411.750    0.341    0.416   50.556   11.145
  412.000    0.337    0.416   49.943   11.148
  412.250    0.334    0.412   48.720   11.155
  412.500    0.337    0.422   49.936   11.158
  412.750    0.345    0.421   51.153   10.958
  413.000    0.348    0.411   50.540   10.963
  413.250    0.347    0.402   48.097   10.968
  413.500    0.348    0.390   49.313   10.974
  413.750    0.356    0.422   51.140   10.978
  414.000    0.351    0.425   51.746   10.983
  414.250    0.355    0.421   49.914   10.787
  414.500    0.358    0.419   49.910   10.793
  414.750    0.360    0.402   50.517   10.799
  415.000    0.356    0.393   49.904   10.802
  415.250    0.352    0.419   48.071   10.809
  415.500    0.349    0.427   48.678   10.812
  415.750    0.339    0.409   49.895   10.819
  416.000    0.338    0.398   51.111   10.823
  416.250    0.339    0.389   49.278   10.829
  416.500    0.338    0.397   48.666   10.831
  416.750    0.336    0.405   49.272   10.837
  417.000    0.342    0.407   49.878   10.643
  417.250    0.344    0.410   50.485   10.647
  417.500    0.337    0.407   49.872   10.655
  417.750    0.338    0.402   47.430   10.659
  418.000    0.343    0.406   51.085   10.663
  418.250    0.353    0.404   51.082   10.669
  418.500    0.356    0.409   51.078   10.673
  418.750    0.352    0.406   52.905   10.677
  419.000    0.347    0.403   55.340   10.682
  419.250    0.341    0.421   57.167   10.688
  419.500    0.337    0.427   57.773   10.693
  419.750    0.340    0.414   56.551   10.698
  420.000    0.351    0.392   55.938   10.506
  420.250    0.357    0.409   58.373   10.512
  420.500    0.356    0.423   61.419   10.323
  420.750    0.353    0.415   60.196   10.326
  421.000    0.351    0.406   52.876   10.333
  421.250    0.355    0.398   54.092   10.149
  421.500    0.357    0.390   56.528   10.151
  421.750    0.353    0.387   57.745    9.970
  422.000    0.352    0.404   55.302    9.793
  422.250    0.349    0.421   58.347    9.796
  422.500    0.343    0.419   56.515    9.802
  422.750    0.341    0.420   50.415    9.807
  423.000    0.354    0.431   47.972    9.809
  423.250    0.362    0.438   49.189    9.814
  423.500    0.362    0.427   49.185   10.004
  423.750    0.363    0.432   49.182    9.824
  424.000    0.366    0.442   51.617    9.831
  424.250    0.367    0.438   52.224    9.834
  424.500    0.366    0.432   50.392   10.021
  424.750    0.367    0.430   48.560   10.027
  425.000    0.365    0.429   50.385   10.030
  425.250    0.361    0.433   51.601    9.851
  425.500    0.362    0.445   52.818    9.675
  425.750    0.362    0.451   51.596    9.860
  426.000    0.355    0.433   51.593   10.049
  426.250    0.354    0.425   47.321   10.432
  426.500    0.360    0.424   46.099   10.633
  426.750    0.357    0.424   46.096   10.836
  427.000    0.351    0.427   43.044   11.252
  427.250    0.352    0.428   41.211   11.466
  427.500    0.351    0.421   40.598   11.472
  427.750    0.346    0.424   38.765   11.476
  428.000    0.345    0.422   38.763   11.696
  428.250    0.344    0.433   41.197   11.920
  428.500    0.339    0.452   42.414   11.925
  428.750    0.341    0.465   43.021   11.713
  429.000    0.345    0.454   43.018   11.719
  429.250    0.349    0.449   42.405   11.509
  429.500    0.350    0.459   41.182   11.515
  429.750    0.346    0.453   41.179   11.309
  430.000    0.339    0.415   38.127   11.312
  430.250    0.337    0.410   38.733   11.319
  430.500    0.340    0.409   38.730   11.325
  430.750    0.342    0.403   39.337   11.328
  431.000    0.340    0.389   36.895   11.335
  431.250    0.340    0.397   36.281   11.339
  431.500    0.344    0.402   36.889   11.345
  431.750    0.342    0.411   36.276   11.351
  432.000    0.345    0.415   35.663   11.147
  432.250    0.351    0.432   36.269   10.947
  432.500    0.349    0.448   38.095   10.955
  432.750    0.343    0.439   38.702   10.757
  433.000    0.341    0.416   38.089   10.760
  433.250    0.342    0.430   38.086   10.767
  433.500    0.342    0.421   37.473   10.573
  433.750    0.340    0.413   35.640   10.777
  434.000    0.342    0.425   38.076   10.782
  434.250    0.344    0.424   37.463   10.589
  434.500    0.345    0.424   35.630   10.594
  434.750    0.346    0.429   35.018   10.404
  435.000    0.347    0.428   39.282   10.409
  435.250    0.349    0.427   40.499   10.223
  435.500    0.352    0.444   41.106   10.227
  435.750    0.357    0.456   37.443   10.043
  436.000    0.358    0.439   39.879   10.048
  436.250    0.357    0.425   40.486    9.870
  436.500    0.362    0.415   38.044    9.874
  436.750    0.365    0.419   38.651    9.878
  437.000    0.364    0.428   37.428    9.881
  437.250    0.364    0.436   36.815    9.889
  437.500    0.369    0.441   37.420    9.893
  437.750    0.373    0.430   38.028    9.896
  438.000    0.369    0.419   40.464    9.900
  438.250    0.368    0.408   42.289    9.725
  438.500    0.368    0.417   44.115    9.727
  438.750    0.369    0.417   45.942    9.378
  439.000    0.373    0.419   48.378    9.383
  439.250    0.379    0.429   47.765    9.389
  439.500    0.378    0.440   42.273    9.220
  439.750    0.374    0.448   40.441    9.225
  440.000    0.374    0.451   40.438    9.228
  440.250    0.378    0.464   43.483    9.231
  440.500    0.379    0.454   46.529    9.238
  440.750    0.376    0.437   49.575    9.072
  441.000    0.378    0.474   47.133    9.075
  441.250    0.383    0.481   47.130    9.250
  441.500    0.384    0.477   48.346    9.253
  441.750    0.386    0.453   48.343    9.433
  442.000    0.386    0.451   47.730    9.436
  442.250    0.381    0.452   48.336    9.440
  442.500    0.372    0.456   50.772    9.620
  442.750    0.363    0.470   53.817    9.805
  443.000    0.360    0.456   51.985    9.810
  443.250    0.347    0.447   53.810    9.996
  443.500    0.346    0.450   55.027   10.188
  443.750    0.346    0.449   58.072   10.383
  444.000    0.344    0.438   64.167   10.781
  444.250    0.341    0.427   67.822   11.194
  444.500    0.338    0.426   74.526   11.197
  444.750    0.327    0.438   77.571   11.412
  445.000    0.307    0.439   78.788   12.071
  445.250    0.275    0.421   74.516   12.532
  445.500    0.206    0.339   72.074   13.253
  445.750    0.066    0.265   61.705   14.546
  446.000    0.057    0.230   57.434   15.963
  446.250    0.055    0.222   62.919   18.870
  446.500    0.051    0.219   67.183   20.328
  446.750    0.049    0.218   66.570   21.901
