~VERSION INFORMATION
 VERS.                 2.0:   CWLS LOG ASCII STANDARD -VERSION 2.0
 WRAP.                  NO:   ONE LINE PER DEPTH STEP
~WELL INFORMATION BLOCK
#MNEM.UNIT           DATA                    DESCRIPTION OF MNEMONIC
#---------    -------------------            -------------------------------
# Generated from Intellog Unique Number	CW_70_72/WELL/913
NULL.         -999.25                        : NULL_VALUE
WELL.         SUNDANCE CANAL 07-24           : Well_name    - WELL              
LOC .         07-24-071-23W4                 : Location     - LOCATION          
UWI .         00/07-24-071-23W4/0            : Uwi          - UNIQUE WELL ID    
ENTR.         JAYE                           : Entered      - ENTERED BY        
SRVC.         SCHLUMBERGER                   : Scn          - SERVICE COMPANY   
DATE.         21 FEB 77                      : Date         - LOG DATE          
STRT.M        432.816                        : top_depth    - START DEPTH       
STOP.M        658.316                        : bot_depth    - STOP DEPTH        
STEP.M        0.25                           : increment    - STEP LENGTH       
~CURVE INFORMATION BLOCK
#MNEM UNIT       ERCB CURVE CODE    CURVE DESCRIPTION
#-----------   ------------------   ----------------------------------
DEPT.M        00 001 00 00         : DEPTH        - DEPTH                       
DPHI.V/V      00 890 00 00         : PHID         - DENSITY POROSITY (SANDSTONE)
NPHI.V/V      00 330 00 00         : PHIN         - NEUTRON POROSITY (SANDSTONE)
GR  .API      00 310 00 00         : GR           - GAMMA RAY                   
CALI.MM       00 280 01 00         : CAL          - CALIPER                     
ILD .OHMM     00 120 00 00         : RESD         - DEEP RESISTIVITY (DIL)      
~PARAMETER INFORMATION       
#MNEM.UNIT           DATA             DESCRIPTION OF MNEMONIC
#---------         -----------     ------------------------------
GL  .M        641.909              : gl           - GROUND LEVEL ELEVATION      
EREF.M        645.566              : kb           - ELEVATION OF DEPTH REFERENCE
DATM.M        641.909              : datum        - DATUM ELEVATION             
TDD .M        669.036              : tdd          - TOTAL DEPTH DRILLER         
RUN .         ONE                  : Run          - RUN NUMBER                  
ENG .         BIGG/LEDUC           : Engineer     - RECORDING ENGINEER          
WIT .         CHRISTENSEN          : Witness      - WITNESSED BY                
BASE.         EDM                  : Branch       - HOME BASE OF LOGGING UNIT   
MUD .         GEL CHEN             : Mud_type     - MUD TYPE                    
MATR.         SANDSTONE            : Logunit      - NEUTRON MATRIX              
TMAX.C        -17.7778             : BHT          - MAXIMUM RECORDED TEMPERATURE
BHTD.M        669.95               : BHTDEP       - MAXIMUM RECORDED TEMPERATURE
RMT .C        15.5556              : MDTP         - TEMPERATURE OF MUD          
MUDD.KG/M     1104                 : MWT          - MUD DENSITY                 
NEUT.         1                    : NEUTRON      - NEUTRON TYPE                
RESI.         0                    : RESIST       - RESISTIVITY TYPE            
RM  .OHMM     2.18                 : RM           - RESISTIVITY OF MUD          
RMC .OHMM     0                    : RMC          - RESISTIVITY OF MUD CAKE     
RMF .OHMM     4.77                 : RMF          - RESISTIVITY OF MUD FILTRATE 
SUFT.C        0                    : SUFT         - SURFACE TEMPERATURE         
~A  DEPTH     PHID     PHIN       GR      CAL     RESD
# ...
  578.816    0.150    0.397  129.075  167.352    5.290
  579.066    0.168    0.405  132.821  167.509    5.268
  579.316    0.188    0.397  131.088  167.765    5.245
  579.566    0.203    0.389  127.401  167.926    5.202
  579.816    0.194    0.404  123.718  168.184    5.180
  580.066    0.189    0.406  121.560  167.831    5.186
  580.316    0.182    0.393  119.276  167.363    5.340
  580.566    0.166    0.381  114.985  166.604    5.415
  580.816    0.157    0.376  121.229  166.443    5.452
  581.066    0.144    0.401  126.622  166.101    5.379
  581.316    0.159    0.423  126.226  165.939    5.325
  581.566    0.185    0.417  127.659  165.675    5.224
  581.816    0.193    0.403  131.409  165.954    5.144
  582.066    0.202    0.403  133.998  165.693    5.057
  582.316    0.201    0.406  133.848  166.054    5.016
  582.566    0.189    0.415  130.651  166.102    5.069
  582.816    0.177    0.408  125.871  166.275    5.141
  583.066    0.159    0.397  121.945  166.519    5.196
  583.316    0.143    0.393  126.608  166.890    5.192
  583.566    0.140    0.402  133.643  167.042    5.189
  583.816    0.165    0.408  135.258  167.198    5.176
  584.066    0.187    0.400  131.028  167.256    5.221
  584.316    0.178    0.396  124.788  167.214    5.266
  584.566    0.173    0.390  119.339  166.859    5.343
  584.816    0.185    0.380  114.741  166.700    5.388
  585.066    0.202    0.368  113.192  165.822    5.444
  585.316    0.190    0.375  116.392  165.153    5.502
  585.566    0.168    0.382  121.719  165.316    5.508
  585.816    0.152    0.379  123.032  165.277    5.474
  586.066    0.144    0.370  118.556  165.428    5.361
  586.316    0.133    0.364  119.686  165.895    5.240
  586.566    0.139    0.369  122.883  165.637    5.140
  586.816    0.156    0.376  123.709  165.482    5.053
  587.066    0.189    0.384  125.812  165.537    5.002
  587.316    0.179    0.391  129.984  165.708    4.990
  587.566    0.181    0.400  134.828  165.647    5.033
  587.816    0.174    0.410  140.160  165.812    5.142
  588.066    0.173    0.404  141.349  166.801    5.256
  588.316    0.178    0.384  138.764  167.375    5.311
  588.566    0.169    0.375  139.464  167.515    5.308
  588.816    0.163    0.380  141.445  167.876    5.343
  589.066    0.150    0.381  137.336  168.146    5.334
  589.316    0.141    0.369  129.940  168.097    5.538
  589.566    0.158    0.356  122.175  167.636    6.163
  589.816    0.151    0.340  112.645  166.660    6.845
  590.066    0.117    0.318  104.577  164.852    8.021
  590.316    0.093    0.302  103.818  163.470    9.143
  590.566    0.111    0.329  109.390  162.794   10.815
  590.816    0.062    0.382  106.499  162.334   12.441
  591.066    0.018    0.337   83.571  162.499   14.798
  591.316   -0.014    0.259   77.577  162.774   18.131
  591.566    0.011    0.226   81.747  163.018   21.249
  591.816    0.030    0.221   89.576  163.078   17.484
  592.066    0.052    0.309   99.596  163.230   11.159
  592.316    0.090    0.331  112.481  163.708    8.185
  592.566    0.166    0.351  120.736  164.281    6.525
  592.816    0.178    0.366  124.298  164.421    5.934
  593.066    0.171    0.376  121.287  165.411    5.843
  593.316    0.162    0.377  120.464  165.882    5.959
  593.566    0.150    0.343  115.807  166.444    6.134
  593.816    0.124    0.330  113.282  166.609    6.340
  594.066    0.132    0.336  113.621  166.659    6.453
  594.316    0.144    0.350  116.575  166.501    6.475
  594.566    0.139    0.352  121.237  166.658    6.445
  594.816    0.145    0.358  126.567  166.403    6.418
  595.066    0.172    0.384  130.071  166.263    6.414
  595.316    0.167    0.382  124.805  166.417    6.470
  595.566    0.126    0.354  123.011  166.465    6.526
  595.816    0.104    0.362  124.079  166.426    6.558
  596.066    0.099    0.349  125.388  166.470    6.577
  596.316    0.112    0.351  128.345  166.534    6.574
  596.566    0.133    0.364  126.307  166.476    6.534
  596.816    0.155    0.359  115.678  166.544    6.516
  597.066    0.158    0.344  113.458  166.694    6.490
  597.316    0.124    0.360  120.740  166.536    6.484
  597.566    0.156    0.374  125.095  165.468    6.444
  597.816    0.181    0.376  127.685  164.694    6.370
  598.066    0.164    0.335  119.798  163.718    6.330
  598.316    0.147    0.330  117.821  162.945    6.445
  598.566    0.132    0.338  122.240  162.590    6.573
  598.816    0.140    0.334  122.455  162.742    6.666
  599.066    0.130    0.320  115.422  162.801    6.738
  599.316    0.107    0.299  116.735  163.263    6.746
  599.566    0.086    0.326  124.197  164.257    6.754
  599.816    0.120    0.343  129.160  165.231    6.589
  600.066    0.135    0.341  134.187  166.834    6.275
  600.316    0.137    0.339  139.581  167.826    5.855
  600.566    0.140    0.350  144.423  168.390    5.639
  600.816    0.150    0.361  145.551  169.158    5.667
  601.066    0.155    0.354  135.838  169.835    5.911
  601.316    0.160    0.353  127.712  170.195    6.177
  601.566    0.152    0.359  125.305  170.360    6.309
  601.816    0.127    0.346  122.785  170.327    6.471
  602.066    0.106    0.329  121.595  170.152    6.637
  602.316    0.121    0.327  121.507  169.696    6.770
  602.566    0.156    0.336  121.173  169.644    6.767
  602.816    0.165    0.332  121.020  169.803    6.576
  603.066    0.161    0.335  122.333  169.968    6.047
  603.316    0.157    0.344  124.376  169.609    5.307
  603.566    0.151    0.341  129.524  169.349    4.278
  603.816    0.141    0.362  135.340  169.608    3.361
  604.066    0.197    0.391  142.621  170.281    2.864
  604.316    0.219    0.423  146.856  169.511    2.514
  604.566    0.220    0.446  148.654  167.618    2.494
  604.816    0.218    0.472  148.992  166.528    2.684
  605.066    0.206    0.486  139.949  165.962    3.199
  605.316    0.188    0.461  132.735  165.503    3.742
  605.566    0.142    0.365  127.650  165.358    4.385
  605.816    0.104    0.328  120.191  165.721    5.187
  606.066    0.086    0.322  122.417  166.281    5.912
  606.316    0.114    0.340  126.406  167.482    5.278
  606.566    0.151    0.363  131.920  168.261    4.684
  606.816    0.113    0.379  135.547  168.826    4.396
  607.066    0.109    0.389  139.843  169.710    4.619
  607.316    0.132    0.402  141.031  170.061    5.045
  607.566    0.094    0.408  128.942  170.737    5.760
  607.816    0.041    0.402  120.447  170.792    6.640
  608.066    0.010    0.379  108.055  170.225    7.638
  608.316   -0.007    0.214   94.931  167.602    8.772
  608.566   -0.009    0.201   96.120  165.591    9.598
  608.816    0.082    0.269  108.396  164.820    9.261
  609.066    0.094    0.318  117.685  164.882    7.922
  609.316    0.105    0.348  123.994  164.932    6.529
  609.566    0.116    0.361  127.740  165.201    5.523
  609.816    0.139    0.362  134.046  166.479    5.032
  610.066    0.158    0.365  135.678  166.663    4.536
  610.316    0.132    0.372  138.103  166.436    4.401
  610.566    0.129    0.381  134.255  166.424    4.286
  610.816    0.134    0.385  131.384  166.196    4.236
  611.066    0.135    0.395  134.356  166.178    4.179
  611.316    0.156    0.410  132.580  166.365    4.123
  611.566    0.182    0.420  132.751  166.143    4.082
  611.816    0.175    0.420  135.053  165.300    4.035
  612.066    0.129    0.404  130.476  165.692    4.008
  612.316    0.106    0.385  130.039  166.501    3.947
  612.566    0.081    0.393  133.073  167.925    3.837
  612.816    0.158    0.398  138.054  169.141    3.668
  613.066    0.186    0.391  138.956  169.635    3.546
  613.316    0.178    0.395  141.685  169.619    3.479
  613.566    0.161    0.407  143.439  169.603    3.489
  613.816    0.163    0.401  139.775  169.275    3.532
  614.066    0.165    0.398  136.903  168.532    3.608
  614.316    0.157    0.397  133.362  167.898    3.699
  614.566    0.140    0.392  129.272  166.950    3.857
  614.816    0.131    0.382  121.652  166.211    3.940
  615.066    0.119    0.371  117.379  164.541    3.952
