~VERSION INFORMATION
 VERS.                 2.0:   CWLS LOG ASCII STANDARD -VERSION 2.0
 WRAP.                  NO:   ONE LINE PER DEPTH STEP
~WELL INFORMATION BLOCK
#MNEM.UNIT           DATA                    DESCRIPTION OF MNEMONIC
#---------    -------------------            -------------------------------
# Generated from Intellog Unique Number	CS_73_76/WELL/619
WELL.         MATNARD EXPLORATION            : Well_name    - WELL
LOC .         00/06-07-073-11W4/0            : Location     - LOCATION
UWI .         00/06-07-073-11W4/0            : Uwi          - UNIQUE WELL ID
ENTR.         SP                             : Entered      - ENTERED BY
SRVC.         SCHLUMBERGER                   : Scn          - SERVICE COMPANY
STRT.M        295                            : top_depth    - START DEPTH
STOP.M        544                            : bot_depth    - STOP DEPTH
STEP.M        0.25                           : increment    - STEP LENGTH
 NULL. -999.2500:NULL Value
~CURVE INFORMATION BLOCK
#MNEM UNIT       ERCB CURVE CODE    CURVE DESCRIPTION
#-----------   ------------------   ----------------------------------
DEPT.M        00 001 00 00         : DEPTH        - DEPTH
ILD .OHMM     00 120 00 00         : RESD         - DEEP RESISTIVITY (DIL)
DPHI.V/V      00 890 00 00         : PHID         - DENSITY POROSITY (LIMESTONE)
NPHI.V/V      00 330 00 00         : PHIN         - NEUTRON POROSITY (LIMESTONE)
GR  .API      00 310 00 00         : GR           - GAMMA RAY
~PARAMETER INFORMATION
#MNEM.UNIT           DATA             DESCRIPTION OF MNEMONIC
#---------         -----------     ------------------------------
GL  .M        656.4                : gl           - GROUND LEVEL ELEVATION
EREF.M        659.2                : kb           - ELEVATION OF DEPTH REFERENCE
DATM.M        656.4                : datum        - DATUM ELEVATION
TDD .M        552.67               : tdd          - TOTAL DEPTH DRILLER
RUN .         ONE                  : Run          - RUN NUMBER
ENG .         BILL                 : Engineer     - RECORDING ENGINEER
WIT .         JIM                  : Witness      - WITNESSED BY
MUD .         GEL                  : Mud_type     - MUD TYPE
MATR.         LIMESTONE            : Logunit      - NEUTRON MATRIX
TMAX.C        19                   : BHT          - MAXIMUM RECORDED TEMPERATURE
BHTD.M        552.67               : BHTDEP       - MAXIMUM RECORDED TEMPERATURE
MATR.         1                    : LOGUNIT      - NEUTRON MATRIX
RMT .C        25                   : MDTP         - TEMPERATURE OF MUD
NEUT.         1                    : NEUTRON      - NEUTRON TYPE
RESI.         0                    : RESIST       - RESISTIVITY TYPE
RMC .OHMM     0.25                 : RMC          - RESISTIVITY OF MUD CAKE
RMF .OHMM     0.25                 : RMF          - RESISTIVITY OF MUD FILTRATE
SUFT.C        15                   : SUFT         - SURFACE TEMPERATURE
~A  DEPTH     RESD     PHID     PHIN       GR
# ...
  425.500    5.181    0.269    0.495  101.214
  425.750    5.180    0.269    0.495   98.822
  426.000    5.100    0.269    0.491   95.834
  426.250    5.021    0.269    0.503   93.442
  426.500    4.941    0.268    0.509   91.649
  426.750    4.781    0.270    0.508   91.648
  427.000    4.701    0.276    0.485   92.843
  427.250    4.779    0.282    0.466   95.232
  427.500    4.779    0.277    0.461   96.427
  427.750    5.094    0.272    0.463   97.024
  428.000    5.409    0.276    0.471   94.632
  428.250    5.566    0.276    0.476   92.839
  428.500    5.644    0.279    0.464   91.643
  428.750    5.722    0.289    0.458   89.849
  429.000    5.721    0.292    0.470   88.056
  429.250    5.562    0.283    0.482   87.458
  429.500    5.403    0.270    0.471   85.664
  429.750    5.323    0.253    0.456   84.468
  430.000    5.164    0.240    0.477   84.467
  430.250    5.084    0.230    0.496   86.259
  430.500    5.083    0.227    0.503   88.051
  430.750    5.161    0.226    0.477   88.648
  431.000    5.397    0.215    0.461   86.855
  431.250    5.712    0.207    0.439   86.854
  431.500    5.711    0.217    0.422   91.037
  431.750    5.473    0.226    0.458   96.414
  432.000    5.314    0.228    0.487   98.207
  432.250    4.997    0.236    0.489  100.596
  432.500    4.759    0.240    0.495   99.400
  432.750    4.521    0.245    0.476   97.009
  433.000    4.520    0.250    0.475   95.813
  433.250    4.598    0.249    0.487   94.617
  433.500    4.755    0.244    0.496   94.019
  433.750    4.912    0.263    0.504   96.409
  434.000    5.069    0.279    0.481   97.603
  434.250    5.305    0.285    0.483   95.212
  434.500    5.384    0.289    0.489   94.016
  434.750    5.541    0.290    0.497   92.820
  435.000    5.619    0.283    0.501   91.026
  435.250    5.539    0.277    0.495   91.026
  435.500    5.380    0.271    0.488   92.818
  435.750    5.220    0.264    0.483   94.012
  436.000    5.061    0.260    0.482   93.414
  436.250    4.902    0.259    0.488   93.413
  436.500    4.822    0.275    0.484   92.815
  436.750    4.821    0.275    0.487   89.826
  437.000    4.900    0.275    0.482   88.630
  437.250    5.057    0.278    0.484   89.825
  437.500    5.293    0.271    0.478   88.031
  437.750    5.529    0.268    0.471   86.237
  438.000    5.765    0.261    0.474   85.042
  438.250    5.922    0.252    0.473   86.834
  438.500    6.000    0.249    0.464   89.224
  438.750    5.999    0.249    0.467   90.418
  439.000    6.077    0.245    0.470   89.222
  439.250    5.997    0.242    0.462   89.819
  439.500    5.997    0.245    0.478   93.404
  439.750    5.916    0.247    0.493   95.196
  440.000    5.916    0.255    0.489   95.195
  440.250    5.835    0.261    0.486   96.987
  440.500    5.756    0.256    0.484   96.987
  440.750    5.675    0.255    0.484   96.388
  441.000    5.595    0.262    0.486   95.790
  441.250    5.515    0.265    0.480   95.789
  441.500    5.435    0.258    0.479   98.179
  441.750    5.355    0.252    0.482   99.374
  442.000    5.275    0.256    0.476   99.970
  442.250    5.116    0.259    0.473   99.372
  442.500    4.878    0.259    0.481   97.578
  442.750    4.719    0.262    0.492   95.785
  443.000    4.481    0.262    0.496   95.186
  443.250    4.242    0.263    0.507   95.186
  443.500    3.925    0.264    0.514   97.576
  443.750    3.846    0.256    0.508   99.965
  444.000    3.686    0.251    0.510  101.160
  444.250    3.527    0.249    0.496  100.561
  444.500    3.526    0.250    0.482   96.377
  444.750    3.605    0.238    0.475   91.596
  445.000    3.919    0.238    0.469   88.607
  445.250    4.235    0.230    0.470   88.606
  445.500    4.550    0.226    0.468   90.398
  445.750    4.944    0.232    0.453   95.178
  446.000    5.101    0.223    0.459   98.763
  446.250    5.258    0.223    0.479  101.153
  446.500    5.258    0.207    0.487  101.750
  446.750    5.098    0.211    0.477   99.359
  447.000    5.019    0.226    0.479   97.565
  447.250    4.859    0.221    0.477   97.565
  447.500    4.779    0.208    0.487   99.954
  447.750    4.778    0.201    0.494  101.746
  448.000    4.936    0.198    0.481  103.539
  448.250    5.172    0.189    0.472  102.343
  448.500    5.408    0.188    0.463  101.147
  448.750    5.565    0.195    0.455   99.353
  449.000    5.801    0.202    0.448  100.548
  449.250    5.959    0.211    0.457  101.144
  449.500    6.036    0.214    0.475   98.753
  449.750    6.035    0.216    0.485   98.155
  450.000    6.034    0.226    0.474   98.154
  450.250    5.955    0.234    0.469   99.349
  450.500    5.874    0.238    0.479  101.141
  450.750    5.715    0.243    0.492  101.738
  451.000    5.556    0.242    0.481  102.334
  451.250    5.476    0.234    0.487  104.127
  451.500    5.396    0.233    0.489  104.126
  451.750    5.316    0.232    0.494  102.930
  452.000    5.157    0.226    0.500  100.539
  452.250    5.077    0.225    0.491   99.343
  452.500    4.997    0.231    0.480   97.549
  452.750    4.996    0.233    0.475   96.951
  453.000    4.916    0.232    0.473   96.352
  453.250    4.915    0.231    0.469   96.352
  453.500    4.835    0.221    0.467   96.351
  453.750    4.834    0.218    0.465   96.948
  454.000    4.833    0.216    0.473   97.545
  454.250    4.832    0.217    0.462   96.946
  454.500    4.910    0.230    0.448   95.750
  454.750    4.830    0.242    0.450   95.750
  455.000    4.829    0.252    0.456   95.749
  455.250    4.828    0.252    0.470   96.943
  455.500    4.748    0.256    0.486   97.541
  455.750    4.510    0.265    0.502   98.735
  456.000    4.193    0.270    0.512   98.734
  456.250    3.797    0.271    0.507   98.136
  456.500    3.163    0.272    0.500   99.331
  456.750    2.846    0.277    0.502  101.123
  457.000    2.608    0.281    0.528  102.915
  457.250    2.370    0.267    0.560  102.316
  457.500    2.211    0.256    0.565  102.913
  457.750    2.131    0.249    0.559  104.108
  458.000    2.051    0.242    0.554  103.509
  458.250    1.971    0.232    0.557   99.923
  458.500    2.049    0.225    0.561   98.727
  458.750    2.364    0.235    0.561   98.129
  459.000    2.442    0.237    0.547   96.933
  459.250    2.836    0.242    0.500   96.334
  459.500    3.152    0.248    0.484   98.126
  459.750    3.546    0.246    0.479   99.321
  460.000    3.861    0.240    0.475  101.113
  460.250    4.176    0.230    0.471  100.515
  460.500    4.333    0.222    0.476  100.514
  460.750    4.412    0.220    0.471  100.513
  461.000    4.568    0.201    0.471  100.512
  461.250    4.567    0.195    0.479   99.914
  461.500    4.645    0.193    0.469   95.730
  461.750    4.645    0.192    0.460   90.949
  462.000    4.722    0.198    0.458   88.558
  462.250    4.722    0.190    0.460   95.130
  462.500    4.879    0.200    0.458   96.325
  462.750    5.115    0.199    0.452   91.543
  463.000    5.509    0.198    0.442   85.566
  463.250    6.141    0.197    0.432   81.382
  463.500    6.535    0.208    0.415   77.796
  463.750    6.850    0.212    0.403   76.600
  464.000    6.929    0.213    0.402   77.197
  464.250    6.928    0.222    0.419   79.587
  464.500    6.531    0.222    0.441   82.574
  464.750    6.214    0.226    0.458   83.171
  465.000    6.055    0.232    0.447   83.170
  465.250    5.975    0.224    0.434   80.181
  465.500    5.816    0.212    0.428   81.376
  465.750    5.815    0.204    0.436   83.168
  466.000    5.814    0.197    0.452   83.765
  466.250    5.654    0.199    0.464   80.776
  466.500    5.575    0.207    0.458   82.568
  466.750    5.100    0.219    0.468   89.141
  467.000    4.545    0.219    0.484   98.702
  467.250    4.149    0.223    0.503  105.275
  467.500    3.673    0.218    0.519  108.263
  467.750    3.515    0.214    0.523  110.054
  468.000    3.198    0.210    0.526  110.054
  468.250    2.959    0.200    0.538  110.053
  468.500    2.800    0.193    0.539  108.857
  468.750    2.720    0.197    0.524  108.259
