~VERSION INFORMATION
 VERS.                 2.0:   CWLS LOG ASCII STANDARD -VERSION 2.0
 WRAP.                  NO:   ONE LINE PER DEPTH STEP
~WELL INFORMATION BLOCK
#MNEM.UNIT           DATA                    DESCRIPTION OF MNEMONIC
#---------    -------------------            -------------------------------
# Generated from Intellog Unique Number	CS_73_76/WELL/2160
WELL.         GULF NISBET                    : Well_name    - WELL
LOC .         00/06-08-074-01W4/0            : Location     - LOCATION
UWI .         00/06-08-074-01W4/0            : Uwi          - UNIQUE WELL ID
ENTR.         SP                             : Entered      - ENTERED BY
SRVC.         SCHLUMBERGER                   : Scn          - SERVICE COMPANY
STRT.M        350                            : top_depth    - START DEPTH
STOP.M        630                            : bot_depth    - STOP DEPTH
STEP.M        0.25                           : increment    - STEP LENGTH
 NULL. -999.2500:NULL Value
~CURVE INFORMATION BLOCK
#MNEM UNIT       ERCB CURVE CODE    CURVE DESCRIPTION
#-----------   ------------------   ----------------------------------
DEPT.M        00 001 00 00         : DEPTH        - DEPTH
ILD .OHMM     00 120 00 00         : RESD         - DEEP RESISTIVITY (DIL)
NPHI.V/V      00 330 00 00         : PHIN         - NEUTRON POROSITY (LIMESTONE)
DPHI.V/V      00 890 00 00         : PHID         - DENSITY POROSITY (LIMESTONE)
GR  .API      00 310 00 00         : GR           - GAMMA RAY
~PARAMETER INFORMATION
#MNEM.UNIT           DATA             DESCRIPTION OF MNEMONIC
#---------         -----------     ------------------------------
GL  .M        705.5                : gl           - GROUND LEVEL ELEVATION
EREF.M        709.2                : kb           - ELEVATION OF DEPTH REFERENCE
DATM.M        705.5                : datum        - DATUM ELEVATION
TDD .M        640                  : tdd          - TOTAL DEPTH DRILLER
RUN .         ONE                  : Run          - RUN NUMBER
ENG .         BILL                 : Engineer     - RECORDING ENGINEER
WIT .         JIM                  : Witness      - WITNESSED BY
MUD .         GEL                  : Mud_type     - MUD TYPE
MATR.         LIMESTONE            : Logunit      - NEUTRON MATRIX
TMAX.C        19.5                 : BHT          - MAXIMUM RECORDED TEMPERATURE
BHTD.M        640                  : BHTDEP       - MAXIMUM RECORDED TEMPERATURE
MATR.         1                    : LOGUNIT      - NEUTRON MATRIX
RMT .C        25                   : MDTP         - TEMPERATURE OF MUD
NEUT.         1                    : NEUTRON      - NEUTRON TYPE
RESI.         0                    : RESIST       - RESISTIVITY TYPE
RMC .OHMM     0.25                 : RMC          - RESISTIVITY OF MUD CAKE
RMF .OHMM     0.25                 : RMF          - RESISTIVITY OF MUD FILTRATE
SUFT.C        15                   : SUFT         - SURFACE TEMPERATURE
~A  DEPTH     RESD     PHIN     PHID       GR
# ...
  437.000    5.118    0.446    0.243  103.964
  437.250    4.930    0.440    0.236  100.934
  437.500    4.929    0.443    0.241   97.288
  437.750    4.929    0.459    0.257   99.744
  438.000    5.022    0.476    0.252  100.977
  438.250    5.310    0.492    0.263   98.550
  438.500    5.830    0.505    0.276   97.346
  438.750    6.399    0.492    0.285   95.532
  439.000    6.767    0.480    0.286   90.060
  439.250    6.894    0.468    0.291   85.804
  439.500    7.024    0.442    0.292   86.432
  439.750    7.156    0.452    0.287   88.273
  440.000    7.427    0.460    0.283   87.068
  440.250    7.427    0.460    0.293   84.645
  440.500    7.566    0.460    0.311   79.781
  440.750    7.708    0.459    0.323   75.528
  441.000    7.852    0.435    0.335   71.886
  441.250    8.000    0.447    0.338   70.679
  441.500    7.999    0.434    0.334   73.136
  441.750    8.149    0.426    0.328   74.369
  442.000    8.149    0.423    0.322   75.602
  442.250    8.301    0.412    0.324   75.621
  442.500    8.457    0.397    0.322   74.414
  442.750    8.456    0.390    0.322   70.159
  443.000    8.456    0.404    0.325   66.516
  443.250    8.145    0.422    0.329   67.750
  443.500    7.994    0.445    0.329   69.595
  443.750    7.700    0.456    0.324   72.052
  444.000    7.557    0.460    0.318   72.675
  444.250    7.279    0.456    0.322   72.079
  444.500    7.279    0.449    0.325   70.263
  444.750    7.144    0.457    0.325   70.278
  445.000    7.011    0.463    0.325   71.513
  445.250    7.010    0.465    0.328   73.967
  445.500    6.880    0.463    0.331   76.423
  445.750    6.880    0.444    0.334   78.265
  446.000    7.009    0.427    0.336   79.499
  446.250    7.412    0.450    0.334   78.297
  446.500    7.986    0.486    0.324   76.481
  446.750    8.445    0.486    0.313   75.275
  447.000    8.444    0.481    0.298   74.682
  447.250    7.691    0.463    0.287   73.476
  447.500    7.005    0.387    0.275   71.054
  447.750    6.748    0.349    0.259   69.846
  448.000    6.380    0.331    0.238   73.524
  448.250    5.920    0.361    0.216   79.025
  448.500    5.494    0.393    0.259   84.525
  448.750    5.292    0.417    0.287   89.418
  449.000    5.391    0.445    0.317   93.093
  449.250    5.596    0.448    0.308   92.500
  449.500    5.918    0.454    0.302   89.465
  449.750    6.142    0.452    0.303   87.653
  450.000    6.375    0.449    0.311   84.008
  450.250    6.495    0.457    0.317   80.362
  450.500    6.494    0.454    0.323   80.988
  450.750    6.374    0.480    0.324   84.051
  451.000    6.373    0.449    0.321   85.284
  451.250    6.255    0.446    0.314   81.646
  451.500    6.255    0.459    0.310   79.827
  451.750    6.254    0.469    0.309   83.501
  452.000    6.138    0.459    0.309   87.174
  452.250    6.024    0.450    0.304   87.799
  452.500    6.023    0.442    0.296   84.764
  452.750    5.911    0.438    0.298   81.121
  453.000    5.801    0.447    0.299   81.746
  453.250    5.694    0.464    0.293   85.424
  453.500    5.485    0.476    0.287   86.653
  453.750    5.283    0.457    0.287   89.108
  454.000    4.995    0.449    0.284   90.950
  454.250    4.902    0.462    0.274   93.407
  454.500    4.811    0.495    0.268   95.252
  454.750    4.722    0.514    0.286   97.703
  455.000    4.810    0.523    0.300  101.379
  455.250    5.087    0.515    0.305  103.833
  455.500    5.584    0.525    0.301  104.456
  455.750    3.635    0.551    0.294  102.645
  456.000    2.646    0.541    0.286  101.440
  456.250    1.926    0.514    0.251  102.062
  456.500    1.754    0.514    0.233  104.515
  456.750    1.787    0.512    0.220  106.360
  457.000    1.890    0.519    0.233  108.813
  457.250    2.278    0.524    0.240  107.000
  457.500    2.745    0.510    0.251  107.622
  457.750    3.070    0.505    0.238  110.081
  458.000    3.247    0.498    0.240  110.702
  458.250    3.434    0.486    0.241  110.107
  458.500    3.564    0.501    0.240  109.511
  458.750    3.631    0.514    0.241  112.575
  459.000    3.912    0.491    0.253  115.030
  459.250    4.061    0.514    0.256  116.876
  459.500    4.060    0.517    0.248  114.452
  459.750    3.839    0.505    0.241  112.026
  460.000    3.768    0.506    0.231  108.383
  460.250    3.697    0.515    0.226  107.179
  460.500    3.629    0.520    0.236  107.802
  460.750    3.496    0.538    0.242  106.598
  461.000    3.367    0.551    0.249  104.785
  461.250    3.367    0.520    0.260  105.407
  461.500    3.366    0.562    0.266  107.861
  461.750    3.366    0.569    0.279  109.709
  462.000    3.430    0.569    0.293  109.722
  462.250    3.560    0.591    0.301  106.688
  462.500    3.764    0.564    0.301  104.873
  462.750    3.907    0.553    0.301  103.669
  463.000    4.289    0.576    0.302  104.904
  463.250    4.452    0.596    0.313  107.357
  463.500    4.621    0.599    0.341  107.373
  463.750    4.796    0.584    0.337  106.166
  464.000    4.886    0.520    0.330  102.524
  464.250    4.886    0.493    0.283  100.710
  464.500    4.707    0.462    0.265  100.727
  464.750    4.534    0.448    0.257  102.569
  465.000    4.207    0.449    0.260  104.413
  465.250    4.129    0.495    0.268  103.206
  465.500    3.977    0.526    0.264   98.954
  465.750    3.903    0.538    0.268  100.189
  466.000    3.903    0.517    0.278   99.593
  466.250    3.976    0.533    0.273   98.391
  466.500    4.127    0.554    0.268   99.626
  466.750    4.284    0.539    0.264   99.638
  467.000    4.616    0.497    0.258   97.217
  467.250    4.791    0.484    0.274   94.180
  467.500    4.973    0.475    0.261   91.755
  467.750    5.066    0.451    0.247   92.989
  468.000    5.258    0.458    0.241   94.835
  468.250    5.458    0.474    0.245   99.727
  468.500    5.560    0.476    0.252  103.399
  468.750    5.560    0.482    0.253  100.366
  469.000    5.664    0.481    0.258   97.941
  469.250    5.456    0.475    0.252   96.738
  469.500    5.355    0.472    0.262   94.922
  469.750    5.063    0.465    0.265   97.377
  470.000    4.877    0.464    0.270   99.831
  470.250    4.698    0.489    0.275  101.066
  470.500    4.525    0.484    0.276  101.080
  470.750    4.441    0.470    0.272  100.485
  471.000    4.358    0.458    0.280   96.843
  471.250    4.198    0.458    0.282   94.419
  471.500    4.044    0.475    0.289   90.773
  471.750    4.044    0.464    0.301   87.129
  472.000    3.895    0.460    0.290   87.144
  472.250    3.823    0.469    0.285   90.822
  472.500    3.682    0.488    0.279   93.274
  472.750    3.682    0.475    0.282   95.116
  473.000    3.481    0.481    0.294   97.570
  473.250    3.291    0.523    0.311  102.465
  473.500    3.112    0.540    0.311  109.797
  473.750    2.998    0.581    0.308  112.860
  474.000    2.888    0.574    0.286  116.532
  474.250    2.887    0.568    0.276  114.110
  474.500    2.941    0.537    0.280  110.468
  474.750    2.997    0.518    0.275  109.260
  475.000    2.996    0.546    0.286  108.055
  475.250    2.996    0.572    0.285  109.290
  475.500    2.940    0.582    0.291  109.915
  475.750    2.886    0.566    0.304  106.275
  476.000    2.832    0.546    0.315  100.798
  476.250    2.780    0.533    0.318   91.668
  476.500    2.728    0.543    0.316   83.148
  476.750    2.677    0.504    0.315   79.502
  477.000    2.627    0.461    0.321   74.636
  477.250    2.579    0.435    0.326   70.994
  477.500    2.579    0.442    0.331   67.960
  477.750    2.531    0.458    0.336   68.589
  478.000    2.531    0.473    0.336   70.434
  478.250    2.578    0.467    0.333   72.885
  478.500    2.578    0.445    0.330   75.336
  478.750    2.626    0.441    0.326   74.134
  479.000    2.626    0.449    0.332   72.317
  479.250    2.675    0.449    0.338   70.502
  479.500    2.675    0.428    0.340   68.082
  479.750    2.675    0.417    0.338   66.266
  480.000    2.725    0.413    0.340   66.281
  480.250    2.776    0.414    0.341   67.516
