~VERSION INFORMATION
 VERS.                 2.0:   CWLS LOG ASCII STANDARD -VERSION 2.0
 WRAP.                  NO:   ONE LINE PER DEPTH STEP
~WELL INFORMATION BLOCK
#MNEM.UNIT           DATA                    DESCRIPTION OF MNEMONIC
#---------    -------------------            -------------------------------
# Generated from Intellog Unique Number	CS_73_76/WELL/2171
WELL.         UNIVERSAL EXPLORATIONS LT      : Well_name    - WELL
LOC .         00/06-33-074-13W4/0            : Location     - LOCATION
UWI .         00/06-33-074-13W4/0            : Uwi          - UNIQUE WELL ID
ENTR.         SP                             : Entered      - ENTERED BY
SRVC.         SCHLUMBERGER                   : Scn          - SERVICE COMPANY
STRT.M        371.856                        : top_depth    - START DEPTH
STOP.M        600.106                        : bot_depth    - STOP DEPTH
STEP.M        0.25                           : increment    - STEP LENGTH
 NULL. -999.2500:NULL Value
~CURVE INFORMATION BLOCK
#MNEM UNIT       ERCB CURVE CODE    CURVE DESCRIPTION
#-----------   ------------------   ----------------------------------
DEPT.M        00 001 00 00         : DEPTH        - DEPTH
GR  .API      00 310 00 00         : GR           - GAMMA RAY
DPHI.V/V      00 890 00 00         : PHID         - DENSITY POROSITY (SANDSTONE)
NPHI.V/V      00 330 00 00         : PHIN         - NEUTRON POROSITY (SANDSTONE)
ILD .OHMM     00 120 00 00         : RESD         - DEEP RESISTIVITY (DIL)
~PARAMETER INFORMATION
#MNEM.UNIT           DATA             DESCRIPTION OF MNEMONIC
#---------         -----------     ------------------------------
GL  .M        731.672              : gl           - GROUND LEVEL ELEVATION
EREF.M        734.873              : kb           - ELEVATION OF DEPTH REFERENCE
DATM.M        731.672              : datum        - DATUM ELEVATION
TDD .M        614.172              : tdd          - TOTAL DEPTH DRILLER
RUN .         ONE                  : Run          - RUN NUMBER
ENG .         BILL                 : Engineer     - RECORDING ENGINEER
WIT .         JIM                  : Witness      - WITNESSED BY
MUD .         GEL                  : Mud_type     - MUD TYPE
MATR.         SANDSTONE            : Logunit      - NEUTRON MATRIX
TMAX.C        25.5556              : BHT          - MAXIMUM RECORDED TEMPERATURE
BHTD.M        611.124              : BHTDEP       - MAXIMUM RECORDED TEMPERATURE
MATR.         1                    : LOGUNIT      - NEUTRON MATRIX
RMT .C        25                   : MDTP         - TEMPERATURE OF MUD
NEUT.         1                    : NEUTRON      - NEUTRON TYPE
RESI.         0                    : RESIST       - RESISTIVITY TYPE
RMC .OHMM     0.25                 : RMC          - RESISTIVITY OF MUD CAKE
RMF .OHMM     0.25                 : RMF          - RESISTIVITY OF MUD FILTRATE
SUFT.C        15                   : SUFT         - SURFACE TEMPERATURE
~A  DEPTH       GR     PHID     PHIN     RESD
  371.856  106.274    0.230    0.533    2.741
  372.106  108.930    0.216    0.530    2.828
  372.356  109.886    0.216    0.529    2.926
  372.606  107.639    0.225    0.523    3.115
  372.856  104.894    0.212    0.512    3.277
  373.106  103.792    0.218    0.508    3.454
  373.356  103.849    0.221    0.493    3.492
  373.606  104.335    0.214    0.481    3.539
  373.856  106.476    0.221    0.474    3.497
  374.106  108.427    0.207    0.473    3.337
  374.356  111.762    0.202    0.468    3.250
  374.606  113.605    0.198    0.468    3.188
  374.856  113.677    0.197    0.478    3.149
  375.106  110.783    0.210    0.482    3.133
  375.356  110.470    0.227    0.474    3.132
  375.606  109.367    0.222    0.456    3.140
  375.856  107.764    0.216    0.447    3.082
  376.106  107.298    0.226    0.461    3.132
  376.356  107.179    0.217    0.470    3.221
  376.606  104.696    0.202    0.476    3.399
  376.856   97.917    0.197    0.446    3.659
  377.106   95.532    0.206    0.457    4.069
  377.356   93.707    0.051    0.469    4.403
  377.606   86.586    0.031    0.470    4.881
  377.856   77.907    0.017    0.439    5.393
  378.106   69.767    0.200    0.386    5.922
  378.356   77.655    0.241    0.420    6.114
  378.606   78.665    0.261    0.423    6.151
  378.856   79.370    0.258    0.431    6.047
  379.106   84.102    0.272    0.443    5.939
  379.356   89.283    0.259    0.449    5.676
  379.606   84.218    0.258    0.442    5.510
  379.856   79.839    0.256    0.440    5.464
  380.106   81.339    0.254    0.443    5.295
  380.356   81.361    0.260    0.437    5.378
  380.606   79.784    0.245    0.433    5.578
  380.856   78.194    0.239    0.439    5.938
  381.106   77.991    0.236    0.445    5.941
  381.356   75.548    0.231    0.427    5.793
  381.606   76.968    0.245    0.431    5.515
  381.856   78.961    0.244    0.440    5.119
  382.106   82.164    0.236    0.431    4.892
  382.356   89.274    0.232    0.431    4.592
  382.606   95.222    0.229    0.443    4.355
  382.856  105.930    0.244    0.455    4.224
  383.106  108.461    0.255    0.464    4.297
  383.356  107.429    0.261    0.481    4.468
  383.606  102.235    0.250    0.491    4.865
  383.856   97.898    0.257    0.502    5.100
  384.106   93.540    0.242    0.486    5.259
  384.356   92.744    0.246    0.470    5.316
  384.606   92.188    0.255    0.450    5.051
  384.856   97.222    0.223    0.429    4.884
  385.106  101.731    0.209    0.412    4.677
  385.356  104.765    0.202    0.408    4.443
  385.606  108.320    0.209    0.419    4.314
  385.856  110.788    0.201    0.418    4.254
  386.106  110.368    0.210    0.442    4.254
  386.356  105.258    0.221    0.464    4.249
  386.606  114.974    0.222    0.477    4.177
  386.856  114.821    0.213    0.485    4.187
  387.106  115.176    0.216    0.473    4.102
  387.356  113.301    0.196    0.464    4.051
  387.606  111.109    0.201    0.465    4.038
  387.856  113.333    0.198    0.474    3.956
  388.106  113.173    0.196    0.477    3.944
  388.356  112.761    0.202    0.473    4.137
  388.606  113.257    0.198    0.469    4.257
  388.856  115.116    0.198    0.465    4.389
  389.106  113.791    0.195    0.474    4.518
  389.356  112.380    0.214    0.483    4.513
  389.606  110.646    0.210    0.493    4.518
  389.856  112.837    0.199    0.500    4.414
  390.106  114.751    0.200    0.484    4.264
  390.356  116.459    0.201    0.481    4.294
  390.606  117.582    0.222    0.466    4.436
  390.856  118.041    0.231    0.445    4.573
  391.106  114.550    0.203    0.455    4.699
  391.356  110.472    0.209    0.470    4.692
  391.606  104.903    0.223    0.482    4.648
  391.856  106.414    0.244    0.490    4.507
  392.106  112.509    0.241    0.474    4.292
  392.356  114.380    0.214    0.472    4.083
  392.606  113.876    0.213    0.491    3.888
  392.856  113.432    0.205    0.503    3.815
  393.106  112.025    0.186    0.519    4.079
  393.356  114.247    0.131    0.477    4.389
  393.606  122.430    0.111    0.465    5.129
  393.856  127.328    0.225    0.458    6.244
  394.106  123.026    0.241    0.436    7.495
  394.356  116.453    0.252    0.424    8.205
  394.606  115.640    0.247    0.425    8.954
  394.856  114.554    0.248    0.419    9.042
  395.106  112.306    0.253    0.420    8.933
  395.356  109.318    0.254    0.426    9.060
  395.606  105.242    0.250    0.429    9.178
  395.856  102.533    0.245    0.431    9.331
  396.106   97.606    0.256    0.433    9.007
  396.356   92.112    0.253    0.435    8.305
  396.606   87.073    0.249    0.429    7.731
  396.856   83.090    0.259    0.425    6.959
  397.106   96.773    0.260    0.433    6.344
  397.356  110.196    0.241    0.457    5.990
  397.606  119.779    0.199    0.469    6.114
  397.856  121.180    0.197    0.451    6.701
  398.106  120.312    0.202    0.419    7.336
  398.356  120.035    0.198    0.414    8.187
  398.606  116.689    0.215    0.421    8.831
  398.856  110.971    0.216    0.427    9.311
  399.106  110.080    0.223    0.407    9.592
  399.356  111.586    0.242    0.403    9.829
  399.606  110.019    0.246    0.423    9.400
  399.856  106.306    0.245    0.424    9.107
  400.106  105.307    0.250    0.407    8.977
  400.356  104.705    0.242    0.403    8.586
  400.606  100.927    0.245    0.411    8.177
  400.856   94.799    0.246    0.417    7.766
  401.106  103.612    0.233    0.422    7.552
  401.356  115.486    0.228    0.425    7.406
  401.606  122.468    0.240    0.414    7.254
  401.856  120.567    0.246    0.405    7.261
  402.106  117.443    0.227    0.427    7.513
  402.356  115.272    0.204    0.449    8.161
  402.606  109.239    0.180    0.463    8.623
  402.856   95.064    0.164    0.451    9.335
  403.106   77.078    0.150    0.367   10.009
  403.356   66.251    0.108    0.348   10.317
  403.606   71.171    0.232    0.372   10.324
  403.856   76.040    0.267    0.393   10.002
  404.106   79.570    0.279    0.387    9.591
  404.356   84.016    0.268    0.384    9.243
  404.606   89.085    0.250    0.385    8.959
  404.856   94.816    0.230    0.391    8.617
  405.106   98.721    0.218    0.370    8.086
  405.356   99.211    0.212    0.362    7.247
  405.606  101.270    0.207    0.375    6.556
  405.856  106.130    0.197    0.390    5.793
  406.106  109.948    0.201    0.407    5.275
  406.356  115.633    0.186    0.426    5.085
  406.606  119.223    0.182    0.450    4.927
  406.856  117.956    0.190    0.461    4.932
  407.106  112.185    0.202    0.467    4.948
  407.356  105.469    0.220    0.454    5.115
  407.606  103.118    0.229    0.446    5.166
  407.856  109.548    0.234    0.446    5.336
  408.106  113.469    0.240    0.463    5.497
  408.356  116.016    0.243    0.472    5.836
  408.606  115.376    0.254    0.460    6.197
  408.856  114.160    0.263    0.433    6.362
  409.106  115.702    0.231    0.420    6.900
  409.356  114.195    0.217    0.437    7.319
  409.606  108.475    0.234    0.437    7.538
  409.856  101.470    0.243    0.421    7.731
  410.106  102.742    0.238    0.413    7.879
  410.356  104.673    0.240    0.410    7.719
  410.606  103.705    0.238    0.403    7.729
  410.856  102.790    0.219    0.401    7.867
  411.106  102.496    0.197    0.408    8.127
  411.356  101.500    0.192    0.416    8.183
  411.606   98.153    0.198    0.423    8.206
  411.856   92.642    0.201    0.428    7.688
  412.106   90.686    0.193    0.436    7.174
  412.356   95.341    0.156    0.436    6.859
  412.606  101.615    0.206    0.448    6.588
  412.856  105.785    0.225    0.445    6.310
  413.106  105.842    0.212    0.437    6.384
  413.356  104.265    0.209    0.454    6.582
  413.606   99.924    0.234    0.463    6.920
  413.856   94.400    0.250    0.461    7.131
  414.106   92.922    0.250    0.449    7.563
  414.356   91.301    0.268    0.448    8.178
  414.606   87.945    0.279    0.447    8.500
  414.856   82.186    0.272    0.444    9.035
  415.106   76.634    0.267    0.441    9.607
