~VERSION INFORMATION
 VERS.                 2.0:   CWLS LOG ASCII STANDARD -VERSION 2.0
 WRAP.                  NO:   ONE LINE PER DEPTH STEP
~WELL INFORMATION BLOCK
#MNEM.UNIT           DATA                    DESCRIPTION OF MNEMONIC
#---------    -------------------            -------------------------------
# Generated from Intellog Unique Number	CS_69_70/WELL/800
WELL.         AEC FISHER CRK                 : Well_name    - WELL
LOC .         00/06-19-069-04W4/0            : Location     - LOCATION
UWI .         00/06-19-069-04W4/0            : Uwi          - UNIQUE WELL ID
ENTR.         SP                             : Entered      - ENTERED BY
SRVC.         SCHLUMBERGER                   : Scn          - SERVICE COMPANY
STRT.M        300                            : top_depth    - START DEPTH
STOP.M        550                            : bot_depth    - STOP DEPTH
STEP.M        0.25                           : increment    - STEP LENGTH
 NULL. -999.2500:NULL Value
~CURVE INFORMATION BLOCK
#MNEM UNIT       ERCB CURVE CODE    CURVE DESCRIPTION
#-----------   ------------------   ----------------------------------
DEPT.M        00 001 00 00         : DEPTH        - DEPTH
ILD .OHMM     00 120 00 00         : RESD         - DEEP RESISTIVITY (DIL)
DPHI.V/V      00 890 00 00         : PHID         - DENSITY POROSITY (LIMESTONE)
NPHI.V/V      00 330 00 00         : PHIN         - NEUTRON POROSITY (LIMESTONE)
GR  .API      00 310 00 00         : GR           - GAMMA RAY
~PARAMETER INFORMATION
#MNEM.UNIT           DATA             DESCRIPTION OF MNEMONIC
#---------         -----------     ------------------------------
GL  .M        687.9                : gl           - GROUND LEVEL ELEVATION
EREF.M        691.6                : kb           - ELEVATION OF DEPTH REFERENCE
DATM.M        687.9                : datum        - DATUM ELEVATION
TDD .M        557                  : tdd          - TOTAL DEPTH DRILLER
RUN .         ONE                  : Run          - RUN NUMBER
ENG .         BILL                 : Engineer     - RECORDING ENGINEER
WIT .         JIM                  : Witness      - WITNESSED BY
MUD .         GEL                  : Mud_type     - MUD TYPE
MATR.         LIMESTONE            : Logunit      - NEUTRON MATRIX
TMAX.C        21                   : BHT          - MAXIMUM RECORDED TEMPERATURE
BHTD.M        5572                 : BHTDEP       - MAXIMUM RECORDED TEMPERATURE
MATR.         1                    : LOGUNIT      - NEUTRON MATRIX
RMT .C        25                   : MDTP         - TEMPERATURE OF MUD
NEUT.         1                    : NEUTRON      - NEUTRON TYPE
RESI.         0                    : RESIST       - RESISTIVITY TYPE
RMC .OHMM     0.25                 : RMC          - RESISTIVITY OF MUD CAKE
RMF .OHMM     0.25                 : RMF          - RESISTIVITY OF MUD FILTRATE
SUFT.C        15                   : SUFT         - SURFACE TEMPERATURE
~A  DEPTH     RESD     PHID     PHIN       GR
# ...
  474.000   13.945    0.220    0.325   65.406
  474.250   11.976    0.237    0.356   70.945
  474.500   10.227    0.239    0.379   76.361
  474.750    8.193    0.221    0.410   80.987
  475.000    6.688    0.232    0.414   84.699
  475.250    4.724    0.227    0.418   87.558
  475.500    3.857    0.224    0.440   89.931
  475.750    3.465    0.232    0.459   92.425
  476.000    3.148    0.237    0.470   93.520
  476.250    2.931    0.232    0.476   92.910
  476.500    2.871    0.241    0.483   90.534
  476.750    2.860    0.249    0.491   89.437
  477.000    2.865    0.254    0.489   90.166
  477.250    2.870    0.237    0.475   91.382
  477.500    2.914    0.231    0.463   92.415
  477.750    2.969    0.234    0.452   93.510
  478.000    3.117    0.224    0.452   93.934
  478.250    3.304    0.217    0.465   93.568
  478.500    3.508    0.217    0.470   92.714
  478.750    3.712    0.213    0.460   90.643
  479.000    3.949    0.207    0.445   89.363
  479.250    4.100    0.212    0.433   88.631
  479.500    4.233    0.211    0.422   90.516
  479.750    4.337    0.206    0.416   92.098
  480.000    4.444    0.216    0.415   91.609
  480.250    4.536    0.220    0.424   89.843
  480.500    4.675    0.208    0.443   89.719
  480.750    4.808    0.202    0.458   88.683
  481.000    5.125    0.218    0.451   77.541
  481.250    5.955    0.238    0.398   68.104
  481.500    7.489    0.215    0.374   62.197
  481.750    9.870    0.164    0.371   59.213
  482.000   12.389    0.126    0.336   53.611
  482.250   15.492    0.082    0.287   51.540
  482.500   17.602    0.047    0.299   58.782
  482.750   18.240    0.101    0.355   64.199
  483.000   19.552    0.243    0.392   61.823
  483.250   21.196    0.300    0.398   60.117
  483.500   23.195    0.297    0.399   59.081
  483.750   25.912    0.290    0.405   57.436
  484.000   28.893    0.288    0.407   52.382
  484.250   33.325    0.308    0.404   50.493
  484.500   37.581    0.319    0.407   56.519
  484.750   40.208    0.328    0.403   61.691
  485.000   40.738    0.332    0.400   64.430
  485.250   39.753    0.339    0.408   68.263
  485.500   38.141    0.326    0.410   70.027
  485.750   36.185    0.317    0.410   66.982
  486.000   33.374    0.322    0.418   62.597
  486.250   31.191    0.324    0.426   62.352
  486.500   28.553    0.317    0.429   65.151
  486.750   26.040    0.313    0.423   65.028
  487.000   24.382    0.312    0.420   65.514
  487.250   21.904    0.313    0.425   67.826
  487.500   20.052    0.297    0.420   73.425
  487.750   18.083    0.283    0.407   79.267
  488.000   15.384    0.272    0.397   85.415
  488.250   13.312    0.267    0.387   87.970
  488.500   11.304    0.260    0.381   86.325
  488.750   10.174    0.248    0.374   88.210
  489.000    9.562    0.224    0.371   90.400
  489.250    9.072    0.221    0.366   92.165
  489.500    9.174    0.230    0.375   93.563
  489.750    9.330    0.228    0.382   89.787
  490.000    9.524    0.234    0.385   74.384
  490.250    9.704    0.255    0.374   65.434
  490.500    9.888    0.275    0.365   70.364
  490.750   10.113    0.251    0.359   76.876
  491.000   10.131    0.221    0.354   82.049
  491.250    9.867    0.210    0.343   84.969
  491.500    9.557    0.210    0.333   84.968
  491.750    9.431    0.212    0.327   84.784
  492.000    9.395    0.211    0.323   85.269
  492.250    9.395    0.205    0.325   87.094
  492.500    9.554    0.198    0.343   79.544
  492.750   10.300    0.224    0.384   69.437
  493.000   12.545    0.276    0.388   64.322
  493.250   13.962    0.288    0.370   59.694
  493.500   14.798    0.273    0.348   64.867
  493.750   15.106    0.243    0.340   71.014
  494.000   14.171    0.223    0.340   76.248
  494.250   12.875    0.207    0.354   70.585
  494.500   11.943    0.216    0.355   61.331
  494.750   11.545    0.255    0.348   54.024
  495.000   12.213    0.274    0.338   58.406
  495.250   12.872    0.267    0.334   62.726
  495.500   13.876    0.275    0.369   66.195
  495.750   15.796    0.293    0.394   67.533
  496.000   19.167    0.316    0.410   67.957
  496.250   21.777    0.324    0.410   70.878
  496.500   23.652    0.322    0.419   73.859
  496.750   24.976    0.326    0.408   76.171
  497.000   25.400    0.321    0.409   77.753
  497.250   23.121    0.313    0.415   76.351
  497.500   19.894    0.302    0.393   79.333
  497.750   16.957    0.289    0.383   84.018
  498.000   14.838    0.281    0.382   86.452
  498.250   13.306    0.270    0.382   89.312
  498.500   11.954    0.252    0.379   83.832
  498.750   10.923    0.237    0.395   73.785
  499.000   10.362    0.253    0.388   69.462
  499.250   11.533    0.256    0.398   63.677
  499.500   12.787    0.241    0.415   56.309
  499.750   14.888    0.162    0.362   51.316
  500.000   16.477    0.136    0.314   49.062
  500.250   18.167    0.196    0.299   55.392
  500.500   19.039    0.253    0.319   64.522
  500.750   18.097    0.271    0.333   75.418
  501.000   14.470    0.225    0.339   98.184
  501.250   11.746    0.192    0.387  114.254
  501.500    9.752    0.176    0.425  116.870
  501.750    8.407    0.177    0.419  113.033
  502.000    7.496    0.184    0.410  109.623
  502.250    6.979    0.189    0.405  106.639
  502.500    6.747    0.190    0.419  103.167
  502.750    6.646    0.190    0.429   99.878
  503.000    6.645    0.188    0.427   96.346
  503.250    6.745    0.185    0.410   91.413
  503.500    6.886    0.182    0.391   87.699
  503.750    7.298    0.191    0.376   84.471
  504.000    7.721    0.173    0.351   82.156
  504.250    8.245    0.111    0.331   82.459
  504.500    8.641    0.074    0.316   83.797
  504.750    8.706    0.121    0.336   86.291
  505.000    8.543    0.150    0.357   88.299
  505.250    8.463    0.183    0.345   90.124
  505.500    8.463    0.183    0.340   93.775
  505.750    8.671    0.187    0.343   95.965
  506.000    8.835    0.193    0.354   95.963
  506.250    9.070    0.197    0.360   94.623
  506.500    9.382    0.203    0.360   91.395
  506.750    9.595    0.214    0.352   89.932
  507.000    9.776    0.223    0.341   89.870
  507.250    9.961    0.232    0.339   89.808
  507.500   10.073    0.237    0.346   86.641
  507.750   10.187    0.233    0.346   80.795
  508.000   10.380    0.231    0.345   76.167
  508.250   10.636    0.235    0.350   74.217
  508.500   10.857    0.244    0.357   74.033
  508.750   11.167    0.252    0.362   73.971
  509.000   11.378    0.255    0.365   72.630
  509.250   11.442    0.256    0.357   68.550
  509.500   11.463    0.252    0.348   65.444
  509.750   11.440    0.245    0.337   64.225
  510.000   11.461    0.239    0.336   63.797
  510.250   11.569    0.237    0.346   66.231
  510.500   11.590    0.239    0.362   67.264
  510.750   11.943    0.238    0.355   67.020
  511.000   12.995    0.232    0.344   65.192
  511.250   14.655    0.236    0.340   58.129
  511.500   16.745    0.255    0.364   50.274
  511.750   19.533    0.282    0.371   48.507
  512.000   22.193    0.301    0.360   50.149
  512.250   25.311    0.301    0.354   51.122
  512.500   27.907    0.293    0.369   50.816
  512.750   29.802    0.299    0.371   47.771
  513.000   30.883    0.298    0.375   46.613
  513.250   32.305    0.293    0.382   47.281
  513.500   34.176    0.306    0.393   45.453
  513.750   35.885    0.325    0.393   40.156
  514.000   39.491    0.329    0.390   41.311
  514.250   44.034    0.311    0.389   43.136
  514.500   48.277    0.323    0.394   39.786
  514.750   52.533    0.332    0.406   36.376
  515.000   55.471    0.340    0.402   34.000
  515.250   57.808    0.340    0.398   33.938
  515.500   58.902    0.342    0.391   35.032
  515.750   59.231    0.333    0.385   36.187
  516.000   56.937    0.325    0.387   36.794
  516.250   54.526    0.322    0.415   35.453
  516.500   52.315    0.211    0.335   33.504
  516.750   49.168    0.016    0.248   31.920
  517.000   41.752    0.002    0.207   37.763
  517.250   32.397   -0.005    0.187   54.928
