~VERSION INFORMATION
 VERS.                 2.0:   CWLS LOG ASCII STANDARD -VERSION 2.0
 WRAP.                  NO:   ONE LINE PER DEPTH STEP
~WELL INFORMATION BLOCK
#MNEM.UNIT           DATA                    DESCRIPTION OF MNEMONIC
#---------    -------------------            -------------------------------
# Generated from Intellog Unique Number	CS_67_68/WELL/662
WELL.         BURNT LAKE                     : Well_name    - WELL
LOC .         00/06-13-068-03W4/0            : Location     - LOCATION
UWI .         00/06-13-068-03W4/0            : Uwi          - UNIQUE WELL ID
ENTR.         SP                             : Entered      - ENTERED BY
SRVC.         SCHLUMBERGER                   : Scn          - SERVICE COMPANY
STRT.M        380                            : top_depth    - START DEPTH
STOP.M        620                            : bot_depth    - STOP DEPTH
STEP.M        0.25                           : increment    - STEP LENGTH
 NULL. -999.2500:NULL Value
~CURVE INFORMATION BLOCK
#MNEM UNIT       ERCB CURVE CODE    CURVE DESCRIPTION
#-----------   ------------------   ----------------------------------
DEPT.M        00 001 00 00         : DEPTH        - DEPTH
ILD .OHMM     00 120 00 00         : RESD         - DEEP RESISTIVITY (DIL)
DPHI.V/V      00 890 00 00         : PHID         - DENSITY POROSITY (LIMESTONE)
NPHI.V/V      00 330 00 00         : PHIN         - NEUTRON POROSITY (LIMESTONE)
GR  .API      00 310 00 00         : GR           - GAMMA RAY
~PARAMETER INFORMATION
#MNEM.UNIT           DATA             DESCRIPTION OF MNEMONIC
#---------         -----------     ------------------------------
GL  .M        722.86               : gl           - GROUND LEVEL ELEVATION
EREF.M        726.87               : kb           - ELEVATION OF DEPTH REFERENCE
DATM.M        722.86               : datum        - DATUM ELEVATION
TDD .M        630                  : tdd          - TOTAL DEPTH DRILLER
RUN .         ONE                  : Run          - RUN NUMBER
ENG .         BILL                 : Engineer     - RECORDING ENGINEER
WIT .         JIM                  : Witness      - WITNESSED BY
MUD .         GEL                  : Mud_type     - MUD TYPE
MATR.         LIMESTONE            : Logunit      - NEUTRON MATRIX
TMAX.C        18.3                 : BHT          - MAXIMUM RECORDED TEMPERATURE
BHTD.M        630                  : BHTDEP       - MAXIMUM RECORDED TEMPERATURE
MATR.         1                    : LOGUNIT      - NEUTRON MATRIX
RMT .C        25                   : MDTP         - TEMPERATURE OF MUD
NEUT.         1                    : NEUTRON      - NEUTRON TYPE
RESI.         0                    : RESIST       - RESISTIVITY TYPE
RMC .OHMM     0.25                 : RMC          - RESISTIVITY OF MUD CAKE
RMF .OHMM     0.25                 : RMF          - RESISTIVITY OF MUD FILTRATE
SUFT.C        15                   : SUFT         - SURFACE TEMPERATURE
~A  DEPTH     RESD     PHID     PHIN       GR
# ...
  467.000    4.901    0.345    0.431   53.793
  467.250    4.945    0.337    0.425   53.916
  467.500    5.037    0.330    0.423   51.353
  467.750    5.180    0.325    0.410   47.569
  468.000    5.376    0.324    0.386   44.640
  468.250    5.445    0.329    0.391   46.289
  468.500    5.423    0.339    0.413   48.243
  468.750    5.330    0.348    0.425   49.221
  469.000    5.170    0.351    0.424   48.428
  469.250    5.024    0.341    0.402   51.787
  469.500    4.901    0.335    0.394   54.840
  469.750    4.845    0.339    0.428   57.650
  470.000    4.843    0.343    0.446   59.116
  470.250    4.914    0.345    0.444   58.933
  470.500    4.978    0.345    0.430   54.539
  470.750    5.004    0.344    0.434   52.403
  471.000    5.002    0.345    0.447   53.686
  471.250    5.010    0.348    0.474   54.602
  471.500    5.017    0.347    0.489   54.664
  471.750    5.025    0.343    0.462   54.360
  472.000    5.033    0.342    0.449   53.628
  472.250    5.040    0.342    0.461   52.652
  472.500    5.047    0.331    0.447   52.165
  472.750    5.065    0.306    0.437   52.959
  473.000    5.082    0.282    0.412   56.013
  473.250    5.118    0.278    0.421   58.395
  473.500    5.146    0.312    0.420   59.311
  473.750    5.163    0.330    0.425   60.716
  474.000    5.142    0.330    0.443   62.366
  474.250    5.082    0.326    0.453   61.939
  474.500    5.042    0.329    0.451   62.367
  474.750    4.975    0.326    0.449   65.238
  475.000    4.945    0.318    0.450   68.108
  475.250    4.915    0.317    0.454   69.330
  475.500    4.914    0.325    0.464   69.270
  475.750    4.940    0.328    0.466   66.462
  476.000    4.956    0.330    0.468   64.021
  476.250    4.973    0.330    0.471   62.374
  476.500    4.981    0.333    0.462   60.787
  476.750    5.007    0.340    0.459   59.934
  477.000    5.024    0.346    0.458   59.263
  477.250    5.060    0.351    0.447   59.203
  477.500    5.077    0.356    0.445   59.814
  477.750    5.085    0.360    0.456   59.876
  478.000    5.102    0.363    0.452   59.450
  478.250    5.091    0.354    0.447   58.779
  478.500    5.060    0.339    0.448   57.437
  478.750    5.030    0.346    0.437   55.423
  479.000    5.019    0.351    0.425   54.081
  479.250    5.017    0.353    0.418   54.692
  479.500    4.996    0.350    0.425   55.670
  479.750    4.975    0.348    0.429   55.976
  480.000    4.974    0.346    0.431   55.916
  480.250    4.962    0.348    0.432   55.367
  480.500    4.961    0.354    0.437   55.185
  480.750    4.968    0.359    0.456   55.491
  481.000    4.948    0.366    0.488   56.835
  481.250    4.946    0.356    0.476   58.118
  481.500    4.935    0.344    0.453   59.645
  481.750    4.933    0.340    0.441   60.928
  482.000    5.006    0.337    0.432   60.624
  482.250    5.138    0.337    0.432   56.840
  482.500    5.342    0.338    0.433   53.300
  482.750    5.411    0.341    0.432   56.475
  483.000    5.450    0.349    0.443   60.506
  483.250    5.347    0.361    0.476   67.832
  483.500    5.023    0.341    0.490   74.976
  483.750    4.720    0.322    0.480   82.669
  484.000    4.368    0.306    0.519   93.354
  484.250    4.158    0.268    0.529   97.995
  484.500    3.856    0.270    0.504   97.141
  484.750    3.609    0.265    0.483   95.433
  485.000    3.410    0.263    0.483   94.212
  485.250    3.371    0.268    0.472   94.457
  485.500    3.369    0.261    0.476   95.191
  485.750    3.400    0.251    0.514   95.558
  486.000    3.496    0.243    0.492   95.193
  486.250    3.615    0.270    0.471   93.728
  486.500    3.773    0.263    0.457   91.471
  486.750    3.968    0.259    0.473   89.457
  487.000    4.142    0.260    0.482   90.862
  487.250    4.235    0.281    0.505   91.412
  487.500    4.193    0.298    0.521   91.047
  487.750    4.091    0.312    0.506   90.742
  488.000    3.953    0.289    0.489   94.895
  488.250    3.842    0.275    0.500   99.719
  488.500    3.713    0.271    0.505  101.978
  488.750    3.561    0.271    0.496  101.125
  489.000    3.448    0.269    0.494   97.096
  489.250    3.376    0.272    0.512   91.908
  489.500    3.645    0.296    0.515   86.658
  489.750    4.109    0.317    0.509   81.104
  490.000    4.765    0.329    0.506   76.099
  490.250    6.290    0.340    0.506   70.116
  490.500   10.681    0.352    0.496   64.684
  490.750   15.663    0.359    0.490   64.868
  491.000   17.006    0.360    0.482   63.526
  491.250   17.064    0.361    0.475   61.512
  491.500   15.882    0.360    0.468   61.513
  491.750   14.617    0.359    0.475   62.063
  492.000   13.277    0.357    0.475   62.675
  492.250   11.880    0.357    0.464   63.836
  492.500   10.103    0.359    0.457   64.569
  492.750    8.789    0.352    0.452   62.922
  493.000    7.791    0.348    0.455   60.419
  493.250    7.116    0.344    0.452   59.749
  493.500    6.774    0.341    0.456   60.238
  493.750    6.609    0.343    0.468   60.666
  494.000    6.606    0.344    0.473   62.194
  494.250    6.856    0.345    0.480   64.026
  494.500    7.116    0.320    0.487   65.370
  494.750    7.359    0.206    0.394   65.493
  495.000    7.666    0.187    0.347   62.075
  495.250    7.942    0.252    0.378   62.564
  495.500    8.166    0.330    0.437   64.519
  495.750    8.271    0.339    0.452   65.130
  496.000    8.129    0.334    0.465   65.070
  496.250    7.930    0.331    0.454   65.437
  496.500    7.721    0.331    0.449   65.865
  496.750    7.646    0.331    0.449   64.279
  497.000    7.585    0.327    0.455   63.547
  497.250    7.511    0.325    0.457   64.159
  497.500    7.496    0.325    0.457   63.000
  497.750    7.381    0.328    0.459   59.582
  498.000    7.255    0.335    0.458   61.292
  498.250    7.104    0.341    0.448   62.880
  498.500    6.904    0.342    0.455   64.102
  498.750    6.735    0.341    0.463   64.592
  499.000    6.607    0.340    0.467   64.593
  499.250    6.580    0.339    0.461   64.349
  499.500    6.665    0.339    0.452   64.045
  499.750    6.827    0.336    0.446   63.313
  500.000    6.941    0.333    0.442   62.520
  500.250    7.070    0.331    0.440   61.667
  500.500    7.188    0.329    0.443   61.301
  500.750    7.280    0.324    0.447   62.584
  501.000    7.333    0.324    0.458   64.844
  501.250    7.399    0.326    0.452   66.859
  501.500    7.466    0.329    0.451   67.349
  501.750    7.506    0.329    0.450   64.175
  502.000    7.517    0.326    0.459   61.856
  502.250    7.528    0.324    0.478   61.979
  502.500    7.512    0.325    0.467   63.262
  502.750    7.397    0.328    0.458   63.873
  503.000    7.229    0.330    0.457   64.241
  503.250    6.973    0.334    0.464   63.631
  503.500    6.726    0.339    0.473   65.402
  503.750    6.549    0.339    0.468   69.005
  504.000    6.401    0.324    0.451   72.608
  504.250    6.280    0.310    0.458   76.272
  504.500    6.046    0.285    0.466   78.043
  504.750    5.755    0.262    0.463   79.570
  505.000    5.625    0.257    0.458   81.281
  505.250    5.871    0.249    0.481   81.282
  505.500    6.117    0.230    0.500   80.916
  505.750    6.301    0.192    0.457   78.292
  506.000    6.479    0.223    0.444   79.209
  506.250    6.575    0.293    0.475   80.736
  506.500    6.609    0.316    0.481   80.737
  506.750    6.557    0.327    0.466   76.709
  507.000    6.420    0.335    0.472   73.962
  507.250    6.275    0.336    0.462   71.765
  507.500    5.918    0.322    0.444   72.926
  507.750    5.624    0.299    0.448   75.003
  508.000    5.117    0.281    0.489   78.300
  508.250    4.657    0.301    0.523   84.223
  508.500    4.043    0.322    0.549   86.055
  508.750    3.680    0.342    0.560   85.629
  509.000    3.603    0.348    0.556   85.508
  509.250    3.622    0.323    0.554   85.814
  509.500    3.621    0.303    0.556   86.853
  509.750    3.506    0.290    0.547   88.563
  510.000    3.125    0.289    0.566   90.945
  510.250    2.801    0.301    0.564   93.449
