~VERSION INFORMATION
 VERS.                 2.0:   CWLS LOG ASCII STANDARD -VERSION 2.0
 WRAP.                  NO:   ONE LINE PER DEPTH STEP
~WELL INFORMATION BLOCK
#MNEM.UNIT           DATA                    DESCRIPTION OF MNEMONIC
#---------    -------------------            -------------------------------
# Generated from Intellog Unique Number	CS_73_76/WELL/2172
WELL.         BOW VALLEY INDUSTRIES LTD      : Well_name    - WELL
LOC .         00/06-34-074-16W4/0            : Location     - LOCATION
UWI .         00/06-34-074-16W4/0            : Uwi          - UNIQUE WELL ID
ENTR.         SP                             : Entered      - ENTERED BY
SRVC.         SCHLUMBERGER                   : Scn          - SERVICE COMPANY
STRT.M        316.992                        : top_depth    - START DEPTH
STOP.M        517.992                        : bot_depth    - STOP DEPTH
STEP.M        0.25                           : increment    - STEP LENGTH
 NULL. -999.2500:NULL Value
~CURVE INFORMATION BLOCK
#MNEM UNIT       ERCB CURVE CODE    CURVE DESCRIPTION
#-----------   ------------------   ----------------------------------
DEPT.M        00 001 00 00         : DEPTH        - DEPTH
GR  .API      00 310 00 00         : GR           - GAMMA RAY
DPHI.V/V      00 890 00 00         : PHID         - DENSITY POROSITY (SANDSTONE)
NPHI.V/V      00 330 00 00         : PHIN         - NEUTRON POROSITY (SANDSTONE)
ILD .OHMM     00 120 00 00         : RESD         - DEEP RESISTIVITY (DIL)
~PARAMETER INFORMATION
#MNEM.UNIT           DATA             DESCRIPTION OF MNEMONIC
#---------         -----------     ------------------------------
GL  .M        666.902              : gl           - GROUND LEVEL ELEVATION
EREF.M        669.95               : kb           - ELEVATION OF DEPTH REFERENCE
DATM.M        666.902              : datum        - DATUM ELEVATION
TDD .M        521.513              : tdd          - TOTAL DEPTH DRILLER
RUN .         ONE                  : Run          - RUN NUMBER
ENG .         BILL                 : Engineer     - RECORDING ENGINEER
WIT .         JIM                  : Witness      - WITNESSED BY
MUD .         GEL                  : Mud_type     - MUD TYPE
MATR.         SANDSTONE            : Logunit      - NEUTRON MATRIX
TMAX.C        28.8889              : BHT          - MAXIMUM RECORDED TEMPERATURE
BHTD.M        521.513              : BHTDEP       - MAXIMUM RECORDED TEMPERATURE
MATR.         1                    : LOGUNIT      - NEUTRON MATRIX
RMT .C        25                   : MDTP         - TEMPERATURE OF MUD
NEUT.         1                    : NEUTRON      - NEUTRON TYPE
RESI.         0                    : RESIST       - RESISTIVITY TYPE
RMC .OHMM     0.25                 : RMC          - RESISTIVITY OF MUD CAKE
RMF .OHMM     0.25                 : RMF          - RESISTIVITY OF MUD FILTRATE
SUFT.C        15                   : SUFT         - SURFACE TEMPERATURE
~A  DEPTH       GR     PHID     PHIN     RESD
# ...
  403.992   82.093    0.319    0.451    6.929
  404.242   82.207    0.317    0.440    6.715
  404.492   83.332    0.299    0.456    6.376
  404.742   86.635    0.273    0.493    6.288
  404.992   86.466    0.281    0.503    6.219
  405.242   94.719    0.271    0.481    6.143
  405.492   96.163    0.253    0.497    6.133
  405.742   98.097    0.243    0.487    6.099
  405.992  101.104    0.246    0.492    6.014
  406.242  102.444    0.241    0.488    5.942
  406.492  103.631    0.234    0.493    5.905
  406.742  104.646    0.238    0.501    5.798
  406.992  102.555    0.240    0.523    5.674
  407.242   99.019    0.246    0.513    5.535
  407.492  102.509    0.222    0.501    5.278
  407.742  108.068    0.226    0.498    5.086
  407.992  105.032    0.232    0.509    4.778
  408.242  101.480    0.231    0.528    4.549
  408.492  102.698    0.213    0.511    4.586
  408.742  106.477    0.212    0.492    4.784
  408.992  110.781    0.225    0.471    4.926
  409.242  111.047    0.209    0.492    5.055
  409.492  109.492    0.206    0.513    5.042
  409.742  108.064    0.245    0.532    4.959
  409.992   98.463    0.272    0.485    4.411
  410.242   94.107    0.300    0.470    3.721
  410.492  102.344    0.241    0.487    3.258
  410.742  106.180    0.244    0.510    2.919
  410.992  108.632    0.254    0.492    2.654
  411.242  111.614    0.248    0.485    2.526
  411.492  114.174    0.237    0.545    2.587
  411.742  113.962    0.256    0.578    2.993
  411.992  111.921    0.257    0.579    3.432
  412.242  110.519    0.263    0.556    4.075
  412.492  112.121    0.275    0.546    4.971
  412.742  113.961    0.287    0.534    5.895
  412.992  103.344    0.298    0.511    7.007
  413.242   91.995    0.322    0.500    7.575
  413.492   86.726    0.332    0.496    7.614
  413.742   83.763    0.336    0.501    7.498
  413.992   85.753    0.337    0.494    7.315
  414.242   87.935    0.320    0.475    7.318
  414.492   86.723    0.316    0.475    7.317
  414.742   83.868    0.319    0.491    7.358
  414.992   86.117    0.301    0.490    7.437
  415.242   88.820    0.300    0.484    7.532
  415.492   85.497    0.291    0.493    7.601
  415.742   84.846    0.290    0.506    7.702
  415.992   84.180    0.299    0.498    7.694
  416.242   82.914    0.286    0.488    7.683
  416.492   82.905    0.265    0.475    7.811
  416.742   84.281    0.278    0.461    7.821
  416.992   84.877    0.298    0.471    7.831
  417.242   85.167    0.309    0.471    7.965
  417.492   87.631    0.299    0.460    8.014
  417.742   91.522    0.278    0.455    8.095
  417.992   92.617    0.255    0.459    8.246
  418.242   91.643    0.237    0.451    8.260
  418.492   95.481    0.250    0.466    8.683
  418.742   97.309    0.264    0.455    9.216
  418.992   93.011    0.264    0.448   10.117
  419.242   90.563    0.256    0.464   11.523
  419.492   94.784    0.263    0.448   14.320
  419.742   88.614    0.262    0.436   18.419
  419.992   86.403    0.246    0.425   24.331
  420.242   85.857    0.216    0.452   33.542
  420.492   78.998    0.177    0.461   40.994
  420.742   70.227    0.121    0.307   46.347
  420.992   62.966    0.067    0.204   44.215
  421.242   59.067    0.031    0.172   34.790
  421.492   53.668    0.008    0.157   28.227
  421.742   54.535   -0.000    0.148   20.112
  421.992   60.184   -0.000    0.150   15.117
  422.242   65.976    0.004    0.173   10.229
  422.492   72.690    0.016    0.205    8.591
  422.742   77.649    0.038    0.232    7.873
  422.992   84.408    0.125    0.284    7.385
  423.242   88.019    0.208    0.377    7.103
  423.492   88.901    0.263    0.440    6.982
  423.742   84.414    0.287    0.472    6.971
  423.992   83.075    0.305    0.492    7.114
  424.242   90.134    0.295    0.476    7.101
  424.492   94.344    0.284    0.466    7.103
  424.742   95.984    0.242    0.454    6.962
  424.992   98.917    0.225    0.452    6.748
  425.242   97.918    0.234    0.473    6.516
  425.492   98.278    0.252    0.477    6.222
  425.742   95.139    0.284    0.471    6.219
  425.992   97.298    0.266    0.463    6.233
  426.242   99.745    0.262    0.485    6.309
  426.492   94.683    0.251    0.499    6.602
  426.742   95.577    0.261    0.488    7.081
  426.992   97.561    0.263    0.502    7.260
  427.242   96.930    0.262    0.525    7.656
  427.492   94.658    0.246    0.507    7.710
  427.742   90.386    0.242    0.494    7.738
  427.992   81.043    0.255    0.509    7.411
  428.242   75.733    0.260    0.484    7.153
  428.492   72.830    0.283    0.459    7.077
  428.742   70.077    0.293    0.428    6.844
  428.992   69.158    0.293    0.447    6.753
  429.242   69.120    0.283    0.432    6.603
  429.492   67.248    0.311    0.432    6.598
  429.742   61.536    0.347    0.433    6.494
  429.992   61.249    0.362    0.436    6.350
  430.242   65.709    0.353    0.444    6.353
  430.492   68.684    0.350    0.454    6.236
  430.742   68.648    0.351    0.468    6.243
  430.992   67.278    0.357    0.489    6.116
  431.242   67.384    0.360    0.475    6.118
  431.492   69.753    0.353    0.474    6.137
  431.742   68.598    0.360    0.501    6.219
  431.992   68.434    0.350    0.490    6.213
  432.242   70.003    0.345    0.461    6.208
  432.492   72.551    0.351    0.467    6.206
  432.742   71.726    0.361    0.448    6.259
  432.992   70.899    0.359    0.470    6.321
  433.242   72.084    0.358    0.469    6.913
  433.492   70.800    0.352    0.457    8.486
  433.742   71.487    0.343    0.474   10.594
  433.992   74.244    0.332    0.492   13.093
  434.242   72.924    0.325    0.501   14.934
  434.492   74.339    0.279    0.306   16.345
  434.742   74.933    0.154    0.221   17.156
  434.992   72.083    0.091    0.212   17.523
  435.242   67.540    0.071    0.216   16.112
  435.492   65.070    0.056    0.223   14.214
  435.742   67.956    0.064    0.224   12.013
  435.992   65.230    0.073    0.231    9.979
  436.242   62.399    0.089    0.244    8.773
  436.492   63.543    0.110    0.263    7.591
  436.742   75.060    0.155    0.306    6.931
  436.992   80.331    0.230    0.434    6.750
  437.242   82.655    0.280    0.501    6.830
  437.492   83.684    0.318    0.502    6.752
  437.742   77.347    0.296    0.503    6.303
  437.992   75.352    0.291    0.508    5.485
  438.242   81.025    0.301    0.516    4.853
  438.492   88.182    0.293    0.525    4.412
  438.742   92.393    0.275    0.494    4.217
  438.992   96.359    0.279    0.481    4.204
  439.242   98.736    0.259    0.462    4.295
  439.492  103.060    0.238    0.477    4.431
  439.742  106.087    0.235    0.474    4.463
  439.992  104.576    0.242    0.480    4.606
  440.242  103.428    0.245    0.489    4.734
  440.492  105.037    0.254    0.479    4.985
  440.742  106.375    0.257    0.466    5.124
  440.992  107.018    0.253    0.471    5.272
  441.242  109.709    0.236    0.490    5.578
  441.492  106.934    0.253    0.512    5.706
  441.742  106.449    0.262    0.507    5.997
  441.992  103.067    0.255    0.496    6.167
  442.242  103.033    0.241    0.499    6.243
  442.492  105.735    0.237    0.510    6.363
  442.742  107.622    0.229    0.500    6.482
  442.992  110.464    0.223    0.494    6.468
  443.242  111.877    0.226    0.505    6.467
  443.492  105.066    0.228    0.498    6.462
  443.742  107.962    0.225    0.476    6.574
  443.992  108.337    0.217    0.453    6.740
  444.242  102.191    0.241    0.456    6.813
  444.492  104.153    0.234    0.474    6.813
  444.742  110.113    0.226    0.485    6.616
  444.992  105.058    0.215    0.474    6.435
  445.242  103.347    0.201    0.459    6.355
  445.492  108.016    0.197    0.452    6.419
  445.742  112.531    0.225    0.449    6.417
  445.992  108.714    0.225    0.452    6.407
  446.242  108.711    0.236    0.460    6.399
  446.492  108.762    0.230    0.493    5.923
  446.742  106.238    0.222    0.505    5.522
  446.992  108.014    0.232    0.504    5.125
  447.242  109.349    0.231    0.485    5.068
