~VERSION INFORMATION
 VERS.                 2.0:   CWLS LOG ASCII STANDARD -VERSION 2.0
 WRAP.                  NO:   ONE LINE PER DEPTH STEP
~WELL INFORMATION BLOCK
#MNEM.UNIT           DATA                    DESCRIPTION OF MNEMONIC
#---------    -------------------            -------------------------------
# Generated from Intellog Unique Number	CS_69_70/WELL/806
NULL.         -999.25                        : NULL_VALUE
WELL.         HUSKY OIL OPERATION LTD.       : Well_name    - WELL              
LOC .         00/06-33-070-05W4/0            : Location     - LOCATION          
UWI .         00/06-33-070-05W4/0            : Uwi          - UNIQUE WELL ID    
ENTR.         SP                             : Entered      - ENTERED BY        
SRVC.         SCHLUMBERGER                   : Scn          - SERVICE COMPANY   
STRT.M        290                            : top_depth    - START DEPTH       
STOP.M        510                            : bot_depth    - STOP DEPTH        
STEP.M        0.25                           : increment    - STEP LENGTH       
~CURVE INFORMATION BLOCK
#MNEM UNIT       ERCB CURVE CODE    CURVE DESCRIPTION
#-----------   ------------------   ----------------------------------
DEPT.M        00 001 00 00         : DEPTH        - DEPTH                       
ILD .OHMM     00 120 00 00         : RESD         - DEEP RESISTIVITY (DIL)      
DPHI.V/V      00 890 00 00         : PHID         - DENSITY POROSITY (LIMESTONE)
NPHI.V/V      00 330 00 00         : PHIN         - NEUTRON POROSITY (LIMESTONE)
GR  .API      00 310 00 00         : GR           - GAMMA RAY                   
~PARAMETER INFORMATION       
#MNEM.UNIT           DATA             DESCRIPTION OF MNEMONIC
#---------         -----------     ------------------------------
GL  .M        653.8                : gl           - GROUND LEVEL ELEVATION      
EREF.M        657.5                : kb           - ELEVATION OF DEPTH REFERENCE
DATM.M        653.8                : datum        - DATUM ELEVATION             
TDD .M        517                  : tdd          - TOTAL DEPTH DRILLER         
RUN .         ONE                  : Run          - RUN NUMBER                  
ENG .         BILL                 : Engineer     - RECORDING ENGINEER          
WIT .         JIM                  : Witness      - WITNESSED BY                
MUD .         GEL                  : Mud_type     - MUD TYPE                    
MATR.         LIMESTONE            : Logunit      - NEUTRON MATRIX              
TMAX.C        26                   : BHT          - MAXIMUM RECORDED TEMPERATURE
BHTD.M        517                  : BHTDEP       - MAXIMUM RECORDED TEMPERATURE
MATR.         1                    : LOGUNIT      - NEUTRON MATRIX              
RMT .C        25                   : MDTP         - TEMPERATURE OF MUD          
NEUT.         1                    : NEUTRON      - NEUTRON TYPE                
RESI.         0                    : RESIST       - RESISTIVITY TYPE            
RMC .OHMM     0.25                 : RMC          - RESISTIVITY OF MUD CAKE     
RMF .OHMM     0.25                 : RMF          - RESISTIVITY OF MUD FILTRATE 
SUFT.C        15                   : SUFT         - SURFACE TEMPERATURE         
~A  DEPTH     RESD     PHID     PHIN       GR
# ...
  464.000   13.936    0.274    0.387   69.365
  464.250   15.591    0.275    0.361   69.985
  464.500   15.888    0.259    0.378   62.713
  464.750   17.124    0.240    0.396   63.331
  465.000   18.113    0.222    0.382   63.342
  465.250   19.522    0.243    0.386   51.209
  465.500   20.269    0.279    0.398   46.970
  465.750   20.654    0.327    0.380   50.626
  466.000   20.275    0.293    0.374   52.464
  466.250   17.796    0.298    0.367   53.690
  466.500   16.212    0.306    0.357   59.778
  466.750   13.206    0.288    0.353   63.429
  467.000   11.589    0.272    0.362   62.232
  467.250    9.984    0.286    0.377   64.673
  467.500    8.132    0.299    0.372   67.110
  467.750    7.548    0.286    0.365   69.554
  468.000    7.006    0.271    0.360   70.781
  468.250    6.878    0.263    0.374   70.790
  468.500    6.880    0.255    0.380   71.411
  468.750    6.881    0.253    0.382   72.033
  469.000    6.882    0.252    0.388   73.261
  469.250    7.012    0.249    0.392   76.918
  469.500    7.282    0.242    0.380   80.577
  469.750    7.420    0.238    0.370   81.798
  470.000    7.561    0.228    0.361   83.026
  470.250    7.850    0.224    0.359   83.036
  470.500    8.150    0.220    0.363   80.621
  470.750    8.462    0.221    0.367   76.991
  471.000    8.785    0.226    0.376   73.964
  471.250    9.295    0.237    0.382   71.547
  471.500    9.650    0.262    0.393   70.345
  471.750    9.833    0.279    0.396   72.182
  472.000   10.019    0.280    0.404   75.835
  472.250   10.211    0.263    0.407   78.889
  472.500   10.212    0.268    0.401   75.253
  472.750   10.025    0.278    0.396   74.660
  473.000   10.805    0.272    0.417   72.243
  473.250   11.429    0.046    0.424   63.147
  473.500   11.647    0.010    0.279   55.871
  473.750   11.434    0.033    0.270   63.779
  474.000   10.813    0.095    0.314   71.683
  474.250   10.226    0.201    0.344   77.769
  474.500    9.492    0.215    0.358   73.536
  474.750    9.146    0.207    0.363   70.510
  475.000    8.979    0.206    0.348   68.092
  475.250    8.980    0.218    0.337   71.145
  475.500    8.981    0.223    0.333   73.580
  475.750    8.984    0.202    0.338   79.060
  476.000    9.155    0.179    0.334   81.501
  476.250    9.156    0.168    0.337   79.085
  476.500    9.158    0.177    0.334   83.353
  476.750    9.160    0.180    0.329   86.398
  477.000    8.992    0.184    0.334   90.666
  477.250    8.828    0.189    0.350   91.885
  477.500    8.666    0.197    0.356   91.292
  477.750    8.507    0.201    0.353   88.266
  478.000    8.351    0.202    0.352   87.066
  478.250    8.510    0.205    0.353   85.865
  478.500    8.836    0.211    0.381   83.448
  478.750    9.174    0.212    0.402   79.816
  479.000   10.264    0.214    0.390   75.578
  479.250   10.856    0.226    0.369   70.730
  479.500   12.609    0.237    0.359   59.207
  479.750   13.589    0.250    0.362   52.536
  480.000   14.108    0.267    0.365   45.263
  480.250   15.205    0.284    0.358   42.238
  480.500   15.493    0.301    0.358   44.075
  480.750   15.497    0.294    0.369   45.905
  481.000   15.499    0.292    0.372   48.954
  481.250   14.935    0.287    0.360   51.397
  481.500   14.662    0.284    0.361   53.840
  481.750   14.392    0.287    0.365   58.103
  482.000   14.128    0.264    0.357   63.581
  482.250   13.870    0.237    0.354   61.166
  482.500   14.134    0.259    0.358   56.928
  482.750   15.520    0.276    0.367   55.721
  483.000   18.024    0.284    0.376   50.882
  483.250   20.544    0.294    0.367   50.280
  483.500   22.983    0.308    0.363   52.120
  483.750   26.693    0.311    0.372   50.306
  484.000   28.238    0.312    0.382   41.214
  484.250   28.241    0.317    0.378   38.184
  484.500   28.779    0.320    0.375   34.558
  484.750   28.783    0.317    0.376   33.961
  485.000   28.792    0.311    0.387   33.971
  485.250   28.265    0.312    0.407   32.164
  485.500   28.270    0.320    0.411   30.959
  485.750   27.752    0.321    0.383   29.152
  486.000   27.243    0.324    0.368   27.950
  486.250   27.246    0.325    0.361   27.961
  486.500   26.747    0.319    0.366   27.364
  486.750   25.772    0.316    0.372   26.163
  487.000   25.299    0.314    0.372   28.000
  487.250   24.377    0.309    0.365   32.271
  487.500   23.932    0.308    0.357   34.105
  487.750   23.937    0.307    0.349   35.936
  488.000   24.391    0.310    0.345   37.766
  488.250   24.858    0.305    0.362   38.384
  488.500   25.330    0.307    0.378   35.358
  488.750   26.297    0.317    0.384   32.337
  489.000   27.819    0.327    0.386   30.527
  489.250   29.428    0.333    0.390   30.540
  489.500   30.552    0.333    0.390   31.165
  489.750   31.132    0.332    0.383   32.388
  490.000   32.328    0.329    0.385   33.003
  490.250   33.563    0.328    0.392   30.588
  490.500   34.200    0.345    0.382   25.741
  490.750   34.205    0.360    0.378   28.186
  491.000   34.857    0.351    0.392   26.375
  491.250   34.862    0.354    0.403   25.175
  491.500   31.174    0.363    0.413   26.400
  491.750   26.358    0.349    0.422   29.452
  492.000   22.705    0.327    0.410   34.930
  492.250   17.815    0.316    0.384   42.228
  492.500   14.242    0.294    0.362   48.918
  492.750   12.042    0.281    0.380   54.396
  493.000   11.388    0.261    0.392   66.556
  493.250   10.184    0.249    0.379   81.141
  493.500    9.453    0.230    0.370   92.692
  493.750    9.108    0.204    0.377   96.350
  494.000    8.775    0.186    0.380   96.970
  494.250    8.456    0.200    0.393   91.518
  494.500    8.147    0.214    0.408   88.490
  494.750    7.998    0.215    0.418   87.899
  495.000    7.852    0.211    0.421   87.304
  495.250    7.708    0.206    0.406   89.137
  495.500    7.709    0.202    0.398   94.013
  495.750    7.429    0.206    0.394   95.232
  496.000    7.430    0.220    0.412   92.212
  496.250    7.293    0.229    0.421   95.866
  496.500    7.295    0.222    0.424   98.306
  496.750    7.029    0.209    0.405   95.282
  497.000    7.030    0.210    0.392   96.514
  497.250    6.902    0.213    0.385   98.343
  497.500    6.775    0.207    0.391  100.790
  497.750    6.651    0.203    0.384  101.405
  498.000    6.530    0.206    0.395  100.809
  498.250    6.410    0.212    0.397   95.356
  498.500    6.176    0.212    0.387   91.121
  498.750    5.951    0.213    0.383   88.094
  499.000    5.952    0.236    0.380   82.034
  499.250    5.953    0.257    0.384   72.329
  499.500    5.954    0.262    0.391   80.237
  499.750    6.299    0.237    0.401   90.575
  500.000    6.539    0.199    0.409   96.051
  500.250    6.789    0.188    0.397   99.099
  500.500    6.790    0.190    0.386   90.610
  500.750    6.666    0.193    0.385   79.084
  501.000    6.423    0.203    0.378   67.564
  501.250    5.637    0.239    0.383   63.928
  501.500    4.856    0.263    0.387   59.081
  501.750    4.106    0.282    0.356   45.735
  502.000    3.672    0.301    0.343   49.391
  502.250    3.473    0.305    0.368   53.045
  502.500    3.346    0.297    0.372   56.096
  502.750    3.346    0.290    0.369   59.751
  503.000    3.347    0.294    0.363   64.623
  503.250    3.411    0.289    0.356   67.062
  503.500    3.541    0.290    0.373   58.574
  503.750    3.609    0.278    0.368   65.872
  504.000    3.677    0.267    0.365   74.391
  504.250    3.747    0.252    0.361   73.793
  504.500    3.890    0.252    0.354   71.377
  504.750    3.891    0.254    0.371   70.179
  505.000    3.966    0.255    0.363   67.154
  505.250    3.966    0.256    0.363   65.339
  505.500    4.041    0.238    0.357   75.680
  505.750    4.119    0.231    0.364   75.689
  506.000    4.043    0.251    0.374   50.196
  506.250    4.044    0.274    0.376   48.387
  506.500    4.121    0.259    0.374   45.975
  506.750    4.121    0.227    0.351   44.769
  507.000    5.769    0.162    0.298   42.960
  507.250    6.699    0.085    0.258   43.578
