~VERSION INFORMATION
 VERS.                 2.0:   CWLS LOG ASCII STANDARD -VERSION 2.0
 WRAP.                  NO:   ONE LINE PER DEPTH STEP
~WELL INFORMATION BLOCK
#MNEM.UNIT           DATA                    DESCRIPTION OF MNEMONIC
#---------    -------------------            -------------------------------
# Generated from Intellog Unique Number	CX_WELLS/WELL/2581
WELL.         PARA ET AL PONY                : Well_name    - WELL
LOC .         00/03-11-080-08W4/0            : Location     - LOCATION
UWI .         00/03-11-080-08W400            : Uwi          - UNIQUE WELL ID
ENTR.         T                              : Entered      - ENTERED BY
SRVC.         SCHLUMBERGER                   : Scn          - SERVICE COMPANY
STRT.M        190                            : top_depth    - START DEPTH
STOP.M        410                            : bot_depth    - STOP DEPTH
STEP.M        0.25                           : increment    - STEP LENGTH
 NULL. -999.2500:NULL Value
~CURVE INFORMATION BLOCK
#MNEM UNIT       ERCB CURVE CODE    CURVE DESCRIPTION
#-----------   ------------------   ----------------------------------
DEPT.M        00 001 00 00         : DEPTH        - DEPTH
GR  .API      00 310 00 00         : GR           - GAMMA RAY
NPHI.V/V      00 330 00 00         : PHIN         - NEUTRON POROSITY (SANDSTONE)
DPHI.V/V      00 890 00 00         : PHID         - DENSITY POROSITY (SANDSTONE)
ILD .OHMM     00 120 00 00         : RESD         - DEEP RESISTIVITY (DIL)
~PARAMETER INFORMATION
#MNEM.UNIT           DATA             DESCRIPTION OF MNEMONIC
#---------         -----------     ------------------------------
GL  .M        631                  : gl           - GROUND LEVEL ELEVATION
EREF.M        634.5                : kb           - ELEVATION OF DEPTH REFERENCE
DATM.M        634.5                : datum        - DATUM ELEVATION
TDD .M        411                  : tdd          - TOTAL DEPTH DRILLER
RUN .         ONE                  : Run          - RUN NUMBER
ENG .         BILL                 : Engineer     - RECORDING ENGINEER
WIT .         JIM                  : Witness      - WITNESSED BY
MUD .         GEL                  : Mud_type     - MUD TYPE
MATR.         SANDSTONE            : Logunit      - NEUTRON MATRIX
TMAX.C        25                   : BHT          - MAXIMUM RECORDED TEMPERATURE
BHTD.M        411                  : BHTDEP       - MAXIMUM RECORDED TEMPERATURE
MATR.         1                    : LOGUNIT      - NEUTRON MATRIX
RMT .C        16                   : MDTP         - TEMPERATURE OF MUD
NEUT.         1                    : NEUTRON      - NEUTRON TYPE
RESI.         3.5                  : RESIST       - RESISTIVITY TYPE
RMC .OHMM     3.2                  : RMC          - RESISTIVITY OF MUD CAKE
RMF .OHMM     3.5                  : RMF          - RESISTIVITY OF MUD FILTRATE
SUFT.C        5                    : SUFT         - SURFACE TEMPERATURE
~A  DEPTH       GR     PHIN     PHID     RESD
# ...
  233.500  104.679    0.418    0.253   18.384
  233.750   98.770    0.423    0.248   18.721
  234.000   92.272    0.430    0.246   18.718
  234.250   81.646    0.438    0.251   18.712
  234.500   71.017    0.399    0.269   18.709
  234.750   66.288    0.387    0.284   18.362
  235.000   65.686    0.382    0.286   18.359
  235.250   66.854    0.378    0.269   18.355
  235.500   69.788    0.378    0.246   18.017
  235.750   70.366    0.381    0.248   17.683
  236.000   70.357    0.382    0.261   17.356
  236.250   70.932    0.377    0.267   16.726
  236.500   73.865    0.371    0.274   15.534
  236.750   75.039    0.355    0.279   14.164
  237.000   79.745    0.349    0.283   11.997
  237.250   85.630    0.351    0.280   10.161
  237.500   93.284    0.358    0.276    9.264
  237.750  102.118    0.365    0.272    9.610
  238.000  107.413    0.380    0.264   10.344
  238.250  110.347    0.387    0.257   14.949
  238.500  113.283    0.397    0.252   15.508
  238.750  115.630    0.404    0.245   16.385
  239.000  121.518    0.410    0.235   16.082
  239.250  121.507    0.425    0.228   15.498
  239.500  114.419    0.435    0.222   14.394
  239.750  103.793    0.452    0.215   13.124
  240.000   90.808    0.469    0.209   11.966
  240.250   91.386    0.493    0.203   11.320
  240.500   94.322    0.480    0.195   10.514
  240.750   97.843    0.452    0.206    9.946
  241.000   99.016    0.440    0.244    9.069
  241.250  101.953    0.431    0.276    9.067
  241.500  104.300    0.428    0.283    8.899
  241.750  107.823    0.420    0.271    8.897
  242.000  111.353    0.415    0.255    9.061
  242.250  116.058    0.411    0.242    9.228
  242.500  120.172    0.428    0.227    9.572
  242.750  120.752    0.442    0.220   10.493
  243.000  118.382    0.441    0.220   11.293
  243.250  115.422    0.439    0.220   12.155
  243.500  111.869    0.437    0.220   12.844
  243.750  108.909    0.436    0.220   13.323
  244.000  106.538    0.429    0.221   13.819
  244.250  105.940    0.420    0.224   13.816
  244.500  103.569    0.421    0.236   13.814
  244.750  102.378    0.423    0.249   13.068
  245.000  100.597    0.425    0.264   12.137
  245.250  101.762    0.423    0.281   11.067
  245.500  102.933    0.421    0.277   10.090
  245.750  105.863    0.419    0.272    9.200
  246.000  107.037    0.422    0.268    8.865
  246.250  109.971    0.422    0.263    9.028
  246.500  112.321    0.429    0.253    9.365
  246.750  114.075    0.434    0.241    9.896
  247.000  112.887    0.434    0.234   10.847
  247.250  109.926    0.432    0.232   11.463
  247.500  106.377    0.430    0.229   13.038
  247.750  101.647    0.431    0.226   15.106
  248.000   98.097    0.428    0.219   17.181
  248.250   91.007    0.448    0.212   18.491
  248.500   92.171    0.483    0.214   20.271
  248.750   89.214    0.433    0.265   21.029
  249.000   82.716    0.423    0.284   22.217
  249.250   75.628    0.421    0.296   22.626
  249.500   68.540    0.428    0.289   22.623
  249.750   62.038    0.436    0.285   22.619
  250.000   60.261    0.423    0.286   22.200
  250.250   60.246    0.396    0.290   22.196
  250.500   60.237    0.391    0.292   21.786
  250.750   60.222    0.385    0.292   21.383
  251.000   60.214    0.377    0.292   21.378
  251.250   60.788    0.376    0.294   21.375
  251.500   61.369    0.379    0.295   22.171
  251.750   61.941    0.382    0.297   22.579
  252.000   61.933    0.387    0.301   23.857
  252.250   61.334    0.392    0.306   24.297
  252.500   60.727    0.398    0.307   24.744
  252.750   60.721    0.401    0.311   24.738
  253.000   62.475    0.403    0.317   25.192
  253.250   64.233    0.398    0.320   25.185
  253.500   65.990    0.399    0.324   25.181
  253.750   67.157    0.406    0.329   25.181
  254.000   65.377    0.407    0.339   24.260
  254.250   63.596    0.408    0.351   24.707
  254.500   62.992    0.400    0.363   24.700
  254.750   62.396    0.378    0.379   24.694
  255.000   61.789    0.381    0.394   24.690
  255.250   61.780    0.391    0.357   24.234
  255.500   61.771    0.392    0.355   24.229
  255.750   62.933    0.396    0.350   23.780
  256.000   63.514    0.403    0.346   23.343
  256.250   64.091    0.408    0.346   22.912
  256.500   62.903    0.406    0.349   22.488
  256.750   61.117    0.400    0.349   21.670
  257.000   61.105    0.386    0.348   21.666
  257.250   64.631    0.373    0.346   20.877
  257.500   68.160    0.373    0.344   20.872
  257.750   70.507    0.379    0.343   20.869
  258.000   70.493    0.388    0.343   20.483
  258.250   70.484    0.393    0.343   20.478
  258.500   71.652    0.391    0.343   20.855
  258.750   72.230    0.390    0.343   20.851
  259.000   73.394    0.390    0.344   20.846
  259.250   73.969    0.389    0.344   20.087
  259.500   73.374    0.385    0.342   19.716
  259.750   71.593    0.377    0.339   19.352
  260.000   68.633    0.375    0.336   18.648
  260.250   69.205    0.388    0.332   18.645
  260.500   70.968    0.376    0.335   18.640
  260.750   73.312    0.380    0.342   18.637
  261.000   70.941    0.388    0.352   18.631
  261.250   68.568    0.393    0.348   18.629
  261.500   67.969    0.392    0.339   18.624
  261.750   67.961    0.380    0.332   18.619
  262.000   68.539    0.370    0.327   18.277
  262.250   69.706    0.375    0.324   17.611
  262.500   72.050    0.378    0.320   16.971
  262.750   72.631    0.381    0.318   15.761
  263.000   72.614    0.381    0.319   15.471
  263.250   72.018    0.380    0.321   15.185
  263.500   72.003    0.379    0.323   15.181
  263.750   71.405    0.380    0.326   15.747
  264.000   70.800    0.385    0.328   16.038
  264.250   70.791    0.390    0.328   16.636
  264.500   71.959    0.404    0.324   16.942
  264.750   74.896    0.421    0.322   17.900
  265.000   76.064    0.438    0.318   18.231
  265.250   75.462    0.426    0.319   18.909
  265.500   74.268    0.414    0.327   18.907
  265.750   74.256    0.419    0.334   18.557
  266.000   73.655    0.429    0.341   18.214
  266.250   73.050    0.431    0.339   18.550
  266.500   72.455    0.414    0.331   19.241
  266.750   73.030    0.400    0.327   19.959
  267.000   75.377    0.401    0.325   19.956
  267.250   74.186    0.410    0.328   20.323
  267.500   70.639    0.418    0.329   19.947
  267.750   67.678    0.420    0.328   19.579
  268.000   74.740    0.418    0.332   18.521
  268.250   80.625    0.420    0.336   17.848
  268.500   80.024    0.428    0.340   17.519
  268.750   77.064    0.430    0.337   17.195
  269.000   76.462    0.414    0.334   17.511
  269.250   76.453    0.408    0.334   17.833
  269.500   78.797    0.422    0.335   18.499
  269.750   79.968    0.428    0.337   19.189
  270.000   80.546    0.422    0.339   19.542
  270.250   76.993    0.414    0.340   19.899
  270.500   73.440    0.406    0.342   19.897
  270.750   70.483    0.410    0.342   19.893
  271.000   65.754    0.415    0.338   19.523
  271.250   65.149    0.421    0.331   19.165
  271.500   68.086    0.425    0.322   18.811
  271.750   68.074    0.419    0.315   18.463
  272.000   66.296    0.418    0.306   17.790
  272.250   60.388    0.417    0.302   17.462
  272.500   55.656    0.413    0.304   17.141
  272.750   53.875    0.359    0.303   16.516
  273.000   57.401    0.330    0.274   15.915
  273.250   62.697    0.302    0.241   15.621
  273.500   62.688    0.327    0.201   15.334
  273.750   61.494    0.355    0.192   15.050
  274.000   60.892    0.400    0.318   14.772
  274.250   60.883    0.420    0.324   14.768
  274.500   61.458    0.439    0.326   14.766
  274.750   62.039    0.437    0.327   15.316
  275.000   63.204    0.427    0.330   15.598
  275.250   64.369    0.412    0.334   15.885
  275.500   65.533    0.419    0.338   16.176
  275.750   66.114    0.427    0.344   16.174
  276.000   66.100    0.430    0.342   16.170
  276.250   66.680    0.427    0.335   16.166
  276.500   66.671    0.421    0.330   16.162
  276.750   67.252    0.413    0.331   16.160
