~VERSION INFORMATION
 VERS.                 2.0:   CWLS LOG ASCII STANDARD -VERSION 2.0
 WRAP.                  NO:   ONE LINE PER DEPTH STEP
~WELL INFORMATION BLOCK
#MNEM.UNIT           DATA                    DESCRIPTION OF MNEMONIC
#---------    -------------------            -------------------------------
# Generated from Intellog Unique Number	CW_82_90/WELL/3069
WELL.         GULF LIVOCK EV                 : Well_name    - WELL
LOC .         00/08-05-086-22W4/0            : Location     - LOCATION
UWI .         00/08-05-086-22W4/0            : Uwi          - UNIQUE WELL ID
ENTR.         MAX                            : Entered      - ENTERED BY
SRVC.         SCHLUMBERGER                   : Scn          - SERVICE COMPANY
STRT.M        167.64                         : top_depth    - START DEPTH
STOP.M        371.89                         : bot_depth    - STOP DEPTH
STEP.M        0.25                           : increment    - STEP LENGTH
 NULL. -999.2500:NULL Value
~CURVE INFORMATION BLOCK
#MNEM UNIT       ERCB CURVE CODE    CURVE DESCRIPTION
#-----------   ------------------   ----------------------------------
DEPT.M        00 001 00 00         : DEPTH        - DEPTH
ILD .OHMM     00 120 00 00         : RESD         - DEEP RESISTIVITY (DIL)
NPHI.V/V      00 330 00 00         : PHIN         - NEUTRON POROSITY (SANDSTONE)
DPHI.V/V      00 890 00 00         : PHID         - DENSITY POROSITY (SANDSTONE)
CALI.MM       00 280 01 00         : CAL          - CALIPER
GR  .API      00 310 00 00         : GR           - GAMMA RAY
~PARAMETER INFORMATION
#MNEM.UNIT           DATA             DESCRIPTION OF MNEMONIC
#---------         -----------     ------------------------------
GL  .M        575.767              : gl           - GROUND LEVEL ELEVATION
EREF.M        577.291              : kb           - ELEVATION OF DEPTH REFERENCE
DATM.M        575.767              : datum        - DATUM ELEVATION
TDD .M        374.904              : tdd          - TOTAL DEPTH DRILLER
RUN .         ONE                  : Run          - RUN NUMBER
ENG .         BILL                 : Engineer     - RECORDING ENGINEER
WIT .         JIM                  : Witness      - WITNESSED BY
MUD .         GEL                  : Mud_type     - MUD TYPE
MATR.         SANDSTONE            : Logunit      - NEUTRON MATRIX
TMAX.C        21.1111              : BHT          - MAXIMUM RECORDED TEMPERATURE
BHTD.M        374.904              : BHTDEP       - MAXIMUM RECORDED TEMPERATURE
MATR.         1                    : LOGUNIT      - NEUTRON MATRIX
RMT .C        16.6667              : MDTP         - TEMPERATURE OF MUD
NEUT.         1                    : NEUTRON      - NEUTRON TYPE
RESI.         0                    : RESIST       - RESISTIVITY TYPE
RMC .OHMM     6.2                  : RMC          - RESISTIVITY OF MUD CAKE
RMF .OHMM     6.2                  : RMF          - RESISTIVITY OF MUD FILTRATE
SUFT.C        -23.3333             : SUFT         - SURFACE TEMPERATURE
~A  DEPTH     RESD     PHIN     PHID      CAL       GR
# ...
  350.140   34.607    0.413    0.267  194.303   48.513
  350.390   26.137    0.428    0.263  194.235   52.554
  350.640   21.021    0.420    0.258  195.164   56.308
  350.890   18.498    0.406    0.244  193.604   58.010
  351.140   17.662    0.406    0.225  190.076   61.190
  351.390   17.013    0.411    0.198  187.529   68.452
  351.640   16.981    0.429    0.196  185.978   69.862
  351.890   17.739    0.413    0.196  184.427   68.654
  352.140   19.385    0.398    0.188  182.373   71.824
  352.390   20.808    0.390    0.178  180.814   73.249
  352.640   22.945    0.397    0.173  178.777   75.825
  352.890   25.534    0.416    0.172  177.703   77.542
  353.140   28.405    0.421    0.170  176.152   77.793
  353.390   24.337    0.422    0.161  174.610   77.748
  353.640   19.930    0.395    0.130  173.050   80.924
  353.890   15.886    0.354    0.100  171.985   89.932
  354.140   12.664    0.367    0.052  171.917  104.778
  354.390   10.558    0.435    0.135  173.332  118.754
  354.640    9.897    0.470    0.161  173.255  131.849
  354.890    9.883    0.497    0.175  173.196  138.819
  355.140   10.420    0.523    0.178  172.625  144.909
  355.390   11.804    0.498    0.170  174.031  145.156
  355.640   14.634    0.474    0.161  178.914  135.191
  355.890   19.852    0.443    0.185  175.386  116.751
  356.140   25.518    0.359    0.208  167.401   97.733
  356.390   31.634    0.344    0.224  163.379   69.661
  356.640   32.159    0.341    0.261  161.334   61.735
  356.890   29.348    0.346    0.278  160.260   59.938
  357.140   23.818    0.351    0.248  162.177   67.200
  357.390   19.156    0.343    0.234  163.098   74.160
  357.640   17.169    0.331    0.222  162.527   75.872
  357.890   15.111    0.371    0.204  165.416   79.923
  358.140   14.685    0.444    0.167  168.816  100.023
  358.390   14.934    0.471    0.119  171.697  118.961
  358.640   15.882    0.468    0.093  173.129  117.753
  358.890   17.042    0.406    0.074  173.043  107.190
  359.140   16.869    0.368    0.057  173.478   98.690
  359.390   16.244    0.361    0.059  173.402   86.672
  359.640   15.934    0.364    0.069  173.325   87.221
  359.890   15.770    0.384    0.060  174.254   89.224
  360.140   15.890    0.398    0.055  175.166   93.854
  360.390   16.154    0.403    0.085  175.089   99.646
  360.640   17.025    0.399    0.094  174.535   93.476
  360.890   17.949    0.361    0.085  173.479   88.469
  361.140   19.614    0.346    0.066  172.422   91.644
  361.390   21.242    0.327    0.049  170.846   95.394
  361.640   21.983    0.314    0.027  170.300   97.105
  361.890   21.176    0.291    0.005  170.718  104.362
  362.140   19.858    0.276    0.029  171.144  111.332
  362.390   18.783    0.282    0.055  172.542  115.963
  362.640   18.586    0.291    0.055  173.462  115.333
  362.890   18.560    0.304    0.059  174.885  110.915
  363.140   18.528    0.390    0.144  176.300  106.783
  363.390   18.343    0.348    0.129  171.272  113.165
  363.640   18.154    0.352    0.122  171.221  118.378
  363.890   17.484    0.436    0.118  172.142  118.046
  364.140   16.690    0.479    0.112  173.539  110.704
  364.390   15.649    0.493    0.072  175.448  106.572
  364.640   13.405    0.508    0.064  172.406  103.608
  364.890    9.942    0.521    0.041  169.875  100.935
  365.140    8.594    0.528    0.064  169.304   98.555
  365.390    7.842    0.412    0.112  169.236   97.066
  365.640    7.903    0.385    0.100  169.168   93.804
  365.890    9.365    0.373    0.049  170.574   94.353
  366.140   10.900    0.386    0.015  171.989  102.486
  366.390   13.150    0.393    0.107  172.424  101.268
  366.640   15.447    0.399    0.123  167.404   98.027
  366.890   17.033    0.403    0.206  164.362   88.933
  367.140   19.825    0.397    0.198  165.274   80.131
  367.390   22.258    0.377    0.189  165.709   52.934
  367.640   24.101    0.390    0.211  165.632   49.673
  367.890   24.285    0.394    0.220  165.564   50.222
  368.140   23.605    0.401    0.231  165.487   52.512
  368.390   22.726    0.403    0.241  165.419   54.812
  368.640   22.703    0.402    0.246  165.351   58.566
  368.890   22.664    0.398    0.232  165.275   62.904
  369.140   22.837    0.384    0.217  165.206   62.572
  369.390   22.810    0.371    0.215  164.644   52.019
  369.640   22.980    0.331    0.235  164.090   38.547
  369.890   23.366    0.308    0.248  164.005   43.761
  370.140   23.545    0.307    0.250  164.440   42.543
  370.390   23.717    0.302    0.254  164.363   41.043
  370.640   23.903    0.297    0.256  165.284   41.587
  370.890   23.656    0.295    0.221  165.710   43.298
  371.140   22.376    0.295    0.113  166.136   45.301
  371.390   20.979    0.295    0.058  166.068   47.591
  371.640   20.576    0.296    0.032  165.488   48.718
  371.890   20.548    0.294    0.020  165.420   48.683
