~VERSION INFORMATION
 VERS.                 2.0:   CWLS LOG ASCII STANDARD -VERSION 2.0
 WRAP.                  NO:   ONE LINE PER DEPTH STEP
~WELL INFORMATION BLOCK
#MNEM.UNIT           DATA                    DESCRIPTION OF MNEMONIC
#---------    -------------------            -------------------------------
# Generated from Intellog Unique Number	CX_WELLS/WELL/3261
WELL.         PARA ET AL GRAMOR              : Well_name    - WELL
LOC .         00/06-23-083-18W4/0            : Location     - LOCATION
UWI .         00/06-23-083-18W400            : Uwi          - UNIQUE WELL ID
ENTR.         T                              : Entered      - ENTERED BY
SRVC.         SCHLUMBERGER                   : Scn          - SERVICE COMPANY
DATE.         03/04/92                       : Date         - LOG DATE
STRT.M        100                            : top_depth    - START DEPTH
STOP.M        295                            : bot_depth    - STOP DEPTH
STEP.M        0.25                           : increment    - STEP LENGTH
 NULL. -999.2500:NULL Value
~CURVE INFORMATION BLOCK
#MNEM UNIT       ERCB CURVE CODE    CURVE DESCRIPTION
#-----------   ------------------   ----------------------------------
DEPT.M        00 001 00 00         : DEPTH        - DEPTH
GR  .API      00 310 00 00         : GR           - GAMMA RAY
NPHI.V/V      00 330 00 00         : PHIN         - NEUTRON POROSITY (SANDSTONE)
DPHI.V/V      00 890 00 00         : PHID         - DENSITY POROSITY (SANDSTONE)
ILD .OHMM     00 120 00 00         : RESD         - DEEP RESISTIVITY (DIL)
~PARAMETER INFORMATION
#MNEM.UNIT           DATA             DESCRIPTION OF MNEMONIC
#---------         -----------     ------------------------------
GL  .M        551.9                : gl           - GROUND LEVEL ELEVATION
EREF.M        554.9                : kb           - ELEVATION OF DEPTH REFERENCE
DATM.M        554.9                : datum        - DATUM ELEVATION
TDD .M        293                  : tdd          - TOTAL DEPTH DRILLER
RUN .         ONE                  : Run          - RUN NUMBER
ENG .         JO                   : Engineer     - RECORDING ENGINEER
WIT .         TIM                  : Witness      - WITNESSED BY
MUD .         GEL                  : Mud_type     - MUD TYPE
MATR.         SANDSTONE            : Logunit      - NEUTRON MATRIX
TMAX.C        23                   : BHT          - MAXIMUM RECORDED TEMPERATURE
BHTD.M        293                  : BHTDEP       - MAXIMUM RECORDED TEMPERATURE
RMT .C        18                   : MDTP         - TEMPERATURE OF MUD
MUDD.KG/M     1                    : MWT          - MUD DENSITY
NEUT.         1                    : NEUTRON      - NEUTRON TYPE
RESI.         0                    : RESIST       - RESISTIVITY TYPE
RM  .OHMM     2.2                  : RM           - RESISTIVITY OF MUD
RMC .OHMM     1.9                  : RMC          - RESISTIVITY OF MUD CAKE
RMF .OHMM     1.9                  : RMF          - RESISTIVITY OF MUD FILTRATE
SUFT.C        4                    : SUFT         - SURFACE TEMPERATURE
~A  DEPTH       GR     PHIN     PHID     RESD
# ...
  187.000   43.315    0.376    0.342   15.736
  187.250   42.131    0.369    0.341   15.763
  187.500   40.934    0.361    0.340   15.785
  187.750   40.376    0.358    0.338   15.806
  188.000   40.403    0.362    0.337   15.822
  188.250   41.082    0.370    0.335   15.860
  188.500   41.136    0.368    0.334   15.877
  188.750   40.578    0.366    0.339   15.893
  189.000   38.768    0.366    0.341   15.920
  189.250   38.183    0.367    0.344   15.640
  189.500   38.224    0.369    0.339   15.656
  189.750   38.291    0.371    0.332   15.381
  190.000   38.957    0.373    0.328   15.408
  190.250   39.011    0.371    0.326   15.132
  190.500   39.717    0.369    0.326   15.168
  190.750   39.744    0.367    0.327   15.173
  191.000   40.451    0.368    0.330   14.907
  191.250   40.491    0.373    0.333   14.927
  191.500   41.810    0.376    0.335   14.947
  191.750   42.476    0.378    0.338   14.973
  192.000   44.406    0.383    0.338   14.988
  192.250   45.698    0.387    0.336   15.009
  192.500   47.628    0.388    0.335   15.029
  192.750   48.335    0.391    0.334   15.350
  193.000   45.247    0.394    0.332   15.366
  193.250   43.425    0.370    0.331   15.684
  193.500   44.730    0.375    0.329   15.710
  193.750   50.413    0.386    0.317   15.732
  194.000   55.472    0.396    0.299   15.748
  194.250   53.023    0.327    0.075   15.482
  194.500   48.086    0.222    0.048   15.492
  194.750   53.757    0.259    0.195   14.373
  195.000   59.441    0.309    0.220   11.667
  195.250   65.125    0.345    0.262    9.470
  195.500   72.699    0.384    0.273    7.124
  195.750   84.638    0.382    0.269    6.006
  196.000   91.573    0.392    0.245    5.260
  196.250  104.152    0.424    0.180    4.699
  196.500  111.101    0.455    0.154    4.445
  196.750  113.657    0.461    0.151    4.448
  197.000  117.451    0.465    0.174    4.288
  197.250  124.399    0.466    0.195    4.294
  197.500  128.845    0.467    0.211    4.220
  197.750  127.009    0.464    0.211    4.226
  198.000  124.574    0.460    0.210    4.315
  198.250  123.390    0.453    0.207    4.318
  198.500  123.444    0.444    0.206    4.325
  198.750  123.471    0.440    0.206    4.414
  199.000  123.525    0.449    0.215    4.422
  199.250  123.579    0.461    0.222    4.428
  199.500  124.259    0.461    0.223    4.516
  199.750  122.436    0.438    0.224    4.700
  200.000  120.613    0.420    0.227    4.890
  200.250  120.041    0.411    0.232    5.287
  200.500  119.483    0.421    0.234    5.604
  200.750  117.660    0.445    0.238    6.174
  201.000  115.824    0.453    0.266    7.069
  201.250  112.125    0.465    0.271    7.785
  201.500  106.562    0.439    0.297    8.913
  201.750  104.087    0.431    0.305   10.015
  202.000   97.259    0.422    0.293   10.215
  202.250   89.181    0.416    0.259   10.430
  202.500   89.235    0.407    0.240   10.243
  202.750   93.681    0.390    0.251   10.063
  203.000   95.598    0.389    0.261    9.703
  203.250   98.793    0.396    0.257    9.529
  203.500   99.473    0.401    0.249    9.726
  203.750   99.527    0.405    0.239    9.927
  204.000   99.608    0.407    0.232   10.136
  204.250   99.635    0.408    0.230   10.341
  204.500   99.702    0.411    0.233   10.766
  204.750   99.756    0.408    0.234   10.773
  205.000   99.810    0.404    0.230   11.000
  205.250   99.877    0.394    0.226   11.018
  205.500   99.279    0.380    0.217   11.034
  205.750   99.332    0.386    0.208   10.434
  206.000   99.386    0.391    0.212    9.683
  206.250   99.467    0.396    0.218    9.506
  206.500   99.508    0.396    0.224    8.990
  206.750  100.201    0.400    0.228    9.008
  207.000  100.867    0.405    0.230    9.017
  207.250  101.533    0.407    0.230    9.204
  207.500  102.225    0.408    0.228    9.391
  207.750  103.517    0.404    0.221    9.585
  208.000  104.196    0.401    0.218    9.789
  208.250   97.369    0.394    0.227    9.800
  208.500   94.295    0.385    0.235    9.810
  208.750   95.614    0.376    0.233    9.644
  209.000   97.544    0.369    0.231    9.654
  209.250   96.986    0.373    0.227    9.481
  209.500   96.388    0.377    0.227    9.497
  209.750   93.327    0.395    0.229    9.697
  210.000   90.253    0.407    0.232    9.707
  210.250   87.805    0.408    0.235    9.539
  210.500   86.608    0.403    0.241    9.372
  210.750   86.022    0.399    0.246    9.204
  211.000   87.953    0.401    0.260    9.217
  211.250   91.787    0.403    0.270    9.232
  211.500   94.330    0.410    0.287    9.245
  211.750   96.886    0.417    0.309    9.258
  212.000   98.178    0.418    0.323    8.751
  212.250   95.729    0.408    0.331    7.670
  212.500   93.281    0.396    0.262    6.468
  212.750   89.595    0.395    0.201    5.665
  213.000   90.274    0.400    0.244    4.963
  213.250   92.192    0.408    0.273    4.604
  213.500   97.263    0.419    0.288    5.475
  213.750   98.568    0.435    0.310    6.387
  214.000   94.243    0.447    0.320    7.597
  214.250   91.156    0.444    0.333    8.698
  214.500   87.470    0.423    0.325    9.404
  214.750   85.022    0.410    0.292    9.783
  215.000   83.199    0.410    0.288    9.982
  215.250   83.239    0.409    0.288   10.185
  215.500   83.293    0.409    0.289   10.399
  215.750   83.986    0.407    0.290   10.413
  216.000   84.652    0.406    0.290   10.040
  216.250   85.971    0.405    0.290   10.047
  216.500   86.650    0.402    0.287    9.871
  216.750   87.969    0.399    0.286    9.697
  217.000   88.648    0.394    0.282    9.717
  217.250   89.314    0.394    0.280    9.727
  217.500   90.646    0.402    0.270    9.932
  217.750   91.299    0.407    0.261   10.133
  218.000   91.978    0.404    0.237   10.154
  218.250   87.027    0.247    0.199   10.165
  218.500   80.200    0.215    0.126    9.794
  218.750   77.752    0.268    0.077    9.089
  219.000   80.933    0.299    0.177    8.595
  219.250   85.366    0.367    0.211    8.284
  219.500   87.922    0.395    0.224    7.985
  219.750   90.492    0.408    0.224    7.406
  220.000   91.784    0.420    0.226    6.873
  220.250   93.102    0.422    0.226    6.750
  220.500   95.658    0.422    0.221    6.759
  220.750   97.589    0.409    0.211    6.901
  221.000  100.131    0.399    0.207    7.041
  221.250  103.340    0.406    0.215    7.187
  221.500  104.632    0.411    0.222    7.479
  221.750  104.060    0.410    0.225    7.781
  222.000  102.876    0.406    0.227    8.095
  222.250  101.692    0.402    0.226    8.587
  222.500  101.107    0.389    0.226    9.284
  222.750  100.522    0.392    0.224    9.472
  223.000   99.964    0.397    0.225    9.858
  223.250  100.004    0.395    0.228   10.058
  223.500   99.433    0.385    0.231   10.075
  223.750   99.487    0.374    0.232   10.086
  224.000   97.691    0.361    0.233    9.905
  224.250   97.106    0.369    0.219    9.550
  224.500   97.146    0.389    0.208    9.386
  224.750   97.200    0.394    0.206    9.395
  225.000   97.893    0.400    0.233    9.593
  225.250   98.572    0.405    0.242    9.791
  225.500   99.252    0.403    0.244   10.186
  225.750   99.918    0.393    0.238   10.601
  226.000   99.972    0.396    0.229   11.024
  226.250  100.026    0.399    0.221   12.149
  226.500  100.093    0.408    0.220   12.883
  226.750  100.133    0.410    0.221   13.656
  227.000   99.575    0.410    0.223   14.760
  227.250   98.378    0.410    0.227   14.780
  227.500   97.820    0.414    0.225   13.717
  227.750   97.235    0.413    0.223   12.967
  228.000   95.425    0.282    0.205   12.034
  228.250   94.201    0.249    0.140   11.595
  228.500   89.264    0.209    0.082   11.176
  228.750   85.551    0.287    0.077   10.776
  229.000   86.244    0.318    0.139   10.787
  229.250   90.038    0.344    0.177   11.442
  229.500   95.722    0.375    0.198   11.675
  229.750   97.040    0.394    0.233   11.695
  230.000   98.984    0.403    0.232   11.711
  230.250  100.289    0.389    0.224   11.291
