~VERSION INFORMATION
 VERS.                 2.0:   CWLS LOG ASCII STANDARD -VERSION 2.0
 WRAP.                  NO:   ONE LINE PER DEPTH STEP
~WELL INFORMATION BLOCK
#MNEM.UNIT           DATA                    DESCRIPTION OF MNEMONIC
#---------    -------------------            -------------------------------
# Generated from Intellog Unique Number	CW_73_75/WELL/2726
WELL.         UNIGAS ET AL TOMATO 05-02      : Well_name    - WELL
LOC .         00/05-02-073-23W4/0            : Location     - LOCATION
UWI .         00/05-02-073-23W4/0            : Uwi          - UNIQUE WELL ID
ENTR.         JAYE                           : Entered      - ENTERED BY
SRVC.         SCHLUMBERGER                   : Scn          - SERVICE COMPANY
DATE.         14 DEC 80                      : Date         - LOG DATE
STRT.M        325                            : top_depth    - START DEPTH
STOP.M        622                            : bot_depth    - STOP DEPTH
STEP.M        0.25                           : increment    - STEP LENGTH
 NULL. -999.2500:NULL Value
~CURVE INFORMATION BLOCK
#MNEM UNIT       ERCB CURVE CODE    CURVE DESCRIPTION
#-----------   ------------------   ----------------------------------
DEPT.M        00 001 00 00         : DEPTH        - DEPTH
ILD .OHMM     00 120 00 00         : RESD         - DEEP RESISTIVITY (DIL)
NPHI.V/V      00 330 00 00         : PHIN         - NEUTRON POROSITY (SANDSTONE)
DPHI.V/V      00 890 00 00         : PHID         - DENSITY POROSITY (SANDSTONE)
GR  .API      00 310 00 00         : GR           - GAMMA RAY
CALI.MM       00 280 01 00         : CAL          - CALIPER
~PARAMETER INFORMATION
#MNEM.UNIT           DATA             DESCRIPTION OF MNEMONIC
#---------         -----------     ------------------------------
GL  .M        625                  : gl           - GROUND LEVEL ELEVATION
EREF.M        627.5                : kb           - ELEVATION OF DEPTH REFERENCE
DATM.M        625                  : datum        - DATUM ELEVATION
TDD .M        624                  : tdd          - TOTAL DEPTH DRILLER
RUN .         ONE                  : Run          - RUN NUMBER
ENG .         KUZIO                : Engineer     - RECORDING ENGINEER
BASE.         EDM                  : Branch       - HOME BASE OF LOGGING UNIT
MUD .         GEL CHEM             : Mud_type     - MUD TYPE
MATR.         SANDSTONE            : Logunit      - NEUTRON MATRIX
TMAX.C        23.3                 : BHT          - MAXIMUM RECORDED TEMPERATURE
BHTD.M        625                  : BHTDEP       - MAXIMUM RECORDED TEMPERATURE
RMT .C        16.6                 : MDTP         - TEMPERATURE OF MUD
MUDD.KG/M     1110                 : MWT          - MUD DENSITY
NEUT.         1                    : NEUTRON      - NEUTRON TYPE
RESI.         0                    : RESIST       - RESISTIVITY TYPE
RM  .OHMM     3.19                 : RM           - RESISTIVITY OF MUD
RMC .OHMM     0                    : RMC          - RESISTIVITY OF MUD CAKE
RMF .OHMM     3.11                 : RMF          - RESISTIVITY OF MUD FILTRATE
SUFT.C        0                    : SUFT         - SURFACE TEMPERATURE
~A  DEPTH     RESD     PHIN     PHID       GR      CAL
# ...
  434.500    8.341    0.431    0.312   55.466  160.657
  434.750    9.107    0.409    0.260   52.066  161.013
  435.000    9.887    0.224    0.123   47.408  161.167
  435.250   10.370    0.169    0.068   42.005  161.424
  435.500   10.939    0.193    0.110   37.975  161.462
  435.750   11.431    0.300    0.170   39.378  161.507
  436.000   11.898    0.337    0.233   40.527  161.446
  436.250   12.338    0.324    0.268   40.930  161.292
  436.500   13.626    0.277    0.085   40.830  161.021
  436.750   14.736    0.197    0.090   42.229  160.968
  437.000   14.429    0.172    0.139   41.756  160.803
  437.250   11.429    0.212    0.152   38.351  160.845
  437.500    9.298    0.241    0.142   42.248  160.579
  437.750    7.492    0.265    0.207   47.828  160.209
  438.000    6.642    0.296    0.249   49.477  159.940
  438.250    6.320    0.387    0.314   48.443  159.670
  438.500    6.604    0.422    0.338   46.724  159.712
  438.750    6.967    0.442    0.344   46.125  159.765
  439.000    7.047    0.441    0.334   46.714  159.811
  439.250    7.060    0.438    0.323   45.182  159.847
  439.500    7.060    0.432    0.315   43.211  159.371
  439.750    7.033    0.437    0.321   42.302  158.691
  440.000    7.019    0.433    0.327   43.890  157.379
  440.250    6.939    0.427    0.318   42.917  155.348
  440.500    6.756    0.431    0.318   41.448  154.348
  440.750    6.416    0.442    0.328   42.160  153.666
  441.000    6.117    0.448    0.332   43.248  154.125
  441.250    5.966    0.444    0.335   41.715  155.424
  441.500    5.876    0.448    0.344   40.931  156.716
  441.750    5.809    0.451    0.342   40.523  158.216
  442.000    5.808    0.441    0.337   39.801  159.719
  442.250    5.808    0.463    0.332   39.016  160.383
  442.500    5.808    0.454    0.334   36.483  160.741
  442.750    5.819    0.422    0.334   33.452  161.103
  443.000    5.830    0.443    0.330   36.164  161.669
  443.250    5.819    0.447    0.333   38.560  162.236
  443.500    5.807    0.439    0.343   38.339  162.697
  443.750    5.807    0.434    0.344   35.743  163.050
  444.000    5.807    0.439    0.343   32.901  163.297
  444.250    5.807    0.456    0.341   32.927  163.657
  444.500    5.774    0.453    0.338   33.642  163.909
  444.750    5.751    0.440    0.338   33.980  164.263
  445.000    5.773    0.423    0.342   34.569  164.104
  445.250    5.829    0.421    0.336   35.406  164.368
  445.500    5.884    0.424    0.324   36.372  164.508
  445.750    5.963    0.433    0.315   36.461  164.974
  446.000    6.009    0.449    0.306   36.236  165.319
  446.250    6.078    0.457    0.317   37.635  165.796
  446.500    6.172    0.453    0.325   40.533  165.944
  446.750    6.243    0.447    0.327   43.180  165.888
  447.000    6.338    0.438    0.326   43.145  165.708
  447.250    6.387    0.426    0.311   41.676  165.655
  447.500    6.448    0.420    0.298   42.325  165.597
  447.750    6.522    0.421    0.297   43.789  165.649
  448.000    6.572    0.426    0.314   45.129  165.385
  448.250    6.673    0.441    0.333   46.153  165.307
  448.500    6.724    0.436    0.317   46.987  165.468
  448.750    6.750    0.445    0.307   47.205  165.505
  449.000    6.801    0.441    0.301   47.231  165.551
  449.250    6.840    0.430    0.311   47.941  165.191
  449.500    6.853    0.417    0.312   50.777  164.602
  449.750    6.840    0.431    0.312   53.551  164.022
  450.000    6.840    0.450    0.309   51.395  163.442
  450.250    6.839    0.438    0.289   47.739  162.757
  450.500    6.892    0.427    0.278   47.081  161.345
  450.750    6.958    0.422    0.293   47.854  159.207
  451.000    6.971    0.424    0.301   48.817  158.320
  451.250    6.971    0.441    0.304   49.967  157.742
  451.500    6.970    0.435    0.306   50.182  158.511
  451.750    6.997    0.426    0.316   50.270  159.278
  452.000    6.983    0.416    0.314   49.611  160.467
  452.250    6.943    0.416    0.308   47.956  161.659
  452.500    6.930    0.432    0.294   47.418  161.287
  452.750    6.903    0.425    0.295   48.320  159.567
  453.000    6.877    0.441    0.307   49.533  158.152
  453.250    6.850    0.456    0.301   50.562  156.741
  453.500    6.824    0.449    0.304   51.085  155.756
  453.750    6.785    0.429    0.320   51.110  155.789
  454.000    6.772    0.415    0.331   50.326  156.044
  454.250    6.784    0.412    0.305   49.354  156.302
  454.500    6.784    0.419    0.293   50.506  156.143
  454.750    6.745    0.404    0.283   53.214  156.181
  455.000    6.732    0.391    0.278   56.611  156.536
  455.250    6.694    0.408    0.276   59.323  156.586
  455.500    6.681    0.422    0.285   61.533  156.830
  455.750    6.680    0.436    0.289   62.187  157.297
  456.000    6.693    0.423    0.282   61.400  157.652
  456.250    6.706    0.425    0.276   59.803  157.485
  456.500    6.731    0.442    0.283   57.647  156.808
  456.750    6.744    0.444    0.291   55.677  156.431
  457.000    6.744    0.442    0.297   55.203  156.165
  457.250    6.795    0.437    0.301   56.855  156.317
  457.500    7.265    0.426    0.300   59.316  156.361
  457.750    8.352    0.413    0.296   61.775  156.301
  458.000   10.305    0.411    0.284   66.293  156.239
  458.250   13.059    0.418    0.260   64.323  156.082
  458.500   16.645    0.384    0.152   52.496  157.580
  458.750   18.989    0.182    0.040   44.846  159.703
  459.000   16.454    0.154    0.023   47.308  160.892
  459.250   14.257    0.191    0.039   56.443  161.351
  459.500   11.982    0.245    0.140   62.211  160.775
  459.750    9.418    0.308    0.214   65.546  160.825
  460.000    8.350    0.461    0.270   69.693  160.969
  460.250    7.869    0.449    0.290   71.592  161.220
  460.500    7.560    0.429    0.290   70.620  161.055
  460.750    7.402    0.415    0.287   74.140  160.373
  461.000    7.346    0.426    0.273   79.847  159.897
  461.250    7.304    0.451    0.259   78.065  159.633
  461.500    7.206    0.438    0.242   76.905  159.678
  461.750    6.949    0.427    0.218   81.674  161.074
  462.000    6.625    0.425    0.197   82.263  165.281
  462.250    6.161    0.431    0.199   81.791  168.338
  462.500    5.930    0.429    0.199   83.938  169.736
  462.750    5.567    0.437    0.195   87.962  170.098
  463.000    5.227    0.445    0.201   88.111  170.034
  463.250    4.688    0.457    0.198   86.702  169.870
  463.500    4.236    0.467    0.197   91.535  169.815
  463.750    3.828    0.472    0.198   92.935  169.750
  464.000    3.055    0.459    0.192   91.275  169.587
  464.250    3.032    0.447    0.187   91.866  169.428
  464.500    3.248    0.453    0.195   92.829  169.364
  464.750    3.506    0.469    0.183   94.166  169.101
  465.000    3.677    0.466    0.170   95.377  168.729
  465.250    3.798    0.453    0.170   96.901  169.295
  465.500    3.954    0.471    0.189   99.302  172.149
  465.750    4.195    0.495    0.209  100.515  173.751
  466.000    4.554    0.472    0.227   97.545  170.674
  466.250    5.029    0.464    0.205   92.142  166.147
  466.500    5.255    0.458    0.190   88.799  164.733
  466.750    5.387    0.448    0.192   86.392  163.740
  467.000    5.480    0.441    0.207   85.047  163.264
  467.250    5.491    0.433    0.212   85.136  163.103
  467.500    5.533    0.421    0.201   90.842  163.458
  467.750    5.639    0.431    0.190   94.239  163.813
  468.000    5.715    0.459    0.185   90.957  164.069
  468.250    5.781    0.448    0.193   85.680  164.110
  468.500    5.836    0.442    0.202   86.395  163.946
  468.750    5.836    0.440    0.195   90.604  163.160
  469.000    5.836    0.444    0.196   83.455  159.879
  469.250    5.847    0.475    0.221   75.742  157.323
  469.500    5.791    0.455    0.259   68.841  156.847
  469.750    5.714    0.439    0.279   62.006  156.787
  470.000    5.563    0.431    0.300   60.285  157.042
  470.250    5.324    0.437    0.298   60.934  157.084
  470.500    5.114    0.436    0.297   63.582  157.550
  470.750    4.979    0.431    0.308   67.418  157.911
