~VERSION INFORMATION
 VERS.                 2.0:   CWLS LOG ASCII STANDARD -VERSION 2.0
 WRAP.                  NO:   ONE LINE PER DEPTH STEP
~WELL INFORMATION BLOCK
#MNEM.UNIT           DATA                    DESCRIPTION OF MNEMONIC
#---------    -------------------            -------------------------------
# Generated from Intellog Unique Number	CW_73_75/WELL/875
WELL.         HOME UNIT MARTEN HILLS 07-33   : Well_name    - WELL
LOC .         00/07-33-074-24W4/0            : Location     - LOCATION
UWI .         00/07-33-074-24W4/0            : Uwi          - UNIQUE WELL ID
ENTR.         JAYE                           : Entered      - ENTERED BY
SRVC.         WESTERN ATLAS                  : Scn          - SERVICE COMPANY
DATE.         22 JAN 85                      : Date         - LOG DATE
STRT.M        410                            : top_depth    - START DEPTH
STOP.M        605                            : bot_depth    - STOP DEPTH
STEP.M        0.25                           : increment    - STEP LENGTH
 NULL. -999.2500:NULL Value
~CURVE INFORMATION BLOCK
#MNEM UNIT       ERCB CURVE CODE    CURVE DESCRIPTION
#-----------   ------------------   ----------------------------------
DEPT.M        00 001 00 00         : DEPTH        - DEPTH
ILD .OHMM     00 120 00 00         : RESD         - DEEP RESISTIVITY (DIL)
NPHI.V/V      00 330 00 00         : PHIN         - NEUTRON POROSITY (SANDSTONE)
DPHI.V/V      00 890 00 00         : PHID         - DENSITY POROSITY (SANDSTONE)
GR  .API      00 310 00 00         : GR           - GAMMA RAY
CALI.MM       00 280 01 00         : CAL          - CALIPER
~PARAMETER INFORMATION
#MNEM.UNIT           DATA             DESCRIPTION OF MNEMONIC
#---------         -----------     ------------------------------
GL  .M        687.1                : gl           - GROUND LEVEL ELEVATION
EREF.M        691.7                : kb           - ELEVATION OF DEPTH REFERENCE
DATM.M        687.1                : datum        - DATUM ELEVATION
TDD .M        611                  : tdd          - TOTAL DEPTH DRILLER
RUN .         ONE                  : Run          - RUN NUMBER
ENG .         MONAGLE              : Engineer     - RECORDING ENGINEER
WIT .         SAEA                 : Witness      - WITNESSED BY
BASE.         2150                 : Branch       - HOME BASE OF LOGGING UNIT
MUD .         GEL CHEM             : Mud_type     - MUD TYPE
MATR.         SANDSTONE            : Logunit      - NEUTRON MATRIX
TMAX.C        25                   : BHT          - MAXIMUM RECORDED TEMPERATURE
BHTD.M        611.2                : BHTDEP       - MAXIMUM RECORDED TEMPERATURE
RMT .C        15                   : MDTP         - TEMPERATURE OF MUD
MUDD.KG/M     1220                 : MWT          - MUD DENSITY
NEUT.         1                    : NEUTRON      - NEUTRON TYPE
RESI.         0                    : RESIST       - RESISTIVITY TYPE
RM  .OHMM     5.7                  : RM           - RESISTIVITY OF MUD
RMC .OHMM     5.2                  : RMC          - RESISTIVITY OF MUD CAKE
RMF .OHMM     6                    : RMF          - RESISTIVITY OF MUD FILTRATE
SUFT.C        0                    : SUFT         - SURFACE TEMPERATURE
~A  DEPTH     RESD     PHIN     PHID       GR      CAL
  410.000    2.615    0.446    0.213   81.915  209.130
  410.250    2.580    0.456    0.241   85.166  207.928
  410.500    2.613    0.462    0.232   88.909  208.488
  410.750    2.633    0.507    0.219   88.374  209.765
  411.000    2.657    0.525    0.202   84.553  211.147
  411.250    2.701    0.507    0.209   86.251  210.671
  411.500    2.716    0.468    0.211   91.794  209.163
  411.750    2.669    0.497    0.223   87.665  208.786
  412.000    2.594    0.503    0.228   86.633  213.997
  412.250    2.536    0.512    0.225   83.681  217.855
  412.500    2.488    0.570    0.240   77.503  221.826
  412.750    2.563    0.607    0.271   82.115  224.963
  413.000    2.722    0.427    0.229   74.204  224.278
  413.250    2.874    0.418    0.182   64.801  217.914
  413.500    3.011    0.404    0.155   68.172  214.750
  413.750    3.091    0.385    0.182   72.414  213.757
  414.000    3.079    0.403    0.237   73.180  216.998
  414.250    2.942    0.478    0.253   75.193  221.172
  414.500    2.676    0.515    0.273   77.631  224.207
  414.750    2.500    0.543    0.289   77.592  229.623
  415.000    2.389    0.550    0.306   71.169  234.103
  415.250    2.619    0.505    0.321   68.650  233.007
  415.500    3.126    0.421    0.315   62.471  220.542
  415.750    3.816    0.399    0.280   56.604  206.317
  416.000    4.546    0.379    0.257   47.452  203.570
  416.250    5.796    0.362    0.302   51.940  205.260
  416.500    6.750    0.367    0.331   52.831  208.503
  416.750    7.033    0.381    0.370   52.297  210.509
  417.000    6.708    0.401    0.310   53.003  210.548
  417.250    6.149    0.392    0.289   55.321  208.416
  417.500    5.701    0.382    0.243   58.444  205.045
  417.750    5.305    0.384    0.257   56.920  202.399
  418.000    4.984    0.396    0.293   54.958  200.995
  418.250    4.665    0.397    0.332   55.977  200.513
  418.500    4.663    0.400    0.327   58.726  199.939
  418.750    4.751    0.412    0.312   55.713  199.149
  419.000    4.923    0.402    0.309   49.534  197.429
  419.250    5.081    0.414    0.322   43.295  192.302
  419.500    5.080    0.414    0.316   42.017  191.000
  419.750    5.031    0.399    0.295   42.908  192.071
  420.000    4.936    0.398    0.308   44.854  195.113
  420.250    4.806    0.390    0.324   47.918  198.045
  420.500    4.723    0.386    0.341   49.428  199.939
  420.750    4.669    0.389    0.354   50.197  197.505
  421.000    4.572    0.394    0.348   52.824  195.268
  421.250    4.303    0.387    0.320   56.942  193.443
  421.500    3.923    0.428    0.314   60.685  192.348
  421.750    3.589    0.464    0.307   69.268  193.937
  422.000    3.278    0.451    0.278   81.692  198.838
  422.250    3.050    0.447    0.217   90.335  206.628
  422.500    3.084    0.493    0.218   96.188  212.147
  422.750    3.401    0.496    0.225   96.895  212.906
  423.000    3.701    0.446    0.234   93.941  212.428
  423.250    4.213    0.394    0.239   86.896  211.747
  423.500    4.432    0.383    0.262   72.533  210.956
  423.750    4.299    0.374    0.288   67.224  208.621
  424.000    4.306    0.384    0.279   74.442  203.906
  424.250    4.564    0.385    0.225   70.992  202.497
  424.500    4.828    0.379    0.203   59.296  200.678
  424.750    5.108    0.373    0.170   61.366  195.652
  425.000    5.506    0.349    0.187   72.180  193.730
  425.250    5.567    0.354    0.204   77.414  195.941
  425.500    5.319    0.376    0.228   73.406  200.010
  425.750    5.016    0.413    0.234   77.213  202.839
  426.000    4.739    0.434    0.233   88.026  205.875
  426.250    4.511    0.404    0.246   88.484  209.635
  426.500    4.343    0.422    0.261   79.888  212.467
  426.750    4.334    0.414    0.275   67.013  213.953
  427.000    4.567    0.393    0.286   55.504  207.480
  427.250    4.741    0.378    0.300   57.388  202.665
  427.500    4.794    0.379    0.288   59.210  201.360
  427.750    4.829    0.389    0.266   63.388  201.609
  428.000    4.873    0.407    0.234   67.443  201.644
  428.250    4.862    0.402    0.231   71.311  200.343
  428.500    4.861    0.394    0.236   73.010  198.520
  428.750    4.841    0.382    0.239   76.817  193.396
  429.000    4.840    0.400    0.234   80.809  192.709
  429.250    4.811    0.427    0.221   80.957  196.057
  429.500    4.783    0.423    0.224   76.018  200.025
  429.750    4.809    0.385    0.233   64.882  201.509
  430.000    4.945    0.369    0.247   58.641  202.588
  430.250    5.222    0.377    0.257   56.123  203.456
  430.500    5.350    0.368    0.270   57.700  203.492
  430.750    5.348    0.360    0.288   58.714  203.424
  431.000    5.287    0.379    0.313   59.294  203.360
  431.250    5.206    0.393    0.312   67.069  204.020
  431.500    5.156    0.369    0.279   73.542  205.404
  431.750    5.164    0.362    0.258   77.288  206.995
  432.000    5.182    0.373    0.215   76.876  208.377
  432.250    5.240    0.365    0.200   75.598  209.559
  432.500    5.348    0.347    0.211   73.390  210.110
  432.750    5.551    0.345    0.235   70.622  208.910
  433.000    5.720    0.345    0.235   70.770  205.745
  433.250    5.938    0.342    0.217   65.275  204.236
  433.500    6.153    0.332    0.232   56.742  202.829
  433.750    6.221    0.328    0.231   50.999  202.145
  434.000    6.243    0.332    0.224   58.835  201.563
  434.250    6.229    0.335    0.223   60.719  200.886
  434.500    6.088    0.336    0.241   51.876  200.816
  434.750    5.817    0.337    0.276   40.986  200.858
  435.000    5.527    0.338    0.291   36.297  200.893
  435.250    5.134    0.342    0.288   35.763  200.624
  435.500    4.851    0.343    0.296   36.656  200.564
  435.750    4.750    0.346    0.308   46.352  200.704
  436.000    4.625    0.348    0.317   51.522  201.160
  436.250    4.503    0.348    0.302   58.492  201.404
  436.500    4.409    0.350    0.282   65.274  201.961
  436.750    4.392    0.356    0.264   65.299  202.307
  437.000    4.399    0.378    0.282   58.066  202.663
  437.250    4.464    0.391    0.301   62.990  202.701
  437.500    4.556    0.378    0.246   67.974  202.842
  437.750    4.668    0.347    0.235   69.859  203.193
  438.000    4.874    0.352    0.223   74.346  203.438
  438.250    5.117    0.359    0.230   79.269  203.683
  438.500    5.067    0.365    0.222   78.612  204.445
  438.750    4.990    0.367    0.218   83.036  206.242
  439.000    4.850    0.371    0.224   86.226  208.144
  439.250    4.496    0.374    0.229   84.635  210.042
  439.500    4.114    0.379    0.232   86.272  212.048
  439.750    3.807    0.395    0.214   90.946  213.635
  440.000    3.267    0.470    0.190   96.241  214.194
  440.250    2.804    0.539    0.172   97.689  214.749
  440.500    2.570    0.534    0.182   95.111  214.585
  440.750    2.512    0.502    0.194   94.203  213.485
  441.000    2.550    0.481    0.180   96.088  211.457
  441.250    2.592    0.542    0.125  102.500  208.603
  441.500    2.616    0.528    0.167  103.514  206.988
  441.750    2.645    0.540    0.193  104.220  208.681
  442.000    2.700    0.540    0.215  106.228  211.204
  442.250    2.792    0.461    0.241  108.360  213.412
  442.500    2.954    0.481    0.242  107.763  214.278
  442.750    3.172    0.439    0.211  101.400  213.904
  443.000    3.518    0.473    0.196   91.999  212.496
  443.250    3.998    0.510    0.219   89.790  212.333
  443.500    4.318    0.526    0.245   90.869  213.816
  443.750    4.407    0.470    0.263   94.178  216.960
  444.000    4.431    0.395    0.277   94.142  219.891
  444.250    4.404    0.434    0.238   94.783  221.998
  444.500    4.411    0.530    0.231   96.419  222.656
  444.750    4.502    0.531    0.217   90.428  221.146
  445.000    4.665    0.476    0.229   74.391  218.084
  445.250    4.898    0.424    0.213   66.231  213.059
  445.500    5.162    0.407    0.194   70.532  205.969
  445.750    5.309    0.401    0.229   75.518  203.117
  446.000    5.248    0.382    0.268   77.526  203.773
  446.250    5.062    0.384    0.287   84.989  212.185
