~VERSION INFORMATION
 VERS.                 2.0:   CWLS LOG ASCII STANDARD -VERSION 2.0
 WRAP.                  NO:   ONE LINE PER DEPTH STEP
~WELL INFORMATION BLOCK
#MNEM.UNIT           DATA                    DESCRIPTION OF MNEMONIC
#---------    -------------------            -------------------------------
# Generated from Intellog Unique Number	CS_71_72/WELL/784
WELL.         AMOCO AEC APIATIK              : Well_name    - WELL
LOC .         00/06-30-072-04W4/0            : Location     - LOCATION
UWI .         00/06-30-072-04W4/0            : Uwi          - UNIQUE WELL ID
ENTR.         SP                             : Entered      - ENTERED BY
SRVC.         SCHLUMBERGER                   : Scn          - SERVICE COMPANY
STRT.M        315                            : top_depth    - START DEPTH
STOP.M        530                            : bot_depth    - STOP DEPTH
STEP.M        0.25                           : increment    - STEP LENGTH
 NULL. -999.2500:NULL Value
~CURVE INFORMATION BLOCK
#MNEM UNIT       ERCB CURVE CODE    CURVE DESCRIPTION
#-----------   ------------------   ----------------------------------
DEPT.M        00 001 00 00         : DEPTH        - DEPTH
ILD .OHMM     00 120 00 00         : RESD         - DEEP RESISTIVITY (DIL)
DPHI.V/V      00 890 00 00         : PHID         - DENSITY POROSITY (LIMESTONE)
NPHI.V/V      00 330 00 00         : PHIN         - NEUTRON POROSITY (LIMESTONE)
GR  .API      00 310 00 00         : GR           - GAMMA RAY
~PARAMETER INFORMATION
#MNEM.UNIT           DATA             DESCRIPTION OF MNEMONIC
#---------         -----------     ------------------------------
GL  .M        698.8                : gl           - GROUND LEVEL ELEVATION
EREF.M        705                  : kb           - ELEVATION OF DEPTH REFERENCE
DATM.M        698.8                : datum        - DATUM ELEVATION
TDD .M        545                  : tdd          - TOTAL DEPTH DRILLER
RUN .         ONE                  : Run          - RUN NUMBER
ENG .         BILL                 : Engineer     - RECORDING ENGINEER
WIT .         JIM                  : Witness      - WITNESSED BY
MUD .         GEL                  : Mud_type     - MUD TYPE
MATR.         LIMESTONE            : Logunit      - NEUTRON MATRIX
TMAX.C        11                   : BHT          - MAXIMUM RECORDED TEMPERATURE
BHTD.M        545                  : BHTDEP       - MAXIMUM RECORDED TEMPERATURE
MATR.         1                    : LOGUNIT      - NEUTRON MATRIX
RMT .C        25                   : MDTP         - TEMPERATURE OF MUD
NEUT.         1                    : NEUTRON      - NEUTRON TYPE
RESI.         0                    : RESIST       - RESISTIVITY TYPE
RMC .OHMM     0.25                 : RMC          - RESISTIVITY OF MUD CAKE
RMF .OHMM     0.25                 : RMF          - RESISTIVITY OF MUD FILTRATE
SUFT.C        15                   : SUFT         - SURFACE TEMPERATURE
~A  DEPTH     RESD     PHID     PHIN       GR
# ...
  402.000    2.989    0.215    0.466  108.237
  402.250    3.104    0.219    0.483  106.433
  402.500    3.107    0.206    0.492  105.225
  402.750    3.053    0.208    0.498  100.366
  403.000    2.945    0.221    0.495   96.725
  403.250    3.001    0.211    0.496   96.744
  403.500    3.060    0.207    0.504  101.032
  403.750    3.119    0.209    0.498  106.543
  404.000    3.240    0.211    0.492  107.169
  404.250    3.304    0.229    0.488  104.748
  404.500    3.306    0.222    0.480   99.889
  404.750    3.248    0.223    0.493   94.425
  405.000    3.190    0.236    0.500   92.609
  405.250    3.076    0.239    0.509   89.582
  405.500    2.912    0.241    0.501   88.990
  405.750    2.657    0.253    0.497   89.010
  406.000    2.609    0.274    0.492   89.025
  406.250    2.470    0.283    0.480   88.436
  406.500    2.382    0.292    0.470   87.839
  406.750    2.297    0.296    0.498   85.416
  407.000    2.215    0.290    0.492   81.175
  407.250    2.176    0.283    0.483   79.357
  407.500    2.218    0.285    0.500   77.558
  407.750    2.262    0.281    0.490   77.567
  408.000    2.264    0.273    0.476   79.422
  408.250    2.352    0.273    0.477   81.870
  408.500    2.398    0.283    0.481   86.766
  408.750    2.490    0.264    0.485   93.495
  409.000    2.635    0.244    0.509   99.609
  409.250    2.788    0.218    0.533  103.896
  409.500    2.895    0.212    0.519  105.131
  409.750    3.064    0.213    0.518  101.491
  410.000    3.123    0.213    0.526   99.070
  410.250    3.185    0.222    0.531  100.315
  410.500    3.247    0.227    0.540  100.327
  410.750    3.190    0.242    0.545   93.645
  411.000    3.020    0.258    0.536   89.390
  411.250    2.859    0.280    0.516   83.309
  411.500    2.808    0.293    0.482   78.454
  411.750    2.810    0.282    0.467   80.301
  412.000    2.865    0.266    0.509   83.366
  412.250    2.921    0.265    0.527   85.216
  412.500    2.978    0.263    0.503   88.280
  412.750    2.926    0.250    0.511   94.404
  413.000    2.875    0.238    0.532   97.465
  413.250    2.876    0.242    0.553  101.751
  413.500    2.935    0.232    0.573  106.037
  413.750    3.047    0.218    0.583  106.055
  414.000    3.106    0.223    0.568  108.516
  414.250    3.226    0.230    0.557  110.968
  414.500    3.352    0.225    0.541  104.284
  414.750    3.416    0.213    0.533  103.079
  415.000    3.615    0.234    0.542  105.537
  415.250    3.617    0.241    0.576  107.390
  415.500    3.621    0.247    0.589  109.243
  415.750    3.624    0.254    0.571  110.476
  416.000    3.560    0.242    0.552  111.709
  416.250    3.307    0.228    0.558  113.555
  416.500    3.131    0.247    0.577  112.355
  416.750    3.075    0.231    0.579  105.668
  417.000    3.078    0.226    0.545  100.811
  417.250    3.380    0.236    0.553   98.390
  417.500    3.712    0.221    0.553   95.970
  417.750    4.076    0.218    0.533   95.375
  418.000    4.394    0.214    0.509   94.172
  418.250    4.737    0.212    0.497   89.928
  418.500    4.919    0.203    0.502   91.166
  418.750    5.016    0.199    0.497   94.235
  419.000    5.021    0.207    0.482   96.690
  419.250    5.023    0.193    0.482   99.759
  419.500    4.936    0.196    0.505  100.382
  419.750    4.759    0.209    0.500  101.621
  420.000    4.506    0.198    0.510  101.635
  420.250    4.426    0.192    0.512   99.222
  420.500    4.269    0.183    0.498   99.846
  420.750    4.193    0.186    0.488  104.750
  421.000    4.120    0.194    0.500  106.595
  421.250    4.199    0.198    0.516  108.440
  421.500    4.282    0.201    0.525  109.677
  421.750    4.284    0.212    0.536  110.302
  422.000    4.132    0.227    0.541  110.935
  422.250    3.840    0.218    0.540  111.561
  422.500    3.771    0.227    0.536  109.752
  422.750    3.570    0.217    0.529  107.940
  423.000    3.444    0.206    0.522  106.738
  423.250    3.320    0.197    0.526  106.765
  423.500    3.261    0.191    0.538  107.390
  423.750    3.326    0.206    0.541  108.015
  424.000    3.391    0.200    0.543  109.860
  424.250    3.393    0.194    0.553  111.708
  424.500    3.395    0.189    0.543  114.162
  424.750    3.594    0.192    0.535  114.181
  425.000    3.663    0.197    0.553  114.207
  425.250    3.667    0.207    0.566  115.440
  425.500    3.536    0.212    0.573  109.968
  425.750    3.473    0.220    0.580  112.426
  426.000    3.349    0.230    0.572  113.664
  426.250    3.610    0.233    0.550  107.588
  426.500    3.964    0.226    0.526  105.172
  426.750    4.273    0.221    0.514  104.573
  427.000    4.606    0.211    0.510  101.542
  427.250    4.785    0.214    0.508   98.513
  427.500    4.970    0.208    0.504  100.363
  427.750    5.161    0.202    0.493   99.777
  428.000    5.166    0.210    0.488   97.960
  428.250    4.981    0.210    0.483   94.929
  428.500    4.715    0.188    0.504   95.563
  428.750    4.222    0.207    0.526   97.405
  429.000    4.071    0.209    0.533  100.474
  429.250    3.854    0.218    0.538  102.322
  429.500    3.929    0.230    0.528   98.682
  429.750    4.157    0.237    0.515   95.653
  430.000    4.482    0.248    0.510   92.629
  430.250    4.742    0.234    0.514   91.422
  430.500    5.018    0.222    0.523   90.217
  430.750    5.213    0.240    0.516   89.625
  431.000    5.313    0.250    0.511   89.032
  431.250    5.318    0.240    0.519   89.667
  431.500    5.224    0.244    0.519   90.299
  431.750    4.854    0.261    0.509   90.920
  432.000    4.429    0.268    0.503   90.939
  432.250    4.192    0.271    0.498   88.517
  432.500    4.194    0.277    0.491   87.315
  432.750    4.120    0.286    0.494   87.334
  433.000    4.200    0.303    0.500   86.741
  433.250    4.364    0.312    0.519   84.934
  433.500    4.618    0.318    0.527   82.521
  433.750    4.886    0.320    0.533   81.312
  434.000    5.171    0.309    0.520   80.726
  434.250    5.271    0.284    0.505   82.567
  434.500    5.375    0.254    0.498   86.246
  434.750    5.480    0.239    0.488   89.927
  435.000    5.483    0.233    0.492   90.551
  435.250    5.388    0.247    0.502   91.177
  435.500    5.391    0.252    0.492   95.468
  435.750    5.296    0.227    0.488   97.925
  436.000    5.202    0.204    0.491   97.936
  436.250    5.017    0.221    0.501   92.469
  436.500    4.929    0.228    0.504   88.221
  436.750    4.753    0.246    0.506   88.238
  437.000    4.584    0.262    0.494   90.700
  437.250    4.420    0.268    0.476   91.936
  437.500    4.263    0.266    0.471   92.567
  437.750    4.110    0.264    0.471   93.191
  438.000    3.890    0.247    0.472   96.868
  438.250    3.549    0.223    0.500  101.772
  438.500    3.421    0.218    0.525  104.226
  438.750    3.064    0.236    0.558  105.459
  439.000    2.900    0.253    0.588  105.480
  439.250    2.645    0.264    0.602  103.062
  439.500    2.504    0.261    0.617  100.030
  439.750    2.369    0.261    0.619   98.218
  440.000    2.285    0.253    0.603   98.844
  440.250    2.287    0.255    0.598  100.692
  440.500    2.375    0.257    0.595  103.153
  440.750    2.514    0.244    0.595  104.994
  441.000    2.562    0.233    0.612  107.454
  441.250    2.661    0.221    0.619  108.694
  441.500    2.664    0.216    0.622  108.099
  441.750    2.716    0.211    0.569  103.854
  442.000    2.821    0.213    0.557  100.826
  442.250    2.930    0.219    0.551   97.788
  442.500    3.042    0.226    0.557   94.760
  442.750    3.280    0.237    0.546   94.784
  443.000    3.472    0.238    0.544   94.186
  443.250    3.539    0.246    0.532   92.985
  443.500    3.676    0.257    0.522   87.513
  443.750    3.889    0.263    0.492   82.048
  444.000    4.116    0.276    0.475   80.233
  444.250    4.196    0.282    0.460   83.309
  444.500    4.607    0.264    0.447   85.154
  444.750    4.968    0.246    0.424   80.900
  445.000    5.256    0.237    0.424   82.756
  445.250    5.359    0.228    0.446   85.206
