~VERSION INFORMATION
 VERS.                 2.0:   CWLS LOG ASCII STANDARD -VERSION 2.0
 WRAP.                  NO:   ONE LINE PER DEPTH STEP
~WELL INFORMATION BLOCK
#MNEM.UNIT           DATA                    DESCRIPTION OF MNEMONIC
#---------    -------------------            -------------------------------
# Generated from Intellog Unique Number	CW_70_72/WELL/185
NULL.         -999.25                        : NULL_VALUE
WELL.         GLOBAL ET AL CALLS 02-22       : Well_name    - WELL              
LOC .         02-22-071-22W4                 : Location     - LOCATION          
UWI .         00/02-22-071-22W4/0            : Uwi          - UNIQUE WELL ID    
ENTR.         JAYE                           : Entered      - ENTERED BY        
SRVC.         SCHLUMBERGER                   : Scn          - SERVICE COMPANY   
DATE.         22 FEB 81                      : Date         - LOG DATE          
STRT.M        410                            : top_depth    - START DEPTH       
STOP.M        605                            : bot_depth    - STOP DEPTH        
STEP.M        0.25                           : increment    - STEP LENGTH       
~CURVE INFORMATION BLOCK
#MNEM UNIT       ERCB CURVE CODE    CURVE DESCRIPTION
#-----------   ------------------   ----------------------------------
DEPT.M        00 001 00 00         : DEPTH        - DEPTH                       
DPHI.V/V      00 890 00 00         : PHID         - DENSITY POROSITY (SANDSTONE)
NPHI.V/V      00 330 00 00         : PHIN         - NEUTRON POROSITY (SANDSTONE)
GR  .API      00 310 00 00         : GR           - GAMMA RAY                   
CALI.MM       00 280 01 00         : CAL          - CALIPER                     
ILD .OHMM     00 120 00 00         : RESD         - DEEP RESISTIVITY (DIL)      
~PARAMETER INFORMATION       
#MNEM.UNIT           DATA             DESCRIPTION OF MNEMONIC
#---------         -----------     ------------------------------
GL  .M        652.55               : gl           - GROUND LEVEL ELEVATION      
EREF.M        656.1                : kb           - ELEVATION OF DEPTH REFERENCE
DATM.M        652.55               : datum        - DATUM ELEVATION             
TDD .M        660                  : tdd          - TOTAL DEPTH DRILLER         
RUN .         ONE                  : Run          - RUN NUMBER                  
ENG .         DOWNIE               : Engineer     - RECORDING ENGINEER          
WIT .         SAUNDERS             : Witness      - WITNESSED BY                
BASE.         EDSON                : Branch       - HOME BASE OF LOGGING UNIT   
MUD .         GEL CHEM             : Mud_type     - MUD TYPE                    
MATR.         SANDSTONE            : Logunit      - NEUTRON MATRIX              
TMAX.C        31.7                 : BHT          - MAXIMUM RECORDED TEMPERATURE
BHTD.M        660                  : BHTDEP       - MAXIMUM RECORDED TEMPERATURE
RMT .C        22.2                 : MDTP         - TEMPERATURE OF MUD          
MUDD.KG/M     1060                 : MWT          - MUD DENSITY                 
NEUT.         1                    : NEUTRON      - NEUTRON TYPE                
RESI.         0                    : RESIST       - RESISTIVITY TYPE            
RM  .OHMM     5.69                 : RM           - RESISTIVITY OF MUD          
RMC .OHMM     0                    : RMC          - RESISTIVITY OF MUD CAKE     
RMF .OHMM     2.56                 : RMF          - RESISTIVITY OF MUD FILTRATE 
SUFT.C        0                    : SUFT         - SURFACE TEMPERATURE         
~A  DEPTH     PHID     PHIN       GR      CAL     RESD
# ...
  483.000    0.307    0.423   65.931  154.856    4.310
  483.250    0.301    0.428   66.550  154.856    4.832
  483.500    0.280    0.435   62.585  154.855    6.250
  483.750    0.189    0.432   64.877  154.854    7.905
  484.000    0.102    0.287   65.372  155.267    9.343
  484.250    0.058    0.186   61.282  152.271   10.029
  484.500    0.053    0.179   57.688  151.754    9.279
  484.750    0.067    0.216   56.883  152.683    7.963
  485.000    0.077    0.269   57.068  154.438    6.756
  485.250    0.084    0.303   57.935  155.573    5.919
  485.500    0.108    0.314   58.368  155.779    4.975
  485.750    0.129    0.313   60.227  155.572    4.400
  486.000    0.179    0.340   67.165  155.365    4.040
  486.250    0.254    0.404   72.555  155.467    3.860
  486.500    0.270    0.451   66.979  155.260    4.097
  486.750    0.274    0.418   61.712  154.846    4.603
  487.000    0.272    0.421   61.526  154.949    5.219
  487.250    0.231    0.432   62.393  155.052    5.862
  487.500    0.174    0.392   63.384  155.877    6.462
  487.750    0.156    0.314   62.640  156.806    6.705
  488.000    0.140    0.297   60.843  157.425    5.786
  488.250    0.109    0.337   60.780  157.424    4.711
  488.500    0.187    0.362   63.010  156.907    4.096
  488.750    0.222    0.392   66.480  156.080    3.650
  489.000    0.246    0.410   71.808  155.253    3.390
  489.250    0.266    0.420   67.594  154.943    3.275
  489.500    0.279    0.405   60.840  154.942    3.230
  489.750    0.280    0.401   65.425  154.838    3.235
  490.000    0.273    0.402   67.593  154.837    3.288
  490.250    0.266    0.405   62.574  154.837    3.394
  490.500    0.275    0.412   60.901  154.836    3.542
  490.750    0.284    0.419   65.609  154.836    3.725
  491.000    0.276    0.415   72.114  154.629    3.924
  491.250    0.258    0.405   76.823  154.525    4.190
  491.500    0.244    0.404   82.460  155.040    4.398
  491.750    0.218    0.413   84.071  155.556    4.581
  492.000    0.215    0.425   83.575  156.381    4.773
  492.250    0.239    0.431   83.698  156.587    4.925
  492.500    0.236    0.429   86.424  157.309    5.074
  492.750    0.224    0.409   90.823  158.961    5.147
  493.000    0.211    0.420   97.452  160.303    5.184
  493.250    0.201    0.432   99.992  160.818    5.211
  493.500    0.196    0.443   99.186  161.024    5.188
  493.750    0.203    0.456   98.814  161.437    5.176
  494.000    0.192    0.465  100.672  162.056    5.144
  494.250    0.183    0.435  102.654  162.468    5.152
  494.500    0.172    0.424  102.592  162.984    5.168
  494.750    0.163    0.436  103.521  163.086    5.213
  495.000    0.159    0.445  106.061  162.982    5.271
  495.250    0.171    0.452  108.353  162.982    5.338
  495.500    0.191    0.442  105.192  162.568    5.364
  495.750    0.189    0.425  101.413  162.464    5.414
  496.000    0.183    0.413   99.368  162.154    5.460
  496.250    0.181    0.423   95.774  161.533    5.489
  496.500    0.184    0.437   93.791  161.120    5.486
  496.750    0.193    0.439   97.384  160.706    5.462
  497.000    0.188    0.435   98.932  160.395    5.450
  497.250    0.179    0.438   98.251  160.291    5.457
  497.500    0.174    0.431   98.374  160.291    5.445
  497.750    0.178    0.442   99.241  160.393    5.371
  498.000    0.181    0.432   99.736  160.702    5.238
  498.250    0.181    0.422  102.214  161.115    5.004
  498.500    0.177    0.439  105.931  161.837    4.754
  498.750    0.172    0.441  108.595  162.766    4.491
  499.000    0.181    0.431  109.462  163.798    4.306
  499.250    0.193    0.432  111.568  166.275    4.122
  499.500    0.208    0.454  114.294  167.411    4.034
  499.750    0.220    0.484  112.869  168.443    3.935
  500.000    0.224    0.468  108.097  168.648    3.866
  500.250    0.191    0.427  101.282  167.099    3.836
  500.500    0.170    0.416  104.379  165.136    3.892
  500.750    0.178    0.427  108.158  164.413    4.032
  501.000    0.186    0.440  106.671  164.102    4.352
  501.250    0.184    0.453  102.457  163.998    4.807
  501.500    0.186    0.462   99.545  163.791    4.923
  501.750    0.184    0.461   97.872  163.274    4.903
  502.000    0.179    0.445   94.897  162.551    4.809
  502.250    0.189    0.457   90.746  162.137    4.690
  502.500    0.197    0.457   83.806  161.517    4.514
  502.750    0.184    0.442   86.718  161.826    4.321
  503.000    0.173    0.441   94.028  162.548    4.183
  503.250    0.178    0.453  102.392  162.960    4.149
  503.500    0.224    0.444   99.356  162.650    4.695
  503.750    0.257    0.428   89.876  160.584    5.950
  504.000    0.271    0.397   81.387  156.556    7.328
  504.250    0.265    0.383   77.545  153.664    9.806
  504.500    0.160    0.391   80.085  152.424   11.458
  504.750    0.124    0.404   74.509  152.011   12.051
  505.000    0.064    0.201   67.755  152.113   10.421
  505.250    0.044    0.183   61.125  152.422    8.643
  505.500    0.080    0.189   56.664  152.525    7.142
  505.750    0.128    0.227   60.814  152.731    6.164
  506.000    0.153    0.295   74.259  152.833    5.800
  506.250    0.187    0.370   86.030  152.936    5.700
  506.500    0.212    0.407   94.023  153.348    5.665
  506.750    0.201    0.426   98.979  153.554    5.577
  507.000    0.175    0.417   92.659  154.896    5.491
  507.250    0.155    0.398   86.710  156.548    5.406
  507.500    0.117    0.371   79.833  157.167    5.282
  507.750    0.130    0.374   82.682  157.269    5.047
  508.000    0.170    0.400   88.940  155.513    4.885
  508.250    0.206    0.430   92.967  154.789    4.711
  508.500    0.202    0.414   93.338  156.234    4.700
  508.750    0.187    0.408   94.453  158.815    4.841
  509.000    0.180    0.409  100.214  161.190    5.178
  509.250    0.176    0.412  100.462  163.151    5.612
  509.500    0.181    0.405  100.647  164.183    6.105
  509.750    0.186    0.456  102.134  164.389    6.616
  510.000    0.204    0.468   99.717  163.356    7.143
  510.250    0.200    0.462   88.688  160.877    7.289
  510.500    0.178    0.291   79.518  158.707    6.494
  510.750    0.139    0.261   68.923  157.984    5.449
  511.000    0.141    0.290   66.196  157.880    4.649
  511.250    0.152    0.327   63.718  157.673    4.112
  511.500    0.175    0.346   65.452  157.362    3.761
  511.750    0.203    0.377   69.479  157.362    3.704
  512.000    0.263    0.418   73.506  157.155    3.946
  512.250    0.286    0.414   75.612  157.360    4.301
  512.500    0.282    0.411   78.028  157.566    4.644
  512.750    0.268    0.411   82.860  158.082    4.902
  513.000    0.256    0.418   88.436  159.114    5.126
  513.250    0.237    0.411   90.109  160.352    5.261
  513.500    0.221    0.423   90.418  163.037    5.388
  513.750    0.220    0.458   90.913  164.275    5.499
  514.000    0.255    0.486   93.267  163.035    5.588
  514.250    0.300    0.504   91.346  161.073    5.618
  514.500    0.289    0.491   85.398  158.903    5.563
  514.750    0.273    0.468   76.475  157.147    5.486
  515.000    0.265    0.453   74.121  156.217    5.411
  515.250    0.262    0.463   79.758  156.217    5.288
  515.500    0.260    0.470   85.148  156.732    5.157
  515.750    0.256    0.464   88.618  158.797    5.020
  516.000    0.250    0.426   88.989  161.378    4.897
  516.250    0.235    0.432   88.927  163.959    4.775
  516.500    0.233    0.460   88.740  167.469    4.711
  516.750    0.242    0.524   88.058  170.773    4.647
  517.000    0.234    0.445   86.261  172.424    4.534
  517.250    0.224    0.433   86.013  168.396    4.495
  517.500    0.214    0.430   87.624  166.021    4.452
  517.750    0.208    0.424   90.969  166.846    4.432
  518.000    0.205    0.421   91.340  169.117    3.987
  518.250    0.209    0.436   92.207  173.454    3.505
  518.500    0.202    0.453   94.437  176.551    2.892
  518.750    0.202    0.472   94.871  181.404    2.928
  519.000    0.267    0.493   95.552  185.533    3.371
  519.250    0.306    0.521   97.534  191.522    3.910
