~VERSION INFORMATION
 VERS.                 2.0:   CWLS LOG ASCII STANDARD -VERSION 2.0
 WRAP.                  NO:   ONE LINE PER DEPTH STEP
~WELL INFORMATION BLOCK
#MNEM.UNIT           DATA                    DESCRIPTION OF MNEMONIC
#---------    -------------------            -------------------------------
# Generated from Intellog Unique Number	CW_79_81/WELL/35
WELL.         B.A. PASTECHO RIVER 02-30      : Well_name    - WELL
LOC .         00/02-30-079-04W5/0            : Location     - LOCATION
UWI .         00/02-30-079-04W5/0            : Uwi          - UNIQUE WELL ID
ENTR.         JJ                             : Entered      - ENTERED BY
SRVC.         SCHLUMBERGER                   : Scn          - SERVICE COMPANY
DATE.         5 FEB 62                       : Date         - LOG DATE
STRT.M        490.728                        : top_depth    - START DEPTH
STOP.M        618.728                        : bot_depth    - STOP DEPTH
STEP.M        0.25                           : increment    - STEP LENGTH
 NULL. -999.2500:NULL Value
~CURVE INFORMATION BLOCK
#MNEM UNIT       ERCB CURVE CODE    CURVE DESCRIPTION
#-----------   ------------------   ----------------------------------
DEPT.M        00 001 00 00         : DEPTH        - DEPTH
ILD .OHMM     00 120 00 00         : RESD         - DEEP RESISTIVITY (DIL)
GR  .API      00 310 00 00         : GR           - GAMMA RAY
DELT.US/F     00 520 00 00         : DELT         - SONIC TRAVEL TIME
~PARAMETER INFORMATION
#MNEM.UNIT           DATA             DESCRIPTION OF MNEMONIC
#---------         -----------     ------------------------------
GL  .M        657.454              : gl           - GROUND LEVEL ELEVATION
EREF.M        657.454              : kb           - ELEVATION OF DEPTH REFERENCE
DATM.M        657.454              : datum        - DATUM ELEVATION
TDD .M        1393.55              : tdd          - TOTAL DEPTH DRILLER
RUN .         ONE                  : Run          - RUN NUMBER
ENG .         JAMES                : Engineer     - RECORDING ENGINEER
WIT .         MCDERMOTT            : Witness      - WITNESSED BY
MUD .         HIGH PH GEL          : Mud_type     - MUD TYPE
MATR.         SANDSTONE            : Logunit      - NEUTRON MATRIX
TMAX.C        47.7778              : BHT          - MAXIMUM RECORDED TEMPERATURE
BHTD.M        1391.11              : BHTDEP       - MAXIMUM RECORDED TEMPERATURE
RMT .C        15.5556              : MDTP         - TEMPERATURE OF MUD
MUDD.KG/M     1188                 : MWT          - MUD DENSITY
NEUT.         1                    : NEUTRON      - NEUTRON TYPE
RESI.         0                    : RESIST       - RESISTIVITY TYPE
RM  .OHMM     1.14                 : RM           - RESISTIVITY OF MUD
RMC .OHMM     1.23                 : RMC          - RESISTIVITY OF MUD CAKE
RMF .OHMM     0.77                 : RMF          - RESISTIVITY OF MUD FILTRATE
SUFT.C        5                    : SUFT         - SURFACE TEMPERATURE
~A  DEPTH     RESD       GR     DELT
# ...
  544.978    6.660   85.144  363.357
  545.228    5.899   80.221  360.793
  545.478    5.509   72.055  361.869
  545.728    6.011   79.353  368.250
  545.978    6.925   86.136  364.882
  546.228    8.419   82.197  365.748
  546.478   10.493   81.041  355.393
  546.728   12.938   75.606  343.490
  546.978   15.447   63.627  333.126
  547.228   18.638   63.346  317.938
  547.478   19.967   61.368  304.413
  547.728   19.805   62.018  298.297
  547.978   19.002   63.336  315.831
  548.228   19.380   67.951  325.574
  548.478   19.735   75.094  319.993
  548.728   20.173   62.392  306.812
  548.978   20.074   55.931  293.494
  549.228   18.008   54.414  293.357
  549.478   15.343   52.173  285.219
  549.728   12.905   50.192  301.075
  549.978   10.777   59.812  316.596
  550.228    9.519   70.358  343.474
  550.478    9.026   84.558  354.074
  550.728    9.300   76.861  352.670
  550.978    9.759   81.061  350.431
  551.228    9.701   74.495  350.098
  551.478    8.919   69.525  351.037
  551.728    7.992   69.968  354.998
  551.978    7.333   69.224  359.025
  552.228    6.737   72.090  363.722
  552.478    6.452   72.066  361.893
  552.728    6.724   76.790  361.821
  552.978    7.723   82.694  353.819
  553.228    8.906   79.527  339.364
  553.478   10.463   81.003  327.264
  553.728   11.604   71.085  281.283
  553.978   11.836   51.630  273.674
  554.228   11.261   52.690  287.721
  554.478    9.879   67.203  310.769
  554.728    8.930   75.634  326.152
  554.978    7.921   65.926  329.712
  555.228    7.490   62.241  334.476
  555.478    7.163   75.362  341.061
  555.728    6.877   74.674  341.661
  555.978    6.613   74.444  340.712
  556.228    6.513   69.373  352.468
  556.478    6.228   72.341  362.402
  556.728    6.046   81.291  369.663
  556.978    5.904   94.355  374.088
  557.228    5.660   85.779  367.498
  557.478    5.705   79.885  370.853
  557.728    5.647   80.940  374.074
  557.978    5.653   88.393  375.472
  558.228    5.718   77.186  373.524
  558.478    5.743   86.752  369.747
  558.728    5.727   86.269  362.823
  558.978    5.750   79.545  366.770
  559.228    5.818   84.059  373.429
  559.478    5.925   85.067  372.885
  559.728    6.052   83.965  374.559
  559.978    6.223   87.703  383.226
  560.228    6.144   83.507  389.858
  560.478    6.004   88.641  396.390
  560.728    5.946   86.816  375.412
  560.978    5.887   91.124  374.792
  561.228    5.747   85.231  382.860
  561.478    5.709   94.842  381.165
  561.728    5.651  105.390  363.825
  561.978    5.800  103.199  362.802
  562.228    6.011   93.283  356.419
  562.478    6.429   79.704  354.529
  562.728    6.992  106.074  353.783
  562.978    7.388  105.181  342.490
  563.228    7.807  100.880  332.471
  563.478    7.956   98.692  320.766
  563.728    8.043   95.316  309.736
  563.978    8.067   89.883  309.393
  564.228    8.175   85.944  319.536
  564.478    8.325   88.606  329.202
  564.728    8.493   97.190  336.193
  564.978    8.932   96.086  324.484
  565.228    9.392   97.814  319.782
  565.478    9.416   87.433  323.400
  565.728    8.386   84.887  331.530
  565.978    7.604   85.484  342.344
  566.228    6.759   97.216  355.314
  566.478    6.039   91.264  374.532
  566.728    5.463   98.303  404.168
  566.978    4.847   86.947  396.899
  567.228    4.561   91.148  398.570
  567.478    4.647   95.870  380.760
  567.728    5.873   94.819  352.923
  567.978    7.491   90.309  340.891
  568.228   10.207  102.349  321.184
  568.478   12.218   91.249  316.077
  568.728   15.243   78.133  325.803
  568.978   18.497   67.596  331.172
  569.228   22.826   63.865  335.945
  569.478   30.384   68.428  338.761
  569.728   32.623   63.670  339.769
  569.978   32.048   60.192  338.485
  570.228   29.279   59.656  335.656
  570.478   27.131   60.407  333.370
  570.728   25.665   57.497  335.367
  570.978   24.200   48.715  336.780
  571.228   24.453   40.959  336.507
  571.478   26.299   31.715  333.875
  571.728   27.585   31.278  331.593
  571.978   28.066   33.525  334.402
  572.228   27.614   42.832  341.311
  572.478   26.543   39.156  340.564
  572.728   25.325   35.679  339.425
  572.978   23.902   35.864  337.868
  573.228   22.747   33.467  335.985
  573.478   21.468   29.529  333.766
  573.728   20.499   33.476  331.799
  573.978   19.613   28.713  330.179
  574.228   20.011   33.947  328.504
  574.478   21.235   30.527  327.076
  574.728   22.378   33.752  329.490
  574.978   23.148   41.407  332.578
  575.228   23.235   49.483  334.930
  575.478   22.556   54.508  337.281
  575.728   21.235   57.838  341.165
  575.978   20.081   56.992  343.783
  576.228   19.691   57.433  347.812
  576.478   19.882   68.080  344.841
  576.728   20.445   62.698  339.939
  576.978   21.152   59.690  334.489
  577.228   21.653   63.121  330.652
  577.478   22.030   64.179  338.974
  577.728   22.220   62.406  347.905
  577.978   22.099   61.822  349.778
  578.228   22.125   64.629  347.016
  578.478   22.687   66.772  343.853
  578.728   24.864   68.916  341.234
  578.978   27.249   65.543  346.603
  579.228   27.687   56.501  346.130
  579.478   27.670   61.479  343.299
  579.728   26.413   58.006  340.052
  579.978   22.650   62.674  338.581
  580.228   17.480   61.369  344.483
  580.478   12.145   67.062  359.003
  580.728    7.720   66.786  381.711
  580.978    5.013   58.824  411.283
  581.228    3.238   52.102  432.717
  581.478    2.848   73.524  452.266
  581.728    4.715   82.316  460.190
  581.978    8.258   88.528  332.477
  582.228   15.215   88.561  293.023
  582.478   27.409   81.891  273.527
  582.728   31.511   57.848  304.103
  582.978   29.218   47.312  350.542
  583.228   25.993   39.661  333.396
  583.478   24.032   46.083  340.037
  583.728   24.367   57.350  341.784
  583.978   26.337   55.164  337.612
  584.228   26.238   58.081  320.933
  584.478   25.517   68.882  306.668
  584.728   24.610   65.617  292.158
  584.978   22.338   60.645  255.648
  585.228   20.252   56.706  257.727
  585.478   18.186   48.332  273.110
  585.728   15.169   49.290  295.823
  585.978   12.359   58.549  311.067
  586.228   10.065   62.856  330.299
  586.478    7.525   63.090  347.495
  586.728    6.204   57.196  336.798
  586.978    4.863   64.082  341.088
  587.228    3.791   72.921  359.040
  587.478    3.298   82.692  385.314
  587.728    3.096   77.518  412.661
  587.978    3.265   79.813  455.741
  588.228    3.496   97.059  436.174
  588.478    3.707  102.037  450.083
  588.728    3.939  101.191  381.784
  588.978    3.736   79.469  387.092
  589.228    3.513   70.687  378.812
  589.478    3.869   83.296  429.155
  589.728    4.680   89.765  441.245
  589.978    5.470   89.072  437.008
  590.228    6.820   84.315  400.503
  590.478    8.148   82.743  380.934
  590.728    9.911   83.596  345.512
  590.978   11.820   88.059  336.026
  591.228   12.217   77.987  347.111
  591.478   10.048   71.523  368.482
  591.728    7.320   82.323  373.558
  591.978    5.586   80.397  370.083
  592.228    3.562   72.694  404.420
  592.478    2.366   69.939  449.646
  592.728    2.080   78.169  463.825
  592.978    1.878   82.992  457.360
  593.228    1.881   87.660  454.604
  593.478    2.176   95.728  461.185
  593.728    2.841   92.150  460.505
  593.978    4.170   85.274  451.825
  594.228    6.016   84.789  449.606
  594.478    8.752   86.263  455.312
  594.728   10.701   90.619  349.847
  594.978   17.638   81.581  364.429
  595.228   27.638   70.632  345.405
  595.478   25.883   62.569  320.528
  595.728   20.651   57.447  316.893
  595.978   13.557   61.287  343.971
  596.228    9.898   62.968  343.762
  596.478    7.832   69.129  339.929
  596.728    6.056   65.707  352.021
  596.978    4.653   70.529  366.801
  597.228    3.872   74.477  385.948
  597.478    3.751   82.237  423.449
  597.728    3.942   90.565  438.768
  597.978    4.319   89.258  428.807
  598.228    5.005   90.833  399.698
  598.478    6.085   85.350  355.473
  598.728    6.979   77.337  334.960
  598.978    8.639   77.007  326.020
