~VERSION INFORMATION
 VERS.                 2.0:   CWLS LOG ASCII STANDARD -VERSION 2.0
 WRAP.                  NO:   ONE LINE PER DEPTH STEP
~WELL INFORMATION BLOCK
#MNEM.UNIT           DATA                    DESCRIPTION OF MNEMONIC
#---------    -------------------            -------------------------------
# Generated from Intellog Unique Number	CN_94_101/WELL/2594
WELL.         PARAMOUNT RESOURCES LTD.       : Well_name    - WELL
LOC .         00/09-35-094-18W4/0            : Location     - LOCATION
UWI .         00/09-35-094-18W400            : Uwi          - UNIQUE WELL ID
ENTR.         JOETTE                         : Entered      - ENTERED BY
SRVC.         COMPUTALOG                     : Scn          - SERVICE COMPANY
DATE.         06/12/92                       : Date         - LOG DATE
STRT.M        95                             : top_depth    - START DEPTH
STOP.M        295                            : bot_depth    - STOP DEPTH
STEP.M        0.25                           : increment    - STEP LENGTH
 NULL. -999.2500:NULL Value
~CURVE INFORMATION BLOCK
#MNEM UNIT       ERCB CURVE CODE    CURVE DESCRIPTION
#-----------   ------------------   ----------------------------------
DEPT.M        00 001 00 00         : DEPTH        - DEPTH
CALI.MM       00 280 01 00         : CAL          - CALIPER
GR  .API      00 310 00 00         : GR           - GAMMA RAY
NPHI.V/V      00 330 00 00         : PHIN         - NEUTRON POROSITY (SANDSTONE)
DPHI.V/V      00 890 00 00         : PHID         - DENSITY POROSITY (SANDSTONE)
ILD .OHMM     00 120 00 00         : RESD         - DEEP RESISTIVITY (DIL)
~PARAMETER INFORMATION
#MNEM.UNIT           DATA             DESCRIPTION OF MNEMONIC
#---------         -----------     ------------------------------
GL  .M        554.9                : gl           - GROUND LEVEL ELEVATION
EREF.M        558.7                : kb           - ELEVATION OF DEPTH REFERENCE
DATM.M        558.7                : datum        - DATUM ELEVATION
TDD .M        293.9                : tdd          - TOTAL DEPTH DRILLER
RUN .         ONE                  : Run          - RUN NUMBER
ENG .         BILL                 : Engineer     - RECORDING ENGINEER
WIT .         JIM                  : Witness      - WITNESSED BY
MUD .         GEL                  : Mud_type     - MUD TYPE
MATR.         SANDSTONE            : Logunit      - NEUTRON MATRIX
TMAX.C        25                   : BHT          - MAXIMUM RECORDED TEMPERATURE
BHTD.M        293.9                : BHTDEP       - MAXIMUM RECORDED TEMPERATURE
RMT .C        15                   : MDTP         - TEMPERATURE OF MUD
MUDD.KG/M     1100                 : MWT          - MUD DENSITY
NEUT.         1                    : NEUTRON      - NEUTRON TYPE
RESI.         0                    : RESIST       - RESISTIVITY TYPE
RM  .OHMM     2.1                  : RM           - RESISTIVITY OF MUD
RMC .OHMM     2.1                  : RMC          - RESISTIVITY OF MUD CAKE
RMF .OHMM     4.5                  : RMF          - RESISTIVITY OF MUD FILTRATE
SUFT.C        -15                  : SUFT         - SURFACE TEMPERATURE
~A  DEPTH      CAL       GR     PHIN     PHID     RESD
# ...
  168.000  165.510   77.447    0.443    0.267    5.698
  168.250  166.547   76.195    0.452    0.277    6.030
  168.500  166.544   74.942    0.446    0.283    5.918
  168.750  166.539   78.691    0.417    0.281    5.918
  169.000  166.534   82.439    0.409    0.278    5.592
  169.250  166.532   86.813    0.396    0.274    5.185
  169.500  166.528   91.812    0.412    0.265    4.630
  169.750  166.524   96.185    0.456    0.253    4.213
  170.000  165.478   96.809    0.517    0.239    3.762
  170.250  165.473   97.432    0.547    0.242    3.488
  170.500  166.512  100.556    0.520    0.240    3.488
  170.750  168.590  104.304    0.520    0.230    3.555
  171.000  171.713  108.052    0.531    0.233    3.623
  171.250  174.834  106.800    0.541    0.246    3.692
  171.500  175.872   97.419    0.510    0.253    3.762
  171.750  172.743  101.168    0.488    0.260    3.834
  172.000  170.656  102.416    0.477    0.268    3.907
  172.250  168.568  102.413    0.478    0.262    3.982
  172.500  168.563   99.285    0.488    0.262    3.982
  172.750  169.602   96.782    0.499    0.266    3.982
  173.000  169.598   97.405    0.489    0.277    3.982
  173.250  170.634   99.903    0.489    0.268    3.908
  173.500  170.631  101.151    0.502    0.260    3.908
  173.750  170.626  101.149    0.516    0.257    3.982
  174.000  170.623   99.271    0.506    0.262    4.295
  174.250  169.577   95.518    0.502    0.271    4.460
  174.500  167.489   91.138    0.500    0.274    4.996
  174.750  166.443   89.261    0.496    0.282    5.490
  175.000  164.356   85.507    0.490    0.286    6.266
  175.250  163.310   83.004    0.489    0.292    6.758
  175.500  160.179   81.751    0.485    0.293    7.152
  175.750  158.091   82.374    0.463    0.281    7.019
  176.000  157.045   85.497    0.443    0.247    6.508
  176.250  157.042   88.622    0.421    0.223    6.267
  176.500  157.036   89.870    0.447    0.191    6.509
  176.750  158.075   81.115    0.504    0.156    6.509
  177.000  158.070   70.484    0.462    0.128    6.268
  177.250  159.110   67.981    0.403    0.106    5.923
  177.500  158.062   85.484    0.344    0.153    5.288
  177.750  157.018  102.987    0.536    0.192    4.904
  178.000  155.971  108.611    0.555    0.208    4.297
  178.250  155.968  101.731    0.538    0.180    3.909
  178.500  159.090  107.355    0.519    0.212    3.625
  178.750  164.295  105.477    0.498    0.229    3.491
  179.000  167.416  102.974    0.507    0.250    3.299
  179.250  166.371  101.096    0.515    0.262    3.176
  179.500  165.326  101.718    0.552    0.271    3.117
  179.750  163.237  104.842    0.544    0.282    3.002
  180.000  162.191  106.715    0.535    0.292    2.946
  180.250  162.186  103.588    0.528    0.294    2.891
  180.500  162.184  100.459    0.526    0.293    2.891
  180.750  161.137  101.082    0.536    0.296    2.837
  181.000  161.134  102.329    0.567    0.300    2.784
  181.250  161.129  102.953    0.573    0.296    2.784
  181.500  161.125  104.200    0.573    0.287    2.784
  181.750  161.121  104.198    0.541    0.289    2.784
  182.000  161.117  102.319    0.517    0.296    2.784
  182.250  161.114  100.443    0.512    0.299    2.891
  182.500  161.108   95.439    0.514    0.296    3.060
  182.750  162.147   97.936    0.523    0.292    3.300
  183.000  162.142  101.061    0.530    0.282    3.559
  183.250  162.140   97.307    0.528    0.273    3.838
  183.500  163.178   88.552    0.522    0.273    4.464
  183.750  163.173   83.548    0.509    0.277    5.392
  184.000  161.085   78.544    0.490    0.272    7.158
  184.250  160.039   72.915    0.479    0.310    7.720
  184.500  160.034   62.909    0.378    0.193    8.017
  184.750  161.073   69.784    0.349    0.132    8.326
  185.000  163.153   76.658    0.398    0.156    7.721
  185.250  164.189   81.032    0.431    0.248    7.025
  185.500  165.228   85.406    0.446    0.276    6.638
  185.750  168.350   84.153    0.453    0.249    6.040
  186.000  172.514   81.650    0.398    0.244    5.928
  186.250  170.427   79.772    0.390    0.254    5.817
  186.500  165.213   83.521    0.389    0.255    6.041
  186.750  162.083   87.270    0.398    0.251    6.274
  187.000  164.161   91.019    0.446    0.246    6.156
  187.250  165.201   92.891    0.474    0.249    5.817
  187.500  169.364   92.888    0.471    0.256    5.497
  187.750  170.403   92.262    0.448    0.271    5.293
  188.000  171.442   82.257    0.445    0.289    5.195
  188.250  171.437   72.251    0.426    0.321    5.709
  188.500  171.434   67.247    0.416    0.324    6.640
  188.750  168.303   64.119    0.397    0.267    7.437
  189.000  164.132   58.489    0.387    0.236    7.724
  189.250  158.918   62.238    0.395    0.227    7.724
  189.500  155.788   66.611    0.429    0.314    7.724
  189.750  155.783   65.359    0.435    0.334    7.580
  190.000  155.780   64.106    0.452    0.310    7.299
  190.250  157.858   63.479    0.427    0.262    6.276
  190.500  158.898   66.603    0.400    0.239    4.467
  190.750  160.978   70.977    0.421    0.271    4.065
  191.000  163.058   77.852    0.488    0.286    3.841
  191.250  167.221   85.352    0.487    0.302    3.914
  191.500  171.385   92.226    0.480    0.277    4.143
  191.750  173.465   91.599    0.474    0.243    4.384
  192.000  168.251   86.594    0.483    0.224    4.728
  192.250  159.911   92.843    0.495    0.233    5.004
  192.500  165.116   95.967    0.495    0.246    5.197
  192.750  170.323   92.838    0.490    0.251    5.397
  193.000  172.403   90.961    0.488    0.241    5.397
  193.250  171.357   92.834    0.493    0.234    5.197
  193.500  170.311   97.208    0.489    0.235    5.005
  193.750  169.265  102.207    0.480    0.238    4.819
  194.000  168.219  105.956    0.477    0.253    4.641
  194.250  167.173   97.201    0.478    0.251    4.641
  194.500  166.128   77.818    0.485    0.227    4.641
  194.750  162.996   68.438    0.347    0.192    4.820
  195.000  161.951   63.433    0.344    0.160    5.198
  195.250  158.821   70.308    0.340    0.139    5.933
  195.500  155.690   83.435    0.343    0.277    6.279
  195.750  154.645   82.807    0.455    0.315    6.521
  196.000  155.682   80.930    0.447    0.296    7.032
  196.250  155.679   80.301    0.431    0.267    7.584
  196.500  155.675   84.050    0.418    0.266    7.877
  196.750  156.713   89.049    0.419    0.277    8.180
  197.000  157.751   91.548    0.412    0.277    7.730
  197.250  161.915   90.920    0.444    0.262    7.585
  197.500  159.828   87.167    0.452    0.249    8.495
  197.750  148.362   74.661    0.398    0.142    9.515
  198.000  145.231   67.156    0.349    0.106    9.696
  198.250  146.269   70.280    0.334    0.117    8.991
  198.500  148.349   77.154    0.364    0.212    8.181
  198.750  153.554   80.277    0.370    0.228    7.444
  199.000  156.676   76.523    0.386    0.249    7.034
  199.250  159.799   75.896    0.389    0.269    6.774
  199.500  162.921   76.519    0.392    0.272    6.774
  199.750  162.916   78.392    0.407    0.266    6.903
  200.000  158.745   80.266    0.421    0.245    6.904
  200.250  157.699   79.638    0.429    0.249    7.035
  200.500  159.779   79.010    0.428    0.251    7.170
  200.750  162.901   80.884    0.434    0.251    7.588
  201.000  164.982   89.009    0.460    0.261    7.588
  201.250  167.061   88.381    0.460    0.288    6.904
  201.500  167.058   81.502    0.442    0.291    5.716
  201.750  163.928   75.872    0.430    0.267    4.823
  202.000  155.588   80.872    0.444    0.263    4.147
  202.250  157.667   96.499    0.462    0.263    3.773
  202.500  159.748   99.622    0.476    0.270    3.773
  202.750  163.911  102.121    0.477    0.271    3.919
  203.000  165.991  101.493    0.472    0.280    4.558
  203.250  165.988   97.740    0.482    0.317    6.283
  203.500  161.815   88.360    0.465    0.328    6.650
  203.750  157.643   68.351    0.408    0.276    8.185
  204.000  153.472   61.472    0.378    0.269    9.887
  204.250  150.341   59.594    0.375    0.318   10.463
