~VERSION INFORMATION
 VERS.                 2.0:   CWLS LOG ASCII STANDARD -VERSION 2.0
 WRAP.                  NO:   ONE LINE PER DEPTH STEP
~WELL INFORMATION BLOCK
#MNEM.UNIT           DATA                    DESCRIPTION OF MNEMONIC
#---------    -------------------            -------------------------------
# Generated from Intellog Unique Number	CS_77_79/WELL/902
WELL.         ICGR GRAHAM                    : Well_name    - WELL
LOC .         00/07-20-079-04W4/0            : Location     - LOCATION
UWI .         00/07-20-079-04W4/0            : Uwi          - UNIQUE WELL ID
ENTR.         JHS                            : Entered      - ENTERED BY
SRVC.         SCHLUMBERGER                   : Scn          - SERVICE COMPANY
STRT.M        130                            : top_depth    - START DEPTH
STOP.M        355                            : bot_depth    - STOP DEPTH
STEP.M        0.25                           : increment    - STEP LENGTH
 NULL. -999.2500:NULL Value
~CURVE INFORMATION BLOCK
#MNEM UNIT       ERCB CURVE CODE    CURVE DESCRIPTION
#-----------   ------------------   ----------------------------------
DEPT.M        00 001 00 00         : DEPTH        - DEPTH
DPHI.V/V      00 890 00 00         : PHID         - DENSITY POROSITY (LIMESTONE)
NPHI.V/V      00 330 00 00         : PHIN         - NEUTRON POROSITY (LIMESTONE)
GR  .API      00 310 00 00         : GR           - GAMMA RAY
ILD .OHMM     00 120 00 00         : RESD         - DEEP RESISTIVITY (DIL)
RHOB.KG/M3    00 350 00 00         : DENS         - BULK DENSITY
~PARAMETER INFORMATION
#MNEM.UNIT           DATA             DESCRIPTION OF MNEMONIC
#---------         -----------     ------------------------------
GL  .M        503                  : gl           - GROUND LEVEL ELEVATION
EREF.M        506.6                : kb           - ELEVATION OF DEPTH REFERENCE
DATM.M        506.6                : datum        - DATUM ELEVATION
TDD .M        355                  : tdd          - TOTAL DEPTH DRILLER
RUN .         ONE                  : Run          - RUN NUMBER
ENG .         BILL                 : Engineer     - RECORDING ENGINEER
WIT .         JIM                  : Witness      - WITNESSED BY
MUD .         GEL                  : Mud_type     - MUD TYPE
MATR.         LIMESTONE            : Logunit      - NEUTRON MATRIX
TMAX.C        19                   : BHT          - MAXIMUM RECORDED TEMPERATURE
BHTD.M        355                  : BHTDEP       - MAXIMUM RECORDED TEMPERATURE
MATR.         1                    : LOGUNIT      - NEUTRON MATRIX
RMT .C        25                   : MDTP         - TEMPERATURE OF MUD
NEUT.         1                    : NEUTRON      - NEUTRON TYPE
RESI.         0                    : RESIST       - RESISTIVITY TYPE
RMC .OHMM     0.25                 : RMC          - RESISTIVITY OF MUD CAKE
RMF .OHMM     0.25                 : RMF          - RESISTIVITY OF MUD FILTRATE
SUFT.C        15                   : SUFT         - SURFACE TEMPERATURE
~A  DEPTH     PHID     PHIN       GR     RESD     DENS
# ...
  276.000    0.313    0.350   38.138    2.333 2174.810
  276.250    0.325    0.334   36.335    2.208 2153.860
  276.500    0.318    0.325   41.824    2.129 2166.550
  276.750    0.308    0.339   45.483    2.172 2183.430
  277.000    0.307    0.367   46.716    2.256 2185.600
  277.250    0.305    0.342   52.203    2.435 2187.770
  277.500    0.287    0.330   61.939    2.627 2219.380
  277.750    0.266    0.352   66.210    2.730 2255.200
  278.000    0.255    0.373   62.586    2.837 2274.190
  278.250    0.265    0.361   51.064    2.788 2257.430
  278.500    0.284    0.354   45.012    2.541 2223.870
  278.750    0.292    0.372   38.356    2.403 2211.330
  279.000    0.322    0.346   40.193    2.274 2158.820
  279.250    0.308    0.326   50.537    2.276 2184.130
  279.500    0.300    0.368   56.632    2.411 2196.810
  279.750    0.280    0.348   60.291    2.652 2230.520
  280.000    0.246    0.338   60.315    2.703 2289.470
  280.250    0.250    0.358   48.186    2.706 2283.230
  280.500    0.312    0.364   41.523    2.467 2176.060
  280.750    0.328    0.353   50.051    2.423 2148.800
  281.000    0.288    0.345   57.356    2.519 2218.260
  281.250    0.265    0.340   61.020    2.568 2256.190
  281.500    0.259    0.333   56.792    2.669 2266.770
  281.750    0.262    0.329   51.946    2.622 2262.620
  282.000    0.274    0.335   42.251    2.390 2241.660
  282.250    0.334    0.372   37.412    2.219 2138.710
  282.500    0.346    0.375   41.682    2.061 2117.750
  282.750    0.332    0.384   44.738    1.987 2143.060
  283.000    0.320    0.395   38.684    1.953 2162.050
  283.250    0.314    0.359   30.808    1.918 2172.650
  283.500    0.318    0.333   38.724    1.919 2166.390
  283.750    0.322    0.317   47.852    1.922 2160.170
  284.000    0.319    0.367   47.878    1.888 2164.440
  284.250    0.323    0.389   47.284    1.925 2158.200
  284.500    0.339    0.376   47.303    1.963 2130.930
  284.750    0.316    0.357   49.757    2.079 2168.850
  285.000    0.307    0.391   50.378    2.161 2185.740
  285.250    0.294    0.410   61.329    2.376 2206.830
  285.500    0.249    0.396   77.747    2.517 2284.700
  285.750    0.236    0.411   80.196    2.519 2305.790
  286.000    0.263    0.455   74.752    2.521 2259.600
  286.250    0.315    0.464   62.623    2.477 2171.370
  286.500    0.347    0.434   48.675    2.388 2116.780
  286.750    0.327    0.397   49.303    2.302 2150.480
  287.000    0.292    0.384   45.676    2.179 2211.530
  287.250    0.305    0.376   40.234    2.140 2188.470
  287.500    0.339    0.390   37.823    2.064 2129.680
  287.750    0.345    0.395   39.058    2.028 2119.230
  288.000    0.338    0.365   47.576    1.991 2131.910
  288.250    0.309    0.355   60.958    1.957 2182.440
  288.500    0.289    0.438   54.906    1.958 2216.150
  288.750    0.302    0.458   43.991    1.961 2193.100
  289.000    0.344    0.412   44.619    1.962 2121.680
  289.250    0.332    0.380   57.394    2.001 2142.790
  289.500    0.312    0.362   66.522    2.080 2176.490
  289.750    0.289    0.425   70.182    2.082 2216.510
  290.000    0.275    0.448   58.057    1.970 2239.700
  290.250    0.301    0.435   44.715    1.697 2195.610
  290.500    0.357    0.405   38.662    1.576 2098.970
  290.750    0.367    0.370   39.900    1.577 2082.220
  291.000    0.356    0.354   42.345    1.609 2101.230
  291.250    0.340    0.349   51.473    1.703 2128.630
  291.500    0.322    0.353   62.426    1.873 2160.230
  291.750    0.297    0.363   66.696    1.947 2202.360
  292.000    0.286    0.376   58.215    1.877 2221.340
  292.250    0.312    0.391   40.621    1.810 2177.250
  292.500    0.357    0.387   33.960    1.745 2099.540
  292.750    0.362    0.372   29.730    1.651 2091.190
  293.000    0.353    0.361   29.140    1.592 2105.970
  293.250    0.351    0.356   29.769    1.563 2110.250
  293.500    0.359    0.364   34.045    1.536 2095.600
  293.750    0.357    0.383   34.668    1.537 2099.900
  294.000    0.360    0.397   34.077    1.569 2093.660
  294.250    0.360    0.406   32.284    1.600 2093.710
  294.500    0.352    0.386   32.904    1.631 2108.510
  294.750    0.349    0.355   40.215    1.664 2112.780
  295.000    0.333    0.350   40.843    1.666 2140.180
  295.250    0.336    0.371   40.861    1.699 2136.040
  295.500    0.347    0.355   44.522    1.904 2117.190
  295.750    0.342    0.337   54.862    2.256 2125.670
  296.000    0.285    0.336   74.922    2.882 2222.450
  296.250    0.244    0.364   90.738    3.481 2291.910
  296.500    0.221    0.386   96.218    4.204 2331.940
  296.750    0.214    0.392  102.311    4.451 2344.620
  297.000    0.204    0.393   99.298    4.804 2361.520
  297.250    0.200    0.399   96.884    4.994 2367.900
  297.500    0.196    0.397   98.724    5.093 2374.260
  297.750    0.199    0.395   98.138    5.097 2370.120
  298.000    0.204    0.405   93.297    5.103 2361.780
  298.250    0.201    0.411   92.104    5.012 2366.070
  298.500    0.197    0.402   96.381    5.018 2372.440
  298.750    0.200    0.398  100.651    4.929 2368.320
  299.000    0.199    0.405  102.491    4.935 2370.470
  299.250    0.192    0.415  101.904    4.847 2381.060
  299.500    0.194    0.423  103.138    4.762 2379.030
  299.750    0.201    0.426  105.581    4.680 2366.480
  300.000    0.198    0.422  109.852    4.595 2370.750
  300.250    0.202    0.406  110.477    4.268 2364.520
  300.500    0.211    0.375   95.316    3.962 2349.860
  300.750    0.220    0.340   61.933    3.414 2333.110
  301.000    0.236    0.320   50.415    3.292 2305.860
  301.250    0.234    0.310   63.188    3.420 2310.130
  301.500    0.212    0.337   78.389    3.691 2348.050
  301.750    0.191    0.349   87.521    3.983 2383.860
  302.000    0.178    0.353   89.360    4.140 2404.950
  302.250    0.189    0.365   85.740    3.991 2386.100
  302.500    0.218    0.386   80.904    3.706 2337.810
  302.750    0.224    0.407   79.702    3.441 2327.360
  303.000    0.215    0.391   79.120    3.020 2342.180
  303.250    0.211    0.395   72.453    2.282 2348.550
  303.500    0.222    0.414   43.929    1.789 2329.680
  303.750    0.279    0.397   30.589    1.571 2233.030
  304.000    0.356    0.403   23.933    1.459 2100.650
  304.250    0.362    0.399   23.343    1.406 2090.210
  304.500    0.366    0.387   22.761    1.434 2083.960
  304.750    0.371    0.386   21.562    1.490 2075.630
  305.000    0.370    0.375   24.008    1.520 2077.810
  305.250    0.370    0.367   33.136    1.610 2077.860
  305.500    0.347    0.352   47.731    1.673 2115.790
  305.750    0.343    0.330   72.041    1.739 2124.260
  306.000    0.334    0.334   82.995    1.774 2139.060
  306.250    0.324    0.357   85.441    1.743 2155.950
  306.500    0.314    0.369   52.059    1.745 2172.830
  306.750    0.318    0.376   44.186    1.747 2166.590
  307.000    0.324    0.394   44.818    1.748 2156.160
  307.250    0.323    0.411   42.400    1.816 2158.320
  307.500    0.332    0.378   54.568    1.997 2141.570
  307.750    0.340    0.359   75.236    2.237 2129.040
  308.000    0.329    0.351   91.653    2.460 2148.010
  308.250    0.292    0.336  100.782    2.654 2211.160
  308.500    0.266    0.337   97.157    2.512 2255.390
  308.750    0.252    0.375   73.491    2.332 2278.590
  309.000    0.252    0.395   61.976    2.086 2278.670
  309.250    0.266    0.408   55.923    1.901 2255.590
  309.500    0.321    0.401   56.546    1.733 2161.060
  309.750    0.363    0.395   65.066    1.670 2089.630
  310.000    0.336    0.413   71.771    1.641 2135.970
  310.250    0.330    0.416   62.069    1.674 2146.550
  310.500    0.353    0.420   52.375    1.707 2106.670
  310.750    0.358    0.407   57.253    1.741 2098.330
  311.000    0.340    0.393   60.309    1.743 2127.850
  311.250    0.329    0.386   67.011    1.778 2146.840
  311.500    0.334    0.381   68.847    1.780 2138.490
  311.750    0.346    0.409   59.759    1.749 2117.530
  312.000    0.338    0.401   53.104    1.784 2132.320
  312.250    0.328    0.394   46.439    1.785 2149.240
