~VERSION INFORMATION
 VERS.                 2.0:   CWLS LOG ASCII STANDARD -VERSION 2.0
 WRAP.                  NO:   ONE LINE PER DEPTH STEP
~WELL INFORMATION BLOCK
#MNEM.UNIT           DATA                    DESCRIPTION OF MNEMONIC
#---------    -------------------            -------------------------------
# Generated from Intellog Unique Number	CS_69_70/WELL/906
NULL.         -999.25                        : NULL_VALUE
WELL.         HUSKY OIL OPERATION LTD.       : Well_name    - WELL              
LOC .         00/09-12-070-06W4/0            : Location     - LOCATION          
UWI .         00/09-12-070-06W4/0            : Uwi          - UNIQUE WELL ID    
ENTR.         SP                             : Entered      - ENTERED BY        
SRVC.         SCHLUMBERGER                   : Scn          - SERVICE COMPANY   
STRT.M        315                            : top_depth    - START DEPTH       
STOP.M        560                            : bot_depth    - STOP DEPTH        
STEP.M        0.25                           : increment    - STEP LENGTH       
~CURVE INFORMATION BLOCK
#MNEM UNIT       ERCB CURVE CODE    CURVE DESCRIPTION
#-----------   ------------------   ----------------------------------
DEPT.M        00 001 00 00         : DEPTH        - DEPTH                       
ILD .OHMM     00 120 00 00         : RESD         - DEEP RESISTIVITY (DIL)      
DPHI.V/V      00 890 00 00         : PHID         - DENSITY POROSITY (LIMESTONE)
NPHI.V/V      00 330 00 00         : PHIN         - NEUTRON POROSITY (LIMESTONE)
GR  .API      00 310 00 00         : GR           - GAMMA RAY                   
~PARAMETER INFORMATION       
#MNEM.UNIT           DATA             DESCRIPTION OF MNEMONIC
#---------         -----------     ------------------------------
GL  .M        675.2                : gl           - GROUND LEVEL ELEVATION      
EREF.M        678.8                : kb           - ELEVATION OF DEPTH REFERENCE
DATM.M        675.2                : datum        - DATUM ELEVATION             
TDD .M        567                  : tdd          - TOTAL DEPTH DRILLER         
RUN .         ONE                  : Run          - RUN NUMBER                  
ENG .         BILL                 : Engineer     - RECORDING ENGINEER          
WIT .         JIM                  : Witness      - WITNESSED BY                
MUD .         GEL                  : Mud_type     - MUD TYPE                    
MATR.         LIMESTONE            : Logunit      - NEUTRON MATRIX              
TMAX.C        25                   : BHT          - MAXIMUM RECORDED TEMPERATURE
BHTD.M        567                  : BHTDEP       - MAXIMUM RECORDED TEMPERATURE
MATR.         1                    : LOGUNIT      - NEUTRON MATRIX              
RMT .C        25                   : MDTP         - TEMPERATURE OF MUD          
NEUT.         1                    : NEUTRON      - NEUTRON TYPE                
RESI.         0                    : RESIST       - RESISTIVITY TYPE            
RMC .OHMM     0.25                 : RMC          - RESISTIVITY OF MUD CAKE     
RMF .OHMM     0.25                 : RMF          - RESISTIVITY OF MUD FILTRATE 
SUFT.C        15                   : SUFT         - SURFACE TEMPERATURE         
~A  DEPTH     RESD     PHID     PHIN       GR
# ...
  402.000    4.203    0.313    0.522   85.791
  402.250    4.791    0.307    0.561   82.178
  402.500    5.164    0.303    0.459   73.745
  402.750    5.362    0.335    0.438   64.107
  403.000    5.464    0.356    0.421   62.903
  403.250    5.570    0.363    0.410   66.518
  403.500    5.679    0.359    0.414   66.519
  403.750    5.680    0.357    0.429   61.700
  404.000    5.684    0.356    0.438   58.689
  404.250    5.686    0.356    0.435   58.087
  404.500    5.690    0.353    0.439   59.293
  404.750    5.691    0.349    0.448   61.703
  405.000    5.910    0.343    0.442   62.909
  405.250    6.138    0.349    0.425   63.512
  405.500    6.866    0.352    0.419   65.320
  405.750    7.973    0.343    0.413   66.525
  406.000   10.161    0.332    0.403   66.526
  406.250   13.194    0.322    0.413   62.310
  406.500   16.505    0.309    0.443   58.696
  406.750   19.165    0.235    0.368   54.480
  407.000   22.254    0.027    0.168   49.059
  407.250   20.668   -0.001    0.146   44.843
  407.500   16.847   -0.005    0.138   41.831
  407.750   12.749    0.009    0.135   43.037
  408.000    9.297    0.035    0.230   49.062
  408.250    8.163    0.064    0.301   58.701
  408.500    6.779    0.136    0.366   62.919
  408.750    6.066    0.196    0.403   68.341
  409.000    5.957    0.249    0.415   71.354
  409.250    5.851    0.286    0.421   70.150
  409.500    5.852    0.309    0.422   71.958
  409.750    5.856    0.313    0.430   73.766
  410.000    5.859    0.317    0.438   72.562
  410.250    5.861    0.324    0.448   71.357
  410.500    5.975    0.333    0.427   71.358
  410.750    5.867    0.319    0.420   70.757
  411.000    5.762    0.316    0.421   71.359
  411.250    5.451    0.322    0.424   72.565
  411.500    5.254    0.328    0.441   76.180
  411.750    5.065    0.317    0.437   81.000
  412.000    4.882    0.301    0.425   86.423
  412.250    4.795    0.282    0.422   89.435
  412.500    4.886    0.269    0.439   88.834
  412.750    4.889    0.265    0.452   86.425
  413.000    4.984    0.271    0.460   85.823
  413.250    5.177    0.266    0.490   86.426
  413.500    5.375    0.266    0.476   85.222
  413.750    5.479    0.267    0.464   85.223
  414.000    5.585    0.267    0.452   87.633
  414.250    5.692    0.266    0.447   89.441
  414.500    5.695    0.259    0.455   88.840
  414.750    5.592    0.252    0.460   85.226
  415.000    5.291    0.242    0.453   84.624
  415.250    5.099    0.239    0.454   87.034
  415.500    4.736    0.247    0.447   88.842
  415.750    4.565    0.241    0.444   88.843
  416.000    4.241    0.244    0.442   89.446
  416.250    4.087    0.261    0.479   92.459
  416.500    3.939    0.272    0.507   95.472
  416.750    3.727    0.285    0.498   95.472
  417.000    3.592    0.295    0.494   91.256
  417.250    3.275    0.300    0.509   87.642
  417.500    3.099    0.296    0.500   93.065
  417.750    3.043    0.279    0.490   97.283
  418.000    2.988    0.266    0.488   93.669
  418.250    3.281    0.260    0.506   95.477
  418.500    3.471    0.258    0.528  102.706
  418.750    3.604    0.265    0.502  104.514
  419.000    3.607    0.282    0.484  101.503
  419.250    3.350    0.278    0.470  101.504
  419.500    3.169    0.276    0.453  100.902
  419.750    3.054    0.273    0.461  100.903
  420.000    2.999    0.277    0.494   98.494
  420.250    3.233    0.288    0.510   96.085
  420.500    3.617    0.299    0.524   92.471
  420.750    4.047    0.311    0.545   91.869
  421.000    4.281    0.325    0.561   93.075
  421.250    4.614    0.321    0.569   92.473
  421.500    4.791    0.296    0.530   90.667
  421.750    4.976    0.285    0.492   90.065
  422.000    4.978    0.271    0.465   89.464
  422.250    4.889    0.285    0.449   88.862
  422.500    4.457    0.289    0.475   88.260
  422.750    4.296    0.283    0.477   88.261
  423.000    4.065    0.267    0.472   90.069
  423.250    4.142    0.266    0.475   91.876
  423.500    4.549    0.279    0.475   87.058
  423.750    4.995    0.289    0.464   82.240
  424.000    5.285    0.291    0.454   77.421
  424.250    5.696    0.298    0.449   72.602
  424.500    6.255    0.319    0.453   72.001
  424.750    6.868    0.333    0.451   75.013
  425.000    7.543    0.308    0.462   68.388
  425.250    7.546    0.230    0.470   61.159
  425.500    7.008    0.043    0.230   47.305
  425.750    6.155    0.024    0.235   49.715
  426.000    5.507    0.060    0.380   61.764
  426.250    5.020    0.168    0.433   68.391
  426.500    4.749    0.281    0.449   72.609
  426.750    4.495    0.317    0.450   72.610
  427.000    4.496    0.335    0.441   71.405
  427.250    4.498    0.344    0.437   70.804
  427.500    4.671    0.346    0.438   70.804
  427.750    4.761    0.342    0.447   69.600
  428.000    4.675    0.341    0.451   67.192
  428.250    4.678    0.344    0.436   66.590
  428.500    4.767    0.344    0.447   75.627
  428.750    5.045    0.334    0.464   80.447
  429.000    5.238    0.318    0.488   85.267
  429.250    5.543    0.311    0.467   88.882
  429.500    5.649    0.300    0.443   93.702
  429.750    5.758    0.294    0.433   94.305
  430.000    5.979    0.290    0.437   94.305
  430.250    5.982    0.301    0.443   93.101
  430.500    6.098    0.296    0.437   88.885
  430.750    5.988    0.290    0.431   84.067
  431.000    5.772    0.283    0.431   81.658
  431.250    5.262    0.282    0.430   78.647
  431.500    4.977    0.281    0.410   77.442
  431.750    4.372    0.283    0.390   78.648
  432.000    3.985    0.299    0.416   81.058
  432.250    3.701    0.296    0.432   83.469
  432.500    3.437    0.293    0.447   84.674
  432.750    3.075    0.298    0.460   85.277
  433.000    2.856    0.301    0.472   83.471
  433.250    2.652    0.304    0.493   83.471
  433.500    2.509    0.307    0.501   85.882
  433.750    2.418    0.317    0.527   89.497
  434.000    2.332    0.328    0.544   90.703
  434.250    2.333    0.333    0.525   91.908
  434.500    2.291    0.339    0.563   95.523
  434.750    2.250    0.339    0.579   95.524
  435.000    2.251    0.336    0.553   90.706
  435.250    2.252    0.337    0.547   87.694
  435.500    2.339    0.337    0.545   87.092
  435.750    2.384    0.344    0.591   88.900
  436.000    2.475    0.353    0.604   88.299
  436.250    2.523    0.361    0.587   90.106
  436.500    2.571    0.348    0.579   92.517
  436.750    2.670    0.328    0.552   93.120
  437.000    2.932    0.323    0.563   96.735
  437.250    3.281    0.325    0.573   98.543
  437.500    3.602    0.328    0.535   94.929
  437.750    4.183    0.328    0.472   86.496
  438.000    5.136    0.322    0.445   82.883
  438.250    6.306    0.316    0.451   82.281
  438.500    8.037    0.312    0.476   79.872
  438.750    9.686    0.311    0.500   73.849
  439.000   11.893    0.325    0.471   67.825
  439.250   14.604    0.339    0.432   62.404
  439.500   18.964    0.325    0.433   58.188
  439.750   22.432    0.296    0.439   53.972
  440.000   26.537    0.144    0.314   51.563
  440.250   22.877    0.083    0.181   49.757
  440.500   18.306    0.107    0.174   50.962
  440.750   14.923    0.238    0.278   53.975
  441.000   13.602    0.279    0.376   56.385
  441.250   14.667    0.308    0.422   58.193
  441.500   14.671    0.329    0.448   60.001
  441.750   14.952    0.345    0.460   60.604
  442.000   15.525    0.353    0.448   59.400
  442.250   16.122    0.358    0.440   55.786
  442.500   16.743    0.359    0.445   53.980
  442.750   17.716    0.353    0.453   53.378
  443.000   18.058    0.342    0.450   52.174
  443.250   18.404    0.333    0.440   51.572
  443.500   18.072    0.310    0.370   51.573
  443.750   17.422    0.291    0.346   52.176
  444.000   16.793    0.308    0.391   54.587
  444.250   15.889    0.337    0.415   57.599
  444.500   15.033    0.352    0.440   59.407
  444.750   14.489    0.362    0.444   60.613
  445.000   13.710    0.359    0.460   60.614
  445.250   13.214    0.359    0.460   60.614
