~VERSION INFORMATION
 VERS.                 2.0:   CWLS LOG ASCII STANDARD -VERSION 2.0
 WRAP.                  NO:   ONE LINE PER DEPTH STEP
~WELL INFORMATION BLOCK
#MNEM.UNIT           DATA                    DESCRIPTION OF MNEMONIC
#---------    -------------------            -------------------------------
# Generated from Intellog Unique Number	CS_73_76/WELL/956
WELL.         CANADIAN WORLDWIDE ENERGY      : Well_name    - WELL
LOC .         00/02-26-076-04W4/0            : Location     - LOCATION
UWI .         00/02-26-076-04W4/0            : Uwi          - UNIQUE WELL ID
ENTR.         SP                             : Entered      - ENTERED BY
SRVC.         SCHLUMBERGER                   : Scn          - SERVICE COMPANY
STRT.M        200                            : top_depth    - START DEPTH
STOP.M        450                            : bot_depth    - STOP DEPTH
STEP.M        0.25                           : increment    - STEP LENGTH
 NULL. -999.2500:NULL Value
~CURVE INFORMATION BLOCK
#MNEM UNIT       ERCB CURVE CODE    CURVE DESCRIPTION
#-----------   ------------------   ----------------------------------
DEPT.M        00 001 00 00         : DEPTH        - DEPTH
ILD .OHMM     00 120 00 00         : RESD         - DEEP RESISTIVITY (DIL)
GR  .API      00 310 00 00         : GR           - GAMMA RAY
NPHI.V/V      00 330 00 00         : PHIN         - NEUTRON POROSITY (LIMESTONE)
DPHI.V/V      00 890 00 00         : PHID         - DENSITY POROSITY (LIMESTONE)
~PARAMETER INFORMATION
#MNEM.UNIT           DATA             DESCRIPTION OF MNEMONIC
#---------         -----------     ------------------------------
GL  .M        587.6                : gl           - GROUND LEVEL ELEVATION
EREF.M        591.1                : kb           - ELEVATION OF DEPTH REFERENCE
DATM.M        587.6                : datum        - DATUM ELEVATION
TDD .M        460                  : tdd          - TOTAL DEPTH DRILLER
RUN .         ONE                  : Run          - RUN NUMBER
ENG .         BILL                 : Engineer     - RECORDING ENGINEER
WIT .         JIM                  : Witness      - WITNESSED BY
MUD .         GEL                  : Mud_type     - MUD TYPE
MATR.         LIMESTONE            : Logunit      - NEUTRON MATRIX
TMAX.C        23                   : BHT          - MAXIMUM RECORDED TEMPERATURE
BHTD.M        460                  : BHTDEP       - MAXIMUM RECORDED TEMPERATURE
MATR.         1                    : LOGUNIT      - NEUTRON MATRIX
RMT .C        25                   : MDTP         - TEMPERATURE OF MUD
NEUT.         1                    : NEUTRON      - NEUTRON TYPE
RESI.         0                    : RESIST       - RESISTIVITY TYPE
RMC .OHMM     0.25                 : RMC          - RESISTIVITY OF MUD CAKE
RMF .OHMM     0.25                 : RMF          - RESISTIVITY OF MUD FILTRATE
SUFT.C        15                   : SUFT         - SURFACE TEMPERATURE
~A  DEPTH     RESD       GR     PHIN     PHID
# ...
  330.500   10.689   77.612    0.424    0.279
  330.750   11.106   74.518    0.403    0.271
  331.000   11.983   68.326    0.282    0.253
  331.250   13.175   60.894    0.177    0.127
  331.500   14.486   46.643    0.159    0.000
  331.750   15.339   42.931    0.158    0.000
  332.000   15.942   41.697    0.171    0.000
  332.250   15.655   47.282    0.209    0.000
  332.500   14.260   59.066    0.230    0.047
  332.750   11.602   72.708    0.262    0.161
  333.000    9.989   80.772    0.346    0.243
  333.250    9.099   85.738    0.393    0.253
  333.500    8.444   88.223    0.432    0.251
  333.750    7.548   87.612    0.441    0.253
  334.000    7.413   87.616    0.443    0.251
  334.250    7.419   91.344    0.448    0.245
  334.500    7.567   93.208    0.452    0.243
  334.750    7.716   93.832    0.453    0.248
  335.000    7.720   95.078    0.452    0.249
  335.250    7.873   92.606    0.444    0.241
  335.500    8.029   90.752    0.431    0.244
  335.750    8.187   87.039    0.436    0.248
  336.000    8.349   84.565    0.435    0.264
  336.250    8.514   83.332    0.426    0.277
  336.500    8.521   87.058    0.431    0.284
  336.750    8.526   89.544    0.452    0.277
  337.000    8.375   92.029    0.464    0.282
  337.250    8.071   94.514    0.448    0.270
  337.500    7.636   98.860    0.441    0.259
  337.750    7.358   99.487    0.458    0.255
  338.000    6.959   97.632    0.460    0.265
  338.250    6.581   93.920    0.450    0.269
  338.500    6.224   93.308    0.439    0.252
  338.750    5.777   94.551    0.447    0.245
  339.000    5.264   92.078    0.474    0.239
  339.250    5.072   96.424    0.493    0.239
  339.500    4.367   98.909    0.505    0.240
  339.750    3.760   97.676    0.515    0.264
  340.000    3.489  100.162    0.523    0.283
  340.250    3.178  102.026    0.519    0.292
  340.500    2.841  100.792    0.527    0.297
  340.750    2.843  100.799    0.550    0.294
  341.000    3.010   95.227    0.542    0.288
  341.250    3.437   89.654    0.489    0.284
  341.500    3.779   87.181    0.459    0.293
  341.750    4.480   82.849    0.450    0.289
  342.000    5.114   77.276    0.448    0.260
  342.250    6.063   66.744    0.435    0.157
  342.500    7.324   63.032    0.413    0.206
  342.750    8.206   68.000    0.391    0.276
  343.000    9.024   70.482    0.390    0.299
  343.250    9.200   73.588    0.406    0.324
  343.500    9.037   74.215    0.416    0.336
  343.750    8.875   76.080    0.424    0.337
  344.000    8.554   79.186    0.443    0.338
  344.250    8.246   76.712    0.466    0.338
  344.500    8.250   74.859    0.490    0.342
  344.750    8.101   77.344    0.478    0.339
  345.000    7.664   78.590    0.465    0.332
  345.250    7.525   76.737    0.450    0.316
  345.500    7.254   75.502    0.441    0.310
  345.750    7.123   79.228    0.434    0.306
  346.000    6.994   84.813    0.429    0.264
  346.250    6.742   86.680    0.439    0.220
  346.500    6.621   86.686    0.461    0.224
  346.750    6.383   89.792    0.489    0.229
  347.000    6.386   87.939    0.494    0.237
  347.250    6.272   86.704    0.484    0.242
  347.500    6.276   89.810    0.456    0.242
  347.750    6.283   91.675    0.452    0.239
  348.000    6.406   90.442    0.451    0.236
  348.250    6.290   89.827    0.448    0.246
  348.500    6.180   88.597    0.446    0.262
  348.750    6.184   88.600    0.447    0.275
  349.000    6.187   87.986    0.449    0.264
  349.250    6.196   83.035    0.441    0.257
  349.500    6.084   81.800    0.440    0.251
  349.750    6.088   83.666    0.438    0.241
  350.000    6.093   89.251    0.430    0.232
  350.250    6.097   95.456    0.425    0.226
  350.500    6.101   91.743    0.426    0.229
  350.750    5.991   88.650    0.427    0.241
  351.000    5.883   88.655    0.441    0.238
  351.250    5.779   90.523    0.484    0.222
  351.500    5.569   90.528    0.506    0.220
  351.750    4.978   89.917    0.523    0.237
  352.000    4.127   89.920    0.522    0.270
  352.250    3.233   87.447    0.517    0.292
  352.500    2.582   81.876    0.529    0.290
  352.750    2.308   83.741    0.538    0.284
  353.000    2.143   85.606    0.550    0.281
  353.250    2.144   82.513    0.540    0.297
  353.500    2.187   80.660    0.529    0.298
  353.750    2.188   84.385    0.544    0.288
  354.000    2.231   88.731    0.537    0.281
  354.250    2.318   91.216    0.523    0.267
  354.500    2.410   93.081    0.536    0.264
  354.750    2.456   96.807    0.566    0.261
  355.000    2.651   93.714    0.497    0.260
  355.250    2.806   85.042    0.470    0.258
  355.500    3.145   83.810    0.454    0.247
  355.750    3.590   88.774    0.444    0.238
  356.000    3.947   87.540    0.432    0.238
  356.250    4.341   83.208    0.431    0.232
  356.500    4.596   83.833    0.442    0.228
  356.750    4.867   85.079    0.443    0.222
  357.000    4.964   84.466    0.432    0.219
  357.250    5.061   79.514    0.412    0.224
  357.500    5.161   72.701    0.417    0.225
  357.750    5.068   77.665    0.427    0.225
  358.000    4.885   82.630    0.428    0.236
  358.250    4.707   97.514    0.456    0.259
  358.500    4.288  102.479    0.488    0.268
  358.750    3.762  106.823    0.495    0.277
  359.000    3.558  108.688    0.490    0.273
  359.250    3.494  103.116    0.489    0.251
  359.500    3.497   93.206    0.485    0.235
  359.750    3.566   88.874    0.472    0.234
  360.000    3.568   87.639    0.460    0.236
  360.250    3.506   90.129    0.474    0.229
  360.500    3.508   93.232    0.484    0.222
  360.750    3.445   95.716    0.480    0.220
  361.000    3.320   99.441    0.490    0.219
  361.250    3.260   96.349    0.501    0.234
  361.500    3.202   94.494    0.510    0.241
  361.750    3.266   96.982    0.495    0.236
  362.000    3.393   98.846    0.491    0.228
  362.250    3.731  100.712    0.478    0.228
  362.500    4.180   96.378    0.455    0.230
  362.750    4.772   88.947    0.434    0.229
  363.000    5.247   83.374    0.440    0.229
  363.250    5.662   85.240    0.427    0.235
  363.500    6.225   80.907    0.391    0.243
  363.750    6.717   75.955    0.371    0.258
  364.000    7.113   71.003    0.353    0.286
  364.250    7.391   68.530    0.344    0.294
  364.500    7.537   68.537    0.344    0.284
  364.750    7.687   69.781    0.359    0.270
  365.000    7.837   72.886    0.359    0.256
  365.250    7.992   71.035    0.354    0.236
  365.500    7.999   67.940    0.346    0.122
  365.750    8.004   62.988    0.341    0.080
  366.000    8.011   62.995    0.343    0.102
  366.250    7.868   68.580    0.343    0.270
  366.500    7.442   71.064    0.345    0.306
  366.750    7.172   71.690    0.343    0.318
  367.000    6.656   70.457    0.339    0.325
  367.250    6.063   71.083    0.365    0.320
  367.500    5.523   66.750    0.381    0.280
  367.750    4.844   63.657    0.388    0.264
  368.000    4.496   68.621    0.392    0.259
  368.250    4.586   86.603    0.449    0.265
  368.500    4.765   91.568    0.450    0.272
  368.750    4.952   77.938    0.414    0.288
  369.000    5.243   59.349    0.390    0.304
  369.250    5.551   51.297    0.356    0.319
  369.500    5.991   45.725    0.339    0.324
  369.750    6.587   51.309    0.339    0.304
  370.000    7.106   63.713    0.342    0.291
  370.250    7.524   76.735    0.343    0.272
  370.500    7.819   82.320    0.353    0.262
  370.750    8.125   81.086    0.366    0.276
  371.000    8.132   82.954    0.359    0.292
  371.250    8.296   86.060    0.337    0.304
  371.500    8.301   74.287    0.324    0.289
  371.750    8.305   59.417    0.303    0.280
  372.000    8.312   50.126    0.297    0.281
  372.250    8.317   42.694    0.299    0.298
  372.500    8.482   40.220    0.299    0.305
  372.750    8.488   45.806    0.299    0.293
  373.000    8.656   55.109    0.304    0.275
  373.250    8.663   68.132    0.310    0.260
  373.500    8.670   58.840    0.311    0.273
  373.750    8.677   43.970    0.309    0.294
