~VERSION INFORMATION
 VERS.                 2.0:   CWLS LOG ASCII STANDARD -VERSION 2.0
 WRAP.                  NO:   ONE LINE PER DEPTH STEP
~WELL INFORMATION BLOCK
#MNEM.UNIT           DATA                    DESCRIPTION OF MNEMONIC
#---------    -------------------            -------------------------------
# Generated from Intellog Unique Number	CS_69_70/WELL/608
WELL.         08-11-069-08W4                 : Well_name    - WELL
LOC .         00/08-11-069-08W4/0            : Location     - LOCATION
UWI .         00/08-11-069-08W4/0            : Uwi          - UNIQUE WELL ID
ENTR.         ANDERSEN                       : Entered      - ENTERED BY
SRVC.         SCHLUMBERGER                   : Scn          - SERVICE COMPANY
STRT.M        345                            : top_depth    - START DEPTH
STOP.M        505                            : bot_depth    - STOP DEPTH
STEP.M        0.25                           : increment    - STEP LENGTH
 NULL. -999.2500:NULL Value
~CURVE INFORMATION BLOCK
#MNEM UNIT       ERCB CURVE CODE    CURVE DESCRIPTION
#-----------   ------------------   ----------------------------------
DEPT.M        00 001 00 00         : DEPTH        - DEPTH
GR  .API      00 310 00 00         : GR           - GAMMA RAY
CALI.MM       00 280 01 00         : CAL          - CALIPER
NPHI.V/V      00 330 00 00         : PHIN         - NEUTRON POROSITY (SANDSTONE)
DPHI.V/V      00 890 00 00         : PHID         - DENSITY POROSITY (SANDSTONE)
ILD .OHMM     00 120 00 00         : RESD         - DEEP RESISTIVITY (DIL)
~PARAMETER INFORMATION
#MNEM.UNIT           DATA             DESCRIPTION OF MNEMONIC
#---------         -----------     ------------------------------
GL  .M        615.3                : gl           - GROUND LEVEL ELEVATION
EREF.M        618                  : kb           - ELEVATION OF DEPTH REFERENCE
DATM.M        618                  : datum        - DATUM ELEVATION
TDD .M        511                  : tdd          - TOTAL DEPTH DRILLER
RUN .         ONE                  : Run          - RUN NUMBER
ENG .         BILL                 : Engineer     - RECORDING ENGINEER
WIT .         JIM                  : Witness      - WITNESSED BY
MUD .         GEL                  : Mud_type     - MUD TYPE
MATR.         SANDSTONE            : Logunit      - NEUTRON MATRIX
TMAX.C        24                   : BHT          - MAXIMUM RECORDED TEMPERATURE
BHTD.M        511                  : BHTDEP       - MAXIMUM RECORDED TEMPERATURE
RMT .C        17                   : MDTP         - TEMPERATURE OF MUD
MUDD.KG/M     1100                 : MWT          - MUD DENSITY
NEUT.         1                    : NEUTRON      - NEUTRON TYPE
RESI.         0                    : RESIST       - RESISTIVITY TYPE
RM  .OHMM     4.64                 : RM           - RESISTIVITY OF MUD
RMC .OHMM     0                    : RMC          - RESISTIVITY OF MUD CAKE
RMF .OHMM     6.14                 : RMF          - RESISTIVITY OF MUD FILTRATE
SUFT.C        15                   : SUFT         - SURFACE TEMPERATURE
~A  DEPTH       GR      CAL     PHIN     PHID     RESD
  345.000  103.690  163.191    0.447    0.212    5.077
  345.250  105.979  166.052    0.461    0.211    5.083
  345.500  105.404  167.957    0.469    0.213    5.089
  345.750  103.684  167.000    0.462    0.204    5.096
  346.000  100.244  164.131    0.446    0.190    5.011
  346.250  100.242  163.175    0.427    0.198    4.926
  346.500  100.813  164.127    0.437    0.214    4.932
  346.750  101.958  169.852    0.446    0.232    4.847
  347.000  101.956  171.759    0.461    0.225    4.853
  347.250   99.662  169.844    0.446    0.202    4.771
  347.500   98.514  170.796    0.444    0.194    4.779
  347.750   97.939  171.748    0.462    0.194    4.783
  348.000   97.365  170.789    0.467    0.198    4.790
  348.250   96.217  168.878    0.451    0.205    4.796
  348.500   95.069  167.920    0.439    0.205    4.802
  348.750   92.776  162.188    0.437    0.199    4.809
  349.000   91.056  166.004    0.450    0.197    4.815
  349.250   95.064  168.865    0.456    0.200    4.825
  349.500   99.644  167.907    0.439    0.207    4.829
  349.750  100.788  165.038    0.443    0.215    4.837
  350.000   99.640  162.171    0.435    0.220    4.842
  350.250   99.638  160.258    0.430    0.224    4.760
  350.500  101.929  159.300    0.463    0.223    4.679
  350.750  103.072  159.297    0.485    0.223    4.601
  351.000  101.352  157.384    0.459    0.218    4.524
  351.250  104.787  156.426    0.465    0.226    4.444
  351.500  100.775  156.423    0.486    0.233    4.369
  351.750   92.180  158.329    0.496    0.235    4.296
  352.000   84.731  159.282    0.441    0.244    4.302
  352.250   88.166  158.324    0.403    0.238    4.388
  352.500   93.892  156.411    0.417    0.237    4.474
  352.750   85.298  157.361    0.454    0.271    4.651
  353.000   71.547  156.404    0.441    0.296    4.656
  353.250   61.233  154.491    0.417    0.322    4.748
  353.500   50.347  153.533    0.400    0.345    4.846
  353.750   50.918  152.575    0.397    0.333    4.850
  354.000   57.217  152.572    0.427    0.296    4.858
  354.250   59.506  151.614    0.448    0.284    4.865
  354.500   57.786  151.611    0.442    0.291    4.871
  354.750   53.774  151.608    0.421    0.300    4.787
  355.000   48.044  151.604    0.407    0.311    4.535
  355.250   48.041  152.555    0.387    0.323    4.298
  355.500   57.206  153.507    0.397    0.336    4.149
  355.750   79.546  155.413    0.426    0.328    4.075
  356.000   93.866  158.274    0.468    0.291    4.082
  356.250   95.010  160.181    0.478    0.242    4.086
  356.500   84.696  162.088    0.478    0.239    4.091
  356.750   72.091  159.221    0.437    0.246    4.252
  357.000   61.777  156.353    0.422    0.269    4.585
  357.250   54.328  151.575    0.426    0.298    4.676
  357.500   50.889  150.617    0.419    0.321    4.860
  357.750   52.032  150.614    0.417    0.337    4.954
  358.000   56.041  151.566    0.420    0.346    5.149
  358.250   57.184  152.516    0.409    0.341    5.256
  358.500   58.901  152.514    0.408    0.346    5.359
  358.750   59.472  153.465    0.428    0.343    5.468
  359.000   58.897  153.462    0.436    0.334    5.473
  359.250   57.750  152.503    0.443    0.343    5.482
  359.500   56.028  151.546    0.433    0.351    5.486
  359.750   56.026  151.543    0.423    0.359    5.495
  360.000   57.743  151.540    0.434    0.353    5.500
  360.250   60.033  151.537    0.460    0.351    5.407
  360.500   61.750  150.579    0.467    0.350    5.414
  360.750   61.748  149.621    0.461    0.346    5.322
  361.000   61.746  148.663    0.447    0.333    5.329
  361.250   61.744  148.659    0.438    0.315    5.338
  361.500   64.606  148.655    0.443    0.298    5.343
  361.750   64.031  148.652    0.454    0.309    5.352
  362.000   61.166  147.695    0.461    0.323    5.357
  362.250   58.299  147.692    0.441    0.349    5.464
  362.500   58.870  146.733    0.426    0.343    5.475
  362.750   58.868  146.730    0.428    0.340    5.585
  363.000   57.148  146.727    0.434    0.343    5.590
  363.250   58.291  146.724    0.418    0.336    5.706
  363.500   61.726  146.721    0.409    0.324    5.710
  363.750   59.433  147.672    0.416    0.323    5.717
  364.000   58.286  148.623    0.428    0.334    5.725
  364.250   55.992  149.575    0.447    0.349    5.732
  364.500   54.844  150.527    0.431    0.363    5.740
  364.750   54.269  150.524    0.428    0.367    5.747
  365.000   53.695  150.520    0.425    0.369    5.866
  365.250   53.693  151.472    0.425    0.372    5.870
  365.500   55.410  151.469    0.435    0.359    6.099
  365.750   56.553  152.421    0.445    0.336    6.337
  366.000   56.551  152.417    0.449    0.336    6.466
  366.250   57.123  152.414    0.452    0.335    6.474
  366.500   58.266  151.456    0.448    0.326    6.248
  366.750   61.128  151.452    0.444    0.319    5.706
  367.000   61.699  151.450    0.433    0.314    5.506
  367.250   61.697  152.402    0.420    0.310    5.512
  367.500   62.841  153.352    0.411    0.315    5.731
  367.750   66.276  154.304    0.414    0.320    5.843
  368.000   68.566  154.301    0.438    0.332    6.073
  368.250   72.001  154.297    0.453    0.352    6.191
  368.500   73.718  152.385    0.431    0.356    6.554
  368.750   74.862  152.382    0.434    0.346    7.066
  369.000   73.715  152.378    0.447    0.341    7.339
  369.250   70.848  151.420    0.462    0.329    7.770
  369.500   69.127  151.417    0.452    0.326    8.071
  369.750   69.698  150.459    0.454    0.326    8.545
  370.000   69.697  150.456    0.453    0.325    9.044
  370.250   66.257  149.498    0.446    0.321    9.396
  370.500   62.818  150.450    0.408    0.267    9.945
  370.750   59.379  151.402    0.330    0.187   10.333
  371.000   59.377  151.399    0.262    0.117    9.610
  371.250   64.531  151.395    0.293    0.149    8.773
  371.500   71.403  150.436    0.392    0.211    7.444
  371.750   76.558  149.478    0.428    0.280    7.048
  372.000   77.701  148.520    0.450    0.296    6.439
  372.250   75.981  148.517    0.468    0.297    6.211
  372.500   73.688  148.514    0.464    0.299    5.992
  372.750   71.966  149.466    0.447    0.299    5.894
  373.000   71.392  149.462    0.435    0.297    5.790
  373.250   71.390  150.413    0.432    0.293    5.798
  373.500   75.971  150.410    0.438    0.282    5.805
  373.750   77.114  151.362    0.447    0.286    5.707
  374.000   75.967  152.313    0.450    0.289    5.716
  374.250   75.392  152.310    0.448    0.288    5.722
  374.500   79.973  152.307    0.467    0.277    5.947
  374.750   78.826  153.260    0.484    0.269    6.066
  375.000   73.668  153.257    0.485    0.266    6.302
  375.250   69.656  153.253    0.441    0.256    6.426
  375.500   66.217  153.249    0.366    0.227    6.437
  375.750   65.642  153.246    0.313    0.161    6.445
  376.000   69.077  154.197    0.362    0.195    6.106
  376.250   75.950  154.194    0.421    0.239    5.577
  376.500   81.677  154.191    0.433    0.263    5.380
  376.750   81.674  154.188    0.441    0.259    5.288
  377.000   80.527  154.185    0.452    0.253    5.396
  377.250   80.525  155.136    0.455    0.256    5.502
  377.500   81.096  155.133    0.461    0.260    5.612
  377.750   85.104  155.130    0.460    0.253    5.941
  378.000   87.966  156.081    0.447    0.240    6.058
  378.250   88.538  156.079    0.426    0.229    6.179
  378.500   88.536  156.075    0.439    0.233    6.078
  378.750   88.534  156.072    0.460    0.240    5.863
  379.000   88.532  156.068    0.480    0.246    5.762
  379.250   87.957  156.065    0.486    0.254    5.564
  379.500   86.809  155.107    0.479    0.260    5.569
  379.750   86.234  155.104    0.479    0.263    5.577
  380.000   87.378  155.101    0.486    0.257    5.582
  380.250   85.657  155.098    0.489    0.253    5.694
  380.500   82.791  154.140    0.477    0.247    5.703
  380.750   82.789  154.137    0.441    0.242    5.711
  381.000   86.225  155.089    0.443    0.239    5.616
  381.250   91.379  156.995    0.458    0.242    5.518
