~VERSION INFORMATION
 VERS.                 2.0:   CWLS LOG ASCII STANDARD -VERSION 2.0
 WRAP.                  NO:   ONE LINE PER DEPTH STEP
~WELL INFORMATION BLOCK
#MNEM.UNIT           DATA                    DESCRIPTION OF MNEMONIC
#---------    -------------------            -------------------------------
# Generated from Intellog Unique Number	CW_73_75/WELL/468
WELL.         COSEKA ET AL MITSIK            : Well_name    - WELL
LOC .         00/04-21-074-05W5/0            : Location     - LOCATION
UWI .         00/04-21-074-05W5/0            : Uwi          - UNIQUE WELL ID
ENTR.         JAYE                           : Entered      - ENTERED BY
SRVC.         WESTERN ATLAS                  : Scn          - SERVICE COMPANY
DATE.         21 NOV 82                      : Date         - LOG DATE
STRT.M        465                            : top_depth    - START DEPTH
STOP.M        685                            : bot_depth    - STOP DEPTH
STEP.M        0.25                           : increment    - STEP LENGTH
 NULL. -999.2500:NULL Value
~CURVE INFORMATION BLOCK
#MNEM UNIT       ERCB CURVE CODE    CURVE DESCRIPTION
#-----------   ------------------   ----------------------------------
DEPT.M        00 001 00 00         : DEPTH        - DEPTH
ILD .OHMM     00 120 00 00         : RESD         - DEEP RESISTIVITY (DIL)
CALI.MM       00 280 01 00         : CAL          - CALIPER
GR  .API      00 310 00 00         : GR           - GAMMA RAY
NPHI.V/V      00 330 00 00         : PHIN         - NEUTRON POROSITY (SANDSTONE)
DPHI.V/V      00 890 00 00         : PHID         - DENSITY POROSITY (SANDSTONE)
~PARAMETER INFORMATION
#MNEM.UNIT           DATA             DESCRIPTION OF MNEMONIC
#---------         -----------     ------------------------------
GL  .M        700.46               : gl           - GROUND LEVEL ELEVATION
EREF.M        705.26               : kb           - ELEVATION OF DEPTH REFERENCE
DATM.M        700.46               : datum        - DATUM ELEVATION
TDD .M        1779                 : tdd          - TOTAL DEPTH DRILLER
RUN .         ONE                  : Run          - RUN NUMBER
ENG .         LAMBORN              : Engineer     - RECORDING ENGINEER
WIT .         JONES                : Witness      - WITNESSED BY
BASE.         EDM                  : Branch       - HOME BASE OF LOGGING UNIT
MUD .         GEL CHEM             : Mud_type     - MUD TYPE
MATR.         SANDSTONE            : Logunit      - NEUTRON MATRIX
TMAX.C        44                   : BHT          - MAXIMUM RECORDED TEMPERATURE
BHTD.M        1779.9               : BHTDEP       - MAXIMUM RECORDED TEMPERATURE
RMT .C        13                   : MDTP         - TEMPERATURE OF MUD
MUDD.KG/M     1100                 : MWT          - MUD DENSITY
NEUT.         1                    : NEUTRON      - NEUTRON TYPE
RESI.         0                    : RESIST       - RESISTIVITY TYPE
RM  .OHMM     0.65                 : RM           - RESISTIVITY OF MUD
RMC .OHMM     1.31                 : RMC          - RESISTIVITY OF MUD CAKE
RMF .OHMM     1.9                  : RMF          - RESISTIVITY OF MUD FILTRATE
SUFT.C        0                    : SUFT         - SURFACE TEMPERATURE
~A  DEPTH     RESD      CAL       GR     PHIN     PHID
  465.000    2.151  373.075   59.435    0.547    0.612
  465.250    2.160  376.350   55.974    0.513    0.622
  465.500    2.120  364.139   52.319    0.540    0.622
  465.750    2.117  352.644   50.918    0.569    0.615
  466.000    2.133  346.345   53.946    0.590    0.602
  466.250    2.191  333.712   65.841    0.597    0.596
  466.500    2.288  320.342   73.492    0.594    0.595
  466.750    2.368  311.661   77.209    0.578    0.596
  467.000    2.427  316.921   79.924    0.537    0.598
  467.250    2.483  327.797   80.020    0.543    0.608
  467.500    2.530  340.542   79.491    0.544    0.573
  467.750    2.565  349.862   82.335    0.534    0.537
  468.000    2.619  338.988   84.802    0.528    0.483
  468.250    2.715  324.482   82.591    0.534    0.473
  468.500    2.830  313.718   78.815    0.535    0.491
  468.750    2.956  313.666   73.605    0.528    0.526
  469.000    3.076  324.340   67.896    0.537    0.562
  469.250    3.111  336.877   62.311    0.584    0.590
  469.500    3.136  332.457   53.542    0.580    0.620
  469.750    3.166  322.111   50.521    0.582    0.616
  470.000    3.245  308.537   50.304    0.590    0.597
  470.250    3.364  310.675   50.959    0.465    0.566
  470.500    3.614  325.710   52.366    0.419    0.363
  470.750    3.934  309.437   57.892    0.410    0.330
  471.000    4.070  286.182   67.352    0.452    0.339
  471.250    3.943  257.941   71.631    0.479    0.506
  471.500    3.625  256.543   66.983    0.519    0.537
  471.750    3.440  279.798   63.207    0.539    0.582
  472.000    3.365  308.151   59.060    0.510    0.458
  472.250    3.488  292.079   56.844    0.425    0.309
  472.500    3.986  250.311   64.057    0.393    0.284
  472.750    4.802  235.904   70.521    0.369    0.257
  473.000    5.571  235.028   65.373    0.349    0.230
  473.250    6.440  233.314   54.169    0.311    0.216
  473.500    6.700  227.125   47.962    0.305    0.230
  473.750    6.830  225.308   49.242    0.316    0.254
  474.000    6.768  224.740   57.954    0.338    0.279
  474.250    7.148  225.112   63.356    0.377    0.295
  474.500    7.988  226.837   65.075    0.416    0.297
  474.750    8.438  228.238   61.739    0.405    0.310
  475.000    7.918  230.279   58.215    0.392    0.344
  475.250    6.778  233.450   56.562    0.415    0.406
  475.500    5.362  250.669   60.281    0.488    0.487
  475.750    3.705  272.678   62.496    0.587    0.578
  476.000    3.119  327.876   61.093    0.593    0.618
  476.250    2.695  367.886   54.636    0.569    0.603
  476.500    2.449  364.302   54.730    0.545    0.584
  476.750    2.281  340.639   64.877    0.563    0.561
  477.000    2.256  308.331   67.723    0.585    0.602
  477.250    2.296  290.390   70.004    0.600    0.626
  477.500    2.375  281.191   72.970    0.606    0.579
  477.750    2.518  274.895   76.123    0.593    0.554
  478.000    2.715  264.756   82.899    0.558    0.522
  478.250    2.972  253.057   87.864    0.520    0.438
  478.500    3.290  245.726   89.710    0.376    0.334
  478.750    3.747  238.704   85.997    0.378    0.325
  479.000    4.437  229.811   84.284    0.391    0.337
  479.250    5.177  223.314   81.755    0.382    0.356
  479.500    5.688  221.506   73.861    0.443    0.394
  479.750    5.419  226.650   67.715    0.471    0.431
  480.000    5.085  242.003   62.567    0.524    0.528
  480.250    4.755  257.663   60.914    0.421    0.493
  480.500    4.685  251.066   63.073    0.379    0.250
  480.750    4.757  241.442   67.413    0.383    0.227
  481.000    4.997  230.051   71.754    0.384    0.206
  481.250    5.358  222.926   74.972    0.374    0.199
  481.500    5.481  218.823   78.001    0.377    0.191
  481.750    5.524  220.450   72.040    0.385    0.159
  482.000    5.781  221.639   66.643    0.386    0.226
  482.250    6.117  223.878   62.619    0.369    0.254
  482.500    6.535  225.919   61.967    0.346    0.260
  482.750    6.799  225.666   61.625    0.351    0.260
  483.000    7.222  224.263   60.160    0.362    0.253
  483.250    7.543  223.166   60.508    0.386    0.240
  483.500    7.531  222.393   62.723    0.401    0.220
  483.750    7.256  223.492   70.624    0.387    0.190
  484.000    6.797  225.315   74.902    0.363    0.161
  484.250    6.271  227.244   79.617    0.373    0.163
  484.500    6.076  228.443   82.209    0.417    0.183
  484.750    6.078  228.817   80.623    0.441    0.228
  485.000    6.195  229.487   79.097    0.440    0.243
  485.250    6.314  231.939   76.881    0.441    0.266
  485.500    6.292  235.020   75.539    0.420    0.353
  485.750    6.119  238.818   71.765    0.389    0.430
  486.000    5.583  248.648   69.551    0.431    0.521
  486.250    4.916  284.183   65.216    0.455    0.555
  486.500    3.940  365.913   60.694    0.488    0.581
  486.750    3.158  377.832   59.791    0.530    0.586
  487.000    2.781  368.422   63.881    0.571    0.579
  487.250    2.694  354.845   69.846    0.547    0.559
  487.500    2.894  333.570   78.055    0.523    0.521
  487.750    3.097  314.690   89.637    0.492    0.395
  488.000    3.461  281.661   91.794    0.473    0.324
  488.250    3.824  256.849   88.644    0.463    0.275
  488.500    4.290  257.323   83.685    0.441    0.239
  488.750    4.740  251.657   79.472    0.351    0.227
  489.000    5.276  244.950   76.009    0.336    0.240
  489.250    5.974  242.403   71.489    0.348    0.310
  489.500    6.370  236.426   67.089    0.363    0.348
  489.750    6.241  227.436   61.940    0.384    0.372
  490.000    6.036  224.682   53.797    0.414    0.395
  490.250    5.914  226.717   54.329    0.437    0.418
  490.500    6.097  228.022   59.357    0.407    0.376
  490.750    6.367  227.967   59.456    0.350    0.341
  491.000    6.687  225.629   55.678    0.352    0.310
  491.250    7.403  224.540   50.719    0.362    0.307
  491.500    8.242  224.189   49.503    0.372    0.305
  491.750    9.349  224.134   52.532    0.386    0.304
  492.000    9.968  223.875   58.120    0.378    0.297
  492.250   10.065  223.938   61.464    0.362    0.289
  492.500   10.087  225.655   62.684    0.342    0.273
  492.750   10.147  227.376   61.593    0.326    0.253
  493.000   10.074  228.679   62.251    0.321    0.231
  493.250    9.597  228.634   64.595    0.329    0.245
  493.500    8.989  228.584   67.629    0.345    0.335
  493.750    8.294  231.549   69.910    0.406    0.471
  494.000    7.034  251.374   71.750    0.436    0.524
  494.250    6.055  282.850   74.154    0.443    0.589
  494.500    5.134  301.737   74.687    0.440    0.600
  494.750    4.667  313.244   76.469    0.442    0.570
  495.000    4.633  307.990   77.502    0.450    0.466
  495.250    4.941  290.877   79.284    0.448    0.392
  495.500    5.469  261.804   81.380    0.407    0.358
  495.750    6.122  240.737   83.970    0.408    0.305
  496.000    6.627  229.974   82.755    0.412    0.287
  496.250    6.908  224.414   79.292    0.411    0.269
  496.500    7.081  222.391   73.834    0.371    0.255
  496.750    7.204  222.968   74.179    0.343    0.254
  497.000    7.398  223.340   77.084    0.328    0.261
  497.250    7.669  223.180   78.490    0.337    0.268
  497.500    7.950  222.092   77.525    0.348    0.268
  497.750    7.907  221.522   77.373    0.367    0.266
  498.000    7.547  222.213   81.650    0.389    0.264
  498.250    7.069  224.128   92.234    0.385    0.266
  498.500    6.734  228.243   94.391    0.377    0.266
  498.750    6.561  231.940   88.367    0.349    0.259
  499.000    6.466  231.995   84.030    0.353    0.250
  499.250    6.395  230.911   82.940    0.365    0.244
  499.500    6.290  233.044   88.532    0.385    0.247
  499.750    5.903  236.326   92.439    0.416    0.256
  500.000    5.416  240.137   93.780    0.408    0.274
  500.250    4.840  243.200   93.816    0.387    0.466
  500.500    4.190  251.997   89.476    0.404    0.539
  500.750    3.151  273.796   77.461    0.443    0.609
  501.000    2.465  304.234   66.820    0.590    0.615
  501.250    2.150  345.904   58.677    0.603    0.603
