~VERSION INFORMATION
 VERS.                 2.0:   CWLS LOG ASCII STANDARD -VERSION 2.0
 WRAP.                  NO:   ONE LINE PER DEPTH STEP
~WELL INFORMATION BLOCK
#MNEM.UNIT           DATA                    DESCRIPTION OF MNEMONIC
#---------    -------------------            -------------------------------
# Generated from Intellog Unique Number	CW_79_81/WELL/591
NULL.         -999.25                        : NULL_VALUE
COMP .        INTERCITY GAS CORPORATION      :  COMPANY
WELL.         HOMESTEAD ET AL WEAVER         : Well_name    - WELL              
LOC .         07-21-080-01W5                 : Location     - LOCATION          
UWI .         00/07-21-080-01W5/0            : Uwi          - UNIQUE WELL ID    
ENTR.         MAX                            : Entered      - ENTERED BY        
SRVC.         SCHLUMBERGER                   : Scn          - SERVICE COMPANY   
DATE.         24 NOV 77                      : Date         - LOG DATE
STRT.M        225                            : top_depth    - START DEPTH       
STOP.M        490                            : bot_depth    - STOP DEPTH        
STEP.M        0.25                           : increment    - STEP LENGTH       
~CURVE INFORMATION BLOCK
#MNEM UNIT       ERCB CURVE CODE    CURVE DESCRIPTION
#-----------   ------------------   ----------------------------------
DEPT.M        00 001 00 00         : DEPTH        - DEPTH                       
ILD .OHMM     00 120 00 00         : RESD         - DEEP RESISTIVITY (DIL)      
NPHI.V/V      00 330 00 00         : PHIN         - NEUTRON POROSITY (SANDSTONE)
DPHI.V/V      00 890 00 00         : PHID         - DENSITY POROSITY (SANDSTONE)
CALI.MM       00 280 01 00         : CAL          - CALIPER                     
GR  .API      00 310 00 00         : GR           - GAMMA RAY                   
~PARAMETER INFORMATION       
#MNEM.UNIT           DATA             DESCRIPTION OF MNEMONIC
#---------         -----------     ------------------------------
GL  .M        570.6                : gl           - GROUND LEVEL ELEVATION      
EREF.M        574.3                : kb           - ELEVATION OF DEPTH REFERENCE
DATM.M        570.6                : datum        - DATUM ELEVATION             
TDD .M        512                  : tdd          - TOTAL DEPTH DRILLER         
RUN .         ONE                  : Run          - RUN NUMBER                  
ENG .         BILL                 : Engineer     - RECORDING ENGINEER          
WIT .         JIM                  : Witness      - WITNESSED BY                
MUD .         GEL                  : Mud_type     - MUD TYPE                    
MATR.         SANDSTONE            : Logunit      - NEUTRON MATRIX              
TMAX.C        36.3                 : BHT          - MAXIMUM RECORDED TEMPERATURE
BHTD.M        512                  : BHTDEP       - MAXIMUM RECORDED TEMPERATURE
RMT .C        17.5                 : MDTP         - TEMPERATURE OF MUD          
MUDD.KG/M     1120                 : MWT          - MUD DENSITY                 
NEUT.         1                    : NEUTRON      - NEUTRON TYPE                
RESI.         0                    : RESIST       - RESISTIVITY TYPE            
RM  .OHMM     16.4                 : RM           - RESISTIVITY OF MUD          
RMC .OHMM     0.25                 : RMC          - RESISTIVITY OF MUD CAKE     
RMF .OHMM     12.3                 : RMF          - RESISTIVITY OF MUD FILTRATE 
SUFT.C        4                    : SUFT         - SURFACE TEMPERATURE         
~A  DEPTH     RESD     PHIN     PHID      CAL       GR
# ...
  444.000   50.700    0.384    0.180  161.976   23.373
  444.250   48.830    0.364    0.053  160.978   22.773
  444.500   45.309    0.119    0.049  161.464   23.659
  444.750   41.266    0.174    0.137  161.950   25.138
  445.000   37.583    0.238    0.208  160.949   27.804
  445.250   35.201    0.321    0.261  159.456   29.578
  445.500   32.663    0.347    0.269  159.447   30.761
  445.750   30.305    0.354    0.274  159.934   32.536
  446.000   29.463    0.357    0.270  159.923   34.609
  446.250   28.640    0.363    0.268  159.915   36.088
  446.500   28.101    0.367    0.270  159.411   35.192
  446.750   27.318    0.362    0.271  159.400   34.592
  447.000   26.558    0.357    0.268  159.886   34.883
  447.250   24.872    0.377    0.281  160.373   37.253
  447.500   23.296    0.386    0.285  159.867   42.294
  447.750   21.416    0.383    0.282  159.860   46.148
  448.000   19.144    0.380    0.267  160.839   51.188
  448.250   16.185    0.387    0.268  160.831   50.292
  448.500   14.335    0.390    0.275  161.315   48.209
  448.750   13.301    0.381    0.269  161.307   48.203
  449.000   13.173    0.369    0.253  161.298   50.573
  449.250   13.291    0.353    0.225  161.781   55.614
  449.500   12.921    0.351    0.185  162.269   61.545
  449.750   12.101    0.347    0.167  164.733   70.148
  450.000   10.818    0.350    0.158  169.178   86.172
  450.250    9.231    0.381    0.194  174.115   97.447
  450.500    7.589    0.430    0.196  172.124   97.441
  450.750    6.722    0.430    0.190  171.622   99.514
  451.000    6.179    0.423    0.213  172.109  101.882
  451.250    5.733    0.403    0.194  172.594  101.877
  451.500    5.574    0.411    0.194  172.091  101.574
  451.750    5.469    0.438    0.212  170.597  100.381
  452.000    5.467    0.448    0.219  168.112   99.189
  452.250    5.672    0.442    0.227  167.607   98.293
  452.500    5.672    0.433    0.214  167.601   97.991
  452.750    6.639    0.429    0.208  167.592   91.454
  453.000    6.955    0.428    0.196  165.602   77.794
  453.250    7.921    0.399    0.210  164.109   67.993
  453.500    9.901    0.364    0.216  164.594   61.160
  453.750   11.704    0.352    0.210  164.584   58.186
  454.000   13.329    0.344    0.206  164.080   56.992
  454.250   14.761    0.353    0.200  163.083   57.283
  454.500   15.317    0.351    0.207  161.590   58.168
  454.750   15.311    0.343    0.193  161.579   58.757
  455.000   15.593    0.332    0.184  161.572   59.346
  455.250   15.588    0.322    0.175  161.561   60.231
  455.500   15.294    0.300    0.187  162.047   62.303
  455.750   15.147    0.312    0.174  163.027   65.562
  456.000   15.284    0.309    0.095  164.006   62.588
  456.250   15.712    0.293    0.103  164.494   59.911
  456.500   15.707    0.252    0.148  164.980   64.952
  456.750   15.127    0.300    0.178  164.971   72.071
  457.000   14.168    0.360    0.195  164.960   73.847
  457.250   12.666    0.378    0.215  164.456   72.653
  457.500   11.861    0.384    0.206  163.456   73.538
  457.750   11.532    0.397    0.223  163.943   75.906
  458.000   11.315    0.398    0.234  165.914   73.822
  458.250   11.206    0.393    0.224  166.400   71.443
  458.500   11.413    0.397    0.224  166.389   69.658
  458.750   11.841    0.404    0.211  165.391   67.574
  459.000   12.174    0.404    0.205  163.897   65.489
  459.250   12.631    0.405    0.228  162.404   65.188
  459.500   12.864    0.391    0.228  160.910   63.401
  459.750   12.741    0.384    0.225  160.901   63.989
  460.000   12.501    0.374    0.225  161.386   65.172
  460.250   12.040    0.380    0.217  162.365   65.463
  460.500   11.814    0.373    0.217  162.356   64.270
  460.750   11.700    0.363    0.229  162.844   66.935
  461.000   11.164    0.366    0.211  162.835   67.227
  461.250   10.553    0.368    0.213  162.825   66.034
  461.500    9.976    0.370    0.207  162.816   66.623
  461.750    9.699    0.364    0.201  162.806   71.664
  462.000    9.428    0.362    0.185  164.279   77.595
  462.250    9.251    0.370    0.170  165.755   82.933
  462.500    8.993    0.371    0.159  167.232   85.895
  462.750    8.824    0.369    0.141  166.728   90.343
  463.000    8.188    0.390    0.131  168.697   92.414
  463.250    7.252    0.407    0.131  169.679   90.034
  463.500    6.605    0.405    0.145  168.183   87.655
  463.750    5.959    0.391    0.145  168.175   88.539
  464.000    5.739    0.400    0.146  169.648   94.174
  464.250    5.632    0.428    0.208  170.628   98.918
  464.500    5.226    0.441    0.198  170.126   98.020
  464.750    4.849    0.446    0.181  169.622   96.235
  465.000    4.893    0.456    0.150  169.614   91.183
  465.250    5.419    0.462    0.148  170.096   84.647
  465.500    6.965    0.438    0.171  170.088   79.892
  465.750    7.714    0.395    0.177  169.091   81.964
  466.000    9.377    0.352    0.172  168.090   84.927
  466.250    9.638    0.370    0.165  168.577   85.812
  466.500    9.028    0.388    0.160  171.042   88.775
  466.750    7.922    0.399    0.194  169.549   92.629
  467.000    7.214    0.418    0.192  169.044   94.998
  467.250    7.013    0.424    0.203  170.025   97.665
  467.500    7.077    0.451    0.226  170.509  100.331
  467.750    7.275    0.477    0.238  170.500   98.840
  468.000    7.619    0.477    0.234  170.492   95.867
  468.250    8.128    0.494    0.200  171.473   88.737
  468.500    8.513    0.496    0.170  169.483   80.717
  468.750    8.916    0.482    0.097  165.517   74.180
  469.000    9.514    0.351    0.133  164.023   81.003
  469.250   10.151    0.327    0.161  165.499   88.121
  469.500   10.631    0.363    0.179  166.479   91.973
  469.750   10.827    0.345    0.219  166.469   90.781
  470.000   10.624    0.363    0.243  166.458   87.214
  470.250   10.327    0.379    0.237  166.451   88.396
  470.500   10.228    0.380    0.221  165.946   90.171
  470.750   10.224    0.375    0.214  165.938   87.789
  471.000   10.316    0.372    0.213  165.433   86.004
  471.250   10.313    0.368    0.224  164.931   82.437
  471.500   10.310    0.359    0.222  163.932   79.760
  471.750   10.304    0.350    0.211  163.921   87.472
  472.000   10.303    0.354    0.208  165.891   88.357
  472.250   10.591    0.383    0.230  166.378   81.228
  472.500   11.091    0.382    0.241  165.379   74.097
  472.750   11.509    0.385    0.266  163.886   72.013
  473.000   12.395    0.394    0.261  162.887   72.898
  473.250   12.742    0.390    0.239  164.363   76.159
  473.500   12.619    0.383    0.212  165.340   80.011
  473.750   12.154    0.415    0.197  165.826   78.522
  474.000   11.815    0.366    0.192  165.818   76.143
  474.250   11.810    0.358    0.192  165.809   73.464
  474.500   12.254    0.352    0.196  165.798   71.382
  474.750   12.480    0.345    0.201  165.791   70.782
  475.000   12.020    0.333    0.200  165.781   72.854
  475.250   11.363    0.328    0.194  166.266   77.599
  475.500   10.642    0.334    0.190  166.257   85.608
  475.750    9.693    0.346    0.181  166.248   91.243
  476.000    8.746    0.375    0.180  167.723   95.392
  476.250    7.966    0.401    0.201  169.196   97.464
  476.500    7.672    0.419    0.211  169.190   96.568
  476.750    7.598    0.432    0.205  168.684   95.969
  477.000    7.596    0.429    0.183  168.180   96.261
  477.250    7.593    0.405    0.157  167.678   98.333
  477.500    7.590    0.348    0.143  167.667   99.219
  477.750    7.588    0.345    0.136  167.658   96.541
  478.000    7.445    0.389    0.133  167.650   94.160
  478.250    7.170    0.408    0.128  167.639   92.671
  478.500    6.842    0.363    0.097  167.631   89.697
  478.750    6.116    0.334    0.118  168.116   89.988
  479.000    5.519    0.325    0.119  169.096   96.514
  479.250    5.121    0.321    0.109  169.583   99.477
  479.500    5.167    0.343    0.127  170.068  100.361
  479.750    5.412    0.360    0.142  170.057  102.432
  480.000    6.106    0.364    0.165  170.050  103.615
  480.250    6.762    0.377    0.170  170.535  103.611
