~VERSION INFORMATION
 VERS.                 2.0:   CWLS LOG ASCII STANDARD -VERSION 2.0
 WRAP.                  NO:   ONE LINE PER DEPTH STEP
~WELL INFORMATION BLOCK
#MNEM.UNIT           DATA                    DESCRIPTION OF MNEMONIC
#---------    -------------------            -------------------------------
# Generated from Intellog Unique Number	CC_84_87/WELL/1075
NULL.         -999.25                        : NULL_VALUE
WELL.         PARAMOUNT ET AL BRULE          : Well_name    - WELL
LOC .         07-04-086-17W4                 : Location     - LOCATION          
UWI .         00/07-04-086-17W400            : Uwi          - UNIQUE WELL ID    
ENTR.         DW                             : Entered      - ENTERED BY        
SRVC.         COMPUTALOG                     : Scn          - SERVICE COMPANY   
DATE.         24 JAN 78                      : Date         - LOG DATE
STRT.M        185.928                        : top_depth    - START DEPTH       
STOP.M        252.983                        : bot_depth    - STOP DEPTH        
STEP.M        0.305                          : increment    - STEP LENGTH       
~CURVE INFORMATION BLOCK
#MNEM UNIT       ERCB CURVE CODE    CURVE DESCRIPTION
#-----------   ------------------   ----------------------------------
DEPT.M        00 001 00 00         : DEPTH        - DEPTH                       
DPHI.V/V      00 890 00 00         : PHID         - DENSITY POROSITY (LIMESTONE)
NPHI.V/V      00 330 00 00         : PHIN         - NEUTRON POROSITY (LIMESTONE)
GR  .API      00 310 00 00         : GR           - GAMMA RAY                   
ILD .OHMM     00 120 00 00         : RESD         - DEEP RESISTIVITY (DIL)      
~PARAMETER INFORMATION       
#MNEM.UNIT           DATA             DESCRIPTION OF MNEMONIC
#---------         -----------     ------------------------------
GL  .M        505.968              : gl           - GROUND LEVEL ELEVATION      
EREF.M        509.016              : kb           - ELEVATION OF DEPTH REFERENCE
DATM.M        509.016              : datum        - DATUM ELEVATION             
TDD .M        253.594              : tdd          - TOTAL DEPTH DRILLER         
RUN .         ONE                  : Run          - RUN NUMBER                  
ENG .         BILL                 : Engineer     - RECORDING ENGINEER          
WIT .         JIM                  : Witness      - WITNESSED BY                
MUD .         GEL                  : Mud_type     - MUD TYPE                    
MATR.         LIMESTONE            : Logunit      - NEUTRON MATRIX              
TMAX.C        15.5556              : BHT          - MAXIMUM RECORDED TEMPERATURE
BHTD.M        253.594              : BHTDEP       - MAXIMUM RECORDED TEMPERATURE
MATR.         1                    : LOGUNIT      - NEUTRON MATRIX              
RMT .C        25                   : MDTP         - TEMPERATURE OF MUD          
NEUT.         1                    : NEUTRON      - NEUTRON TYPE                
RESI.         0                    : RESIST       - RESISTIVITY TYPE            
RMC .OHMM     0.25                 : RMC          - RESISTIVITY OF MUD CAKE     
RMF .OHMM     0.25                 : RMF          - RESISTIVITY OF MUD FILTRATE 
SUFT.C        15                   : SUFT         - SURFACE TEMPERATURE         
~A  DEPTH     PHID     PHIN       GR     RESD
  185.928    0.231    0.244   68.727   11.217
  186.233    0.221    0.251   64.393   11.415
  186.538    0.217    0.279   71.796   11.612
  186.842    0.205    0.296   79.815   11.608
  187.147    0.201    0.288   68.688   12.009
  187.452    0.274    0.269   74.237   12.817
  187.757    0.235    0.261   77.934   13.627
  188.062    0.136    0.248   74.837   14.231
  188.366    0.172    0.248   71.120   14.228
  188.671    0.199    0.272   78.523   14.016
  188.976    0.214    0.274   84.071   13.398
  189.281    0.219    0.273   77.887   12.780
  189.586    0.221    0.268   84.670   12.159
  189.890    0.224    0.266   95.159   11.951
  190.195    0.226    0.262   94.531   11.947
  190.500    0.231    0.266   92.669   12.141
  190.805    0.231    0.279   88.954   12.137
  191.109    0.220    0.271   93.268   12.332
  191.414    0.152    0.263   82.758   12.328
  191.719    0.203    0.263   79.045   11.912
  192.024    0.178    0.276   81.504   11.294
  192.329    0.166    0.293   85.818   10.472
  192.633    0.213    0.283   83.956    9.243
  192.938    0.205    0.277   92.594    7.602
  193.243    0.193    0.283  103.083    6.779
  193.548    0.204    0.277  103.688    6.775
  193.853    0.202    0.281  101.210    7.585
  194.157    0.134    0.262   93.791   10.027
  194.462    0.170    0.246   78.959   11.857
  194.767    0.198    0.270   72.775   12.665
  195.072    0.184    0.286   80.793   10.620
  195.377    0.184    0.273   82.637    8.370
  195.681    0.182    0.287   85.097    6.934
  195.986    0.178    0.297   91.880    6.725
  196.291    0.173    0.278   94.342    6.513
  196.596    0.177    0.276   91.245    6.917
  196.901    0.136    0.277  102.351    7.928
  197.205    0.135    0.282   98.019    8.332
  197.510    0.157    0.285   90.597    8.731
  197.815    0.202    0.281   98.618    8.523
  198.120    0.201    0.278  109.107    7.902
  198.425    0.197    0.283  103.539    7.693
  198.729    0.195    0.287  104.147    7.481
  199.034    0.183    0.287  109.695    8.088
  199.339    0.091    0.271   99.187    9.510
  199.644    0.135    0.246   89.297   11.136
  199.949    0.188    0.258   75.701   12.763
  200.253    0.203    0.264   89.276   13.570
  200.558    0.200    0.269  103.473   12.952
  200.863    0.186    0.266  117.666   12.537
  201.168    0.198    0.254  100.365   12.737
  201.473    0.182    0.250   84.917   13.341
  201.777    0.168    0.258   94.787   13.334
  202.082    0.189    0.269   96.013   12.922
  202.387    0.198    0.273   85.505   12.506
  202.692    0.206    0.268   81.791   12.704
  202.996    0.228    0.260   78.077   13.513
  203.301    0.228    0.255   73.127   14.120
  203.606    0.202    0.258   76.822   14.317
  203.911    0.218    0.268   80.517   13.291
  204.216    0.238    0.271   82.977   12.670
  204.520    0.196    0.283   82.352   12.871
  204.825    0.150    0.278   74.929   14.699
  205.130    0.117    0.255   70.599   16.734
  205.435    0.094    0.238   61.943   21.420
  205.740    0.092    0.225   56.376   25.902
  206.044    0.116    0.220   56.983   26.711
  206.349    0.148    0.232   61.296   25.888
  206.654    0.169    0.251   65.610   24.454
  206.959    0.201    0.267   74.865   21.797
  207.264    0.218    0.276   78.559   18.321
  207.568    0.220    0.285   67.435   15.255
  207.873    0.215    0.290   81.010   13.208
  208.178    0.228    0.275   82.238   12.589
  208.483    0.233    0.260   76.052   12.581
  208.788    0.222    0.258   73.571   12.578
  209.092    0.205    0.268   68.621   13.182
  209.397    0.182    0.273   75.405   13.786
  209.702    0.169    0.269   84.042   13.783
  210.007    0.172    0.270   86.504   13.570
  210.312    0.273    0.280   80.317   13.768
  210.616    0.247    0.285   67.341   13.761
  210.921    0.204    0.288   66.095   13.144
  211.226    0.193    0.282   93.258   12.729
  211.531    0.169    0.266   88.926   12.315
  211.836    0.109    0.229   74.713   11.901
  212.140    0.164    0.236   73.468   11.079
  212.445    0.204    0.269   81.485   10.052
  212.750    0.209    0.290   84.566    8.821
  213.055    0.218    0.290   92.584    7.793
  213.359    0.203    0.289  100.603    7.381
  213.664    0.197    0.293  103.063    6.763
  213.969    0.193    0.292   93.791    5.940
  214.274    0.194    0.299   84.518    5.320
  214.579    0.218    0.303   93.154    5.113
  214.883    0.200    0.304   94.379    5.105
  215.188    0.187    0.302   90.665    5.708
  215.493    0.176    0.281   96.831    6.724
  215.798    0.179    0.271  102.995    8.554
  216.103    0.276    0.276  101.133   10.997
  216.407    0.281    0.283   86.304   16.498
  216.712    0.271    0.271   44.299   22.409
  217.017    0.272    0.268   43.054   30.153
  217.322    0.280    0.275   41.811   31.168
  217.627    0.282    0.282   37.479   31.568
  217.931    0.278    0.284   30.676   34.418
  218.236    0.277    0.278   32.518   35.637
  218.541    0.281    0.275   33.745   36.444
  218.846    0.282    0.277   33.735   36.235
  219.151    0.276    0.282   31.871   34.597
  219.455    0.276    0.275   31.246   32.755
  219.760    0.277    0.267   33.707   28.669
  220.065    0.293    0.273   38.637   26.826
  220.370    0.292    0.282   42.333   25.595
  220.675    0.280    0.283   45.411   24.365
  220.979    0.271    0.278   46.021   22.317
  221.284    0.266    0.276   47.246   21.088
  221.589    0.264    0.270   50.940   19.858
  221.894    0.272    0.270   53.403   14.956
  222.199    0.260    0.274   56.482   10.869
  222.503    0.211    0.280   62.647    8.210
  222.808    0.214    0.288   57.694    5.960
  223.113    0.239    0.300   65.716    4.934
  223.418    0.249    0.349  106.465    3.906
  223.722    0.217    0.363   94.105    3.287
  224.027    0.211    0.340   87.919    2.872
  224.332    0.213    0.318   89.145    3.072
  224.637    0.203    0.293   90.371    3.678
  224.942    0.138    0.286  100.241    5.100
  225.246    0.145    0.274   97.145    6.112
  225.551    0.206    0.268   74.286    6.105
  225.856    0.213    0.286   98.362    5.896
  226.161    0.206    0.311  103.292    5.482
  226.466    0.220    0.317  106.987    5.066
  226.770    0.199    0.320  108.831    5.059
  227.075    0.179    0.303   99.558    5.665
  227.380    0.213    0.284   79.169    6.884
  227.685    0.178    0.250   66.190    9.734
  227.990    0.190    0.243   76.677   12.176
  228.294    0.206    0.258   82.227   14.412
  228.599    0.199    0.274   79.749   15.223
  228.904    0.201    0.275   68.622   17.256
  229.209    0.253    0.268   57.498   20.107
  229.514    0.265    0.265   43.902   21.936
  229.818    0.257    0.272   39.569   20.908
  230.123    0.246    0.280   48.823   18.863
  230.428    0.237    0.288   56.842   10.492
  230.733    0.232    0.298   62.391    9.873
  231.038    0.232    0.298   66.704   10.683
  231.342    0.240    0.280   73.488   12.310
  231.647    0.261    0.265   90.770   16.588
  231.952    0.261    0.262   90.757   25.762
  232.257    0.254    0.251   90.132   28.407
  232.562    0.257    0.253   93.212   29.828
  232.866    0.261    0.259   98.758   31.658
  233.171    0.268    0.282   99.369   32.264
  233.476    0.335    0.305   83.303   33.278
  233.781    0.264    0.299   62.914   35.719
  234.085    0.255    0.279   61.668   38.569
  234.390    0.256    0.276   64.129   38.562
  234.695    0.267    0.280   72.766   36.924
  235.000    0.279    0.288   82.636   34.674
  235.305    0.252    0.295   86.332   29.363
  235.609    0.240    0.297   85.087   27.521
  235.914    0.250    0.285   78.904   30.778
  236.219    0.266    0.276   67.161   32.403
  236.524    0.278    0.269   71.474   28.522
  236.829    0.278    0.271   83.814   25.047
  237.133    0.183    0.256   74.542   22.185
  237.438    0.177    0.247   91.825   19.935
  237.743    0.176    0.260   92.432   21.965
  238.048    0.203    0.263   65.868   23.389
  238.353    0.188    0.246   59.063   25.626
  238.657    0.183    0.237   62.142   27.455
