~VERSION INFORMATION
 VERS.                 2.0:   CWLS LOG ASCII STANDARD -VERSION 2.0
 WRAP.                  NO:   ONE LINE PER DEPTH STEP
~WELL INFORMATION BLOCK
#MNEM.UNIT           DATA                    DESCRIPTION OF MNEMONIC
#---------    -------------------            -------------------------------
# Generated from Intellog Unique Number	CX_WELLS/WELL/4007
WELL.         PRECAM THORNBURY               : Well_name    - WELL
LOC .         00/04-30-078-13W4/0            : Location     - LOCATION
UWI .         00/04-30-078-13W4/0            : Uwi          - UNIQUE WELL ID
ENTR.         T                              : Entered      - ENTERED BY
SRVC.         SCHLUMBERGER                   : Scn          - SERVICE COMPANY
DATE.         03/06/92                       : Date         - LOG DATE
STRT.M        275                            : top_depth    - START DEPTH
STOP.M        505                            : bot_depth    - STOP DEPTH
STEP.M        0.25                           : increment    - STEP LENGTH
 NULL. -999.2500:NULL Value
~CURVE INFORMATION BLOCK
#MNEM UNIT       ERCB CURVE CODE    CURVE DESCRIPTION
#-----------   ------------------   ----------------------------------
DEPT.M        00 001 00 00         : DEPTH        - DEPTH
GR  .API      00 310 00 00         : GR           - GAMMA RAY
NPHI.V/V      00 330 00 00         : PHIN         - NEUTRON POROSITY (SANDSTONE)
DPHI.V/V      00 890 00 00         : PHID         - DENSITY POROSITY (SANDSTONE)
ILD .OHMM     00 120 00 00         : RESD         - DEEP RESISTIVITY (DIL)
~PARAMETER INFORMATION
#MNEM.UNIT           DATA             DESCRIPTION OF MNEMONIC
#---------         -----------     ------------------------------
GL  .M        675                  : gl           - GROUND LEVEL ELEVATION
EREF.M        679                  : kb           - ELEVATION OF DEPTH REFERENCE
DATM.M        679                  : datum        - DATUM ELEVATION
TDD .M        508                  : tdd          - TOTAL DEPTH DRILLER
RUN .         ONE                  : Run          - RUN NUMBER
ENG .         JO                   : Engineer     - RECORDING ENGINEER
WIT .         TIM                  : Witness      - WITNESSED BY
MUD .         GEL                  : Mud_type     - MUD TYPE
MATR.         SANDSTONE            : Logunit      - NEUTRON MATRIX
TMAX.C        19                   : BHT          - MAXIMUM RECORDED TEMPERATURE
BHTD.M        508                  : BHTDEP       - MAXIMUM RECORDED TEMPERATURE
RMT .C        19                   : MDTP         - TEMPERATURE OF MUD
MUDD.KG/M     1170                 : MWT          - MUD DENSITY
NEUT.         1                    : NEUTRON      - NEUTRON TYPE
RESI.         7.5                  : RESIST       - RESISTIVITY TYPE
RM  .OHMM     7.78                 : RM           - RESISTIVITY OF MUD
RMC .OHMM     7.78                 : RMC          - RESISTIVITY OF MUD CAKE
RMF .OHMM     7.78                 : RMF          - RESISTIVITY OF MUD FILTRATE
SUFT.C        4                    : SUFT         - SURFACE TEMPERATURE
~A  DEPTH       GR     PHIN     PHID     RESD
# ...
  405.500   54.450    0.436    0.334    7.916
  405.750   55.768    0.434    0.333    7.786
  406.000   55.215    0.431    0.333    7.802
  406.250   55.281    0.435    0.333    7.802
  406.500   56.583    0.436    0.333    8.152
  406.750   57.901    0.438    0.334    8.482
  407.000   57.951    0.445    0.336    8.348
  407.250   58.033    0.456    0.340    8.378
  407.500   58.082    0.454    0.342    8.251
  407.750   58.181    0.454    0.342    8.269
  408.000   58.230    0.453    0.342    8.292
  408.250   58.312    0.455    0.340    8.161
  408.500   58.378    0.458    0.338    8.185
  408.750   58.427    0.462    0.336    8.214
  409.000   58.542    0.463    0.339    8.231
  409.250   58.591    0.460    0.341    8.582
  409.500   58.641    0.456    0.346    8.763
  409.750   59.357    0.454    0.347    9.130
  410.000   60.008    0.452    0.348    9.323
  410.250   60.074    0.451    0.349    9.898
  410.500   60.140    0.448    0.347   10.298
  410.750   59.587    0.443    0.345   11.131
  411.000   59.653    0.436    0.336   12.738
  411.250   59.117    0.425    0.330   14.295
  411.500   57.947    0.390    0.288   18.652
  411.750   54.287    0.288    0.204   19.801
  412.000   48.172    0.230    0.167   17.744
  412.250   42.675    0.201    0.057   16.202
  412.500   37.829    0.189    0.004   15.349
  412.750   37.862    0.219    0.010   13.764
  413.000   40.416    0.254    0.043   12.797
  413.250   43.556    0.334    0.068   11.685
  413.500   52.926    0.427    0.112   10.670
  413.750   55.448    0.449    0.120    9.920
  414.000   57.986    0.455    0.147    9.229
  414.250   58.051    0.456    0.193    8.749
  414.500   58.134    0.456    0.220    8.469
  414.750   58.199    0.457    0.255    8.487
  415.000   58.265    0.457    0.330    8.505
  415.250   58.965    0.454    0.326    8.542
  415.500   59.633    0.449    0.322    8.722
  415.750   59.698    0.445    0.320    8.747
  416.000   59.146    0.444    0.321    8.765
  416.250   57.992    0.445    0.326    8.963
  416.500   57.440    0.445    0.332    8.821
  416.750   58.123    0.453    0.334    8.840
  417.000   58.824    0.460    0.318    8.231
  417.250   57.653    0.453    0.298    7.945
  417.500   55.246    0.433    0.271    7.537
  417.750   52.222    0.427    0.263    7.280
  418.000   53.524    0.438    0.293    7.032
  418.250   56.045    0.443    0.326    6.792
  418.500   61.056    0.453    0.337    6.566
  418.750   65.464    0.453    0.339    6.347
  419.000   68.019    0.453    0.340    6.356
  419.250   68.101    0.455    0.340    6.255
  419.500   67.516    0.460    0.342    6.161
  419.750   66.980    0.463    0.344    6.068
  420.000   67.062    0.470    0.339    6.077
  420.250   67.762    0.477    0.333    5.981
  420.500   67.795    0.478    0.329    6.002
  420.750   66.625    0.478    0.320    5.903
  421.000   64.836    0.474    0.314    5.924
  421.250   63.666    0.471    0.315    5.945
  421.500   63.113    0.465    0.316    5.958
  421.750   64.415    0.461    0.320    6.092
  422.000   65.115    0.461    0.325    6.109
  422.250   66.417    0.462    0.328    6.127
  422.500   68.354    0.463    0.327    6.144
  422.750   69.672    0.467    0.327    6.162
  423.000   70.323    0.470    0.324    6.183
  423.250   72.276    0.475    0.320    6.192
  423.500   72.943    0.476    0.318    6.103
  423.750   75.498    0.476    0.310    6.007
  424.000   76.165    0.472    0.295    6.020
  424.250   78.719    0.467    0.280    5.929
  424.500   81.876    0.462    0.269    5.831
  424.750   85.032    0.464    0.253    5.852
  425.000   88.806    0.469    0.243    5.868
  425.250   88.872    0.468    0.237    5.776
  425.500   83.375    0.462    0.241    5.796
  425.750   80.984    0.455    0.255    5.805
  426.000   80.448    0.461    0.253    5.821
  426.250   79.245    0.470    0.247    5.842
  426.500   75.001    0.475    0.246    5.973
  426.750   71.358    0.471    0.255    5.995
  427.000   70.171    0.464    0.258    6.117
  427.250   70.237    0.459    0.254    6.139
  427.500   77.101    0.459    0.244    6.273
  427.750   80.258    0.457    0.234    6.409
  428.000   79.722    0.455    0.220    6.678
  428.250   77.966    0.451    0.216    6.819
  428.500   78.032    0.451    0.220    7.105
  428.750   77.446    0.450    0.224    7.255
  429.000   77.512    0.450    0.227    7.564
  429.250   77.594    0.448    0.228    7.585
  429.500   77.644    0.447    0.228    7.596
  429.750   78.945    0.446    0.228    7.767
  430.000   82.736    0.444    0.228    7.790
  430.250   84.672    0.444    0.231    7.960
  430.500   85.340    0.445    0.232    7.988
  430.750   86.658    0.445    0.231    8.011
  431.000   84.870    0.445    0.225    8.028
  431.250   83.081    0.442    0.215    8.056
  431.500   82.512    0.432    0.195    8.079
  431.750   83.831    0.423    0.193    8.261
  432.000   84.498    0.418    0.203    8.285
  432.250   87.671    0.412    0.217    8.308
  432.500   90.843    0.406    0.216    8.326
  432.750   92.747    0.402    0.215    8.195
  433.000   94.065    0.399    0.214    7.921
  433.250   94.147    0.399    0.213    7.504
  433.500   94.246    0.399    0.213    7.248
  433.750   93.677    0.405    0.213    6.632
  434.000   92.490    0.412    0.213    6.402
  434.250   90.100    0.408    0.213    6.179
  434.500   89.515    0.402    0.214    5.965
  434.750   88.344    0.401    0.216    5.658
  435.000   87.825    0.429    0.219    5.360
  435.250   87.825    0.452    0.223    4.627
  435.500   89.209    0.458    0.233    3.849
  435.750   85.533    0.468    0.244    3.649
  436.000   83.761    0.481    0.265    3.209
  436.250   83.176    0.493    0.278    3.098
  436.500   83.241    0.555    0.277    2.937
  436.750   83.958    0.572    0.278    2.890
  437.000   81.568    0.553    0.279    3.069
  437.250   80.983    0.536    0.281    3.260
  437.500   82.317    0.554    0.268    3.392
  437.750   83.586    0.560    0.256    3.593
  438.000   84.287    0.528    0.239    4.038
  438.250   83.133    0.475    0.222    4.365
  438.500   82.547    0.429    0.207    4.811
  438.750   83.248    0.411    0.202    5.097
  439.000   83.931    0.392    0.199    5.832
  439.250   83.395    0.383    0.198    6.423
  439.500   82.225    0.389    0.197    6.819
  439.750   81.055    0.411    0.207    6.834
  440.000   80.502    0.441    0.213    6.735
  440.250   80.568    0.434    0.215    6.624
  440.500   79.999    0.420    0.209    6.643
  440.750   79.447    0.397    0.191    6.793
  441.000   77.040    0.390    0.155    6.808
  441.250   74.015    0.381    0.119    6.827
  441.500   73.479    0.373    0.183    6.122
  441.750   74.781    0.377    0.199    5.696
  442.000   77.954    0.405    0.208    5.498
  442.250   80.475    0.427    0.217    5.119
  442.500   85.486    0.438    0.221    4.856
  442.750   92.985    0.455    0.224    4.773
  443.000   93.084    0.464    0.227    4.610
  443.250   93.117    0.473    0.228    4.541
  443.500   93.800    0.477    0.236    4.553
  443.750   96.973    0.475    0.239    4.656
  444.000   96.421    0.474    0.235    4.751
  444.250   95.234    0.469    0.214    4.858
  444.500   92.225    0.461    0.193    4.968
  444.750   92.308    0.458    0.182    5.072
  445.000   96.082    0.455    0.198    5.187
  445.250   99.238    0.451    0.209    5.202
  445.500  100.523    0.449    0.196    5.319
  445.750   98.751    0.445    0.175    5.330
  446.000   98.182    0.438    0.160    5.667
  446.250   97.012    0.433    0.163    5.896
  446.500   97.712    0.426    0.192    6.246
  446.750   97.778    0.419    0.199    6.751
  447.000   93.533    0.413    0.214    7.877
  447.250   91.712    0.403    0.219    8.670
  447.500   87.451    0.391    0.215   10.293
  447.750   83.207    0.368    0.212   12.237
  448.000   80.784    0.362    0.217   14.003
  448.250   78.995    0.361    0.244   14.855
  448.500   81.550    0.367    0.262   15.478
  448.750   86.560    0.374    0.279   15.793
