~VERSION INFORMATION
 VERS.                 2.0:   CWLS LOG ASCII STANDARD -VERSION 2.0
 WRAP.                  NO:   ONE LINE PER DEPTH STEP
~WELL INFORMATION BLOCK
#MNEM.UNIT           DATA                    DESCRIPTION OF MNEMONIC
#---------    -------------------            -------------------------------
# Generated from Intellog Unique Number	CS_73_76/WELL/608
WELL.         CAVALIER ENERGY INC.           : Well_name    - WELL
LOC .         00/06-06-073-14W4/0            : Location     - LOCATION
UWI .         00/06-06-073-14W4/0            : Uwi          - UNIQUE WELL ID
ENTR.         SP                             : Entered      - ENTERED BY
SRVC.         SCHLUMBERGER                   : Scn          - SERVICE COMPANY
STRT.M        283.464                        : top_depth    - START DEPTH
STOP.M        464.964                        : bot_depth    - STOP DEPTH
STEP.M        0.25                           : increment    - STEP LENGTH
 NULL. -999.2500:NULL Value
~CURVE INFORMATION BLOCK
#MNEM UNIT       ERCB CURVE CODE    CURVE DESCRIPTION
#-----------   ------------------   ----------------------------------
DEPT.M        00 001 00 00         : DEPTH        - DEPTH
GR  .API      00 310 00 00         : GR           - GAMMA RAY
DPHI.V/V      00 890 00 00         : PHID         - DENSITY POROSITY (SANDSTONE)
NPHI.V/V      00 330 00 00         : PHIN         - NEUTRON POROSITY (SANDSTONE)
ILD .OHMM     00 120 00 00         : RESD         - DEEP RESISTIVITY (DIL)
~PARAMETER INFORMATION
#MNEM.UNIT           DATA             DESCRIPTION OF MNEMONIC
#---------         -----------     ------------------------------
GL  .M        606.552              : gl           - GROUND LEVEL ELEVATION
EREF.M        609.6                : kb           - ELEVATION OF DEPTH REFERENCE
DATM.M        606.552              : datum        - DATUM ELEVATION
TDD .M        479.146              : tdd          - TOTAL DEPTH DRILLER
RUN .         ONE                  : Run          - RUN NUMBER
ENG .         BILL                 : Engineer     - RECORDING ENGINEER
WIT .         JIM                  : Witness      - WITNESSED BY
MUD .         GEL                  : Mud_type     - MUD TYPE
MATR.         SANDSTONE            : Logunit      - NEUTRON MATRIX
TMAX.C        18.8889              : BHT          - MAXIMUM RECORDED TEMPERATURE
BHTD.M        573.024              : BHTDEP       - MAXIMUM RECORDED TEMPERATURE
MATR.         1                    : LOGUNIT      - NEUTRON MATRIX
RMT .C        25                   : MDTP         - TEMPERATURE OF MUD
NEUT.         1                    : NEUTRON      - NEUTRON TYPE
RESI.         0                    : RESIST       - RESISTIVITY TYPE
RMC .OHMM     0.25                 : RMC          - RESISTIVITY OF MUD CAKE
RMF .OHMM     0.25                 : RMF          - RESISTIVITY OF MUD FILTRATE
SUFT.C        15                   : SUFT         - SURFACE TEMPERATURE
~A  DEPTH       GR     PHID     PHIN     RESD
# ...
  326.964  127.087    0.290    0.461    6.522
  327.214  130.124    0.278    0.467    6.552
  327.464  133.417    0.275    0.460    6.546
  327.714  129.236    0.267    0.445    6.666
  327.964  126.339    0.267    0.446    6.708
  328.214  122.026    0.273    0.447    6.788
  328.464  119.137    0.282    0.439    6.893
  328.714  116.264    0.291    0.431    6.946
  328.964  121.154    0.293    0.438    6.936
  329.214  122.100    0.293    0.442    7.027
  329.464  118.930    0.286    0.460    7.085
  329.714  114.075    0.276    0.474    7.215
  329.964  110.154    0.261    0.471    7.340
  330.214  112.095    0.243    0.457    7.401
  330.464  117.459    0.256    0.458    7.247
  330.714  120.363    0.295    0.461    6.933
  330.964  123.963    0.264    0.475    6.592
  331.214  126.469    0.272    0.481    6.369
  331.464  126.058    0.281    0.480    6.382
  331.714  125.206    0.279    0.475    6.373
  331.964  126.527    0.311    0.470    6.464
  332.214  122.522    0.294    0.462    6.527
  332.464  120.926    0.316    0.450    6.664
  332.714  115.073    0.330    0.445    6.693
  332.964  102.438    0.335    0.462    6.754
  333.214   93.956    0.333    0.471    6.853
  333.464   94.488    0.337    0.463    6.935
  333.714   97.196    0.341    0.451    6.938
  333.964  100.777    0.335    0.443    6.841
  334.214  103.097    0.324    0.444    6.851
  334.464  107.114    0.311    0.458    6.776
  334.714  109.960    0.303    0.470    6.701
  334.964  113.701    0.297    0.481    6.394
  335.214  115.001    0.296    0.475    6.183
  335.464  117.848    0.298    0.450    5.794
  335.714  117.356    0.286    0.463    5.601
  335.964  112.786    0.277    0.492    5.444
  336.214  115.408    0.288    0.484    5.600
  336.464  117.045    0.291    0.447    5.786
  336.714  115.344    0.286    0.467    6.168
  336.964  116.519    0.288    0.485    6.779
  337.214  118.927    0.294    0.478    7.003
  337.464  114.595    0.291    0.469    7.085
  337.714  116.417    0.289    0.462    7.157
  337.964  116.303    0.297    0.469    7.193
  338.214  110.567    0.322    0.480    7.438
  338.464   99.455    0.368    0.491    7.630
  338.714   88.881    0.412    0.535    7.660
  338.964   77.640    0.396    0.518    7.893
  339.214   69.163    0.428    0.478    8.276
  339.464   60.909    0.575    0.531    8.749
  339.714   55.181    0.598    0.600    8.903
  339.964   54.344    0.600    0.647    8.902
  340.214   60.576    0.313    0.463    8.744
  340.464   66.172    0.344    0.433    8.341
  340.714   70.781    0.357    0.438    7.809
  340.964   76.519    0.375    0.443    7.379
  341.214   79.331    0.376    0.448    7.002
  341.464   78.468    0.375    0.439    6.783
  341.714   74.383    0.378    0.432    6.670
  341.964   70.175    0.383    0.438    6.603
  342.214   70.289    0.388    0.428    6.594
  342.464   72.106    0.385    0.429    6.591
  342.714   74.190    0.394    0.432    6.591
  342.964   74.749    0.400    0.429    6.597
  343.214   72.585    0.400    0.438    6.508
  343.464   70.315    0.403    0.447    6.511
  343.714   73.080    0.398    0.445    6.509
  343.964   77.636    0.405    0.452    6.508
  344.214   80.652    0.400    0.461    6.507
  344.464   84.384    0.400    0.471    6.506
  344.714   83.097    0.391    0.469    6.511
  344.964   79.229    0.385    0.450    6.418
  345.214   76.846    0.385    0.445    6.425
  345.464   76.411    0.389    0.459    6.425
  345.714   77.502    0.389    0.460    6.424
  345.964   78.562    0.390    0.475    6.422
  346.214   79.118    0.376    0.476    6.477
  346.464   80.020    0.353    0.473    6.610
  346.714   81.064    0.329    0.472    6.740
  346.964   79.876    0.332    0.468    6.876
  347.214   81.579    0.358    0.458    6.894
  347.464   82.375    0.382    0.456    6.897
  347.714   83.700    0.391    0.451    6.715
  347.964   85.723    0.375    0.450    6.655
  348.214   89.553    0.369    0.454    6.779
  348.464   91.820    0.358    0.463    7.298
  348.714   93.151    0.342    0.463    7.719
  348.964   92.241    0.303    0.454    8.062
  349.214   90.860    0.291    0.414    8.086
  349.464   94.539    0.314    0.393    7.999
  349.714   98.743    0.337    0.430    7.920
  349.964  105.642    0.300    0.428    7.492
  350.214  110.670    0.277    0.432    7.131
  350.464  114.885    0.271    0.432    6.963
  350.714  115.214    0.281    0.444    6.721
  350.964  116.946    0.279    0.451    6.656
  351.214  116.036    0.290    0.459    6.685
  351.464  110.469    0.304    0.454    6.808
  351.714  108.158    0.296    0.446    6.868
  351.964  104.304    0.294    0.419    7.007
  352.214  102.898    0.292    0.415    7.047
  352.464  107.719    0.284    0.424    7.123
  352.714  112.276    0.268    0.411    7.090
  352.964  110.284    0.259    0.416    7.039
  353.214  108.782    0.271    0.414    6.961
  353.464  105.654    0.283    0.403    6.855
  353.714  100.891    0.279    0.406    6.722
  353.964  116.130    0.256    0.423    6.644
  354.214  122.989    0.259    0.429    6.397
  354.464  127.352    0.237    0.428    6.270
  354.714  126.368    0.240    0.426    6.038
  354.964  126.194    0.245    0.432    5.912
  355.214  127.728    0.225    0.439    5.784
  355.464  131.095    0.257    0.444    5.685
  355.714  133.106    0.264    0.441    5.601
  355.964  134.240    0.251    0.452    5.605
  356.214  134.535    0.241    0.460    5.603
  356.464  135.632    0.233    0.447    5.602
  356.714  135.202    0.247    0.443    5.603
  356.964  133.974    0.260    0.464    5.610
  357.214  133.922    0.272    0.486    5.513
  357.464  131.245    0.282    0.520    4.931
  357.714  127.778    0.283    0.547    3.297
  357.964  124.843    0.298    0.534    2.032
  358.214  122.404    0.285    0.519    1.549
  358.464  122.493    0.277    0.512    1.299
  358.714  119.869    0.269    0.519    1.167
  358.964  117.826    0.263    0.526    1.152
  359.214  115.805    0.293    0.523    1.150
  359.464  111.313    0.310    0.504    1.655
  359.714  111.382    0.298    0.492    3.039
  359.964  107.419    0.313    0.477    4.828
  360.214   94.579    0.334    0.467    6.172
  360.464   77.712    0.358    0.455    7.473
  360.714   69.504    0.358    0.438    8.167
  360.964   70.187    0.355    0.427    8.499
  361.214   71.933    0.348    0.422    8.505
  361.464   75.640    0.343    0.424    8.034
  361.714   77.841    0.337    0.441    7.493
  361.964   79.916    0.335    0.440    6.841
  362.214   82.335    0.340    0.428    6.719
  362.464   84.897    0.343    0.442    6.700
  362.714   86.809    0.345    0.454    6.697
  362.964   83.987    0.339    0.444    6.700
  363.214   83.774    0.335    0.435    6.565
  363.464   87.624    0.331    0.443    6.090
  363.714   97.673    0.330    0.464    5.377
  363.964  104.512    0.309    0.497    4.395
  364.214  109.521    0.331    0.542    4.097
  364.464  110.472    0.335    0.526    3.989
  364.714  105.425    0.348    0.511    3.992
  364.964  100.528    0.356    0.505    4.050
  365.214  100.647    0.354    0.479    4.184
  365.464  105.931    0.344    0.450    4.314
  365.714  109.556    0.328    0.462    4.280
  365.964  112.225    0.333    0.495    4.238
  366.214  112.131    0.345    0.474    4.222
  366.464  108.273    0.326    0.469    4.778
  366.714  104.516    0.322    0.482    5.398
  366.964   99.591    0.313    0.474    5.933
  367.214  103.953    0.306    0.462    6.212
  367.464  106.744    0.299    0.452    6.373
  367.714  106.005    0.310    0.452    6.299
  367.964  108.220    0.312    0.452    6.289
  368.214  109.122    0.296    0.467    6.286
  368.464  109.737    0.289    0.476    6.285
  368.714  109.258    0.279    0.470    6.285
  368.964  107.335    0.278    0.462    6.284
  369.214  108.230    0.277    0.470    6.275
  369.464  108.428    0.282    0.489    6.371
  369.714  105.067    0.294    0.502    6.359
  369.964  103.090    0.303    0.497    6.495
  370.214  100.378    0.321    0.473    6.528
