~VERSION INFORMATION
 VERS.                 2.0:   CWLS LOG ASCII STANDARD -VERSION 2.0
 WRAP.                  NO:   ONE LINE PER DEPTH STEP
~WELL INFORMATION BLOCK
#MNEM.UNIT           DATA                    DESCRIPTION OF MNEMONIC
#---------    -------------------            -------------------------------
# Generated from Intellog Unique Number	CW_82_90/WELL/3062
WELL.         CHEVRON WABASCA NORTH          : Well_name    - WELL
LOC .         00/07-04-087-25W4/0            : Location     - LOCATION
UWI .         00/07-04-087-25W4/0            : Uwi          - UNIQUE WELL ID
ENTR.         MAX                            : Entered      - ENTERED BY
SRVC.         SCHLUMBERGER                   : Scn          - SERVICE COMPANY
STRT.M        228.6                          : top_depth    - START DEPTH
STOP.M        441.85                         : bot_depth    - STOP DEPTH
STEP.M        0.25                           : increment    - STEP LENGTH
 NULL. -999.2500:NULL Value
~CURVE INFORMATION BLOCK
#MNEM UNIT       ERCB CURVE CODE    CURVE DESCRIPTION
#-----------   ------------------   ----------------------------------
DEPT.M        00 001 00 00         : DEPTH        - DEPTH
ILD .OHMM     00 120 00 00         : RESD         - DEEP RESISTIVITY (DIL)
NPHI.V/V      00 330 00 00         : PHIN         - NEUTRON POROSITY (SANDSTONE)
DPHI.V/V      00 890 00 00         : PHID         - DENSITY POROSITY (SANDSTONE)
CALI.MM       00 280 01 00         : CAL          - CALIPER
GR  .API      00 310 00 00         : GR           - GAMMA RAY
~PARAMETER INFORMATION
#MNEM.UNIT           DATA             DESCRIPTION OF MNEMONIC
#---------         -----------     ------------------------------
GL  .M        629.412              : gl           - GROUND LEVEL ELEVATION
EREF.M        632.46               : kb           - ELEVATION OF DEPTH REFERENCE
DATM.M        629.412              : datum        - DATUM ELEVATION
TDD .M        445.313              : tdd          - TOTAL DEPTH DRILLER
RUN .         ONE                  : Run          - RUN NUMBER
ENG .         BILL                 : Engineer     - RECORDING ENGINEER
WIT .         JIM                  : Witness      - WITNESSED BY
MUD .         GEL                  : Mud_type     - MUD TYPE
MATR.         SANDSTONE            : Logunit      - NEUTRON MATRIX
TMAX.C        26.1111              : BHT          - MAXIMUM RECORDED TEMPERATURE
BHTD.M        445.313              : BHTDEP       - MAXIMUM RECORDED TEMPERATURE
MATR.         1                    : LOGUNIT      - NEUTRON MATRIX
RMT .C        10                   : MDTP         - TEMPERATURE OF MUD
NEUT.         1                    : NEUTRON      - NEUTRON TYPE
RESI.         0                    : RESIST       - RESISTIVITY TYPE
RMC .OHMM     5.34                 : RMC          - RESISTIVITY OF MUD CAKE
RMF .OHMM     7.18                 : RMF          - RESISTIVITY OF MUD FILTRATE
SUFT.C        -20.5556             : SUFT         - SURFACE TEMPERATURE
~A  DEPTH     RESD     PHIN     PHID      CAL       GR
# ...
  374.600    9.272    0.431    0.218  114.704   86.614
  374.850    9.358    0.423    0.221  113.217   84.570
  375.100    9.444    0.426    0.196  115.440   83.109
  375.350    9.445    0.425    0.191  115.438   85.736
  375.600    9.361    0.416    0.195  113.211   93.325
  375.850    9.277    0.410    0.185  111.725   96.243
  376.100    8.786    0.421    0.154  119.138   97.118
  376.350    8.246    0.437    0.145  117.652   93.906
  376.600    8.099    0.432    0.132  117.650   92.737
  376.850    8.099    0.416    0.116  118.389   92.445
  377.100    7.955    0.412    0.101  122.094   92.152
  377.350    7.742    0.449    0.201  119.867   95.070
  377.600    6.943    0.486    0.192  113.191   96.821
  377.850    6.516    0.487    0.220  114.672   95.652
  378.100    6.006    0.470    0.220  112.444   90.396
  378.350    5.952    0.448    0.153  113.184   83.389
  378.600    6.229    0.441    0.117  120.597   72.878
  378.850    6.699    0.449    0.109  120.594   74.044
  379.100    7.205    0.470    0.159  119.109   75.211
  379.350    7.540    0.484    0.161  117.623   75.210
  379.600    7.610    0.495    0.151  117.620   76.085
  379.850    7.611    0.494    0.155  117.618   79.296
  380.100    7.475    0.474    0.149  117.616   82.798
  380.350    7.408    0.460    0.132  118.355   85.132
  380.600    7.342    0.449    0.191  118.352   85.716
  380.850    7.410    0.445    0.196  118.350   86.298
  381.100    7.411    0.445    0.179  119.090   85.422
  381.350    7.479    0.449    0.171  121.311   84.545
  381.600    7.480    0.456    0.175  122.792   82.208
  381.850    7.413    0.446    0.131  124.273   81.040
  382.100    7.347    0.454    0.119  130.202   83.082
  382.350    7.282    0.459    0.161  130.941   89.504
  382.600    7.282    0.443    0.159  128.714   90.671
  382.850    7.283    0.438    0.171  124.263   87.459
  383.100    7.284    0.431    0.178  117.586   88.333
  383.350    7.285    0.440    0.185  110.911   90.084
  383.600    7.220    0.453    0.196  110.167   92.419
  383.850    7.027    0.452    0.194  118.321   92.418
  384.100    6.964    0.451    0.199  124.992   88.621
  384.350    6.965    0.433    0.184  124.990   86.869
  384.600    7.356    0.416    0.188  119.797   84.532
  384.850    7.911    0.387    0.203  108.671   78.401
  385.100    8.903    0.389    0.178  107.927   74.313
  385.350    9.929    0.402    0.235  107.925   74.312
  385.600   11.175    0.416    0.203  107.922   73.143
  385.850   12.128    0.402    0.178  110.145   70.514
  386.100   12.693    0.366    0.156  114.591   69.930
  386.350   13.046    0.360    0.163  116.072   71.388
  386.600   12.696    0.376    0.225  113.104   73.431
  386.850   12.024    0.413    0.263  105.686   77.517
  387.100   10.982    0.433    0.236  105.684   76.640
  387.350   10.121    0.408    0.222  107.906   74.012
  387.600    9.850    0.385    0.172  108.645   73.135
  387.850   10.309    0.371    0.093  110.125   68.463
  388.100   11.393    0.353    0.077  116.055   62.623
  388.350   13.788    0.297    0.003  118.277   59.411
  388.600   17.945    0.268    0.004  117.534   55.323
  388.850   21.522    0.243    0.004  117.531   55.614
  389.100   27.011    0.257    0.007  117.528   57.073
  389.350   38.496    0.279    0.032  117.526   59.699
  389.600   45.752    0.324    0.027  115.299   62.910
  389.850   42.550    0.323    0.087  109.364   66.996
  390.100   30.967    0.381    0.100  113.811   70.498
  390.350   20.958    0.419    0.201  114.550   74.001
  390.600   15.392    0.434    0.220  115.289   78.963
  390.850   12.156    0.436    0.207  113.062   81.881
  391.100   10.418    0.444    0.189  111.577   83.632
  391.350   10.139    0.430    0.176  106.383   82.755
  391.600   10.326    0.425    0.179  105.640   80.418
  391.850   10.709    0.421    0.184  104.896   78.666
  392.100   11.414    0.404    0.166  104.151   76.329
  392.350   12.054    0.364    0.129  104.149   73.117
  392.600   12.616    0.352    0.106  107.113   70.489
  392.850   13.084    0.388    0.129  113.043   70.488
  393.100   13.693    0.422    0.140  113.041   71.654
  393.350   14.201    0.374    0.122  113.038   71.654
  393.600   14.203    0.357    0.104  113.036   73.112
  393.850   13.823    0.410    0.099  113.033   73.987
  394.100   13.951    0.424    0.133  111.547   74.862
  394.350   13.952    0.416    0.142  109.321   76.321
  394.600   13.456    0.440    0.163  110.060   79.531
  394.850   13.457    0.423    0.148  114.506   79.238
  395.100   13.831    0.402    0.131  118.212   77.778
  395.350   13.833    0.394    0.118  117.468   79.236
  395.600   12.748    0.401    0.127  115.241   83.323
  395.850   12.184    0.414    0.144  113.755   88.577
  396.100   11.644    0.421    0.168  113.753   90.911
  396.350   10.732    0.419    0.153  113.751   90.034
  396.600   10.636    0.413    0.161  112.265   89.742
  396.850   11.031    0.394    0.135  113.004   90.616
  397.100   11.336    0.410    0.096  113.743   90.907
  397.350   11.757    0.419    0.082  113.741   87.111
  397.600   12.530    0.402    0.095  113.738   80.104
  397.850   13.114    0.395    0.080  113.736   77.183
  398.100   13.356    0.400    0.110  113.733   77.766
  398.350   12.881    0.426    0.134  112.989   80.393
  398.600   11.871    0.448    0.153  112.987   83.895
  398.850   11.765    0.454    0.137  112.985   83.310
  399.100   11.766    0.471    0.118  112.241   80.390
  399.350   11.043    0.474    0.143  111.497   79.513
  399.600   10.845    0.438    0.161  111.494   82.723
  399.850   11.248    0.413    0.134  111.491   83.598
  400.100   11.560    0.399    0.104  110.748   81.262
  400.350   11.667    0.433    0.134  110.004   81.553
  400.600   11.563    0.443    0.145  110.002   84.763
  400.850   11.564    0.439    0.154  115.931   85.638
  401.100   11.566    0.438    0.127  119.637   85.345
  401.350   11.567    0.437    0.115  120.376   85.636
  401.600   11.674    0.436    0.107  120.373   86.219
  401.850   11.997    0.438    0.111  119.629   84.758
  402.100   11.890    0.448    0.092  118.885   88.261
  402.350   11.058    0.458    0.136  118.883   92.347
  402.600   10.569    0.461    0.192  118.880   91.762
  402.850   10.009    0.452    0.183  118.878   90.010
  403.100    9.830    0.444    0.168  118.876   87.965
  403.350   10.011    0.425    0.128  118.873   83.001
  403.600   10.767    0.384    0.087  118.871   79.205
  403.850   11.066    0.374    0.021  118.127   80.955
  404.100   11.168    0.400    0.028  118.124   85.918
  404.350   11.271    0.431    0.051  118.863   92.339
  404.600   11.273    0.457    0.127  118.861   94.674
  404.850   11.071    0.447    0.127  118.858   95.257
  405.100   10.390    0.439    0.134  118.856   92.920
  405.350   10.112    0.425    0.125  118.853   91.168
  405.600   10.022    0.417    0.088  118.851   90.291
  405.850    9.932    0.408    0.098  118.849   89.706
  406.100   10.024    0.418    0.090  118.846   89.705
  406.350   10.116    0.433    0.134  119.585   92.040
  406.600   10.118    0.420    0.118  119.583   93.790
  406.850   10.119    0.413    0.116  118.839   92.622
  407.100    9.938    0.410    0.100  118.837   90.577
  407.350    9.585    0.420    0.107  119.576   88.825
  407.600    9.244    0.434    0.142  120.315   90.283
  407.850    9.161    0.452    0.130  120.313   92.618
  408.100    9.588    0.447    0.131  121.051   93.201
  408.350   10.501    0.409    0.132  121.790   89.988
  408.600   11.396    0.370    0.090  120.305   88.236
  408.850   12.481    0.321    0.068  114.370   87.067
  409.100   12.827    0.359    0.143  109.919   90.278
  409.350   12.713    0.376    0.167  108.433   95.240
  409.600   12.149    0.391    0.136  110.656  102.537
  409.850   11.612    0.399    0.149  109.912  105.455
  410.100   11.508    0.401    0.146  107.685  104.287
  410.350   12.044    0.402    0.133  110.648  103.994
  410.600   13.311    0.385    0.120  116.578  103.993
  410.850   15.964    0.353    0.084  118.059  101.073
