~VERSION INFORMATION
 VERS.                 2.0:   CWLS LOG ASCII STANDARD -VERSION 2.0
 WRAP.                  NO:   ONE LINE PER DEPTH STEP
~WELL INFORMATION BLOCK
#MNEM.UNIT           DATA                    DESCRIPTION OF MNEMONIC
#---------    -------------------            -------------------------------
# Generated from Intellog Unique Number	CW_70_72/WELL/199
NULL.         -999.25                        : NULL_VALUE
WELL.         GULF NORCEN MITSUE 02-36       : Well_name    - WELL              
LOC .         02-36-072-04W5                 : Location     - LOCATION          
UWI .         00/02-36-072-04W5/0            : Uwi          - UNIQUE WELL ID    
ENTR.         JAYE                           : Entered      - ENTERED BY        
SRVC.         COMPUTALOG                     : Scn          - SERVICE COMPANY   
DATE.         20 JAN 83                      : Date         - LOG DATE          
STRT.M        375                            : top_depth    - START DEPTH       
STOP.M        580                            : bot_depth    - STOP DEPTH        
STEP.M        0.25                           : increment    - STEP LENGTH       
~CURVE INFORMATION BLOCK
#MNEM UNIT       ERCB CURVE CODE    CURVE DESCRIPTION
#-----------   ------------------   ----------------------------------
DEPT.M        00 001 00 00         : DEPTH        - DEPTH                       
DPHI.V/V      00 890 00 00         : PHID         - DENSITY POROSITY (SANDSTONE)
NPHI.V/V      00 330 00 00         : PHIN         - NEUTRON POROSITY (SANDSTONE)
GR  .API      00 310 00 00         : GR           - GAMMA RAY                   
CALI.MM       00 280 01 00         : CAL          - CALIPER                     
ILD .OHMM     00 120 00 00         : RESD         - DEEP RESISTIVITY (DIL)      
~PARAMETER INFORMATION       
#MNEM.UNIT           DATA             DESCRIPTION OF MNEMONIC
#---------         -----------     ------------------------------
GL  .M        588.1                : gl           - GROUND LEVEL ELEVATION      
EREF.M        592.9                : kb           - ELEVATION OF DEPTH REFERENCE
DATM.M        588.1                : datum        - DATUM ELEVATION             
TDD .M        1647                 : tdd          - TOTAL DEPTH DRILLER         
RUN .         ONE                  : Run          - RUN NUMBER                  
ENG .         AASLAND              : Engineer     - RECORDING ENGINEER          
WIT .         FITZGERALD           : Witness      - WITNESSED BY                
BASE.         EDM                  : Branch       - HOME BASE OF LOGGING UNIT   
MUD .         GEL CHEM             : Mud_type     - MUD TYPE                    
MATR.         SANDSTONE            : Logunit      - NEUTRON MATRIX              
TMAX.C        52                   : BHT          - MAXIMUM RECORDED TEMPERATURE
BHTD.M        1645.6               : BHTDEP       - MAXIMUM RECORDED TEMPERATURE
RMT .C        21                   : MDTP         - TEMPERATURE OF MUD          
MUDD.KG/M     1100                 : MWT          - MUD DENSITY                 
NEUT.         1                    : NEUTRON      - NEUTRON TYPE                
RESI.         0                    : RESIST       - RESISTIVITY TYPE            
RM  .OHMM     0.37                 : RM           - RESISTIVITY OF MUD          
RMC .OHMM     0.38                 : RMC          - RESISTIVITY OF MUD CAKE     
RMF .OHMM     0.34                 : RMF          - RESISTIVITY OF MUD FILTRATE 
SUFT.C        0                    : SUFT         - SURFACE TEMPERATURE         
~A  DEPTH     PHID     PHIN       GR      CAL     RESD
# ...
  448.000    0.281    0.464   59.432  228.850    7.277
  448.250    0.281    0.452   59.005  227.305    9.091
  448.500    0.253    0.437   55.762  233.060   11.100
  448.750    0.159    0.215   54.522  236.209   12.041
  449.000    0.107    0.158   55.659  231.118   10.173
  449.250    0.035    0.144   56.546  235.203    8.055
  449.500    0.056    0.151   56.621  239.603    5.989
  449.750    0.082    0.191   55.818  239.621    4.760
  450.000    0.134    0.248   53.891  242.770    4.099
  450.250    0.257    0.346   52.336  242.266    3.450
  450.500    0.307    0.422   51.033  231.855    3.146
  450.750    0.309    0.436   50.608  222.800    3.033
  451.000    0.308    0.431   50.744  220.418    3.013
  451.250    0.309    0.424   51.005  220.440    3.005
  451.500    0.319    0.433   51.391  221.397    2.986
  451.750    0.315    0.443   51.715  225.064    2.978
  452.000    0.313    0.432   52.040  226.336    2.970
  452.250    0.312    0.427   52.427  223.537    2.980
  452.500    0.312    0.436   52.751  224.080    2.978
  452.750    0.312    0.452   53.388  226.705    2.993
  453.000    0.310    0.455   54.150  233.712    3.048
  453.250    0.296    0.452   52.283  239.468    3.135
  453.500    0.284    0.449   52.672  238.235    3.292
  453.750    0.263    0.445   53.559  236.376    3.444
  454.000    0.246    0.441   54.758  239.733    3.617
  454.250    0.243    0.432   56.835  242.672    3.754
  454.500    0.232    0.426   59.350  242.273    3.831
  454.750    0.209    0.421   60.925  249.281    3.799
  455.000    0.188    0.401   62.563  251.491    3.711
  455.250    0.186    0.409   63.639  252.660    3.590
  455.500    0.197    0.421   62.524  253.616    3.441
  455.750    0.224    0.427   61.095  253.633    3.329
  456.000    0.250    0.432   59.606  248.123    3.245
  456.250    0.278    0.427   59.116  237.815    3.193
  456.500    0.294    0.428   58.628  237.104    3.179
  456.750    0.298    0.439   58.141  238.275    3.213
  457.000    0.297    0.435   58.023  239.228    3.273
  457.250    0.294    0.437   58.159  240.708    3.335
  457.500    0.292    0.446   58.797  241.560    3.402
  457.750    0.288    0.459   59.058  242.622    3.519
  458.000    0.279    0.446   59.194  246.187    3.667
  458.250    0.265    0.421   59.770  248.816    3.865
  458.500    0.217    0.418   60.657  249.667    4.067
  458.750    0.194    0.438   63.296  253.858    4.239
  459.000    0.198    0.433   65.373  259.510    4.309
  459.250    0.207    0.412   64.696  261.304    4.274
  459.500    0.216    0.397   65.145  263.094    4.033
  459.750    0.224    0.396   63.717  265.615    3.931
  460.000    0.244    0.429   62.413  263.653    3.936
  460.250    0.259    0.433   64.492  257.308    3.964
  460.500    0.245    0.423   68.070  250.444    3.969
  460.750    0.242    0.441   73.837  245.769    3.877
  461.000    0.269    0.457   69.156  241.720    3.808
  461.250    0.286    0.464   61.532  237.776    3.726
  461.500    0.292    0.441   50.590  237.167    3.646
  461.750    0.276    0.416   50.853  238.542    3.569
  462.000    0.257    0.427   53.868  244.821    3.518
  462.250    0.232    0.441   58.448  247.549    3.437
  462.500    0.256    0.455   62.277  245.900    3.356
  462.750    0.286    0.453   60.285  241.434    3.254
  463.000    0.316    0.454   52.035  237.802    3.190
  463.250    0.327    0.456   50.359  234.274    3.133
  463.500    0.317    0.443   50.369  233.146    3.101
  463.750    0.310    0.438   50.630  232.853    3.087
  464.000    0.304    0.449   51.267  234.748    3.080
  464.250    0.302    0.437   51.841  237.897    3.077
  464.500    0.304    0.430   52.730  240.940    3.099
  464.750    0.308    0.456   53.491  239.709    3.121
  465.000    0.314    0.486   54.004  235.451    3.137
  465.250    0.330    0.497   47.318  236.408    3.134
  465.500    0.347    0.470   50.083  242.788    3.144
  465.750    0.341    0.459   54.162  241.659    3.154
  466.000    0.321    0.451   57.740  250.335    3.188
  466.250    0.300    0.451   59.506  245.555    3.241
  466.500    0.287    0.442   59.891  238.795    3.314
  466.750    0.279    0.435   60.278  237.979    3.382
  467.000    0.280    0.440   63.106  236.016    3.418
  467.250    0.293    0.428   60.926  235.826    3.416
  467.500    0.302    0.432   53.553  237.933    3.413
  467.750    0.306    0.451   54.503  253.909    3.399
  468.000    0.301    0.442   57.267  246.418    3.429
  468.250    0.292    0.450   60.721  245.082    3.580
  468.500    0.284    0.453   63.236  245.518    3.825
  468.750    0.273    0.453   59.053  242.824    4.086
  469.000    0.259    0.431   58.565  252.022    4.373
  469.250    0.227    0.402   59.702  250.997    4.664
  469.500    0.224    0.379   55.896  247.473    5.001
  469.750    0.239    0.377   49.711  247.175    5.231
  470.000    0.240    0.380   48.034  246.675    5.319
  470.250    0.236    0.381   49.108  245.441    5.285
  470.500    0.232    0.383   51.061  245.041    5.281
  470.750    0.230    0.387   52.322  244.748    5.159
  471.000    0.228    0.393   52.585  246.123    4.971
  471.250    0.228    0.409   52.660  246.975    4.782
  471.500    0.231    0.422   52.859  251.583    4.427
  471.750    0.248    0.416   53.495  247.744    3.871
  472.000    0.266    0.414   54.633  247.869    3.265
  472.250    0.281    0.417   55.770  251.848    2.758
  472.500    0.291    0.412   57.910  253.536    2.472
  472.750    0.294    0.411   59.736  252.617    2.246
  473.000    0.286    0.424   64.190  254.200    2.052
  473.250    0.274    0.440   70.834  259.017    1.907
  473.500    0.257    0.466   76.166  268.005    1.759
  473.750    0.248    0.472   73.237  277.725    1.644
  474.000    0.285    0.490   71.682  276.390    1.606
  474.250    0.304    0.518   70.692  277.346    1.845
  474.500    0.312    0.546   69.076  279.033    2.201
  474.750    0.307    0.570   67.523  280.304    2.452
  475.000    0.276    0.463   64.092  274.585    2.686
  475.250    0.265    0.438   59.972  262.504    2.981
  475.500    0.263    0.418   57.543  256.164    3.277
  475.750    0.258    0.435   58.181  257.850    3.383
  476.000    0.250    0.441   61.572  261.936    3.426
  476.250    0.233    0.443   64.586  268.838    3.530
  476.500    0.216    0.442   68.542  275.115    3.727
  476.750    0.201    0.439   69.429  285.668    3.922
  477.000    0.196    0.437   68.500  283.706    3.988
  477.250    0.193    0.438   68.199  281.325    3.984
  477.500    0.193    0.444   67.897  280.822    3.967
  477.750    0.193    0.452   67.596  281.467    3.935
  478.000    0.195    0.456   66.669  283.260    3.947
  478.250    0.182    0.459   66.492  286.511    3.966
  478.500    0.172    0.459   67.756  290.392    3.994
  478.750    0.171    0.456   69.393  294.267    4.014
  479.000    0.175    0.439   71.283  296.688    4.035
  479.250    0.179    0.426   72.297  295.767    4.063
  479.500    0.183    0.427   73.120  291.508    4.099
  479.750    0.196    0.430   72.880  290.173    4.143
  480.000    0.191    0.435   70.201  291.235    4.180
  480.250    0.179    0.442   69.587  294.069    4.178
  480.500    0.170    0.444   68.533  296.487    4.174
  480.750    0.171    0.411   66.229  298.384    4.163
  481.000    0.172    0.409   65.489  299.340    4.168
  481.250    0.172    0.424   67.128  300.193    4.198
  481.500    0.172    0.440   68.766  300.527    4.243
  481.750    0.186    0.440   70.154  299.605    4.265
  482.000    0.201    0.437   69.415  297.641    4.311
  482.250    0.218    0.451   69.113  289.318    4.458
  482.500    0.245    0.448   66.996  281.304    4.708
  482.750    0.272    0.440   61.813  275.377    5.167
  483.000    0.287    0.423   56.693  272.474    5.572
  483.250    0.280    0.410   54.013  271.661    6.161
  483.500    0.263    0.389   53.649  271.683    6.983
  483.750    0.178    0.292   53.410  272.637    7.795
  484.000    0.114    0.268   50.730  274.845    8.668
  484.250    0.093    0.242   48.488  278.411    9.278
