~VERSION INFORMATION
 VERS.                 2.0:   CWLS LOG ASCII STANDARD -VERSION 2.0
 WRAP.                  NO:   ONE LINE PER DEPTH STEP
~WELL INFORMATION BLOCK
#MNEM.UNIT           DATA                    DESCRIPTION OF MNEMONIC
#---------    -------------------            -------------------------------
# Generated from Intellog Unique Number	CS_77_79/WELL/903
WELL.         CANADIAN WORLDWIDE ENERGY      : Well_name    - WELL
LOC .         00/07-22-077-05W4/0            : Location     - LOCATION
UWI .         00/07-22-077-05W4/0            : Uwi          - UNIQUE WELL ID
ENTR.         SP                             : Entered      - ENTERED BY
SRVC.         SCHLUMBERGER                   : Scn          - SERVICE COMPANY
STRT.M        175                            : top_depth    - START DEPTH
STOP.M        425                            : bot_depth    - STOP DEPTH
STEP.M        0.25                           : increment    - STEP LENGTH
 NULL. -999.2500:NULL Value
~CURVE INFORMATION BLOCK
#MNEM UNIT       ERCB CURVE CODE    CURVE DESCRIPTION
#-----------   ------------------   ----------------------------------
DEPT.M        00 001 00 00         : DEPTH        - DEPTH
GR  .API      00 310 00 00         : GR           - GAMMA RAY
DPHI.V/V      00 890 00 00         : PHID         - DENSITY POROSITY (LIMESTONE)
NPHI.V/V      00 330 00 00         : PHIN         - NEUTRON POROSITY (LIMESTONE)
ILD .OHMM     00 120 00 00         : RESD         - DEEP RESISTIVITY (DIL)
~PARAMETER INFORMATION
#MNEM.UNIT           DATA             DESCRIPTION OF MNEMONIC
#---------         -----------     ------------------------------
GL  .M        582                  : gl           - GROUND LEVEL ELEVATION
EREF.M        585                  : kb           - ELEVATION OF DEPTH REFERENCE
DATM.M        582                  : datum        - DATUM ELEVATION
TDD .M        434                  : tdd          - TOTAL DEPTH DRILLER
RUN .         ONE                  : Run          - RUN NUMBER
ENG .         BILL                 : Engineer     - RECORDING ENGINEER
WIT .         JIM                  : Witness      - WITNESSED BY
MUD .         GEL                  : Mud_type     - MUD TYPE
MATR.         LIMESTONE            : Logunit      - NEUTRON MATRIX
TMAX.C        23                   : BHT          - MAXIMUM RECORDED TEMPERATURE
BHTD.M        434                  : BHTDEP       - MAXIMUM RECORDED TEMPERATURE
MATR.         1                    : LOGUNIT      - NEUTRON MATRIX
RMT .C        25                   : MDTP         - TEMPERATURE OF MUD
NEUT.         1                    : NEUTRON      - NEUTRON TYPE
RESI.         0                    : RESIST       - RESISTIVITY TYPE
RMC .OHMM     0.25                 : RMC          - RESISTIVITY OF MUD CAKE
RMF .OHMM     0.25                 : RMF          - RESISTIVITY OF MUD FILTRATE
SUFT.C        15                   : SUFT         - SURFACE TEMPERATURE
~A  DEPTH       GR     PHID     PHIN     RESD
# ...
  392.500   34.694    0.336    0.357    5.629
  392.750   32.218    0.327    0.351    6.301
  393.000   30.989    0.327    0.346    8.200
  393.250   31.624    0.331    0.342   10.087
  393.500   31.640    0.319    0.334   13.127
  393.750   28.544    0.313    0.331   15.546
  394.000   28.562    0.304    0.316   17.073
  394.250   31.687    0.298    0.310   18.054
  394.500   35.437    0.289    0.309   17.708
  394.750   39.185    0.282    0.309   16.100
  395.000   37.344    0.278    0.320   15.496
  395.250   34.879    0.267    0.310   14.913
  395.500   30.557    0.263    0.297   15.473
  395.750   29.331    0.270    0.311   16.057
  396.000   36.827    0.296    0.332   16.358
  396.250   49.301    0.317    0.332   15.741
  396.500   61.150    0.313    0.326   14.046
  396.750   69.267    0.280    0.332   12.300
  397.000   74.899    0.286    0.345   10.771
  397.250   74.301    0.298    0.361    8.913
  397.500   72.459    0.291    0.379    7.954
  397.750   70.616    0.283    0.371    7.371
  398.000   66.284    0.288    0.379    6.829
  398.250   63.821    0.293    0.380    6.571
  398.500   65.713    0.299    0.373    6.324
  398.750   67.606    0.304    0.368    6.086
  399.000   63.895    0.310    0.366    5.857
  399.250   59.564    0.318    0.373    5.745
  399.500   62.081    0.311    0.375    5.962
  399.750   65.844    0.290    0.368    6.071
  400.000   64.627    0.282    0.359    6.067
  400.250   59.678    0.283    0.364    6.179
  400.500   52.852    0.287    0.375    5.945
  400.750   43.539    0.294    0.378    5.613
  401.000   34.852    0.323    0.371    5.403
  401.250   31.144    0.332    0.347    5.007
  401.500   28.683    0.324    0.331    4.728
  401.750   28.705    0.313    0.328    4.465
  402.000   31.229    0.307    0.331    4.297
  402.250   32.491    0.316    0.334    4.213
  402.500   34.389    0.327    0.340    4.210
  402.750   33.173    0.330    0.333    4.207
  403.000   31.335    0.317    0.322    4.206
  403.250   29.485    0.301    0.312    4.203
  403.500   27.641    0.301    0.311    4.122
  403.750   26.427    0.317    0.317    4.277
  404.000   26.446    0.324    0.331    4.609
  404.250   27.726    0.334    0.345    4.875
  404.500   31.481    0.294    0.326    5.155
  404.750   45.819    0.292    0.309    5.351
  405.000   62.651    0.272    0.319    5.552
  405.250   67.657    0.259    0.331    5.654
  405.500   65.823    0.247    0.342    5.651
  405.750   60.862    0.242    0.347    5.646
  406.000   53.419    0.263    0.349    5.644
  406.250   47.841    0.293    0.355    5.640
  406.500   46.628    0.312    0.363    5.743
  406.750   50.386    0.303    0.360    5.959
  407.000   57.252    0.273    0.346    6.070
  407.250   61.637    0.256    0.331    6.792
  407.500   62.912    0.247    0.320    7.050
  407.750   66.045    0.243    0.323    7.598
  408.000   72.292    0.231    0.318    8.187
  408.250   74.818    0.224    0.316    8.657
  408.500   74.834    0.214    0.316    8.819
  408.750   74.864    0.223    0.318    9.152
  409.000   73.025    0.211    0.325    9.145
  409.250   68.070    0.211    0.328    9.139
  409.500   58.135    0.221    0.331    8.961
  409.750   57.541    0.226    0.319    8.956
  410.000   60.676    0.218    0.312    8.952
  410.250   66.306    0.213    0.313    9.116
  410.500   73.797    0.210    0.319    9.109
  410.750   76.933    0.210    0.332    8.767
  411.000   68.251    0.225    0.342    7.824
  411.250   52.090    0.245    0.346    6.596
  411.500   37.809    0.267    0.345    6.349
  411.750   32.226    0.288    0.337    5.883
  412.000   32.258    0.298    0.330    5.556
  412.250   40.370    0.268    0.325    5.345
  412.500   45.999    0.256    0.322    5.243
  412.750   40.422    0.287    0.330    5.140
  413.000   30.488    0.318    0.350    5.041
  413.250   24.291    0.338    0.364    5.038
  413.500   25.568    0.331    0.384    4.941
  413.750   25.591    0.323    0.380    4.665
  414.000   23.747    0.322    0.347    4.576
  414.250   21.287    0.318    0.337    4.321
  414.500   18.824    0.306    0.326    4.157
  414.750   17.604    0.314    0.321    4.156
  415.000   16.387    0.335    0.329    4.076
  415.250   35.080    0.351    0.346    3.996
  415.500   68.709    0.356    0.360    3.994
  415.750  111.061    0.357    0.362    4.144
  416.000  129.758    0.237    0.363    4.222
  416.250  131.024    0.190    0.372    4.550
  416.500  129.181    0.152    0.439    4.996
  416.750  124.864    0.125    0.484    5.383
  417.000  123.632    0.171    0.507    5.483
  417.250  123.663    0.243    0.509    5.584
  417.500  128.052    0.316    0.508    5.477
  417.750  133.045    0.268    0.508    5.171
  418.000  134.328    0.208    0.510    5.072
  418.250  133.721    0.221    0.528    4.973
  418.500  133.125    0.255    0.545    5.065
  418.750  129.419    0.296    0.556    5.458
  419.000  113.883    0.312    0.497    5.881
  419.250  112.666    0.280    0.449    6.222
  419.500  108.954    0.192    0.320    7.094
  419.750   94.043    0.140    0.307    7.791
  420.000   41.171    0.114    0.316    8.720
  420.250   29.996    0.015    0.324   10.136
  420.500   24.418    0.027    0.322   12.003
  420.750   21.954    0.082    0.301   14.216
  421.000   21.355    0.114    0.258   16.522
  421.250   22.635    0.104    0.220   19.568
  421.500   23.273    0.079    0.193   24.521
  421.750   26.414    0.062    0.181   28.501
  422.000   28.304    0.050    0.183   32.510
  422.250   31.451    0.039    0.178   39.230
  422.500   32.094    0.004    0.171   42.283
  422.750   30.248    0.001    0.171   43.882
  423.000   22.187    0.018    0.179   43.030
  423.250   17.857    0.036    0.190   41.409
  423.500   16.637    0.051    0.191   40.611
  423.750   16.673    0.061    0.187   39.827
  424.000   17.311    0.067    0.182   39.051
  424.250   19.833    0.071    0.177   37.583
  424.500   21.094    0.073    0.178   36.859
  424.750   24.858    0.064    0.188   36.144
  425.000   28.625    0.053    0.198   35.443
