~VERSION INFORMATION
 VERS.                 2.0:   CWLS LOG ASCII STANDARD -VERSION 2.0
 WRAP.                  NO:   ONE LINE PER DEPTH STEP
~WELL INFORMATION BLOCK
#MNEM.UNIT           DATA                    DESCRIPTION OF MNEMONIC
#---------    -------------------            -------------------------------
# Generated from Intellog Unique Number	CC_84_87/WELL/1174
NULL.         -999.25                        : NULL_VALUE
WELL.         NOVALTA NEWBY                  : Well_name    - WELL              
LOC .         09-04-084-04W4                 : Location     - LOCATION          
UWI .         00/09-04-084-04W400            : Uwi          - UNIQUE WELL ID    
ENTR.         JHS                            : Entered      - ENTERED BY        
SRVC.         SCHLUMBERGER                   : Scn          - SERVICE COMPANY   
DATE.         09 JAN 85                      : Date         - LOG DATE
STRT.M        65                             : top_depth    - START DEPTH       
STOP.M        299.9                          : bot_depth    - STOP DEPTH        
STEP.M        0.3                            : increment    - STEP LENGTH       
~CURVE INFORMATION BLOCK
#MNEM UNIT       ERCB CURVE CODE    CURVE DESCRIPTION
#-----------   ------------------   ----------------------------------
DEPT.M        00 001 00 00         : DEPTH        - DEPTH                       
DPHI.V/V      00 890 00 00         : PHID         - DENSITY POROSITY (LIMESTONE)
NPHI.V/V      00 330 00 00         : PHIN         - NEUTRON POROSITY (LIMESTONE)
GR  .API      00 310 00 00         : GR           - GAMMA RAY                   
ILD .OHMM     00 120 00 00         : RESD         - DEEP RESISTIVITY (DIL)      
~PARAMETER INFORMATION       
#MNEM.UNIT           DATA             DESCRIPTION OF MNEMONIC
#---------         -----------     ------------------------------
GL  .M        474.5                : gl           - GROUND LEVEL ELEVATION      
EREF.M        477.5                : kb           - ELEVATION OF DEPTH REFERENCE
DATM.M        477.5                : datum        - DATUM ELEVATION             
TDD .M        308                  : tdd          - TOTAL DEPTH DRILLER         
RUN .         ONE                  : Run          - RUN NUMBER                  
ENG .         BILL                 : Engineer     - RECORDING ENGINEER          
WIT .         JIM                  : Witness      - WITNESSED BY                
MUD .         GEL                  : Mud_type     - MUD TYPE                    
MATR.         LIMESTONE            : Logunit      - NEUTRON MATRIX              
TMAX.C        21                   : BHT          - MAXIMUM RECORDED TEMPERATURE
BHTD.M        308                  : BHTDEP       - MAXIMUM RECORDED TEMPERATURE
MATR.         1                    : LOGUNIT      - NEUTRON MATRIX              
RMT .C        25                   : MDTP         - TEMPERATURE OF MUD          
NEUT.         1                    : NEUTRON      - NEUTRON TYPE                
RESI.         0                    : RESIST       - RESISTIVITY TYPE            
RMC .OHMM     0.25                 : RMC          - RESISTIVITY OF MUD CAKE     
RMF .OHMM     0.25                 : RMF          - RESISTIVITY OF MUD FILTRATE 
SUFT.C        15                   : SUFT         - SURFACE TEMPERATURE         
~A  DEPTH     PHID     PHIN       GR     RESD
# ...
  169.401    0.269    0.477  102.674    3.852
  169.701    0.271    0.473  100.225    3.925
  170.001    0.273    0.480  103.350    3.997
  170.301    0.267    0.490  106.474    4.073
  170.601    0.272    0.483   99.066    4.310
  170.901    0.299    0.469   93.514    4.828
  171.201    0.304    0.447   89.207    5.013
  171.501    0.291    0.447   87.374    4.470
  171.801    0.287    0.528   91.739    3.624
  172.101    0.292    0.525   99.826    3.294
  172.401    0.288    0.505  102.329    3.292
  172.701    0.280    0.459   99.261    3.980
  173.001    0.258    0.425   96.186    4.632
  173.301    0.246    0.422   99.315    5.600
  173.601    0.242    0.398   94.384    6.395
  173.901    0.262    0.382   86.355    7.030
  174.201    0.331    0.405   80.804    7.582
  174.501    0.341    0.426   78.972    7.578
  174.801    0.341    0.439   80.861    7.572
  175.101    0.338    0.441   85.845    7.427
  175.401    0.333    0.427   86.498    7.284
  175.701    0.329    0.448   84.044    7.008
  176.001    0.323    0.456   80.973    6.873
  176.301    0.333    0.452   77.281    6.741
  176.601    0.328    0.444   76.068    6.736
  176.901    0.281    0.420   73.001    6.733
  177.201    0.280    0.411   70.553    6.730
  177.501    0.324    0.418   70.576    6.600
  177.801    0.320    0.429   73.082    6.597
  178.101    0.303    0.427   74.349    6.469
  178.401    0.251    0.404   74.379    6.466
  178.701    0.181    0.444   78.742    6.221
  179.001    0.228    0.456   95.505    6.218
  179.301    0.251    0.458   98.636    6.098
  179.601    0.253    0.456  101.146    6.095
  179.901    0.265    0.453  101.788    5.977
  180.201    0.273    0.443   96.856    5.974
  180.501    0.270    0.430   95.034    6.085
  180.801    0.264    0.437   95.052    6.200
  181.101    0.275    0.434   97.565    6.079
  181.401    0.284    0.421   98.830    6.077
  181.701    0.289    0.403   96.381    5.847
  182.001    0.284    0.432   97.650    5.626
  182.301    0.271    0.488   99.532    5.311
  182.601    0.287    0.530   97.707    3.362
  182.901    0.316    0.534   94.630    2.575
  183.201    0.320    0.540   86.598    2.340
  183.501    0.315    0.541   84.151    2.208
  183.801    0.313    0.520   86.654    2.250
  184.101    0.300    0.494   92.261    2.473
  184.401    0.287    0.478   88.572    2.719
  184.701    0.285    0.450   86.742    3.350
  185.001    0.280    0.438   88.628    3.754
  185.301    0.264    0.435   89.892    4.205
  185.601    0.253    0.432   90.541    4.366
  185.901    0.248    0.413   90.567    4.448
  186.201    0.246    0.404   88.117    4.617
  186.501    0.250    0.397   88.764    4.529
  186.801    0.258    0.440   93.750    4.195
  187.101    0.264    0.461   95.019    3.741
  187.401    0.271    0.496  100.624    3.272
  187.701    0.277    0.496  106.849    3.208
  188.001    0.279    0.455  103.159    3.147
  188.301    0.274    0.466   93.889    3.145
  188.601    0.277    0.488   92.679    3.144
  188.901    0.278    0.508   96.424    3.083
  189.201    0.271    0.495   98.313    3.081
  189.501    0.265    0.451   95.245    3.080
  189.801    0.261    0.454   94.042    3.137
  190.101    0.270    0.480   94.060    3.136
  190.401    0.284    0.488   97.188    3.134
  190.701    0.277    0.474   95.976    3.016
  191.001    0.269    0.479   96.002    2.902
  191.301    0.267    0.517   97.895    2.900
  191.601    0.264    0.487   99.154    2.954
  191.901    0.266    0.475  101.045    3.010
  192.201    0.264    0.460   96.111    3.185
  192.501    0.260    0.444   91.803    3.371
  192.801    0.252    0.431   89.356    3.567
  193.101    0.259    0.445   88.760    3.847
  193.401    0.257    0.455   94.368    3.918
  193.701    0.250    0.451   95.632    3.917
  194.001    0.235    0.425   95.042    3.915
  194.301    0.223    0.399   95.690    3.988
  194.601    0.218    0.419   94.476    4.141
  194.901    0.235    0.385   96.362    4.552
  195.201    0.270    0.333   79.040    5.504
  195.501    0.375    0.168   69.767    7.459
  195.801    0.412    0.091   51.820    9.731
  196.101    0.418    0.060   38.833   13.963
  196.401    0.408    0.060   30.806   25.658
  196.701    0.400    0.080   32.081   32.224
  197.001    0.386    0.128   35.826   30.421
  197.301    0.380    0.154   38.946   27.645
  197.601    0.383    0.159   44.566   21.576
  197.901    0.378    0.137   46.438   18.874
  198.201    0.368    0.132   48.324   18.508
  198.501    0.351    0.159   54.556   16.194
  198.801    0.337    0.200   60.779   11.712
  199.101    0.301    0.227   70.103    8.471
  199.401    0.231    0.390   91.822    6.611
  199.701    0.221    0.382  101.149    5.675
  200.001    0.217    0.405   97.463    5.256
  200.301    0.223    0.406   95.624    5.354
  200.601    0.237    0.393   93.173    5.559
  200.901    0.249    0.368   87.626    5.996
  201.201    0.262    0.328   80.213    6.978
  201.501    0.300    0.286   70.324    7.246
  201.801    0.297    0.250   64.776    7.106
  202.101    0.276    0.318   69.766    5.984
  202.401    0.262    0.340   85.285    5.649
  202.701    0.271    0.345   82.213    5.646
  203.001    0.230    0.392   84.100    5.862
  203.301    0.230    0.365   92.185    6.087
  203.601    0.255    0.317   87.256    5.969
  203.901    0.302    0.295   78.606    5.743
  204.201    0.278    0.307   78.633    5.219
  204.501    0.244    0.328   81.766    4.743
  204.801    0.215    0.366   84.271    4.150
  205.101    0.270    0.376   78.096    3.495
  205.401    0.304    0.335   58.291    2.833
  205.701    0.295    0.306   60.801    2.432
  206.001    0.266    0.327   75.701    2.431
  206.301    0.279    0.413   76.971    2.339
  206.601    0.311    0.383   67.079    2.166
  206.901    0.334    0.338   36.117    2.084
  207.201    0.336    0.325   36.148    2.206
  207.501    0.318    0.317   43.613    2.471
  207.801    0.274    0.333   58.517    2.769
  208.101    0.235    0.353   83.955    3.102
  208.401    0.238    0.357   87.701    3.283
  208.701    0.262    0.340   82.154    2.872
  209.001    0.288    0.337   68.541    2.465
  209.301    0.297    0.355   49.358    2.240
  209.601    0.294    0.346   50.005    2.282
  209.901    0.293    0.323   52.509    2.370
  210.201    0.289    0.319   58.740    2.605
  210.501    0.268    0.328   65.583    2.757
  210.801    0.246    0.346   73.047    3.088
  211.101    0.249    0.355   76.796    3.087
  211.401    0.263    0.341   75.588    2.970
  211.701    0.265    0.336   70.654    2.699
  212.001    0.280    0.341   68.823    2.500
  212.301    0.293    0.352   66.369    2.229
  212.602    0.320    0.356   62.060    2.186
  212.902    0.296    0.358   62.709    2.185
  213.202    0.292    0.374   71.412    2.102
  213.502    0.320    0.349   65.860    1.985
  213.802    0.324    0.328   41.716    1.874
  214.102    0.321    0.324   49.181    1.803
  214.402    0.329    0.323   57.886    1.802
  214.702    0.327    0.319   49.859    1.801
  215.002    0.324    0.328   39.968    1.834
  215.302    0.324    0.329   45.579    1.869
  215.602    0.313    0.325   53.661    1.904
  215.902    0.299    0.339   55.546    2.053
  216.202    0.281    0.343   59.297    2.257
  216.502    0.274    0.346   64.901    2.389
  216.802    0.281    0.362   66.786    2.433
  217.102    0.283    0.370   62.482    2.479
  217.402    0.277    0.357   63.126    2.431
  217.702    0.270    0.347   66.257    2.384
  218.002    0.270    0.348   65.043    2.250
  218.302    0.316    0.356   58.871    2.165
  218.602    0.317    0.369   52.700    2.006
  218.902    0.309    0.361   55.825    2.004
  219.202    0.302    0.342   55.236    2.081
  219.502    0.299    0.332   60.843    2.202
  219.802    0.292    0.349   67.067    2.244
  220.102    0.321    0.355   71.435    2.200
  220.402    0.329    0.355   65.883    2.038
  220.702    0.322    0.349   54.134    1.998
  221.002    0.308    0.339   54.163    2.075
  221.302    0.292    0.328   58.528    2.196
