~VERSION INFORMATION
 VERS.                 2.0:   CWLS LOG ASCII STANDARD -VERSION 2.0
 WRAP.                  NO:   ONE LINE PER DEPTH STEP
~WELL INFORMATION BLOCK
#MNEM.UNIT           DATA                    DESCRIPTION OF MNEMONIC
#---------    -------------------            -------------------------------
# Generated from Intellog Unique Number	CS_73_76/WELL/2016
WELL.         09-29-073-07W4                 : Well_name    - WELL
LOC .         AA/09-29-073-07W4/0            : Location     - LOCATION
UWI .         AA/09-29-073-07W4/0            : Uwi          - UNIQUE WELL ID
ENTR.         TIM                            : Entered      - ENTERED BY
SRVC.         SCHLUMBERGER                   : Scn          - SERVICE COMPANY
STRT.M        360                            : top_depth    - START DEPTH
STOP.M        595                            : bot_depth    - STOP DEPTH
STEP.M        0.25                           : increment    - STEP LENGTH
 NULL. -999.2500:NULL Value
~CURVE INFORMATION BLOCK
#MNEM UNIT       ERCB CURVE CODE    CURVE DESCRIPTION
#-----------   ------------------   ----------------------------------
DEPT.M        00 001 00 00         : DEPTH        - DEPTH
NPHI.V/V      00 330 00 00         : PHIN         - NEUTRON POROSITY (SANDSTONE)
DPHI.V/V      00 890 00 00         : PHID         - DENSITY POROSITY (SANDSTONE)
GR  .API      00 310 00 00         : GR           - GAMMA RAY
ILD .OHMM     00 120 00 00         : RESD         - DEEP RESISTIVITY (DIL)
CALI.MM       00 280 01 00         : CAL          - CALIPER
~PARAMETER INFORMATION
#MNEM.UNIT           DATA             DESCRIPTION OF MNEMONIC
#---------         -----------     ------------------------------
GL  .M        727.6                : gl           - GROUND LEVEL ELEVATION
EREF.M        731.5                : kb           - ELEVATION OF DEPTH REFERENCE
DATM.M        731.5                : datum        - DATUM ELEVATION
TDD .M        602                  : tdd          - TOTAL DEPTH DRILLER
RUN .         ONE                  : Run          - RUN NUMBER
ENG .         BILL                 : Engineer     - RECORDING ENGINEER
WIT .         JIM                  : Witness      - WITNESSED BY
MUD .         GEL                  : Mud_type     - MUD TYPE
MATR.         SANDSTONE            : Logunit      - NEUTRON MATRIX
TMAX.C        23                   : BHT          - MAXIMUM RECORDED TEMPERATURE
BHTD.M        602                  : BHTDEP       - MAXIMUM RECORDED TEMPERATURE
RMT .C        22                   : MDTP         - TEMPERATURE OF MUD
MUDD.KG/M     1090                 : MWT          - MUD DENSITY
NEUT.         1                    : NEUTRON      - NEUTRON TYPE
RESI.         0                    : RESIST       - RESISTIVITY TYPE
RM  .OHMM     6.09                 : RM           - RESISTIVITY OF MUD
RMC .OHMM     7.05                 : RMC          - RESISTIVITY OF MUD CAKE
RMF .OHMM     7.05                 : RMF          - RESISTIVITY OF MUD FILTRATE
SUFT.C        4                    : SUFT         - SURFACE TEMPERATURE
~A  DEPTH     PHIN     PHID       GR     RESD      CAL
# ...
  506.000    0.412    0.211   84.396    5.501  244.324
  506.250    0.415    0.216   86.830    5.402  248.378
  506.500    0.439    0.223   83.166    5.017  252.435
  506.750    0.470    0.231   76.455    4.405  258.521
  507.000    0.474    0.242   73.401    3.727  263.591
  507.250    0.480    0.254   70.345    3.334  270.691
  507.500    0.509    0.273   69.732    3.154  277.796
  507.750    0.544    0.305   69.115    2.930  281.850
  508.000    0.555    0.302   68.499    2.771  286.918
  508.250    0.548    0.285   69.105    2.671  290.973
  508.500    0.524    0.293   69.709    2.624  290.966
  508.750    0.475    0.298   71.532    2.675  281.812
  509.000    0.465    0.298   72.746    2.728  274.691
  509.250    0.486    0.279   73.959    2.780  273.663
  509.500    0.546    0.265   73.952    2.834  275.685
  509.750    0.524    0.259   73.946    2.889  279.739
  510.000    0.527    0.251   74.550    3.001  280.743
  510.250    0.532    0.248   75.152    3.176  280.729
  510.500    0.507    0.253   75.755    3.361  280.722
  510.750    0.474    0.249   75.752    3.557  280.717
  511.000    0.463    0.243   75.135    3.626  281.723
  511.250    0.445    0.238   75.129    3.983  285.773
  511.500    0.445    0.237   75.122    4.294  286.784
  511.750    0.447    0.239   75.119    5.277  289.820
  512.000    0.424    0.249   73.894    6.483  290.827
  512.250    0.416    0.266   68.402    8.115  285.739
  512.500    0.440    0.306   59.861   10.349  272.522
  512.750    0.451    0.326   54.980   14.222  260.320
  513.000    0.456    0.337   50.707   18.828  257.263
  513.250    0.456    0.339   50.700   23.572  251.157
  513.500    0.427    0.337   51.914   26.882  248.097
  513.750    0.418    0.338   53.737   27.921  247.072
  514.000    0.450    0.343   53.730   29.001  247.065
  514.250    0.463    0.347   52.505   30.122  247.055
  514.500    0.430    0.348   51.280   31.287  249.075
  514.750    0.424    0.349   50.664   32.497  249.068
  515.000    0.428    0.349   50.661   33.130  251.090
  515.250    0.429    0.350   51.265   33.156  253.110
  515.500    0.417    0.348   51.868   32.553  254.119
  515.750    0.405    0.347   52.472   31.971  257.150
  516.000    0.399    0.345   51.855   30.819  258.161
  516.250    0.411    0.349   50.629   30.838  260.184
  516.500    0.440    0.347   50.017   33.249  262.209
  516.750    0.461    0.343   48.792   39.353  263.215
  517.000    0.474    0.338   48.786   48.358  265.237
  517.250    0.479    0.302   49.390   52.130  266.244
  517.500    0.425    0.232   49.383   54.146  268.264
  517.750    0.326    0.179   48.158   52.211  270.288
  518.000    0.247    0.155   45.104   50.322  275.354
  518.250    0.225    0.145   42.660   47.604  277.381
  518.500    0.310    0.208   45.702   42.595  280.417
  518.750    0.365    0.240   48.135   40.294  281.424
  519.000    0.406    0.342   50.566   36.049  284.462
  519.250    0.422    0.343   51.170   33.477  287.500
  519.500    0.430    0.340   51.164   31.674  291.555
  519.750    0.441    0.335   50.548   31.693  295.604
  520.000    0.442    0.340   50.544   32.310  298.647
  520.250    0.431    0.349   51.148   33.565  302.699
  520.500    0.421    0.346   52.361   34.218  304.724
  520.750    0.421    0.342   54.184   32.990  308.776
  521.000    0.426    0.340   54.179   31.797  309.785
  521.250    0.430    0.341   51.735   30.089  313.835
  521.500    0.425    0.346   49.899   28.473  315.862
  521.750    0.422    0.346   52.331   27.959  319.911
  522.000    0.424    0.348   55.373   27.972  320.920
  522.250    0.432    0.354   54.758   27.990  322.945
  522.500    0.443    0.353   52.922   28.007  324.967
  522.750    0.442    0.346   52.308   28.029  326.990
  523.000    0.430    0.340   51.693   28.575  327.996
  523.250    0.421    0.336   51.079   29.131  330.016
  523.500    0.427    0.329   51.681   29.694  331.025
  523.750    0.437    0.322   52.285   29.717  333.047
  524.000    0.437    0.324   52.891   29.735  335.070
  524.250    0.429    0.329   53.493   29.758  336.076
  524.500    0.431    0.334   53.486   29.772  339.114
  524.750    0.448    0.334   53.481   29.786  341.137
  525.000    0.449    0.334   53.477   28.717  344.175
  525.250    0.459    0.339   54.079   27.682  347.214
  525.500    0.464    0.347   54.683   26.689  350.252
  525.750    0.438    0.357   55.897   26.212  353.290
  526.000    0.429    0.359   55.891   25.735  357.345
  526.250    0.421    0.355   54.056   25.275  362.413
  526.500    0.426    0.340   53.441   24.831  366.467
  526.750    0.442    0.330   52.216   24.383  369.508
  527.000    0.423    0.325   51.601   23.508  373.560
  527.250    0.411    0.345   51.595   23.081  376.601
  527.500    0.394    0.346   52.808   21.837  379.637
  527.750    0.401    0.341   53.412   21.454  382.673
  528.000    0.417    0.323   55.232   21.460  383.684
  528.250    0.423    0.321   55.839   21.477  385.706
  528.500    0.428    0.324   56.443   21.494  387.726
  528.750    0.429    0.334   55.826   21.500  388.733
  529.000    0.425    0.343   55.212   21.922  389.739
  529.250    0.417    0.343   54.596   22.353  389.732
  529.500    0.407    0.339   53.980   22.360  390.736
  529.750    0.396    0.334   53.976   22.373  390.728
  530.000    0.390    0.330   54.580   22.816  391.732
  530.250    0.389    0.333   55.182   23.257  391.725
  530.500    0.402    0.343   53.956   23.721  392.732
  530.750    0.410    0.339   52.732   23.732  393.738
  531.000    0.414    0.327   52.118   23.739  395.751
  531.250    0.413    0.318   52.722   23.758  396.760
  531.500    0.400    0.320   53.934   23.776  397.771
  531.750    0.388    0.328   54.538   23.783  398.777
  532.000    0.394    0.331   55.751   23.358  399.781
  532.250    0.413    0.320   56.355   22.941  399.774
  532.500    0.418    0.312   56.349   22.530  399.764
  532.750    0.401    0.297   56.345   21.722  394.675
  533.000    0.388    0.283   55.120   21.732  368.250
  533.250    0.388    0.270   55.112   21.745  339.792
  533.500    0.409    0.275   55.106   21.759  299.143
  533.750    0.435    0.305   55.103   21.773  321.485
  534.000    0.406    0.316   55.097   22.203  339.763
  534.250    0.392    0.306   55.091   22.210  354.994
  534.500    0.398    0.305   55.083   21.817  306.217
  534.750    0.418    0.296   55.080   21.423  272.677
  535.000    0.422    0.246   55.074   19.898  269.619
  535.250    0.405    0.238   55.068   19.178  267.578
  535.500    0.399    0.254   55.061   17.483  267.571
  535.750    0.409    0.271   55.055   15.643  267.556
  536.000    0.428    0.283   55.050   15.075  266.535
  536.250    0.428    0.288   55.044   14.263  266.526
  536.500    0.420    0.293   53.819   14.274  266.511
  536.750    0.405    0.287   50.156   14.280  267.523
  537.000    0.382    0.281   45.883   15.117  269.540
  537.250    0.375    0.277   44.658   15.697  270.551
  537.500    0.378    0.282   45.870   16.929  272.569
  537.750    0.380    0.287   46.474   17.912  273.575
  538.000    0.376    0.293   45.249   18.952  274.582
  538.250    0.361    0.303   42.806   20.822  275.591
  538.500    0.350    0.310   42.189   22.872  278.627
  538.750    0.349    0.302   44.620   24.660  280.649
  539.000    0.363    0.298   45.837   22.477  281.655
  539.250    0.389    0.298   48.269   19.014  283.675
  539.500    0.403    0.292   48.873   16.084  284.684
  539.750    0.386    0.286   47.037   14.658  284.675
  540.000    0.375    0.286   45.812   14.674  285.679
  540.250    0.370    0.286   44.589   15.237  285.671
  540.500    0.372    0.286   44.581   16.129  286.678
  540.750    0.379    0.286   45.185   16.441  287.687
  541.000    0.388    0.285   45.791   16.149  288.691
  541.250    0.407    0.280   47.614   15.856  288.679
  541.500    0.393    0.270   48.827   14.454  289.690
  541.750    0.381    0.264   51.869   13.421  289.680
  542.000    0.377    0.256   56.129   12.463  290.684
  542.250    0.377    0.245   60.391   11.792  290.675
