~VERSION INFORMATION
 VERS.                 2.0:   CWLS LOG ASCII STANDARD -VERSION 2.0
 WRAP.                  NO:   ONE LINE PER DEPTH STEP
~WELL INFORMATION BLOCK
#MNEM.UNIT           DATA                    DESCRIPTION OF MNEMONIC
#---------    -------------------            -------------------------------
# Generated from Intellog Unique Number	CS_69_70/WELL/844
WELL.         ICG RESOURCES LTD.             : Well_name    - WELL
LOC .         00/07-31-069-12W4/0            : Location     - LOCATION
UWI .         00/07-31-069-12W4/0            : Uwi          - UNIQUE WELL ID
ENTR.         SP                             : Entered      - ENTERED BY
SRVC.         SCHLUMBERGER                   : Scn          - SERVICE COMPANY
STRT.M        270                            : top_depth    - START DEPTH
STOP.M        482                            : bot_depth    - STOP DEPTH
STEP.M        0.25                           : increment    - STEP LENGTH
 NULL. -999.2500:NULL Value
~CURVE INFORMATION BLOCK
#MNEM UNIT       ERCB CURVE CODE    CURVE DESCRIPTION
#-----------   ------------------   ----------------------------------
DEPT.M        00 001 00 00         : DEPTH        - DEPTH
ILD .OHMM     00 120 00 00         : RESD         - DEEP RESISTIVITY (DIL)
DPHI.V/V      00 890 00 00         : PHID         - DENSITY POROSITY (LIMESTONE)
NPHI.V/V      00 330 00 00         : PHIN         - NEUTRON POROSITY (LIMESTONE)
GR  .API      00 310 00 00         : GR           - GAMMA RAY
~PARAMETER INFORMATION
#MNEM.UNIT           DATA             DESCRIPTION OF MNEMONIC
#---------         -----------     ------------------------------
GL  .M        582                  : gl           - GROUND LEVEL ELEVATION
EREF.M        585.8                : kb           - ELEVATION OF DEPTH REFERENCE
DATM.M        582                  : datum        - DATUM ELEVATION
TDD .M        488                  : tdd          - TOTAL DEPTH DRILLER
RUN .         ONE                  : Run          - RUN NUMBER
ENG .         BILL                 : Engineer     - RECORDING ENGINEER
WIT .         JIM                  : Witness      - WITNESSED BY
MUD .         GEL                  : Mud_type     - MUD TYPE
MATR.         LIMESTONE            : Logunit      - NEUTRON MATRIX
TMAX.C        23                   : BHT          - MAXIMUM RECORDED TEMPERATURE
BHTD.M        488                  : BHTDEP       - MAXIMUM RECORDED TEMPERATURE
MATR.         1                    : LOGUNIT      - NEUTRON MATRIX
RMT .C        25                   : MDTP         - TEMPERATURE OF MUD
NEUT.         1                    : NEUTRON      - NEUTRON TYPE
RESI.         0                    : RESIST       - RESISTIVITY TYPE
RMC .OHMM     0.25                 : RMC          - RESISTIVITY OF MUD CAKE
RMF .OHMM     0.25                 : RMF          - RESISTIVITY OF MUD FILTRATE
SUFT.C        15                   : SUFT         - SURFACE TEMPERATURE
~A  DEPTH     RESD     PHID     PHIN       GR
  270.000    3.109    0.220    0.486  111.749
  270.250    2.861    0.235    0.494  109.140
  270.500    2.663    0.230    0.503  106.532
  270.750    2.598    0.243    0.484  104.535
  271.000    2.545    0.266    0.478  104.799
  271.250    2.516    0.249    0.488  107.695
  271.500    2.521    0.234    0.497  110.222
  271.750    2.588    0.226    0.497  110.974
  272.000    2.678    0.225    0.510  111.055
  272.250    2.754    0.227    0.520  110.892
  272.500    2.823    0.227    0.528  111.461
  272.750    2.871    0.220    0.510  112.643
  273.000    2.909    0.205    0.480  114.192
  273.250    2.948    0.197    0.479  116.166
  273.500    2.987    0.188    0.486  118.144
  273.750    3.032    0.181    0.471  115.963
  274.000    3.107    0.204    0.447  113.721
  274.250    3.172    0.226    0.444  113.436
  274.500    3.154    0.214    0.451  112.785
  274.750    3.107    0.204    0.454  111.887
  275.000    3.072    0.222    0.461  112.211
  275.250    3.037    0.238    0.471  114.616
  275.500    2.980    0.231    0.486  115.004
  275.750    2.925    0.219    0.498  111.296
  276.000    2.902    0.214    0.508  109.846
  276.250    2.891    0.211    0.495  115.308
  276.500    2.930    0.202    0.483  118.691
  276.750    3.002    0.190    0.486  117.671
  277.000    3.031    0.199    0.461  115.919
  277.250    3.025    0.215    0.456  115.693
  277.500    3.008    0.223    0.473  115.897
  277.750    3.008    0.228    0.490  114.572
  278.000    3.002    0.219    0.503  112.454
  278.250    2.990    0.206    0.467  112.901
  278.500    2.979    0.218    0.467  111.150
  278.750    2.940    0.229    0.459  107.622
  279.000    2.863    0.234    0.455  109.906
  279.250    2.705    0.243    0.466  113.471
  279.500    2.675    0.226    0.469  116.057
  279.750    2.605    0.214    0.472  118.645
  280.000    2.518    0.211    0.483  112.368
  280.250    2.513    0.242    0.485  102.607
  280.500    2.561    0.272    0.466   89.118
  280.750    2.664    0.268    0.450   78.195
  281.000    2.777    0.255    0.445   62.873
  281.250    2.674    0.254    0.355   52.866
  281.500    2.570    0.287    0.326   46.099
  281.750    2.470    0.298    0.339   39.945
  282.000    2.370    0.303    0.355   44.428
  282.250    2.361    0.306    0.368   50.931
  282.500    2.383    0.315    0.359   59.263
  282.750    2.447    0.308    0.351   67.413
  283.000    2.575    0.303    0.357   73.732
  283.250    2.766    0.283    0.361   78.152
  283.500    2.933    0.258    0.356   86.426
  283.750    3.145    0.223    0.360   95.068
  284.000    3.347    0.201    0.374  100.586
  284.250    3.671    0.215    0.387  108.922
  284.500    3.951    0.236    0.396  113.097
  284.750    4.149    0.246    0.413  111.224
  285.000    4.268    0.230    0.425  111.671
  285.250    4.350    0.223    0.400  117.011
  285.500    4.382    0.215    0.391  118.251
  285.750    4.382    0.208    0.405  116.315
  286.000    4.268    0.199    0.413  120.981
  286.250    4.141    0.189    0.410  124.241
  286.500    4.010    0.232    0.412  118.027
  286.750    3.656    0.283    0.434  103.313
  287.000    3.301    0.322    0.456   82.364
  287.250    2.993    0.344    0.439   63.373
  287.500    2.807    0.338    0.390   53.673
  287.750    2.652    0.332    0.369   49.903
  288.000    2.563    0.327    0.373   59.767
  288.250    2.482    0.325    0.379   64.494
  288.500    2.468    0.316    0.383   66.471
  288.750    2.617    0.296    0.386   71.135
  289.000    2.780    0.275    0.372   76.415
  289.250    2.936    0.242    0.364   80.100
  289.500    3.014    0.275    0.376   76.268
  289.750    3.043    0.294    0.398   71.032
  290.000    3.083    0.297    0.409   76.676
  290.250    3.190    0.282    0.398   83.544
  290.500    3.294    0.271    0.393   89.187
  290.750    3.446    0.261    0.384   90.002
  291.000    3.660    0.261    0.376   93.201
  291.250    3.874    0.246    0.369  102.882
  291.500    4.084    0.230    0.367  108.953
  291.750    4.265    0.216    0.370  113.740
  292.000    4.420    0.202    0.379  111.561
  292.250    4.547    0.194    0.379  110.603
  292.500    4.616    0.189    0.403  114.905
  292.750    4.169    0.177    0.462  118.163
  293.000    3.305    0.164    0.497  122.337
  293.250    2.706    0.188    0.514  129.144
  293.500    2.439    0.200    0.532  127.146
  293.750    2.270    0.205    0.551  118.671
  294.000    2.141    0.226    0.566  123.218
  294.250    2.117    0.249    0.546  125.310
  294.500    2.309    0.267    0.493  112.065
  294.750    2.580    0.273    0.446   91.607
  295.000    2.884    0.279    0.425   79.584
  295.250    3.110    0.285    0.412   75.631
  295.500    3.367    0.293    0.407   78.097
  295.750    3.563    0.301    0.403   79.891
  296.000    3.799    0.301    0.398   76.424
  296.250    3.930    0.291    0.396   72.165
  296.500    3.990    0.289    0.390   69.434
  296.750    4.088    0.289    0.381   68.721
  297.000    4.166    0.292    0.389   69.780
  297.250    4.190    0.295    0.407   73.778
  297.500    4.174    0.297    0.426   76.301
  297.750    4.166    0.298    0.443   77.910
  298.000    4.158    0.291    0.414   74.140
  298.250    4.119    0.285    0.399   69.514
  298.500    4.111    0.281    0.410   66.415
  298.750    4.087    0.286    0.417   65.091
  299.000    4.049    0.295    0.424   65.417
  299.250    3.996    0.283    0.420   76.990
  299.500    3.943    0.260    0.416   99.080
  299.750    3.876    0.241    0.418  104.479
  300.000    3.862    0.216    0.422  109.144
  300.250    3.862    0.216    0.425  114.609
  300.500    3.898    0.216    0.440  120.740
  300.750    3.928    0.202    0.455  127.117
  301.000    3.950    0.189    0.463  127.870
  301.250    3.942    0.184    0.450  125.872
  301.500    3.920    0.179    0.456  122.411
  301.750    3.912    0.171    0.467  118.883
  302.000    3.912    0.151    0.470  126.180
  302.250    3.927    0.189    0.469  132.495
  302.500    4.024    0.204    0.468  138.567
  302.750    4.179    0.204    0.447  135.837
  303.000    4.389    0.213    0.428  127.055
  303.250    4.464    0.234    0.409  121.025
  303.500    4.489    0.263    0.386  116.884
  303.750    4.480    0.285    0.377  109.690
  304.000    3.986    0.304    0.398  101.396
  304.250    3.633    0.319    0.410   94.875
  304.500    3.350    0.316    0.422  102.905
  304.750    3.196    0.301    0.405  107.633
  305.000    3.306    0.293    0.393  105.634
  305.250    3.420    0.294    0.394  100.091
  305.500    3.531    0.279    0.406   98.277
  305.750    3.681    0.268    0.415  103.129
  306.000    3.917    0.256    0.421  107.976
  306.250    4.022    0.254    0.406  111.602
  306.500    4.083    0.253    0.409  107.894
  306.750    4.098    0.258    0.414  103.880
  307.000    4.098    0.276    0.404  101.639
  307.250    4.129    0.277    0.398  104.047
  307.500    4.168    0.260    0.392  106.327
  307.750    4.192    0.246    0.387  107.934
  308.000    4.215    0.239    0.385  109.787
  308.250    4.231    0.237    0.382  111.948
  308.500    4.215    0.243    0.373  114.962
  308.750    4.191    0.237    0.363  116.940
  309.000    4.191    0.228    0.374  116.532
  309.250    4.159    0.224    0.391  115.329
  309.500    4.051    0.241    0.405  107.768
  309.750    3.651    0.282    0.417   96.785
  310.000    3.392    0.324    0.430   88.249
  310.250    3.266    0.348    0.441   82.030
  310.500    3.199    0.341    0.426   75.081
  310.750    3.157    0.340    0.427   74.673
  311.000    3.110    0.350    0.434   78.058
  311.250    3.080    0.359    0.426   79.604
  311.500    3.098    0.342    0.413   80.787
  311.750    3.175    0.299    0.389   81.174
  312.000    3.340    0.222    0.354   80.887
  312.250    3.562    0.237    0.313   83.054
  312.500    3.671    0.273    0.327   85.213
  312.750    3.705    0.308    0.349   87.061
  313.000    3.698    0.332    0.370   91.666
  313.250    3.643    0.332    0.396   96.454
