~VERSION INFORMATION
 VERS.                 2.0:   CWLS LOG ASCII STANDARD -VERSION 2.0
 WRAP.                  NO:   ONE LINE PER DEPTH STEP
~WELL INFORMATION BLOCK
#MNEM.UNIT           DATA                    DESCRIPTION OF MNEMONIC
#---------    -------------------            -------------------------------
# Generated from Intellog Unique Number	CS_69_70/WELL/772
WELL.         ALGAS MINERAL ENTERPRISES      : Well_name    - WELL
LOC .         00/06-20-069-16W4/0            : Location     - LOCATION
UWI .         00/06-20-069-16W4/0            : Uwi          - UNIQUE WELL ID
ENTR.         SP                             : Entered      - ENTERED BY
SRVC.         SCHLUMBERGER                   : Scn          - SERVICE COMPANY
STRT.M        283.464                        : top_depth    - START DEPTH
STOP.M        481.214                        : bot_depth    - STOP DEPTH
STEP.M        0.25                           : increment    - STEP LENGTH
 NULL. -999.2500:NULL Value
~CURVE INFORMATION BLOCK
#MNEM UNIT       ERCB CURVE CODE    CURVE DESCRIPTION
#-----------   ------------------   ----------------------------------
DEPT.M        00 001 00 00         : DEPTH        - DEPTH
GR  .API      00 310 00 00         : GR           - GAMMA RAY
DPHI.V/V      00 890 00 00         : PHID         - DENSITY POROSITY (SANDSTONE)
NPHI.V/V      00 330 00 00         : PHIN         - NEUTRON POROSITY (SANDSTONE)
ILD .OHMM     00 120 00 00         : RESD         - DEEP RESISTIVITY (DIL)
~PARAMETER INFORMATION
#MNEM.UNIT           DATA             DESCRIPTION OF MNEMONIC
#---------         -----------     ------------------------------
GL  .M        561.899              : gl           - GROUND LEVEL ELEVATION
EREF.M        565.252              : kb           - ELEVATION OF DEPTH REFERENCE
DATM.M        561.899              : datum        - DATUM ELEVATION
TDD .M        493.166              : tdd          - TOTAL DEPTH DRILLER
RUN .         ONE                  : Run          - RUN NUMBER
ENG .         BILL                 : Engineer     - RECORDING ENGINEER
WIT .         JIM                  : Witness      - WITNESSED BY
MUD .         GEL                  : Mud_type     - MUD TYPE
MATR.         SANDSTONE            : Logunit      - NEUTRON MATRIX
TMAX.C        25.5556              : BHT          - MAXIMUM RECORDED TEMPERATURE
BHTD.M        493.166              : BHTDEP       - MAXIMUM RECORDED TEMPERATURE
MATR.         1                    : LOGUNIT      - NEUTRON MATRIX
RMT .C        25                   : MDTP         - TEMPERATURE OF MUD
NEUT.         1                    : NEUTRON      - NEUTRON TYPE
RESI.         0                    : RESIST       - RESISTIVITY TYPE
RMC .OHMM     0.25                 : RMC          - RESISTIVITY OF MUD CAKE
RMF .OHMM     0.25                 : RMF          - RESISTIVITY OF MUD FILTRATE
SUFT.C        15                   : SUFT         - SURFACE TEMPERATURE
~A  DEPTH       GR     PHID     PHIN     RESD
# ...
  326.964   96.291    0.269    0.424    2.895
  327.214   96.335    0.269    0.419    2.902
  327.464   96.773    0.263    0.419    2.917
  327.714   97.596    0.254    0.431    2.951
  327.964   98.164    0.244    0.440    3.005
  328.214   98.566    0.237    0.424    3.038
  328.464   97.826    0.247    0.417    3.078
  328.714   96.204    0.258    0.415    3.116
  328.964   93.623    0.265    0.423    3.139
  329.214   91.953    0.267    0.431    3.147
  329.464   91.752    0.266    0.430    3.134
  329.714   92.159    0.264    0.420    3.060
  329.964   92.843    0.264    0.420    2.955
  330.214   93.752    0.267    0.422    2.858
  330.464   95.021    0.263    0.422    2.658
  330.714   96.716    0.253    0.425    2.577
  330.964   98.010    0.245    0.434    2.523
  331.214   99.509    0.237    0.440    2.528
  331.464  100.832    0.229    0.447    2.577
  331.714  101.593    0.220    0.442    2.646
  331.964  102.121    0.214    0.442    2.697
  332.214  102.767    0.206    0.442    2.728
  332.464  103.535    0.204    0.435    2.759
  332.714  105.014    0.204    0.430    2.771
  332.964  106.179    0.195    0.422    2.792
  333.214  107.494    0.198    0.424    2.832
  333.464  108.637    0.201    0.428    2.914
  333.714  109.753    0.209    0.425    2.989
  333.964  110.971    0.224    0.423    3.086
  334.214  112.640    0.241    0.440    3.184
  334.464  114.184    0.221    0.442    3.235
  334.714  115.202    0.209    0.438    3.253
  334.964  114.532    0.217    0.439    3.256
  335.214  112.322    0.218    0.439    3.250
  335.464  109.545    0.213    0.429    3.219
  335.714  107.325    0.210    0.421    3.112
  335.964  105.089    0.206    0.422    2.962
  336.214  103.799    0.201    0.434    2.835
  336.464  108.444    0.201    0.468    2.709
  336.714  112.340    0.215    0.486    2.624
  336.964  115.283    0.217    0.498    2.547
  337.214  116.719    0.225    0.505    2.558
  337.464  117.444    0.225    0.513    2.685
  337.714  117.070    0.223    0.519    2.856
  337.964  117.649    0.205    0.483    3.140
  338.214  118.788    0.192    0.458    3.451
  338.464  119.557    0.186    0.463    3.814
  338.714  120.347    0.183    0.442    4.124
  338.964  121.045    0.181    0.425    4.395
  339.214  121.637    0.184    0.420    4.481
  339.464  121.773    0.190    0.426    4.336
  339.714  120.416    0.195    0.414    4.201
  339.964  118.822    0.201    0.401    4.123
  340.214  117.219    0.206    0.389    4.017
  340.464  116.188    0.209    0.396    3.915
  340.714  114.789    0.214    0.406    3.817
  340.964  112.618    0.219    0.409    3.681
  341.214  109.850    0.228    0.412    3.503
  341.464  107.445    0.225    0.416    3.353
  341.714  104.562    0.218    0.396    3.184
  341.964  103.561    0.211    0.385    3.082
  342.214  105.032    0.210    0.389    3.018
  342.464  106.691    0.217    0.392    2.991
  342.714  105.929    0.211    0.392    2.988
  342.964  102.288    0.203    0.387    3.029
  343.214   99.670    0.198    0.383    3.096
  343.464   98.363    0.190    0.395    3.215
  343.714  100.616    0.185    0.402    3.447
  343.964  105.205    0.192    0.408    3.711
  344.214  109.129    0.198    0.417    3.906
  344.464  111.178    0.203    0.434    4.006
  344.714  113.063    0.217    0.421    3.996
  344.964  113.768    0.234    0.420    3.873
  345.214  112.457    0.252    0.415    3.624
  345.464  110.836    0.267    0.401    3.273
  345.714  106.678    0.282    0.392    2.876
  345.964   94.173    0.296    0.389    2.416
  346.214   85.306    0.303    0.389    2.046
  346.464   78.730    0.306    0.384    1.771
  346.714   73.576    0.307    0.383    1.639
  346.964   69.216    0.305    0.387    1.572
  347.214   68.410    0.302    0.390    1.510
  347.464   70.439    0.301    0.393    1.466
  347.714   72.666    0.291    0.373    1.445
  347.964   74.658    0.282    0.365    1.456
  348.214   76.647    0.270    0.356    1.510
  348.464   81.555    0.255    0.352    1.593
  348.714   86.162    0.242    0.362    1.740
  348.964   90.280    0.231    0.371    1.968
  349.214   95.150    0.218    0.366    2.178
  349.464  100.310    0.204    0.365    2.425
  349.714  105.762    0.193    0.367    2.669
  349.964  108.970    0.184    0.369    2.995
  350.214  110.889    0.179    0.375    3.473
  350.464  111.785    0.178    0.372    3.653
  350.714  111.233    0.178    0.379    3.761
  350.964  110.571    0.184    0.387    3.822
  351.214  109.660    0.190    0.392    3.839
  351.464  108.929    0.195    0.393    3.791
  351.714  108.627    0.198    0.396    3.715
  351.964  108.882    0.200    0.401    3.675
  352.214  109.486    0.199    0.405    3.603
  352.464  110.699    0.197    0.414    3.529
  352.714  112.095    0.198    0.413    3.449
  352.964  112.954    0.200    0.403    3.422
  353.214  113.362    0.204    0.399    3.386
  353.464  112.500    0.211    0.396    3.373
  353.714  111.109    0.226    0.404    3.304
  353.964  107.915    0.247    0.408    3.159
  354.214  104.639    0.255    0.404    2.964
  354.464  101.431    0.263    0.409    2.748
  354.714   96.693    0.267    0.409    2.562
  354.964   92.542    0.268    0.397    2.323
  355.214   89.526    0.267    0.404    2.134
  355.464   88.075    0.267    0.416    1.938
  355.714   85.959    0.267    0.405    1.855
  355.964   84.852    0.267    0.415    1.821
  356.214   84.669    0.266    0.424    1.823
  356.464   85.825    0.264    0.429    1.828
  356.714   87.618    0.261    0.436    1.835
  356.964   89.413    0.260    0.438    1.848
  357.214   90.162    0.260    0.435    1.871
  357.464   90.473    0.260    0.426    1.896
  357.714   90.588    0.256    0.409    1.917
  357.964   91.341    0.254    0.415    1.967
  358.214   92.239    0.253    0.411    2.048
  358.464   93.603    0.252    0.389    2.142
  358.714   94.512    0.251    0.376    2.209
  358.964   93.877    0.249    0.378    2.290
  359.214   92.799    0.246    0.386    2.338
  359.464   90.848    0.243    0.388    2.369
  359.714   89.847    0.240    0.396    2.403
  359.964   89.251    0.237    0.405    2.424
  360.214   89.139    0.236    0.400    2.439
  360.464   89.197    0.239    0.393    2.440
  360.714   89.497    0.242    0.393    2.422
  360.964   90.023    0.244    0.412    2.422
  361.214   90.306    0.240    0.412    2.298
  361.464   90.519    0.237    0.409    2.334
  361.714   91.223    0.234    0.419    2.370
  361.964   92.902    0.230    0.438    2.382
  362.214   94.960    0.227    0.428    2.388
  362.464   97.684    0.228    0.449    2.378
  362.714  100.909    0.236    0.462    2.365
  362.964  103.027    0.233    0.477    2.347
  363.214  105.157    0.223    0.488    2.327
  363.464  106.708    0.212    0.486    2.305
  363.714  107.878    0.209    0.478    2.329
  363.964  108.156    0.204    0.464    2.404
  364.214  105.062    0.199    0.450    2.503
  364.464  103.837    0.197    0.431    2.656
  364.714  105.030    0.199    0.417    2.827
  364.964  107.728    0.199    0.432    3.021
  365.214  109.200    0.199    0.420    3.119
  365.464  108.440    0.200    0.415    3.050
  365.714  104.347    0.215    0.417    3.042
  365.964  102.599    0.226    0.409    3.286
  366.214  100.679    0.238    0.401    3.514
  366.464   96.629    0.244    0.374    3.872
  366.714   92.193    0.247    0.343    4.227
  366.964   88.573    0.220    0.300    4.446
  367.214   84.438    0.191    0.276    4.316
  367.464   83.918    0.174    0.239    4.297
  367.714   88.257    0.107    0.217    4.944
  367.964   91.997    0.069    0.193    6.114
  368.214   94.980    0.039    0.171    7.782
  368.464   84.825    0.016    0.143   10.071
  368.714   76.544    0.048    0.118   14.754
  368.964   70.023    0.078    0.111   26.832
  369.214   66.836    0.106    0.145   30.122
  369.464   69.607    0.128    0.193   27.937
  369.714   72.225    0.148    0.250   16.811
  369.964   75.683    0.166    0.343    8.769
  370.214   83.645    0.213    0.393    5.581
