~VERSION INFORMATION
 VERS.                 2.0:   CWLS LOG ASCII STANDARD -VERSION 2.0
 WRAP.                  NO:   ONE LINE PER DEPTH STEP
~WELL INFORMATION BLOCK
#MNEM.UNIT           DATA                    DESCRIPTION OF MNEMONIC
#---------    -------------------            -------------------------------
# Generated from Intellog Unique Number	CS_77_79/WELL/909
WELL.         CDN-SUP CHRISTINA              : Well_name    - WELL
LOC .         00/07-26-079-10W4/0            : Location     - LOCATION
UWI .         00/07-26-079-10W4/0            : Uwi          - UNIQUE WELL ID
ENTR.         JHS                            : Entered      - ENTERED BY
SRVC.         SCHLUMBERGER                   : Scn          - SERVICE COMPANY
STRT.M        243.84                         : top_depth    - START DEPTH
STOP.M        478.34                         : bot_depth    - STOP DEPTH
STEP.M        0.25                           : increment    - STEP LENGTH
 NULL. -999.2500:NULL Value
~CURVE INFORMATION BLOCK
#MNEM UNIT       ERCB CURVE CODE    CURVE DESCRIPTION
#-----------   ------------------   ----------------------------------
DEPT.M        00 001 00 00         : DEPTH        - DEPTH
RHOB.KG/M3    00 350 00 00         : DENS         - BULK DENSITY
GR  .API      00 310 00 00         : GR           - GAMMA RAY
DPHI.V/V      00 890 00 00         : PHID         - DENSITY POROSITY (SANDSTONE)
NPHI.V/V      00 330 00 00         : PHIN         - NEUTRON POROSITY (SANDSTONE)
ILD .OHMM     00 120 00 00         : RESD         - DEEP RESISTIVITY (DIL)
~PARAMETER INFORMATION
#MNEM.UNIT           DATA             DESCRIPTION OF MNEMONIC
#---------         -----------     ------------------------------
GL  .M        679.094              : gl           - GROUND LEVEL ELEVATION
EREF.M        683.666              : kb           - ELEVATION OF DEPTH REFERENCE
DATM.M        683.666              : datum        - DATUM ELEVATION
TDD .M        487.68               : tdd          - TOTAL DEPTH DRILLER
RUN .         ONE                  : Run          - RUN NUMBER
ENG .         BILL                 : Engineer     - RECORDING ENGINEER
WIT .         JIM                  : Witness      - WITNESSED BY
MUD .         GEL                  : Mud_type     - MUD TYPE
MATR.         SANDSTONE            : Logunit      - NEUTRON MATRIX
TMAX.C        60                   : BHT          - MAXIMUM RECORDED TEMPERATURE
BHTD.M        487.68               : BHTDEP       - MAXIMUM RECORDED TEMPERATURE
MATR.         1                    : LOGUNIT      - NEUTRON MATRIX
RMT .C        25                   : MDTP         - TEMPERATURE OF MUD
NEUT.         1                    : NEUTRON      - NEUTRON TYPE
RESI.         0                    : RESIST       - RESISTIVITY TYPE
RMC .OHMM     0.25                 : RMC          - RESISTIVITY OF MUD CAKE
RMF .OHMM     0.25                 : RMF          - RESISTIVITY OF MUD FILTRATE
SUFT.C        15                   : SUFT         - SURFACE TEMPERATURE
~A  DEPTH     DENS       GR     PHID     PHIN     RESD
  243.840    0.000  120.118    0.267    0.553    3.124
  244.090    0.000  117.576    0.266    0.550    3.087
  244.340    0.000  120.594    0.255    0.530    3.075
  244.590    0.000  116.198    0.266    0.512    3.068
  244.840    0.000  114.772    0.272    0.515    3.197
  245.090    0.000  118.790    0.278    0.535    3.266
  245.340    0.000  121.217    0.276    0.526    3.371
  245.590    0.000  117.084    0.252    0.535    3.378
  245.840    0.000  109.654    0.249    0.536    3.383
  246.090    0.000  105.513    0.264    0.519    3.336
  246.340    0.000  108.689    0.273    0.515    3.332
  246.590    0.000  111.130    0.277    0.534    3.266
  246.840    0.000  110.278    0.285    0.546    3.235
  247.090    0.000  109.124    0.268    0.555    3.154
  247.340    0.000  108.113    0.284    0.578    3.099
  247.590    0.000  106.905    0.271    0.588    3.071
  247.840    0.000  110.090    0.268    0.575    2.975
  248.090    0.000  113.806    0.287    0.548    2.941
  248.340    0.000  117.815    0.297    0.534    2.887
  248.590    0.000  114.845    0.299    0.558    2.831
  248.840    0.000  112.635    0.289    0.552    2.884
  249.090    0.000  107.236    0.291    0.556    2.891
  249.340    0.000  106.976    0.283    0.561    2.893
  249.590    0.000  108.268    0.274    0.573    2.806
  249.840    0.000  105.839    0.274    0.566    2.722
  250.090    0.000  106.258    0.279    0.554    2.697
  250.340    0.000  107.867    0.293    0.579    2.651
  250.590    0.000  108.765    0.297    0.573    2.598
  250.840    0.000  110.358    0.284    0.568    2.605
  251.090    0.000  112.057    0.279    0.567    2.631
  251.340    0.000  112.560    0.266    0.553    2.717
  251.590    0.000  108.420    0.286    0.545    2.802
  251.840    0.000  105.419    0.259    0.533    2.889
  252.090    0.000  100.893    0.240    0.529    2.976
  252.340    0.000   95.020    0.231    0.530    2.973
  252.590    0.000   93.832    0.202    0.497    2.956
  252.840    0.000  100.928    0.156    0.501    2.926
  253.090    0.000  102.230    0.234    0.534    2.929
  253.340    0.000  102.911    0.258    0.548    2.944
  253.590    0.000  102.616    0.253    0.547    3.039
  253.840    0.000  101.574    0.238    0.513    3.193
  254.090    0.000  102.514    0.216    0.487    3.375
  254.340    0.000  105.981    0.186    0.487    3.525
  254.590    0.000  108.273    0.221    0.527    3.641
  254.840    0.000  105.959    0.251    0.517    3.668
  255.090    0.000  105.040    0.246    0.493    3.668
  255.340    0.000  104.938    0.251    0.481    3.619
  255.590    0.000  105.652    0.238    0.491    3.474
  255.840    0.000  107.253    0.226    0.496    3.375
  256.090    0.000  107.311    0.246    0.513    3.315
  256.340    0.000  107.319    0.233    0.530    3.361
  256.590    0.000  106.004    0.236    0.532    3.452
  256.840    0.000  104.389    0.236    0.511    3.700
  257.090    0.000  105.429    0.234    0.495    3.825
  257.340    0.000  108.827    0.232    0.480    3.870
  257.590    0.000  113.865    0.222    0.487    3.894
  257.840    0.000  116.108    0.232    0.537    3.778
  258.090    0.000  116.680    0.238    0.558    3.670
  258.340    0.000  114.871    0.224    0.572    3.563
  258.590    0.000  113.274    0.228    0.571    3.449
  258.840    0.000  113.995    0.227    0.542    3.518
  259.090    0.000  112.541    0.228    0.519    3.588
  259.340    0.000  109.600    0.216    0.508    3.761
  259.590    0.000  106.832    0.207    0.496    3.960
  259.840    0.000  104.294    0.211    0.487    4.080
  260.090    0.000  102.025    0.225    0.478    4.009
  260.340    0.000  101.116    0.216    0.471    3.929
  260.590    0.000   99.654    0.212    0.485    4.005
  260.840    0.000   97.235    0.214    0.478    4.323
  261.090    0.000   74.807    0.203    0.494    5.011
  261.340    0.000   69.055    0.187    0.469    6.126
  261.590    0.000   67.291    0.175    0.419    7.529
  261.840    0.000   72.828    0.198    0.438    9.700
  262.090    0.000   75.085    0.337    0.428   12.252
  262.340    0.000   73.543    0.327    0.424   13.918
  262.590    0.000   74.876    0.308    0.415   14.341
  262.840    0.000   73.219    0.297    0.420   14.233
  263.090    0.000   79.416    0.281    0.426   12.512
  263.340    0.000   86.591    0.248    0.440    8.990
  263.590    0.000   91.150    0.223    0.443    7.407
  263.840    0.000   94.486    0.219    0.439    6.450
  264.090    0.000   97.932    0.244    0.431    5.980
  264.340    0.000   99.749    0.244    0.436    5.995
  264.590    0.000   99.896    0.255    0.445    6.635
  264.840    0.000   94.391    0.269    0.432    7.833
  265.090    0.000   87.823    0.282    0.441    9.366
  265.340    0.000   81.221    0.301    0.450   10.665
  265.590    0.000   76.993    0.323    0.451   12.892
  265.840    0.000   76.940    0.350    0.457   14.435
  266.090    0.000   85.549    0.360    0.475   15.311
  266.340    0.000  103.488    0.384    0.513   15.219
  266.590    0.000  128.454    0.436    0.549   13.151
  266.840    0.000  149.642    0.519    0.582   10.691
  267.090    0.000  130.340    0.563    0.613    9.603
  267.340    0.000   78.944    0.540    0.622    9.707
  267.590    0.000   59.988    0.541    0.627   10.292
  267.840    0.000   49.687    0.375    0.610   11.838
  268.090    0.000   44.125    0.305    0.496   13.926
  268.340    0.000   42.410    0.288    0.368   16.222
  268.590    0.000   46.175    0.276    0.368   17.486
  268.840    0.000   50.931    0.284    0.396   17.882
  269.090    0.000   49.452    0.290    0.412   17.662
  269.340    0.000   44.614    0.285    0.394   17.570
  269.590    0.000   39.073    0.275    0.379   17.902
  269.840    0.000   34.554    0.242    0.348   18.463
  270.090    0.000   35.686    0.249    0.337   19.038
  270.340    0.000   37.139    0.245    0.347   19.662
  270.590    0.000   36.727    0.222    0.351   19.711
  270.840    0.000   37.826    0.242    0.349   19.256
  271.090    0.000   41.183    0.268    0.375   18.139
  271.340    0.000   49.768    0.286    0.357   16.511
  271.590    0.000   63.301    0.278    0.372   14.620
  271.840    0.000   73.086    0.283    0.433   12.118
  272.090    0.000   82.416    0.262    0.451   10.852
  272.340    0.000   87.887    0.205    0.429    9.851
  272.590    0.000   84.420    0.202    0.417    9.865
  272.840    0.000   85.741    0.227    0.409    9.891
  273.090    0.000   86.642    0.248    0.407   10.409
  273.340    0.000   86.399    0.236    0.413   10.723
  273.590    0.000   84.509    0.221    0.425   11.339
  273.840    0.000   79.778    0.256    0.441   11.997
  274.090    0.000   79.258    0.294    0.438   13.174
  274.340    0.000   79.720    0.320    0.440   14.102
  274.590    0.000   86.101    0.333    0.452   14.945
  274.840    0.000   92.901    0.338    0.447   16.183
  275.090    0.000   98.748    0.339    0.435   17.230
  275.340    0.000  102.740    0.335    0.443   17.270
  275.590    0.000   99.066    0.327    0.457   16.836
  275.840    0.000   92.699    0.306    0.440   16.351
  276.090    0.000   89.479    0.300    0.429   15.669
  276.340    0.000   92.620    0.298    0.432   15.453
  276.590    0.000   96.991    0.311    0.418   14.969
  276.840    0.000  100.998    0.307    0.407   14.535
  277.090    0.000  104.275    0.290    0.426   14.111
  277.340    0.000  107.377    0.292    0.436   13.879
  277.590    0.000  106.019    0.295    0.425   14.164
  277.840    0.000   99.200    0.285    0.397   14.769
  278.090    0.000   85.242    0.267    0.389   14.977
  278.340    0.000   73.164    0.253    0.379   15.227
  278.590    0.000   74.112    0.235    0.368   15.026
  278.840    0.000   87.699    0.249    0.363   14.587
  279.090    0.000   93.915    0.243    0.370   14.182
  279.340    0.000   93.306    0.252    0.400   13.517
  279.590    0.000   90.085    0.251    0.422   13.102
  279.840    0.000   86.709    0.272    0.435   13.029
  280.090    0.000   83.747    0.277    0.425   13.020
